timestamp,x,y,z,roll,pitch,yaw,vx,vy,vz,p,q,r,psp,qsp,rsp,pres,qres,rres,thrust_sp, thrust_res
0.000000000000000000e+00,3.721051824799374592e-03,-4.947520374282595584e-02,1.010305643081665039e+00,9.012052586806621954e-03,-4.250036622944541875e-03,-1.695707456570880178e-02,-2.347225641216424061e-02,3.456073992030644221e-02,-9.079060517251491547e-03,-1.765481029072248423e-02,6.753484934540336659e-02,3.382188726498105980e-02,5.287993060193665190e-02,5.034394051744164184e-02,6.822889690103764448e-02,1.147361397743225098e-01,9.482738971710204245e-02,1.156267762184143011e-01,5.238394138736863770e-01,6.441174745559692383e-01,-5.191552639007568359e-02,9.840027457975843106e+01,2.022233724594116322e-01
2.557699999999999904e-02,1.887352610240950130e-03,-4.753976920104076298e-02,1.010050535202026367e+00,9.437851612648475927e-03,-3.533832453773477766e-03,-1.719585505102997486e-02,-2.597563489253173347e-02,3.996876210315214450e-02,-3.180372761562466621e-03,2.665635405792470339e-02,1.987982133469457392e-03,2.393674726460551239e-02,4.451823528271547925e-02,5.006693844190555215e-02,6.029364084913101107e-02,1.086983442306518471e-01,8.973373174667358121e-02,1.083647131919860812e-01,5.232102746203416421e-01,6.326358318328857422e-01,1.476205587387084961e-01,9.196427611731462548e+01,2.022233724594116322e-01
5.148900000000000005e-02,6.743082208430054318e-04,-4.625754071697924658e-02,1.009858250617980957e+00,9.511295167816558732e-03,-3.320596674653009117e-03,-1.758443781008939277e-02,-2.929862082314261748e-02,2.821444372996817496e-02,3.562254831194877625e-03,1.252977404772214094e-02,-5.641590974606822476e-03,-4.695973874949185833e-02,2.444283170952543660e-02,4.943364695312909424e-02,5.442305885147800948e-02,9.872224330902099054e-02,9.080116152763366422e-02,1.035911858081817599e-01,5.226549586513700163e-01,6.290376186370849609e-01,1.214729547500610352e-01,8.561679690651418184e+01,2.022233724594116322e-01
7.391899999999999860e-02,-4.985107873241661179e-04,-4.497311302027081487e-02,1.009627342224121094e+00,9.819376703800468745e-03,-3.016468537085703616e-03,-1.776131459733337400e-02,-2.745852983326613900e-02,3.953811088235413551e-02,2.562285866588354111e-03,3.400882683564081244e-02,2.044213551482592164e-02,-2.025589604600252017e-02,3.056586340209883901e-02,5.209044112863153719e-02,5.111235784471053478e-02,9.514321088790893277e-02,9.050758481025696078e-02,1.007632970809936440e-01,5.226059270444638472e-01,6.221699714660644531e-01,-1.321355104446411133e-01,8.920390980576732431e+01,2.022233724594116322e-01
9.975699999999999845e-02,-2.186834726794416664e-03,-4.315453251168156756e-02,1.009187459945678711e+00,1.075887134340908907e-02,-3.060581788906668876e-03,-1.923089600758952356e-02,-1.870996443672072809e-02,3.397580548859319149e-02,-1.774473465047776699e-03,9.649948015883082209e-02,-7.339509630674079244e-02,-6.824011399423618451e-02,3.393098527847086820e-02,7.279107682447738537e-02,5.091233172210908597e-02,1.095949172973632729e-01,1.057802796363830483e-01,1.046881556510925321e-01,5.231514509957889691e-01,6.332597732543945312e-01,2.853447198867797852e-01,7.861172074280325717e+01,1.945151567459106334e-01
1.254069999999999907e-01,-3.927989249349757642e-03,-4.091936949591044870e-02,1.008373856544494629e+00,1.190870708910140782e-02,-3.304712776933893537e-03,-2.109007031264439891e-02,-3.565317985942475371e-02,3.380173945526911139e-02,-1.946556754410266876e-02,1.532341167873140821e-02,2.879202605909744229e-03,-8.640311273446378559e-02,3.434848466496184805e-02,8.865367767711881952e-02,3.862564064680891474e-02,1.156758069992065430e-01,1.394210100173950140e-01,9.755312204360962192e-02,5.249573666065340261e-01,6.574888229370117188e-01,-4.137848615646362305e-01,6.578079374539493074e+01,1.945151567459106334e-01
1.497860000000000025e-01,-5.079997278256927207e-03,-3.944482217365446325e-02,1.007637858390808105e+00,1.283300151045607337e-02,-4.218834903768176048e-03,-2.204626924947034050e-02,-2.324369534411322574e-02,4.211439623386824260e-02,-2.572644501924514771e-02,4.665070865462093985e-02,-6.234987108527823702e-02,-6.492917309343494703e-02,-1.192624600328132112e-02,3.487370976090609781e-02,3.833381783058577297e-02,6.754739284515380582e-02,8.007216453552246094e-02,9.993199110031127097e-02,5.248469086111459125e-01,6.230564117431640625e-01,5.017772912979125977e-01,-5.530510380400918535e+01,1.945151567459106334e-01
1.755099999999999993e-01,-6.819110944167374247e-03,-3.727747707985323150e-02,1.006240963935852051e+00,1.397284677430464701e-02,-6.215808899197483584e-03,-2.392492048534975921e-02,-3.461399679906133203e-02,3.412323319308156050e-02,-3.356938436627388000e-02,5.322068680763353959e-02,-1.065823827767730103e-01,-8.473196143870666275e-02,-2.845667031055876262e-03,3.844540230101035905e-02,1.838463289756619989e-02,9.049952030181884766e-02,1.087149381637573242e-01,8.516737818717956543e-02,5.255221154971602138e-01,6.217836141586303711e-01,-3.139806985855102539e-01,9.833791495263621130e+01,1.945151567459106334e-01
2.009749999999999870e-01,-7.975321128476610053e-03,-3.586527483257100080e-02,1.005098462104797363e+00,1.459111571387976432e-02,-7.430888257334622438e-03,-2.493910329400759324e-02,-3.463479069861962606e-02,4.124272052278993989e-02,-5.204639956355094910e-02,6.308622278808539985e-02,-7.269597943992169020e-02,-3.591414188709848854e-02,1.100996524976546875e-02,4.609145184122745431e-02,1.629954959568331863e-02,1.005678176879882812e-01,1.235470175743103027e-01,8.587085008621216098e-02,5.272565873345388399e-01,6.364068984985351562e-01,8.132003545761108398e-01,-6.969238844154787671e+01,1.945151567459106334e-01
2.224129999999999996e-01,-9.279156027201234530e-03,-3.439513033106706558e-02,1.003758430480957031e+00,1.524435411622197638e-02,-8.691257186089318409e-03,-2.630211024807564690e-02,-3.539278292575494256e-02,2.955571200115791192e-02,-5.668109282851219177e-02,1.227250286437910586e-02,-4.083823892052036025e-02,-7.434851974129905172e-02,-2.414780855178834396e-02,1.842807777726750140e-02,7.317393804906965893e-03,7.585219144821166160e-02,1.054651737213134766e-01,8.068771362304687222e-02,5.274597065986613709e-01,6.212229728698730469e-01,-1.442428827285766602e-01,9.858271576267864589e+01,1.945151567459106334e-01
2.485719999999999874e-01,-1.123785811095298973e-02,-3.222367694781669983e-02,1.001392126083374023e+00,1.595023051018748181e-02,-9.960477266301115407e-03,-2.767446578540040669e-02,-2.338855120803689722e-02,4.475705294669187623e-02,-8.494973927736282349e-02,1.067485046279289217e-02,-7.257185023444086280e-03,-1.377845785491852489e-03,-1.768347978684672861e-02,2.449505003748463083e-02,1.750421049659169059e-02,7.481739521026610495e-02,1.116679787635803250e-01,9.466009140014648715e-02,5.299646537387623368e-01,6.329987049102783203e-01,3.579374551773071289e-01,-1.434133795499201902e+01,1.945151567459106334e-01
2.748369999999999980e-01,-1.319555696857667611e-02,-3.009258967684631803e-02,9.986353516578674316e-01,1.634375191429909835e-02,-1.136441577034896788e-02,-2.907599160768318050e-02,-4.990029130812727309e-02,3.034977019454691491e-02,-7.597832381725311279e-02,2.304692249737272727e-02,-9.760935532024558881e-02,-4.638579275753304532e-02,5.704534053802487459e-03,-1.020865440368652621e-02,-2.342770706383288243e-02,1.057045340538024930e-01,8.979134559631347934e-02,5.756462216377258162e-02,5.292498239976178853e-01,6.142432689666748047e-01,-1.893483400344848633e-01,6.572138475999416585e+01,1.945151567459106334e-01
2.996820000000000039e-01,-1.451101143030232576e-02,-2.871595542022322908e-02,9.966207146644592285e-01,1.614492636961532487e-02,-1.188875828240343324e-02,-2.973179261721895297e-02,-3.064487364058622251e-02,4.214288861180626872e-02,-1.010780185461044312e-01,-4.010869073574011706e-02,3.176165714971124904e-02,-1.921216244171025309e-02,-2.600137304991402554e-02,-4.681555032730103094e-02,-3.780509939356982430e-03,6.785155534744262418e-02,5.318444967269897461e-02,7.906077504158019742e-02,5.314690306982809975e-01,6.237483024597167969e-01,-3.084743022918701172e-02,9.274279473929101414e+01,1.945151567459106334e-01
3.269150000000000111e-01,-1.631619326508882903e-02,-2.676970600678329690e-02,9.931643009185791016e-01,1.615322990043786822e-02,-1.343673323717475832e-02,-3.073194978450170464e-02,-4.724602607101572455e-02,3.736258650682502958e-02,-1.029390692710876465e-01,4.435410335585762698e-02,-6.716305399493088801e-02,-4.515682028344899374e-03,3.959801209799543309e-02,2.192807197570798006e-03,-2.189911741157550551e-02,1.380893468856811412e-01,1.021928071975708036e-01,6.365652680397033969e-02,5.322949522505902031e-01,6.423544883728027344e-01,-1.573268175125122070e-01,1.064132885894773040e+02,1.945151567459106334e-01
3.473550000000000249e-01,-1.688791935955665999e-02,-2.613886400669789695e-02,9.919947385787963867e-01,1.599973679459655573e-02,-1.360108700789353087e-02,-3.117225196133282736e-02,-5.026995658572785963e-02,3.846283790109331774e-02,-1.125444918870925903e-01,-2.680315897309196518e-02,-4.608297277394299285e-03,-1.173766858381783927e-02,-1.575235179495636240e-02,-7.999565601348877786e-02,-2.005968577464604941e-02,7.979067564010619562e-02,2.000434398651123116e-02,6.671871542930603305e-02,5.327853290219242144e-01,6.206989288330078125e-01,-3.456271886825561523e-01,5.471577459185296988e+01,1.945151567459106334e-01
3.741260000000000141e-01,-1.862374286933727446e-02,-2.435235424180449276e-02,9.883177876472473145e-01,1.643853931181209552e-02,-1.410180936067950697e-02,-3.239489279512249020e-02,-3.822679537937972299e-02,3.461823790475283824e-02,-1.164251342415809631e-01,1.919519308239870867e-02,-3.641883228830060382e-02,-4.837567145623347664e-02,-2.394714355468750833e-02,-6.528189778327941895e-02,-2.076431212169446705e-02,7.605285644531249722e-02,3.471810221672057967e-02,6.945388913154601496e-02,5.333040547859315694e-01,6.131284236907958984e-01,2.037092447280883789e-01,3.961286371421536501e+01,1.945151567459106334e-01
4.006440000000000001e-01,-2.036299384622044031e-02,-2.263148683687742774e-02,9.844121336936950684e-01,1.640834683303393424e-02,-1.348183786705026144e-02,-3.336385559841641840e-02,-4.467633799017078217e-02,3.835355145596969217e-02,-1.229235231876373291e-01,-9.441936783320810725e-03,1.400363893621593518e-02,-5.265645783619164744e-02,-4.841181265453193411e-02,-9.651809930801391602e-02,-2.175906560178683669e-02,4.731734991073608537e-02,3.481900691986083898e-03,7.113831639289855402e-02,5.342314388467416242e-01,6.160082817077636719e-01,2.440599203109741211e-01,7.397531320211773220e+01,1.945151567459106334e-01
4.219149999999999845e-01,-2.158267533181913722e-02,-2.158064044672296580e-02,9.818403720855712891e-01,1.630889752202806242e-02,-1.277498324369630289e-02,-3.386530051623996146e-02,-4.761984391154812368e-02,2.978251843764672877e-02,-1.374234259128570557e-01,-2.896460135853669640e-02,3.196639855361112226e-02,6.564963333107188583e-03,-8.741368055343629040e-02,-1.139154791831970270e-01,-2.183096671352820206e-02,1.258631944656372036e-02,-1.391547918319702148e-02,7.251144647598266324e-02,5.357773575361040042e-01,6.260412931442260742e-01,-3.363835811614990234e-02,9.670778785437512681e+01,1.945151567459106334e-01
4.481559999999999988e-01,-2.342484472312473739e-02,-2.011461444071141816e-02,9.776918292045593262e-01,1.608731700967845277e-02,-1.170108689574944627e-02,-3.465584139141296427e-02,-4.272166237098915659e-02,3.815004780851197902e-02,-1.389173120260238647e-01,8.778419340705856735e-03,3.324541516248846057e-02,-5.914505695242536221e-02,-5.200890414785218352e-02,-1.127829790115356529e-01,-1.463799256673674332e-02,3.964304924011230469e-02,-1.278297901153564384e-02,8.192532062530517856e-02,5.365025646745474885e-01,6.357805728912353516e-01,-7.653057575225830078e-02,9.608880196084271574e+01,1.945151567459106334e-01
4.734119999999999995e-01,-2.465969157513223445e-02,-1.922643015371399908e-02,9.749085903167724609e-01,1.560563807265670511e-02,-1.057070294289141899e-02,-3.508313520088311710e-02,-4.401934761284567038e-02,3.349815708658739760e-02,-1.477536410093307495e-01,-2.912995952758843862e-02,7.911027238732325217e-02,4.676203142962276869e-03,-6.603869326714939536e-02,-1.058930277824401966e-01,-9.707909265070063798e-03,2.685109376907348494e-02,-5.893027782440185026e-03,8.809917569160460871e-02,5.378559507996008016e-01,6.560952663421630859e-01,3.279074430465698242e-01,6.204892181687253583e+01,1.945151567459106334e-01
5.001039999999999930e-01,-2.647680808130700378e-02,-1.787781710319256631e-02,9.705340862274169922e-01,1.438573586464638766e-02,-7.983837814108385444e-03,-3.603188055667107953e-02,-5.602272411297723465e-02,3.415505880068907263e-02,-1.514047235250473022e-01,-4.394260444247787695e-02,8.663220286236694712e-02,-2.924612942826078019e-02,-6.883784598098827145e-02,-4.514945149421692450e-02,7.871991395950309056e-03,1.455688476562500000e-02,5.485054850578308105e-02,1.078719913959503146e-01,5.389823182717961014e-01,6.775444746017456055e-01,4.267919063568115234e-02,7.710888788010369410e+01,2.005535840988159069e-01
5.265020000000000255e-01,-2.804546627710946191e-02,-1.672556545047980403e-02,9.675514101982116699e-01,1.344983705474500635e-02,-5.829851914874284446e-03,-3.660496426562823147e-02,-4.448936809782799012e-02,3.408140997186260429e-02,-1.523858308792114258e-01,-6.524540103920721534e-02,1.260129512927839757e-01,-5.030281530222992931e-02,-6.219740796178018644e-02,1.709945426520939615e-02,2.229406833648681086e-02,1.438525915145873885e-02,1.029490470886230413e-01,1.222940683364868164e-01,5.396725535953329489e-01,6.911665201187133789e-01,-6.542391777038574219e-01,1.521869419539091552e+02,2.005535840988159069e-01
5.526520000000000321e-01,-2.995823518658332144e-02,-1.535765555267336498e-02,9.644398689270019531e-01,1.211798020185407901e-02,-3.927600686328247548e-03,-3.696302439123180794e-02,-4.832505695055343276e-02,3.002436828307477809e-02,-1.569647938013076782e-01,-1.854603394316076820e-02,4.649240287089444201e-02,4.138619850320171545e-03,-2.243164066266472439e-02,6.707745884948931869e-02,4.358140230178830787e-02,4.803965091705322127e-02,1.463197410106658880e-01,1.435814023017883134e-01,5.406975676052162560e-01,7.080069780349731445e-01,5.833590030670166016e-02,6.067928447317738971e+01,2.005535840988159069e-01
5.792129999999999779e-01,-3.188774737864522729e-02,-1.396435871727595875e-02,9.613682031631469727e-01,1.057846973016700158e-02,-1.991538349274790676e-03,-3.776530648193548306e-02,-5.927963135350435009e-02,3.418460956090300235e-02,-1.647798866033554077e-01,-8.581217294198370538e-02,1.100927074339031198e-01,-6.196020939855902826e-02,2.746330704035462866e-02,8.257526914505328164e-02,6.525615453720090553e-02,8.369740247726439875e-02,1.584842741489410345e-01,1.652561545372009111e-01,5.418009135709435098e-01,7.159869670867919922e-01,1.538070440292358398e-01,5.227814154877795261e+01,2.005535840988159069e-01
5.966080000000000272e-01,-3.284861555820484114e-02,-1.330197475559464354e-02,9.598183035850524902e-01,9.954806326298531668e-03,-1.386187927179260981e-03,-3.795724220498631479e-02,-5.747163946333330026e-02,3.789917135158123174e-02,-1.619123220443725586e-01,-5.627295515792218178e-02,6.735346745518620837e-02,-5.666147493120127221e-02,5.361069102049996482e-02,8.350342962967791105e-02,6.780993938446044922e-02,1.030266523361205999e-01,1.534768223762512096e-01,1.678099393844604548e-01,5.418964913271855366e-01,7.164473533630371094e-01,3.385984897613525391e-02,8.168400813336668875e+01,2.005535840988159069e-01
6.253459999999999575e-01,-3.567024542222561184e-02,-1.129897188895101143e-02,9.551758170127868652e-01,8.315894201598646521e-03,-2.117109571579955940e-04,-3.937182825680003717e-02,-5.242432235487544390e-02,2.910419136313488475e-02,-1.571037471294403076e-01,-7.382758562033545080e-02,4.045822049892041500e-02,-6.948699783899074667e-02,8.046376558857973316e-02,9.427824885261779086e-02,6.857685446739195112e-02,1.253182053565979059e-01,1.547142148017883190e-01,1.685768544673919567e-01,5.420982645117188303e-01,7.183294296264648438e-01,4.449943304061889648e-01,5.162331765267048667e+01,2.005535840988159069e-01
6.502259999999999707e-01,-3.725166340573712875e-02,-1.023758132386932106e-02,9.520879983901977539e-01,7.499786460895959024e-03,-4.759702641872198825e-04,-4.039116076615138773e-02,-5.058039270449349312e-02,4.163069948874399684e-02,-1.688061803579330444e-01,9.001788207083978588e-03,-3.448561142735333956e-02,-4.152489579636118450e-02,1.195459803008246946e-01,8.600906245134104511e-02,7.780599594116210938e-02,1.476470589637756403e-01,1.488163232803344782e-01,1.778059959411621149e-01,5.434051617683751667e-01,7.218744754791259766e-01,4.835116863250732422e-02,7.657797044572943435e+01,2.005535840988159069e-01
6.763780000000000348e-01,-3.854886252814513498e-02,-9.331713160278864994e-03,9.491278529167175293e-01,6.946334877436983503e-03,-1.103844212817950421e-03,-4.181272489366958528e-02,-6.076979366374677533e-02,3.011881910450578403e-02,-1.619001626968383789e-01,-4.313126516631758667e-02,-4.751882947036493304e-02,-7.673059007335600312e-02,1.132827528644308190e-01,8.184890540135321413e-02,7.630133032798766535e-02,1.480369806289672796e-01,1.575799942016601618e-01,1.763013303279876709e-01,5.433473512438162789e-01,7.234159708023071289e-01,2.189260721206665039e-01,7.220360994274061284e+01,2.005535840988159069e-01
7.005500000000000060e-01,-3.983581719563796669e-02,-8.468318259158552977e-03,9.460788369178771973e-01,6.799793691954551106e-03,-2.382573849066149663e-03,-4.314570621283644186e-02,-6.123916217632832670e-02,3.269903714759170993e-02,-1.583365052938461304e-01,4.459717168299947090e-03,-1.102370649181506207e-01,-7.234039895480905147e-02,1.316193497019649550e-01,3.652830032859816223e-02,7.834613919258115455e-02,1.612467527389526423e-01,1.207410335540771429e-01,1.783461391925811601e-01,5.434592799241982908e-01,7.210572957992553711e-01,-7.169926166534423828e-02,1.183147088031169432e+02,2.005535840988159069e-01
7.224580000000000446e-01,-4.111210572738050600e-02,-7.619249137546676987e-03,9.430953860282897949e-01,7.002796646732414518e-03,-4.185723026693510818e-03,-4.472814981007642438e-02,-5.068143548198320025e-02,3.819983338460661987e-02,-1.638217568397521973e-01,-9.032784215437215242e-03,-5.054813217837234030e-02,-9.463408759925194536e-02,1.410591249408988945e-01,-2.875329689586893223e-02,7.932761311531066895e-02,1.673195600509643499e-01,6.018007993698119840e-02,1.793276131153106745e-01,5.441821907586459339e-01,7.171206474304199219e-01,-4.547187089920043945e-01,6.856568043606257845e+01,2.005535840988159069e-01
7.480930000000000080e-01,-4.304830958536157159e-02,-6.380499534247750619e-03,9.385833144187927246e-01,8.451679274489204072e-03,-7.653083254244741340e-03,-4.693748114965377166e-02,-6.083773816844868787e-02,3.264894288037611253e-02,-1.648587733507156372e-01,3.090410063421089246e-02,-8.462469624289298276e-02,-2.233166749529591488e-02,1.126821002078275541e-01,-9.351617097854614258e-02,6.846738457679746315e-02,1.528088092803955023e-01,6.483829021453856901e-03,1.684673845767974687e-01,5.447124442280127932e-01,7.132627964019775391e-01,8.873164653778076172e-02,9.517351563092599065e+01,2.005535840988159069e-01
7.745149999999999535e-01,-4.583292595160928101e-02,-4.501695510485432573e-03,9.342730641365051270e-01,1.153207635538511418e-02,-1.135301310557124133e-02,-4.981908246888259312e-02,-5.825455691984167406e-02,3.384877268630869657e-02,-1.635016202926635742e-01,1.287063075792699018e-01,-1.310528810859964144e-01,-9.619681776042143806e-02,6.337899686662704091e-02,-2.074965715408325084e-01,2.621025443077085182e-02,1.204686641693115123e-01,-1.074965715408325168e-01,1.262102544307708574e-01,5.445861542562628888e-01,6.830937862396240234e-01,3.755077123641967773e-01,1.081082819942860169e+02,2.005535840988159069e-01
7.961110000000000131e-01,-4.791551011406530725e-02,-3.083577033211794098e-03,9.314175844192504883e-01,1.398319919041030382e-02,-1.321958516313270771e-02,-5.184975021135672379e-02,-5.722201774195900814e-02,3.023924271621399040e-02,-1.553128659725189209e-01,7.541440064089981188e-02,-6.556905373945028093e-02,-1.162740686308407906e-01,-2.427358578119221399e-01,6.822972297668455921e-02,4.574555158615112305e-02,-1.677605509757995605e-01,1.682297229766845648e-01,1.457455515861511286e-01,5.446679356655633741e-01,6.975193023681640625e-01,1.050658345222473145e+00,-1.934196704071576534e+01,2.360646963119506780e-01
8.230239999999999778e-01,-5.100958750562670924e-02,-1.016042641052352464e-03,9.272586703300476074e-01,1.775165526635721566e-02,-1.515915717009641561e-02,-5.462684419835551336e-02,-6.228186870044655210e-02,3.483553197091234649e-02,-1.615590900182723999e-01,1.148025801647449134e-01,-7.386951796133710280e-03,-5.944968863903046102e-02,-2.762759217463789385e-01,2.540230154991149347e-02,8.736234903335568514e-03,-1.818662524223327581e-01,1.254023015499114990e-01,1.087362349033355741e-01,5.451428550133021744e-01,6.710294485092163086e-01,3.780567646026611328e-02,9.166632960534032293e+01,2.360646963119506780e-01
8.493680000000000119e-01,-5.407063342712922077e-02,9.864108842814411048e-04,9.230959415435791016e-01,2.151354232549035697e-02,-1.573490998560256315e-02,-5.743329242086717135e-02,-6.775312146804828017e-02,2.953392298102126140e-02,-1.485614478588104248e-01,1.372756779358489665e-01,-4.701469461159238361e-02,-9.794921804857109615e-02,-2.802724838256835938e-01,-1.435897946357728161e-02,-5.419782996177673756e-02,-1.802724838256835882e-01,8.564102053642272394e-02,4.580217003822326799e-02,5.441949311238685194e-01,6.414623260498046875e-01,-2.466787099838256836e-01,-6.372419646554741135e+00,2.360646963119506780e-01
8.719639999999999613e-01,-5.606087825475881276e-02,2.355428189398668312e-03,9.203781485557556152e-01,2.366708500446338195e-02,-1.451781374964911109e-02,-5.904488384087997616e-02,-6.040885739092421297e-02,2.615083601958411580e-02,-1.572600752115249634e-01,9.759712404182192824e-02,1.079433861283651541e-01,-7.378811640012411521e-02,-2.808866560459136741e-01,-1.511051654815674661e-02,-7.550127506256104626e-02,-1.808866560459136963e-01,8.488948345184325894e-02,2.449872493743896276e-02,5.453512595938573293e-01,6.493933200836181641e-01,1.838195323944091797e-02,9.485397889098527457e+01,2.360646963119506780e-01
8.978399999999999714e-01,-5.906042805009142221e-02,4.374308912749895126e-03,9.162723422050476074e-01,2.495115644867821822e-02,-1.257730575574922405e-02,-6.137223299492543943e-02,-6.213175292228554497e-02,3.667887380602961184e-02,-1.586818993091583252e-01,8.512149560023241426e-03,5.417485394034567137e-02,-2.786668095932793091e-02,-2.811471521854400635e-01,-2.701535820960999923e-02,-6.532762050628662664e-02,-1.811471521854400579e-01,7.298464179039000632e-02,3.467237949371337891e-02,5.459596789539478134e-01,6.492589712142944336e-01,6.415092945098876953e-02,9.875334754852390517e+01,2.360646963119506780e-01
9.236480000000000246e-01,-6.211429938878269136e-02,6.474437061956460349e-03,9.122378230094909668e-01,2.236991393142290230e-02,-1.106950125930272755e-02,-6.372652591970608127e-02,-8.597216653999570357e-02,3.475150601572594977e-02,-1.488911211490631104e-01,-7.078215764904517704e-02,-2.538681460633594733e-02,-8.331095532455423669e-02,-2.752322018146514671e-01,2.183303236961363358e-02,-5.859577655792237022e-02,-1.752322018146514893e-01,1.218330323696136391e-01,4.140422344207763533e-02,5.460962277381905539e-01,6.670104265213012695e-01,-2.360342741012573242e-01,1.220842082437769278e+02,2.360646963119506780e-01
9.495519999999999516e-01,-6.527617850048837711e-02,8.625919270818160553e-03,9.082928299903869629e-01,1.614937422893376884e-02,-1.020107979626505568e-02,-6.514134101418093958e-02,-6.867445400362109931e-02,4.132945801541901970e-02,-1.514148414134979248e-01,-2.409860985024995794e-01,5.011160849854691401e-02,-6.190193793039227427e-02,-1.735857020072551493e-01,7.136501073837278608e-02,3.053467273712157093e-02,-9.859997034072875977e-02,1.713650107383727916e-01,1.305346727371215765e-01,5.473137758694738286e-01,6.981146335601806641e-01,-1.928144693374633789e-01,8.066656266403408893e+01,2.360646963119506780e-01
9.756179999999999852e-01,-6.861507593417634499e-02,1.100996779671355348e-02,9.045404195785522461e-01,7.789481786156802860e-03,-9.837128689275331794e-03,-6.593427460435766219e-02,-8.047936908153052737e-02,4.271849424991000510e-02,-1.502745300531387329e-01,-3.015923712984986405e-01,3.811374390517293514e-02,-5.055399051856269629e-03,1.046765086342772155e-01,3.208312988281247780e-02,7.787752151489257812e-02,1.244429111480712807e-01,1.320831298828124833e-01,1.778775215148925837e-01,5.481172272122313283e-01,7.200425863265991211e-01,-2.304126024246215820e-01,7.962926866497342360e+01,2.360646963119506780e-01
9.971079999999999943e-01,-7.087454553108542277e-02,1.260912593159645503e-02,9.022048115730285645e-01,2.179848061194132082e-03,-1.011424547043948685e-02,-6.634784802652178570e-02,-7.931165942379612976e-02,4.836619141391743787e-02,-1.387320756912231445e-01,-2.428789693383436588e-01,-6.741617431478855171e-02,-4.414335091748964462e-02,2.132481117850170971e-01,-8.852145075798034668e-02,9.185791015625000000e-02,1.912847757339477539e-01,1.147854924201965367e-02,1.918579101562500056e-01,5.476835320886240810e-01,7.201511859893798828e-01,-4.083621501922607422e-02,4.458594835456374028e+01,2.360646963119506780e-01
1.025549000000000044e+00,-7.422744812985726526e-02,1.497632618210547120e-02,8.990139961242675781e-01,-6.324525463676919021e-03,-1.081733414264074433e-02,-6.775188348525679194e-02,-8.686799129803857156e-02,4.833572573176252163e-02,-1.321816891431808472e-01,-3.081608263778343182e-01,-1.412583684601460398e-03,-1.056611140369099894e-01,2.953204754106460994e-01,-2.071781754493713379e-01,9.837480187416075550e-02,2.177655458450317438e-01,-1.071781754493713323e-01,1.983748018741607611e-01,5.477296517275410670e-01,7.239463329315185547e-01,9.463179111480712891e-02,9.549719146550371818e+01,2.360646963119506780e-01
1.053649000000000058e+00,-7.643966806298287120e-02,1.645455380192872505e-02,8.970456719398498535e-01,-1.059507865758572975e-02,-1.180977757408685491e-02,-6.897509872676751974e-02,-7.251512273884357096e-02,5.205817536720290517e-02,-1.453280448913574219e-01,-2.264603969424487384e-01,1.109297090938716861e-02,-3.940228712916339637e-02,3.219431757926941029e-01,-2.424003362655639537e-01,1.054429948329925482e-01,2.219431757926940973e-01,-1.424003362655639482e-01,2.054429948329925537e-01,5.491370627446408026e-01,7.313817739486694336e-01,8.067384958267211914e-01,4.825699403343258753e-02,2.360646963119506780e-01
1.073914999999999953e+00,-7.752680567882762330e-02,1.713407231583485499e-02,8.961973190307617188e-01,-1.170073029138254603e-02,-1.274792541942693092e-02,-7.006971652206976653e-02,-8.009356445125835611e-02,4.209603078555414907e-02,-1.263840943574905396e-01,-1.168346812069767232e-01,-6.492409836596217676e-02,-1.084475716778612875e-01,3.224923133850097767e-01,-2.552681088447570912e-01,1.001580238342285045e-01,2.224923133850097712e-01,-1.552681088447570856e-01,2.001580238342285101e-01,5.480745980317003330e-01,7.313044071197509766e-01,2.844351530075073242e-01,-6.601017881848063951e+01,2.360646963119506780e-01
1.098360000000000003e+00,-7.963401199273315023e-02,1.846807401537978871e-02,8.944826126098632812e-01,-1.233919691275992686e-02,-1.365475623333800570e-02,-7.185760256741734187e-02,-9.829538393787184969e-02,4.574783049083461922e-02,-1.181073933839797974e-01,3.892013457942940929e-02,-6.240213015632514043e-02,-7.739711430504143952e-02,3.228492975234985574e-01,-2.761447072029113992e-01,9.118710756301878773e-02,2.228492975234985241e-01,-1.761447072029113659e-01,1.911871075630187933e-01,5.478636027365555439e-01,7.333422899246215820e-01,1.166951656341552734e-02,1.075678501063979269e+02,2.360646963119506780e-01
1.126713000000000076e+00,-8.175609206610992552e-02,1.973743444880120268e-02,8.930244445800781250e-01,-1.091447042176823742e-02,-1.374595749146800827e-02,-7.420151926109079532e-02,-8.500047710395844391e-02,4.225986452654371256e-02,-1.120867133140563965e-01,8.253923168209242878e-02,3.162104870081877683e-02,-1.295984914596903237e-01,3.228564143180847057e-01,-2.771007537841796986e-01,8.419061899185178999e-02,2.228564143180847001e-01,-1.771007537841796931e-01,1.841906189918517955e-01,5.476834760557030002e-01,7.308925390243530273e-01,-6.465852260589599609e-02,1.156717807641588394e+02,2.360646963119506780e-01
1.153875999999999902e+00,-8.378402574023638416e-02,2.101883723461725473e-02,8.916655778884887695e-01,-7.420450698578307490e-03,-1.263126759134625132e-02,-7.630632081873404970e-02,-7.291361573773394444e-02,4.817384729831045154e-02,-1.162683293223381042e-01,2.227908226475520947e-01,4.338451003439303122e-02,-1.000527506525470262e-01,3.116203897690424385e-01,-2.662942767143249290e-01,8.513733148574828546e-02,2.218970417976379450e-01,-1.662942767143249512e-01,1.851373314857482910e-01,5.481444370249636266e-01,7.238426208496093750e-01,8.221566677093505859e-02,1.002446032405802896e+02,2.360646963119506780e-01
1.173184000000000005e+00,-8.480861974275297199e-02,2.163878094025071391e-02,8.910272717475891113e-01,-5.335616558584676400e-03,-1.144539972700342467e-02,-7.736906013098537871e-02,-8.060922064942382947e-02,5.062503831977330920e-02,-1.175312176346778870e-01,2.327229026875796691e-01,1.199010424776393718e-01,-7.847552856220706141e-02,2.979755227380063709e-01,-2.569639801979065052e-01,8.764356970787046119e-02,2.209264039993286133e-01,-1.569639801979064997e-01,1.876435697078704667e-01,5.484305541898808478e-01,7.206377983093261719e-01,5.532824993133544922e-02,9.811426040826414408e+01,2.360646963119506780e-01
1.200377999999999945e+00,-8.676552486750543913e-02,2.288439590320945002e-02,8.899141550064086914e-01,2.371580447484988332e-04,-8.523941113233401978e-03,-7.990244921015600410e-02,-9.052967646802947965e-02,4.053521720921580973e-02,-1.018136739730834961e-01,3.418634889756432815e-01,1.017308556986529083e-01,-1.252139586524883552e-01,2.460223074560476952e-01,-2.141312837600707897e-01,7.384417653083799604e-02,2.131036162376403753e-01,-1.141312837600707980e-01,1.738441765308380016e-01,5.472387455552840674e-01,7.004611492156982422e-01,3.531619310379028320e-01,8.526054789978465465e+01,2.360646963119506780e-01
1.225179000000000018e+00,-8.884247432957358137e-02,2.365811315224535666e-02,8.890337347984313965e-01,6.509181518216469037e-03,-4.075241353489467144e-03,-8.234723993125460384e-02,-8.267506609452993094e-02,4.308730777822000757e-02,-1.082912385463714600e-01,3.164610692261493052e-01,2.753681871947337712e-01,-1.098267845401874748e-01,1.854444763207847569e-01,-4.379899501800537526e-02,7.095125317573547363e-02,1.897442936897277832e-01,5.620100498199463029e-02,1.709512531757354792e-01,5.481897929038258566e-01,7.140893936157226562e-01,-1.414650678634643555e-01,9.600627961529062304e+01,2.360646963119506780e-01
1.252552000000000110e+00,-9.081941110395110039e-02,2.443500823577276007e-02,8.881666064262390137e-01,1.379124425767520520e-02,7.673677502106901471e-04,-8.485972890764219290e-02,-7.217877766723966582e-02,4.677981864071485002e-02,-9.937435388565063477e-02,4.071655117339886831e-01,2.319241981531410535e-01,-1.396225392393028453e-01,1.093757682715658375e-01,1.652438640594480757e-02,4.573353528976439875e-02,1.582935333251953014e-01,1.165243864059448131e-01,1.457335352897644043e-01,5.475939175978764561e-01,7.020351886749267578e-01,2.974318265914916992e-01,1.308881991405183101e+02,2.360646963119506780e-01
1.275006000000000084e+00,-9.275771694620783825e-02,2.513136777864524024e-02,8.875003457069396973e-01,2.094709006812074670e-02,6.677495656940202196e-03,-8.721664660542052805e-02,-7.465595001024862010e-02,4.075887590180837794e-02,-9.945963323116302490e-02,3.677393297085199686e-01,2.886855970294375240e-01,-8.102026954781546553e-02,-4.569381475448609092e-02,8.291136187238483390e-02,-6.221568584442144223e-03,5.430618524551391463e-02,1.621104955673217662e-01,9.377843141555786133e-02,5.478724797764908949e-01,7.039550542831420898e-01,1.993691921234130859e-02,9.163829850898659402e+01,2.360646963119506780e-01
1.302265999999999924e+00,-9.549712354138051307e-02,2.608958462097581144e-02,8.867931962013244629e-01,3.198614314119740260e-02,1.571814714299724081e-02,-9.076274448678937901e-02,-7.949634862918238121e-02,3.312488761579288760e-02,-8.550008386373519897e-02,3.926025016899628017e-01,2.646326374531246528e-01,-1.100787646893213317e-01,-2.646789789199829324e-01,1.695319698294851518e-01,-6.814878582954407571e-02,-1.646789789199828991e-01,1.970486462116241289e-01,3.185121417045592984e-02,5.470685840627690366e-01,7.009947299957275391e-01,1.296828985214233398e-01,1.352937531174465846e+02,2.360646963119506780e-01
1.330076000000000036e+00,-9.728558545934654078e-02,2.648146483645416951e-02,8.864200711250305176e-01,3.898169734475765563e-02,2.160368506969523317e-02,-9.297874424658905679e-02,-5.887500761812960309e-02,2.730226109613681160e-02,-7.940451800823211670e-02,3.510902592927427901e-01,2.768712029791852713e-01,-1.363568456428037867e-01,-2.948103785514831765e-01,2.307513985042559668e-01,-7.859146595001220703e-02,-1.948103785514831432e-01,2.063268005847930797e-01,2.140853404998779158e-02,5.468767502080590370e-01,7.039892673492431641e-01,-6.164038181304931641e-02,8.967636252839357169e+00,2.360646963119506780e-01
1.350743000000000027e+00,-9.911320034439266569e-02,2.670426598769805662e-02,8.861342072486877441e-01,4.572018723908127802e-02,2.731573143798171621e-02,-9.494299655938785720e-02,-5.836661360740429821e-02,1.862401246931479071e-02,-7.821856439113616943e-02,3.847827453130284736e-01,1.942809695202221687e-01,-9.290703811171502347e-02,-3.081711232662200928e-01,2.703616912798920691e-01,-9.733749628067017712e-02,-2.081711232662200872e-01,2.134675204753875566e-01,2.662503719329834071e-03,5.471748834443025400e-01,7.145571708679199219e-01,-3.883445262908935547e-02,1.397926621199505632e+02,2.360646963119506780e-01
1.375809000000000060e+00,-1.016389747459396781e-01,2.673464105610715708e-02,8.857480883598327637e-01,5.480232498071593850e-02,3.432466757639862642e-02,-9.780922451048350286e-02,-5.697832117046740252e-02,1.200558830773586216e-02,-6.320986896753311157e-02,3.444717660345686938e-01,1.140997128070986577e-01,-1.093957341121203214e-01,-3.110806584358215554e-01,3.154139848523865863e-01,-1.056817412376403892e-01,-2.110806584358215221e-01,2.154993295669555553e-01,-5.681741237640381033e-03,5.463154710434953154e-01,7.152174711227416992e-01,9.591281414031982422e-02,6.892176551825201614e+01,2.360646963119506780e-01
1.402052000000000076e+00,-1.039445968717565699e-01,2.638366924005015879e-02,8.854228854179382324e-01,6.256774850462641646e-02,3.868994391263891330e-02,-1.007299922343183607e-01,-5.841460533307037822e-02,-1.399866467653295213e-02,-5.846580490469932556e-02,2.604669681928242220e-01,7.069380224527656298e-02,-1.300362691087917910e-01,-3.164143919944762962e-01,3.202388644218444602e-01,-1.081895351409912220e-01,-2.164143919944763184e-01,2.202388644218444824e-01,-8.189535140991211284e-03,5.459297349934877364e-01,7.023894786834716797e-01,3.381367921829223633e-01,8.804695089244803796e+01,2.360646963119506780e-01
1.426474999999999937e+00,-1.055513477993804128e-01,2.613878530248612761e-02,8.852838277816772461e-01,6.593240662661389861e-02,4.039608150047002688e-02,-1.021393286593750421e-01,-4.310044949298907913e-02,-1.189918552744290321e-02,-7.168243825435638428e-02,1.130417728521432019e-01,1.001127406248924906e-01,-4.225479104472474462e-02,-3.175800621509551891e-01,3.214416384696960338e-01,-9.808052182197571356e-02,-2.175800621509551835e-01,2.214416384696960283e-01,1.919478178024291992e-03,5.470374776742713552e-01,7.029349803924560547e-01,8.693410158157348633e-01,-2.968250632144718182e+01,2.360646963119506780e-01
1.452420000000000044e+00,-1.081070039702395624e-01,2.576355153350372643e-02,8.851207494735717773e-01,6.766426641596816338e-02,4.023334964099545275e-02,-1.034974529824160411e-01,-4.118540370993834659e-02,-2.459286069548444545e-02,-6.393025070428848267e-02,2.578936227359797731e-02,-7.350724006193533333e-02,-2.298770856985607805e-02,-3.182334661483764426e-01,3.214967489242553933e-01,-9.753213524818421520e-02,-2.182334661483764648e-01,2.214967489242553600e-01,2.467864751815795985e-03,5.465479886872435245e-01,6.964181661605834961e-01,4.147547483444213867e-01,9.750445428897623401e+01,2.360646963119506780e-01
1.474020000000000108e+00,-1.096513598857913330e-01,2.536351046225691561e-02,8.851048350334167480e-01,6.559331825376774061e-02,3.892074556130675766e-02,-1.043002392282892238e-01,-3.796438716536203878e-02,-2.833513342849710431e-02,-6.464008986949920654e-02,-1.704867928417487521e-01,-3.844780504187399889e-02,-2.180858940409183613e-02,-3.175240755081176758e-01,3.205485165119171254e-01,-1.119076848030090415e-01,-2.175240755081176702e-01,2.205485165119171198e-01,-1.190768480300903251e-02,5.467808934263560516e-01,6.976804733276367188e-01,2.965891361236572266e-02,1.030884549543526560e+02,2.360646963119506780e-01
1.501181000000000099e+00,-1.117909306626841820e-01,2.447902074743800102e-02,8.851823210716247559e-01,5.930997484009496029e-02,3.426317018527424985e-02,-1.048012437438519129e-01,-4.046695016812475176e-02,-4.379655710138205538e-02,-5.954178795218467712e-02,-2.788739102405445314e-01,-1.239460896552320723e-01,1.155725817319056686e-02,-3.156785905361175759e-01,3.167071998119354026e-01,-1.581883430480957031e-01,-2.156785905361175426e-01,2.167071998119354248e-01,-5.818834304809569757e-02,5.465974991426587604e-01,6.988984346389770508e-01,-3.314954042434692383e-01,1.157846837911391589e+02,2.360646963119506780e-01
1.529064999999999896e+00,-1.130805216827531767e-01,2.370946259890777119e-02,8.852701187133789062e-01,5.406174770881135017e-02,2.946980119718922708e-02,-1.051453669399456253e-01,-2.140158175809456567e-02,-4.166353631219737313e-02,-4.624528437852859497e-02,-2.966771058316823861e-01,-2.558965527943996010e-01,-2.831487687350195750e-02,-3.135611832141876332e-01,2.994952645782756884e-01,-1.918263912200927623e-01,-2.135611832141876276e-01,2.142681419849395696e-01,-9.182639122009277066e-02,5.456703418160010477e-01,6.923928260803222656e-01,1.080945730209350586e-01,8.707552723774297476e+01,2.360646963119506780e-01
1.555336999999999970e+00,-1.158147419640650211e-01,2.288513703735093816e-02,8.855195045471191406e-01,4.455024733940363829e-02,2.066618384603557956e-02,-1.055162145877857199e-01,-3.056287950381805785e-02,-5.710203895753489245e-02,-3.859340399503707886e-02,-3.608455240229364591e-01,-3.214782426942677795e-01,-2.897479537211751152e-02,-3.047472298145293967e-01,2.261105524983009762e-01,-1.871029496192932184e-01,-2.047472298145294189e-01,2.074436366558074785e-01,-8.710294961929321289e-02,5.450555146713768062e-01,6.809077262878417969e-01,3.325998783111572266e-02,8.639219413203987585e+01,2.360646963119506780e-01
1.574629999999999974e+00,-1.175639919802536626e-01,2.217737051831327952e-02,8.856319785118103027e-01,3.748782702330839128e-02,1.435991952994419840e-02,-1.054596590536723277e-01,-2.563661871406100121e-02,-5.829830647105404412e-02,-5.240031704306602478e-02,-4.092079219394713641e-01,-2.629814093491439353e-01,3.236877368567564472e-02,-2.759710431098937877e-01,1.791796972705073099e-01,-1.625401377677917480e-01,-1.759710431098937822e-01,1.966702401638031061e-01,-6.254013776779174250e-02,5.463177979279980612e-01,6.893684864044189453e-01,4.892557859420776367e-01,1.000915301635438404e+01,2.360646963119506780e-01
1.599590000000000067e+00,-1.192115626349724428e-01,2.137041860362826409e-02,8.858084082603454590e-01,3.038379837091113866e-02,7.236888120346396391e-03,-1.055177300771739796e-01,-3.431809303542971562e-02,-6.830258630644850393e-02,-3.420754149556159973e-02,-3.625369268523410127e-01,-3.396634769955564903e-01,-3.175634776970463757e-02,-1.899919390678405651e-01,8.067484952132315812e-02,-1.798293352127075251e-01,-8.999193906784057340e-02,1.518255293369293046e-01,-7.982933521270751953e-02,5.440639973640116756e-01,6.278254985809326172e-01,-2.877408266067504883e-01,1.046988496361015848e+02,2.360646963119506780e-01
1.623887000000000080e+00,-1.215703996171985102e-01,1.996891242767399183e-02,8.860905766487121582e-01,1.926451887347566116e-02,-3.797088966912776087e-03,-1.052853109812393329e-01,-1.520333343412933608e-02,-6.802838215914291942e-02,-3.169186413288116455e-02,-3.984504838910137292e-01,-3.684671571693015624e-01,-1.562238732893976578e-02,-1.490514874458312988e-01,-2.463221549987806847e-03,-2.012652635574340709e-01,-4.905148744583130022e-02,9.753677845001219870e-02,-1.012652635574340793e-01,5.382493847301080825e-01,3.086854219436645508e-01,1.020562052726745605e+00,-2.766675698793092408e+01,2.360646963119506780e-01
1.648204999999999920e+00,-1.221248298364687318e-01,1.802353398060993137e-02,8.862872123718261719e-01,1.203624721683916807e-02,-1.062752018971613310e-02,-1.046160601279643027e-01,-3.938947201850125784e-02,-7.219367329083271889e-02,-4.004927724599838257e-02,-4.010172493087572065e-01,-2.805541244564727088e-01,5.871647625044267710e-02,-1.122733235359191922e-01,-1.354083061218261663e-01,-2.528409600257873757e-01,-1.227332353591918841e-02,-3.540830612182616771e-02,-1.528409600257873424e-01,5.268093959516464420e-01,-3.610887527465820312e-01,4.399126768112182617e-01,6.873729576914831796e+01,2.360646963119506780e-01
1.678298999999999985e+00,-1.233320450928411943e-01,1.416014418985872894e-02,8.867514133453369141e-01,-1.703393965360336252e-03,-2.421032353209118249e-02,-1.030824297726657124e-01,-2.994151482127829778e-02,-7.146121496762042336e-02,-3.189020976424217224e-02,-4.085339290907229470e-01,-2.342867337310649556e-01,5.733444223575933502e-02,5.650703242794828662e-02,-2.978359818458556907e-01,-3.171972751617431752e-01,8.235361576080321711e-02,-1.978359818458557129e-01,-2.171972751617431696e-01,5.243665174112809302e-01,-4.667004942893981934e-01,5.509626865386962891e-02,9.958949247652769543e+01,2.360646963119506780e-01
1.704158999999999979e+00,-1.236451507941859623e-01,1.321886461233798098e-02,8.868450522422790527e-01,-5.009140395071381459e-03,-2.768957190946363944e-02,-1.024659855235039579e-01,-3.809821226738269867e-02,-7.086023855898007651e-02,-1.446317601948976517e-02,-3.782980015949899966e-01,-3.130903851438487928e-01,3.681621775732384777e-02,6.911424524998543983e-02,-3.133970856666564719e-01,-3.203672885894775502e-01,7.415893077850341242e-02,-2.133970856666564941e-01,-2.203672885894775446e-01,5.219592037959760455e-01,-5.348088741302490234e-01,7.385671138763427734e-02,1.062596912954220585e+02,2.360646963119506780e-01
1.727232000000000101e+00,-1.247330326022992181e-01,1.056068393068454979e-02,8.871811032295227051e-01,-1.552825216314181536e-02,-3.645608252949794625e-02,-1.007523666185102945e-01,-4.460521142249084664e-02,-6.360903693917567547e-02,-2.333705872297286987e-02,-4.007444244789621912e-01,-2.279468750196919913e-01,1.732597500896222373e-02,2.222863760623028373e-01,-3.230964183807373269e-01,-3.231466650962829812e-01,1.543562293052673229e-01,-2.230964183807372936e-01,-2.231466650962829479e-01,5.254732204355219150e-01,-3.849400281906127930e-01,2.383118867874145508e-01,6.010091088444988117e+01,2.360646963119506780e-01
1.752024999999999944e+00,-1.254177318605944336e-01,7.638905338155911780e-03,8.877226710319519043e-01,-2.591322930391818172e-02,-4.350120332472262596e-02,-9.848351881416964049e-02,-3.590098551586064224e-02,-5.133909347217465585e-02,-2.635366469621658325e-02,-3.968213639305196438e-01,-1.065889171965254817e-01,9.563884737245244294e-02,3.135922789573669656e-01,-3.260419130325317161e-01,-3.194707512855529674e-01,2.135922789573669323e-01,-2.260419130325317383e-01,-2.194707512855529619e-01,5.348935607848745999e-01,1.147203445434570312e-01,-1.204644441604614258e-01,9.592393485465694880e+01,2.360646963119506780e-01
1.776602999999999932e+00,-1.260112397342876001e-01,5.841030161924061492e-03,8.880738019943237305e-01,-3.146723336456623554e-02,-4.736882066575387462e-02,-9.690483331609681117e-02,-5.215547256363402273e-02,-4.704021955339132699e-02,-8.105277083814144135e-03,-2.341288474874433367e-01,-2.213111389523654826e-01,4.865945224494007404e-02,3.155370593070984109e-01,-3.267163991928100364e-01,-3.208873867988586426e-01,2.155370593070983776e-01,-2.267163991928100586e-01,-2.208873867988586370e-01,5.291948029218143112e-01,-1.316150426864624023e-01,2.830470800399780273e-01,1.068226081660578330e+02,2.360646963119506780e-01
1.807395000000000085e+00,-1.270602876270203185e-01,3.420124499429907667e-03,8.886203169822692871e-01,-3.880833217217562886e-02,-4.962886249952624951e-02,-9.420860310153131301e-02,-5.258319578372065012e-02,-3.350236818272737255e-02,-1.430231146514415741e-02,-2.539264365162024473e-01,4.164536568791037639e-03,5.924528016644543815e-02,3.249655246734619030e-01,-3.272594928741454634e-01,-3.125079512596130593e-01,2.249655246734618974e-01,-2.272594928741454856e-01,-2.125079512596130260e-01,5.442866047684745689e-01,6.744043827056884766e-01,7.143604755401611328e-02,1.308077804932305810e+02,2.360646963119506780e-01
1.826284000000000018e+00,-1.279021932213135482e-01,2.021264910797978317e-03,8.888914585113525391e-01,-4.211952413198556677e-02,-4.879863617136748211e-02,-9.179048282730527253e-02,-6.000884736833559524e-02,-3.016001990549789166e-02,-2.995785698294639587e-02,-1.529809075162777143e-01,1.411508360110397819e-01,1.364981343635650046e-01,3.260972023010253462e-01,-3.272317409515380637e-01,-2.869157075881957897e-01,2.260972023010253684e-01,-2.272317409515380859e-01,-1.869157075881957841e-01,5.465654946038039919e-01,7.337906360626220703e-01,-1.006199121475219727e-01,-7.885336600544913210e+01,2.360646963119506780e-01
1.851204000000000072e+00,-1.288152738467905345e-01,-1.910297419649295697e-05,8.892519474029541016e-01,-4.446776892736388487e-02,-4.437530995507676934e-02,-8.802000551869319789e-02,-6.448659036602133465e-02,-1.600701551579256782e-02,-2.136553078889846802e-02,-1.663466058047531138e-03,1.870865160751558343e-01,1.529070179056313261e-01,3.264653444290160911e-01,-3.266518831253051314e-01,-2.559117317199707253e-01,2.264653444290161133e-01,-2.266518831253051536e-01,-1.559117317199706920e-01,5.461470671514413455e-01,7.388887405395507812e-01,-2.899247407913208008e-01,1.256289756777233002e+01,2.360646963119506780e-01
1.876309000000000005e+00,-1.295810413488476531e-01,-1.169821832886951823e-03,8.894159197807312012e-01,-4.409906997118852312e-02,-3.969123419577558209e-02,-8.541939763714535838e-02,-7.352183656283028945e-02,-1.888968339864711271e-02,-1.436772011220455170e-02,9.377355265394947403e-02,2.117270637127326716e-01,1.204477745691484025e-01,3.264284372329712136e-01,-3.261188030242919700e-01,-2.378692984580993708e-01,2.264284372329711803e-01,-2.261188030242919922e-01,-1.378692984580993652e-01,5.458056516785019241e-01,7.412884235382080078e-01,7.636557817459106445e-01,4.574641115492724452e+01,2.360646963119506780e-01
1.904684999999999961e+00,-1.309121882806790205e-01,-2.606027144662472449e-03,8.895007967948913574e-01,-4.030279040854441164e-02,-3.121712152361588721e-02,-8.086422719602344433e-02,-7.836603819289998663e-02,-7.472450585920007229e-03,-2.912476472556591034e-02,1.810811736360160296e-01,2.899409451986967867e-01,1.383591805722723667e-01,3.263242244720458984e-01,-3.248222589492797963e-01,-1.730661630630493386e-01,2.263242244720458929e-01,-2.248222589492797907e-01,-7.306616306304931918e-02,5.470100244723092864e-01,7.436544895172119141e-01,-3.504717350006103516e-02,9.237428554300132078e+01,2.360646963119506780e-01
1.924682999999999922e+00,-1.319274015105553755e-01,-3.392607250394038144e-03,8.894938230514526367e-01,-3.551800908671426393e-02,-2.528094822276982789e-02,-7.746197405061401586e-02,-8.215623777883813983e-02,3.054700366682751474e-03,-2.865122817456722260e-02,3.056426952521805185e-01,2.640184441784960145e-01,1.788444150815337030e-01,3.258701086044311079e-01,-3.211588978767395131e-01,-1.568774223327636663e-01,2.258701086044311301e-01,-2.211588978767395075e-01,-5.687742233276366771e-02,5.471093934273486559e-01,7.438657283782958984e-01,2.540072202682495117e-01,-1.303905652179695096e+02,2.360646963119506780e-01
1.948258000000000045e+00,-1.332832329282609973e-01,-4.493471059150317207e-03,8.894004821777343750e-01,-2.645855430899541130e-02,-1.588000128818478629e-02,-7.270895798780835362e-02,-8.579293957960280881e-02,5.888813780851050173e-03,-2.030249871313571930e-02,3.802639168019795735e-01,2.400629367104034351e-01,1.495056561660718653e-01,3.244084477424621360e-01,-3.078890800476073997e-01,-1.085887908935546931e-01,2.244084477424621582e-01,-2.078890800476074219e-01,-8.588790893554687500e-03,5.465875633083995266e-01,7.403705120086669922e-01,-2.652310132980346680e-01,1.776428725754390925e+01,2.360646963119506780e-01
1.976658000000000026e+00,-1.345047903881831375e-01,-5.437689071755285632e-03,8.893032073974609375e-01,-1.605284372174226037e-02,-5.331095547983721872e-03,-6.798615387241986607e-02,-7.677676361401247762e-02,1.338404163427772686e-02,-2.515545114874839783e-02,3.765734066688675719e-01,3.241558719906548758e-01,1.574859926414042821e-01,3.203511953353881947e-01,-2.514366984367370494e-01,-3.066146373748787624e-03,2.203511953353881891e-01,-1.514366984367370439e-01,9.693385362625121793e-02,5.467947174196332583e-01,7.260603904724121094e-01,-2.593636512756347656e-03,9.423237703500075213e+01,2.360646963119506780e-01
2.001567999999999792e+00,-1.353268639851443467e-01,-5.907365401709727473e-03,8.893286585807800293e-01,-8.849838129234370229e-03,2.050285713948829525e-03,-6.507955408445648127e-02,-8.814566030501244653e-02,1.226419682806047587e-02,-2.465532347559928894e-02,3.714461387827355798e-01,3.597168266594742425e-01,1.567544440429038399e-01,2.662405888278499555e-01,-7.595773339271545688e-02,2.089642286300658069e-02,2.099629640579223633e-01,2.404226660728454520e-02,1.208964228630065862e-01,5.464958017929034684e-01,7.038068771362304688e-01,6.181895732879638672e-02,7.420818850186931570e+01,2.360646963119506780e-01
2.023426999999999865e+00,-1.357277577267238522e-01,-6.116107545701083247e-03,8.893308639526367188e-01,-5.105142002696105505e-03,5.585335496492316310e-03,-6.363221921597697617e-02,-8.570970057268466336e-02,1.394752094480307229e-02,-1.018590666353702545e-02,4.030455317994355857e-01,3.286984698480267530e-01,1.081958350503183508e-01,2.333901572417521053e-01,-5.104303359985407074e-04,6.055974960327142886e-03,2.001092433929443359e-01,9.948956966400146484e-02,1.060559749603271484e-01,5.454074740779618624e-01,6.941001415252685547e-01,-1.681791543960571289e-01,9.269986700035748584e+01,2.360646963119506780e-01
2.047785999999999884e+00,-1.370107800026983957e-01,-6.378854576372973428e-03,8.893702626228332520e-01,5.497091792300479521e-03,1.648304331933370115e-02,-5.904662567539639001e-02,-6.512634772637043712e-02,1.255181647728711991e-02,-1.741894893348217010e-02,3.470547428926381017e-01,3.604782203714286815e-01,1.456259186477087408e-01,7.309724591345229117e-02,1.584557779626174501e-01,-4.397451877594008018e-03,1.097660779953002902e-01,2.047160625457763727e-01,9.560254812240599753e-02,5.463671196936219498e-01,7.140522003173828125e-01,-4.708453416824340820e-01,7.211740612522588378e+01,2.360646963119506780e-01
2.081084000000000156e+00,-1.386882545917099419e-01,-5.915380746748573164e-03,8.894158601760864258e-01,1.892397317350072786e-02,2.992957386475891823e-02,-5.377925634860757781e-02,-6.088341787484149309e-02,1.100818648458052815e-02,-1.283906120806932449e-02,3.097064740845329456e-01,3.192159198186079738e-01,1.107358831616827299e-01,-1.789868712425232156e-01,2.481207267455061705e-01,-5.835360884666443426e-02,-7.898687124252319613e-02,2.093043744564056230e-01,4.164639115333557129e-02,5.463072320325140785e-01,7.227048873901367188e-01,4.212907552719116211e-01,9.655107599405835117e+01,2.041124105453491211e-01
2.100629000000000079e+00,-1.390496440255628574e-01,-5.801493663907678414e-03,8.894382119178771973e-01,2.257830300737109080e-02,3.315315328163670472e-02,-5.254677923500033349e-02,-5.907767939944325031e-02,1.465183245252614681e-02,-8.045738562941551208e-03,3.925835297450803729e-01,2.836013579466189483e-01,7.356361426057189679e-02,-2.645952045917511208e-01,2.719338133654715106e-01,-4.634339213371277411e-02,-1.645952045917510875e-01,2.127277851104736328e-01,5.365660786628723145e-02,5.460034009975107683e-01,7.187440395355224609e-01,-3.096948862075805664e-01,6.057430446563429172e+01,2.041124105453491211e-01
2.125328000000000106e+00,-1.398810828750524649e-01,-5.650611906429570987e-03,8.896200060844421387e-01,3.304948549837974370e-02,4.237912332149162964e-02,-4.986135564487278321e-02,-4.477270954339189479e-02,1.016483337887509608e-02,-1.762017491273581982e-04,3.852553937166371401e-01,2.569758086561780286e-01,4.294252764348734097e-02,-3.054906129837036133e-01,3.197000443935394398e-01,-3.432006835937501110e-02,-2.054906129837036077e-01,2.197000443935394343e-01,6.567993164062499445e-02,5.455599022608637050e-01,7.208104133605957031e-01,4.129613637924194336e-01,-1.213730216266385327e+02,2.041124105453491211e-01
2.150650000000000173e+00,-1.411274301154767652e-01,-4.966618075043768843e-03,8.897929787635803223e-01,4.331910005009508707e-02,5.047099205447991288e-02,-4.825082748439964153e-02,-4.212811326872915180e-02,-5.573343246637336122e-03,-7.997762411832809448e-03,3.458608256138475112e-01,2.454827333249116894e-01,3.747483670989178867e-02,-3.131997644901275413e-01,3.211180746555328258e-01,-3.583217263221741278e-02,-2.131997644901275635e-01,2.211180746555328203e-01,6.416782736778259277e-02,5.461913350644563847e-01,7.199950218200683594e-01,-4.962373971939086914e-01,1.392187349843727304e+02,2.041124105453491211e-01
2.174621000000000137e+00,-1.419927036174484236e-01,-4.441783882874653956e-03,8.898850679397583008e-01,4.987147413658129386e-02,5.377046044739564046e-02,-4.747415699015710561e-02,-2.097695926238027711e-02,-4.103576639277479315e-03,3.085466567426919937e-03,3.612955841078776542e-01,9.892803790608434289e-02,-6.934623417984776134e-03,-3.151596903800964466e-01,3.218488514423370472e-01,-4.066547751426697471e-02,-2.151596903800964411e-01,2.218488514423370417e-01,5.933452248573303084e-02,5.452986501181550372e-01,7.096757888793945312e-01,4.369682073593139648e-01,1.021724514545730784e+02,2.041124105453491211e-01
2.205826000000000064e+00,-1.430498445776440253e-01,-3.850459547254374715e-03,8.900141716003417969e-01,5.741122305269853038e-02,5.561988447493826371e-02,-4.643327102354425501e-02,-1.170750955797298515e-02,-2.367532269023934002e-02,7.530033122748136520e-03,2.209573567325210930e-01,-4.442461568024900359e-02,1.020214796772790216e-04,-3.178740322589874157e-01,3.228302717208862416e-01,-6.517409086227418658e-02,-2.178740322589874101e-01,2.228302717208862360e-01,3.482590913772582591e-02,5.448439652694241353e-01,6.972839832305908203e-01,-8.929550647735595703e-02,9.417513321956688799e+01,2.041124105453491211e-01
2.225420999999999871e+00,-1.435834958081497470e-01,-3.624125961218157329e-03,8.899816274642944336e-01,6.009209906069674229e-02,5.504259004258149623e-02,-4.532060757680760055e-02,-1.056908659446666003e-02,-1.364821078067254140e-02,-5.135854007676243782e-04,1.200159811587580005e-01,-6.808047645289083682e-02,5.903947068421713101e-02,-3.173491060733795166e-01,3.227151155471801869e-01,-6.842113733291627087e-02,-2.173491060733795111e-01,2.227151155471801813e-01,3.157886266708374162e-02,5.453851379842939995e-01,6.901321411132812500e-01,-2.924813032150268555e-01,6.139292312822783515e+01,2.041124105453491211e-01
2.249531999999999865e+00,-1.446269087300313394e-01,-3.164437970812692801e-03,8.898943066596984863e-01,5.927875711399758357e-02,5.063937267867868464e-02,-4.378232963437908576e-02,-5.853171676739791053e-04,-2.692440911881000334e-02,2.204986056312918663e-03,-5.357044559381759358e-02,-2.518004748265056381e-01,5.539464369390092319e-02,-3.157260835170745961e-01,3.206104755401611439e-01,-9.537767767906189798e-02,-2.157260835170745905e-01,2.206104755401611384e-01,4.622322320938110178e-03,5.451058143711045023e-01,6.797920465469360352e-01,-3.593608140945434570e-01,1.176350913203223314e+02,2.041124105453491211e-01
2.273592999999999975e+00,-1.453224657375561668e-01,-2.899740811248173716e-03,8.897846937179565430e-01,5.553315738949384656e-02,4.613868791786468471e-02,-4.283125236145173681e-02,-1.812731893678130347e-03,-2.354839958224223817e-02,-7.960930466651916504e-03,-2.375182547086365226e-01,-2.032499858824372563e-01,6.264550222039712291e-02,-3.134514808654785267e-01,3.170726776123046764e-01,-1.300697445869445912e-01,-2.134514808654785212e-01,2.170726776123046708e-01,-3.006974458694457869e-02,5.460247682801203650e-01,6.846218109130859375e-01,1.485155820846557617e-01,3.792221772481337183e+01,2.041124105453491211e-01
2.298579999999999846e+00,-1.458717608700506319e-01,-2.766435848067960723e-03,8.896508216857910156e-01,5.067560721582362732e-02,3.987535737931602320e-02,-4.192114564889894840e-02,1.087446282025856040e-02,-2.793233451523862571e-02,2.726763486862182617e-03,-2.697856028468016421e-01,-3.435126391215512220e-01,3.106169671365600904e-02,-3.109966695308685192e-01,3.140180349349975808e-01,-1.577754616737365723e-01,-2.109966695308685136e-01,2.140180349349975475e-01,-5.777546167373656671e-02,5.451531133317956135e-01,6.725671291351318359e-01,3.093892335891723633e-01,7.318301808858542756e+01,2.041124105453491211e-01
2.327084000000000152e+00,-1.465766599875006626e-01,-2.812895822179832615e-03,8.891466856002807617e-01,3.810680215657451242e-02,2.612584529392636412e-02,-4.024032686997645880e-02,2.683051540362347415e-02,-3.296567322900793157e-02,3.990885801613330841e-03,-2.880331192292493458e-01,-3.837052517431837617e-01,3.640560360898225517e-02,-2.957955360412597434e-01,2.599160900312263434e-01,-1.243863940238952720e-01,-1.957955360412597656e-01,1.997307121753692516e-01,-2.438639402389526298e-02,5.433039062463115298e-01,5.673098564147949219e-01,2.516826391220092773e-01,2.044237711034922711e+01,2.041124105453491211e-01
2.351787999999999990e+00,-1.466725783760123025e-01,-2.999301882580093434e-03,8.889201283454895020e-01,3.122482844923479828e-02,1.906676094097181640e-02,-3.944982421370876041e-02,2.241208191169609051e-02,-4.806668897519658645e-02,-2.388347347732633352e-04,-3.661110216430992770e-01,-3.307851554554073203e-01,7.745607873979093450e-02,-2.735478639602660911e-01,1.865912989395588084e-01,-1.100493073463439941e-01,-1.735478639602661133e-01,1.774166464805602972e-01,-1.004930734634399379e-02,5.428867077970860322e-01,5.204417705535888672e-01,-8.198618888854980469e-03,7.290199678537442196e+01,2.041124105453491211e-01
2.375363000000000113e+00,-1.465383694052260211e-01,-3.300227215514639316e-03,8.885571360588073730e-01,2.479518901455493238e-02,1.180159458343332801e-02,-3.857437679780885420e-02,1.809568545971932882e-02,-4.675872706470727419e-02,1.124053448438644409e-02,-3.034036677262365034e-01,-3.973546331530166120e-01,1.767773955868095007e-02,-2.619085967540740745e-01,-7.361848931472930735e-03,-1.232243180274963379e-01,-1.619085967540740967e-01,3.364259004592895508e-02,-2.322431802749633581e-02,5.386216613133127940e-01,3.219990730285644531e-01,2.251685857772827148e-01,9.886612763209915045e+01,2.041124105453491211e-01
2.400609999999999911e+00,-1.462338567259402478e-01,-3.846957095292816847e-03,8.881314992904663086e-01,1.457728768782517656e-02,1.358765346291423981e-03,-3.693634850964407773e-02,3.466005956391418619e-02,-4.932500768806749591e-02,1.279646903276443481e-02,-3.633129103595343357e-01,-3.400295122567887907e-01,3.662436029410732347e-02,-2.370823204517364391e-01,-2.626236314026204610e-01,-1.478468179702758789e-01,-1.370823204517364335e-01,-1.673403382301330566e-01,-4.784681797027588029e-02,5.277847463833285069e-01,-2.740332484245300293e-01,-1.404160261154174805e-01,9.784995940814133064e+01,2.041124105453491211e-01
2.424672000000000160e+00,-1.459789240850990488e-01,-4.263738490915124947e-03,8.877555131912231445e-01,7.532404716143194581e-03,-5.427879693483239620e-03,-3.524840014838818980e-02,2.366306415035552418e-02,-4.338972423713136767e-02,2.697244286537170410e-03,-3.589842566921824796e-01,-3.172452888453993758e-01,1.144566130199769355e-01,-1.073969526636462946e-01,-2.607127428054809570e-01,-2.120712720697043308e-01,-2.943921089172363281e-02,-1.607127428054809515e-01,-1.134924173355102428e-01,5.279347565211945925e-01,-3.131667375564575195e-01,2.527953386306762695e-01,-7.111164710956316526e+01,2.041124105453491211e-01
