timestamp,x,y,z,roll,pitch,yaw,vx,vy,vz,p,q,r,psp,qsp,rsp,pres,qres,rres,thrust_sp, thrust_res
0.000000000000000000e+00,-2.447704980082896983e-03,-4.199020024803459122e-03,1.005869388580322266e+00,9.208783899749460600e-03,-1.216506255977112261e-02,-5.502049980903533921e-03,1.104131160125929392e-04,1.086655728630700132e-02,9.145208634436130524e-03,3.976472422685920632e-02,2.224895879181283675e-02,-5.567208258979110258e-02,-2.782030268043215182e-01,1.159863598570730625e-01,-2.152001980066226006e-01,-2.270309936166294007e-01,1.965998260327515290e-01,-1.999775532706146164e-01,5.244803487844456047e-01,7.341055870056152344e-01
2.387500000000000039e-02,-2.598286640290305149e-03,-3.173798728774301567e-03,1.006176710128784180e+00,9.415341079874054234e-03,-1.201841631932087928e-02,-6.214199091312044843e-03,6.034359915259360913e-03,8.040468493397626842e-03,4.657927434891462326e-03,4.760618693578030393e-03,-9.740639317107000969e-03,-4.572400798848418046e-02,-2.524519149829164699e-01,1.422804903239661134e-01,-2.335761080297598380e-01,-1.936889276687719375e-01,2.159369410557775149e-01,-2.163317184501201973e-01,5.245389762007927059e-01,7.208805084228515625e-01
5.024100000000000094e-02,-2.657763167574990395e-03,-2.491844258573191941e-03,1.006382226943969727e+00,9.513792076509309387e-03,-1.152716279741761163e-02,-6.577014587207052898e-03,-6.524776200866873842e-03,6.806184508514620014e-03,1.640371396206319332e-03,6.374291018740246145e-03,5.142396507130083533e-02,7.658969693720188779e-03,-2.668149684471473049e-01,-3.132680994802600205e-01,-1.340628081839817520e-01,-2.075411835116989234e-01,-2.275939634693694424e-01,-1.158300961561439107e-01,5.251643574216086074e-01,7.438117265701293945e-01
7.503200000000000147e-02,-2.522290932163295286e-03,-1.556949496184882641e-03,1.006700754165649414e+00,9.419081441105500371e-03,-1.147793563313737053e-02,-6.478819373094246714e-03,6.870777159313215185e-03,1.815171448960200065e-02,1.089497469365596771e-03,-3.605188732746718826e-03,-3.126958127945929453e-03,2.100078336643672675e-02,1.652313120812673453e-01,-2.219753031455465875e-01,-2.467627045721228762e-01,2.110187067304645780e-01,-1.551129654520613521e-01,-2.287918045316336968e-01,5.254211950333852466e-01,7.569712400436401367e-01
9.841600000000000348e-02,-2.437765788567264596e-03,-8.232721536904495825e-04,1.006897211074829102e+00,7.410040221666819998e-03,-1.178516442192156788e-02,-5.818993372895153726e-03,-1.784291291706523001e-03,7.449382408318337527e-03,7.055484224110841751e-03,-1.263807090211405693e-01,-2.801327028265059721e-02,4.730195377333718670e-02,1.698446928061734806e-01,2.664589313192687603e-02,-2.441651644510828278e-01,2.174098888933581053e-01,1.092441580053543915e-01,-2.280055156208690148e-01,5.246368396564918823e-01,7.391993999481201172e-01
1.255340000000000067e-01,-2.256681379840121994e-03,3.365240991656118577e-04,1.007135629653930664e+00,2.619888389917468877e-03,-9.250368809943676496e-03,-4.690069696857035453e-03,1.213238578503232287e-02,2.944475335576110867e-02,-3.962637390941381454e-03,-1.552621843894498588e-01,1.333844978628194455e-01,7.740289877672169860e-02,2.223410856952768300e-01,-2.737691083755454668e-01,-2.419557121154017332e-01,2.113395552899042518e-01,-2.252736396963797849e-01,-2.288958613342930160e-01,5.254351819734229823e-01,7.395679950714111328e-01
1.495559999999999945e-01,-2.084571997112864838e-03,1.108188050486138892e-03,1.007408499717712402e+00,1.066354219284981275e-03,-7.090626315563230975e-03,-3.750366264532400962e-03,-2.852613855184824802e-03,1.569150422532564204e-02,1.980460435152053833e-02,-2.242042873510548262e-02,6.416433697631862554e-02,5.206523505494549398e-02,1.948112929247214353e-01,-2.798277423271884334e-01,-2.385886831436536681e-01,1.955520946035443075e-01,-2.249370968690094785e-01,-2.281115430035383085e-01,5.237321010827620249e-01,7.434536218643188477e-01
1.747110000000000052e-01,-1.437460926028365097e-03,3.074129639326871923e-03,1.008033156394958496e+00,2.844534099888810889e-03,-4.422090470837192200e-03,-1.882148084622059514e-03,1.849423152464902895e-02,1.849248973081013547e-02,1.041496172547340393e-02,8.600609441158012236e-02,1.048902113518903056e-01,4.245438506109360660e-02,2.200369667063930279e-01,-4.136809152613269563e-02,1.635698349935431617e-01,2.230587456563140891e-01,-3.190036445567598355e-02,1.688291891271634926e-01,5.244403649938970124e-01,7.472771406173706055e-01
2.003729999999999956e-01,-9.677552661365380936e-04,4.312341093653681949e-03,1.008529901504516602e+00,5.960785187401353678e-03,-1.986448850107347397e-03,-4.375095502775483425e-04,5.894036336968829642e-03,1.185054288251713786e-02,1.505292207002639771e-02,1.672446705327147176e-01,1.545034125927308988e-01,8.640650253276868642e-02,1.272161644128090852e-01,1.383618982539783215e-01,3.012063928121792855e-02,1.576264440039605030e-01,1.526089168074597768e-01,3.132344214403202931e-02,5.240577784268452000e-01,7.475265264511108398e-01
2.235469999999999957e-01,-3.644027044821896506e-05,6.046382671521265129e-03,1.009278297424316406e+00,1.170868579585283495e-02,3.549451864936159495e-03,-5.452651244342021641e-04,2.829972976117255123e-02,1.404612657936373660e-02,2.015170454978942871e-02,2.290765449267966047e-01,1.957535236924878019e-01,-6.520348703533987433e-02,-2.631194166621795283e-01,-1.513804167407105661e-01,2.250662678963306629e-01,-2.012374083707810790e-01,-2.016545929808899462e-01,2.267434820251673089e-01,5.236245531101546558e-01,7.477006912231445312e-01
2.485179999999999889e-01,6.371899442453091405e-04,7.112285266416157672e-03,1.009806394577026367e+00,1.604132416131480443e-02,6.099612163850132163e-03,-1.388907513846904251e-03,2.402140749561745489e-02,8.697731364439659218e-03,2.209872379899024963e-02,2.302712525494673146e-01,7.038296745530690790e-02,-3.790371521312752706e-02,-3.223228221396190474e-01,-7.478005659632512570e-02,2.219391613825884568e-01,-2.266157140961966576e-01,-1.293261332138737063e-01,2.260320194317543829e-01,5.234985915932062195e-01,7.514923810958862305e-01
2.737999999999999878e-01,1.672191213111355558e-03,7.881726455899533759e-03,1.010654211044311523e+00,2.099133267974512274e-02,8.528324302205181340e-03,-3.607410118938281229e-03,2.117039068602504653e-02,1.540429076718679430e-02,2.414160780608654022e-02,8.178537383552997309e-02,1.315948702734666964e-01,-7.166585280552857651e-02,-3.136291351588256782e-01,-1.408969526757281598e-01,2.160451331526445640e-01,-1.952234011761515842e-01,-2.104406192184605229e-01,2.265018972029455568e-01,5.231548788932410821e-01,7.450106143951416016e-01
2.988190000000000013e-01,2.477398694835872446e-03,8.526042633046999539e-03,1.011052608489990234e+00,2.081127251630475114e-02,1.021584803481756509e-02,-5.938628776794185882e-03,4.389736868616259807e-02,2.138934296049119568e-02,7.412686944007873535e-03,-5.819971494435587783e-02,8.953466366539022947e-02,-1.290655253150227999e-01,-3.273210622330334219e-01,-1.211786847077605256e-01,-1.997748936621953353e-01,-2.142872739941048543e-01,-2.266688155920170977e-01,-1.825963467737597712e-01,5.244444383737004722e-01,7.500333786010742188e-01
3.258289999999999798e-01,3.880348794955263986e-03,9.632749898276357289e-03,1.011347174644470215e+00,1.523598533468786126e-02,1.372370089041519137e-02,-9.086174994238804814e-03,3.528731820404625713e-02,2.116872782863447530e-02,3.835802199319005013e-03,-2.483538844074673901e-01,1.080235476634422570e-01,-7.175967057015841810e-02,1.275079793598843936e-01,-1.151731885826645790e-01,-2.469948697454852349e-01,2.061288015095030512e-01,-2.270061578094584587e-01,-2.211110110379067573e-01,5.245862099913418675e-01,7.452006340026855469e-01
3.494229999999999836e-01,4.868768256746785171e-03,1.045007920213401886e-02,1.011394977569580078e+00,1.001051184718276810e-02,1.641844183492202625e-02,-9.939168369592632502e-03,4.216857426454388019e-02,3.220152828573326353e-02,-2.039570594206452370e-03,-2.703203172521842501e-01,1.535264443048397764e-01,-2.663531939305685547e-02,1.804720677229759151e-01,-8.522185893280523339e-02,-2.500536893788763426e-01,2.130550659239973110e-01,-2.254634297720363445e-01,-2.217708501220158612e-01,5.250101851124268082e-01,7.449679374694824219e-01
3.740749999999999909e-01,6.187149270657834980e-03,1.102619690481520913e-02,1.011403799057006836e+00,2.509817737425862685e-03,2.015988590739015152e-02,-9.438654814235558632e-03,4.357939313728963204e-02,2.483819555299387680e-02,4.912928678095340729e-03,-1.764819073080562406e-01,9.724426353396616041e-02,5.006447676779210432e-02,2.285290720168128009e-01,-5.934164266275321342e-02,-2.492247346737711255e-01,2.236452361694024338e-01,-2.239777816730629534e-01,-2.225924172821136804e-01,5.244929433145516517e-01,7.450262308120727539e-01
3.985710000000000086e-01,7.155318731794889364e-03,1.133011139359917270e-02,1.011533975601196289e+00,3.220391279643068324e-04,2.177139931987515098e-02,-8.414510743517622515e-03,5.388912410727016156e-02,2.751125477819670040e-02,1.074107363820075989e-02,-9.543738249655024652e-02,6.728996285752035511e-02,5.859473087142245268e-02,2.306289071366446342e-01,-3.667539006784523159e-02,-2.464328421432149807e-01,2.056976322451613270e-01,-2.226971680319158042e-01,-2.226935145854483933e-01,5.240767729475209746e-01,7.463557720184326172e-01
4.237310000000000243e-01,8.761255630847461853e-03,1.161645455046065104e-02,1.011951088905334473e+00,2.131685950057005206e-03,2.314490605203944895e-02,-6.694048159551879706e-03,6.090803941258817605e-02,1.545077833977430599e-02,2.534942701458930969e-02,1.419170874133235671e-01,2.717068271763906431e-02,5.763020048407868634e-02,-2.215907299021504517e-01,1.019217460721161261e-02,1.005700516301303582e-01,-2.215518936967357799e-01,-1.895854133971904276e-01,1.194957422584710105e-01,5.230367145057187583e-01,7.505176067352294922e-01
4.487209999999999810e-01,9.986944738695222382e-03,1.174028515348924523e-02,1.012367725372314453e+00,5.639032605604937277e-03,2.383269914788388455e-02,-5.364429648641255710e-03,6.631129947362100763e-02,9.579420229063165954e-03,2.980017103254795074e-02,1.891013140772924706e-01,1.918064238455877493e-02,6.508359308538896881e-02,-2.531914840012625678e-01,4.219385941742148649e-02,1.790544912674892630e-01,-2.288688074898579117e-01,-1.660103361358525875e-01,1.944120446041413819e-01,5.226971388755617953e-01,7.522599697113037109e-01
4.740320000000000089e-01,1.185446811162986329e-02,1.199361716644708510e-02,1.013035058975219727e+00,1.119982445957713561e-02,2.478384039241832149e-02,-4.764750446319743205e-03,8.344357521641122821e-02,1.488429582903637131e-02,2.062168158590793610e-02,1.169521986499584554e-01,2.161828628892836432e-02,-8.754201402086931108e-03,-2.821107398390844123e-01,1.421838036035069641e-02,2.096116205535651922e-01,-2.295765000863418670e-01,-2.171162478861671796e-01,2.236651553335869957e-01,5.229549780324171948e-01,7.325371503829956055e-01
4.985740000000000172e-01,1.327150447484099285e-02,1.231008888260653154e-02,1.013326048851013184e+00,1.214673633189882612e-02,2.553699462476699544e-02,-6.048526829544931260e-03,7.471042010154667345e-02,1.512859940587678483e-02,2.365455217659473419e-02,2.793357704224306085e-02,3.065632777212329643e-02,-9.201868888897887788e-02,-2.754606075438920110e-01,5.461546987942600406e-03,1.901037456506845802e-01,-2.152621376781149454e-01,-2.163676016928913481e-01,2.077568210768863388e-01,5.228871043074376779e-01,7.432165145874023438e-01
5.234550000000000036e-01,1.567551512226988616e-02,1.288917328795445051e-02,1.013562560081481934e+00,9.331191791041864789e-03,2.612375336194294739e-02,-9.088181044775600625e-03,1.015440190449596464e-01,2.435065162832643695e-02,4.230452235788106918e-03,-1.492255661991354065e-01,6.199794291192520408e-03,-1.109936364153383259e-01,1.932727341336365201e-01,3.592706242937596106e-02,-2.423005249402034600e-01,2.251292896070588578e-01,-2.220251135353753236e-01,-2.160919727161138282e-01,5.244622469183966018e-01,7.515733242034912109e-01
5.496739999999999959e-01,1.745149841416289774e-02,1.339364620277589887e-02,1.013546586036682129e+00,5.128580221906211926e-03,2.614539061598541991e-02,-1.118027284262557153e-02,9.661911336878381551e-02,1.885524959844567250e-02,7.293530739843845367e-03,-2.246535039373213916e-01,-1.781673788482972254e-02,-9.457598100073159875e-02,2.126920597699325510e-01,2.526824388395801368e-02,-2.499320327855762969e-01,2.260170018565924865e-01,-2.192114805695220547e-01,-2.181978799329484797e-01,5.242229608030407606e-01,7.516777515411376953e-01
5.735810000000000075e-01,1.987350555271881827e-02,1.431071174218521806e-02,1.013405561447143555e+00,-5.099785446372054679e-04,2.513260022579744124e-02,-1.247879588676181761e-02,1.054385773695443451e-01,3.805701251631075921e-02,-4.600553773343563080e-03,-1.007080905038851143e-01,-2.527283207064446799e-02,3.784909835747623814e-03,2.714243942962921707e-01,4.916865528511907280e-02,-2.550370072083196771e-01,2.254837001609121538e-01,-2.010080370442521025e-01,-2.197741850569558675e-01,5.251075715651565279e-01,7.512962818145751953e-01
6.002060000000000173e-01,2.146078014298218734e-02,1.488037537480972616e-02,1.013437509536743164e+00,-1.346447943268607719e-03,2.324333953320056878e-02,-1.194698478757172388e-02,1.036524113379012901e-01,2.276519217291465141e-02,1.512921974062919617e-02,-6.279985074641824920e-03,-1.559039024498445059e-01,5.246940991193967813e-02,2.594416512982226086e-01,4.596234436141947155e-01,-2.560608499346048172e-01,2.304675397775249046e-01,2.250220952672559172e-01,-2.225236131070121304e-01,5.237626886862166709e-01,7.579078674316406250e-01
6.247249999999999748e-01,2.406934310440326380e-02,1.558436298599260444e-02,1.013625741004943848e+00,1.839452389280813631e-03,2.042024593718139158e-02,-1.036052939142884100e-02,1.218621273324179827e-01,2.457979155727308893e-02,6.080654449760913849e-03,1.328262046014659914e-01,-7.497617189301579443e-02,5.489800698904812037e-02,-2.047058868473186077e-01,3.472033242562714839e-01,1.801151142448922104e-01,-2.211442200783419465e-01,1.098329405204033632e-01,2.094376845445709845e-01,5.243241475735933577e-01,7.525967359542846680e-01
6.485800000000000454e-01,2.592644514822546598e-02,1.600015969427267398e-02,1.013889431953430176e+00,6.317972733340309309e-03,1.781671227206582664e-02,-9.199796048973141183e-03,1.112954767414945090e-01,1.550289376883732216e-02,1.278232876211404800e-02,2.562039479251184138e-01,-1.680540240166756571e-01,4.448839929730441511e-02,-2.511218011414746432e-01,3.816379861560053044e-01,1.756488345258623851e-01,-2.285790264353815826e-01,1.773079851500758697e-01,2.018089595992514362e-01,5.238588264372396885e-01,7.563419342041015625e-01
6.738899999999999890e-01,2.867822681614544400e-02,1.705487780269827197e-02,1.014469504356384277e+00,1.340214690591818442e-02,1.123184173849955947e-02,-9.584902875233725084e-03,1.317408515678994974e-01,1.613062824938364323e-02,1.719775237143039703e-02,1.793426164983053239e-01,-2.866345347017766887e-01,-7.841384182472516118e-02,-2.845466984913823660e-01,3.828176512571769274e-01,-3.221578353700997599e-02,-2.210346377286001585e-01,1.941970669657815951e-01,-4.690527701272807076e-03,5.234588983598608136e-01,7.539709806442260742e-01
7.014049999999999452e-01,3.052030385057477591e-02,1.799665272803003743e-02,1.014730811119079590e+00,1.511821350853103339e-02,5.304811147971877361e-03,-1.117576902216455004e-02,1.214076811432352188e-01,2.212531437304866150e-02,7.975085638463497162e-03,6.510166328054936558e-02,-3.006659064538616533e-01,-1.004264233720491978e-01,-2.721954607493609624e-01,2.230054651339816729e-01,1.143241109854861715e-01,-2.041698704827516475e-01,9.017674682807010067e-02,1.461785892252455699e-01,5.236611340194758935e-01,7.304134368896484375e-01
7.236690000000000067e-01,3.338406540789375099e-02,1.962708674974299877e-02,1.014786481857299805e+00,1.230891447588377402e-02,-5.040447112771628824e-03,-1.322849669662162775e-02,1.207574767614466443e-01,3.601686891114316835e-02,-4.818245768547058105e-03,-1.749676893661913923e-01,-3.366885769554473495e-01,-7.749485692470235720e-02,1.598141057913689544e-01,2.948096989424238146e-01,-2.326216461769822497e-01,1.960417099094709237e-01,2.245064518371250595e-01,-1.952971980507587080e-01,5.224469414586080385e-01,6.137052774429321289e-01
7.484089999999999909e-01,3.527526900759721251e-02,2.076784800516763910e-02,1.014713287353515625e+00,8.058005284344813349e-03,-1.227666997613097166e-02,-1.432047354474619283e-02,1.221511066687173130e-01,3.251989479175502323e-02,-7.237051613628864288e-03,-2.322732865492552201e-01,-3.291717106133799642e-01,-6.695965122052331686e-02,1.810405502302174785e-01,2.503668520899939853e-01,-2.531322570246297698e-01,1.973330591059591077e-01,2.239355837827615991e-01,-2.129622053292861694e-01,5.234202514819380481e-01,6.566677093505859375e-01
7.755999999999999561e-01,3.838832452802048989e-02,2.208237476156535081e-02,1.014508843421936035e+00,1.669639224008149592e-03,-2.302561557821780625e-02,-1.444628261656188961e-02,1.126927347192531875e-01,3.942961862923338723e-02,-4.888315685093402863e-03,-1.366074092589208699e-01,-3.146235514659153076e-01,2.108931696596517275e-02,2.385310845178953421e-01,1.738663414244772665e-01,-2.168041901598301291e-01,2.037945880738934179e-01,2.253326712632148510e-01,-1.764549879645383179e-01,5.124974337770694666e-01,7.812130451202392578e-02
7.981449999999999934e-01,4.049068468187649872e-02,2.269884014058284882e-02,1.014449596405029297e+00,9.280967423667965612e-05,-3.061583291000991025e-02,-1.361232742266427209e-02,1.196578734403384719e-01,2.779164288243415534e-02,5.561729776673018932e-04,-2.995195879333440933e-02,-3.826677495911496307e-01,4.408479946703228181e-02,1.865949126443037787e-01,1.347391192178117869e-01,1.518530800867015917e-01,1.555017481762646925e-01,2.229444145015728462e-01,1.898676914395839577e-01,5.027250610057723001e-01,-4.179145693778991699e-01
8.231249999999999956e-01,4.350639941349992296e-02,2.347909559462367513e-02,1.014494776725769043e+00,1.599935963516705469e-03,-4.095504901583701951e-02,-1.194810397928014467e-02,9.600255644381147646e-02,3.472960799626093747e-02,-4.291020377422682941e-05,8.871438422865643436e-02,-3.175731396333454359e-01,8.149997395772612396e-02,2.407573744059511300e-01,4.997490487340383591e-02,-1.783198865029413105e-01,2.076786008027647346e-01,2.304210054429325361e-01,-1.451902804439833272e-01,5.236127304607696153e-01,6.963648796081542969e-01
8.490010000000000057e-01,4.545270666376850094e-02,2.393908928734716710e-02,1.014447569847106934e+00,4.529960966948776667e-03,-4.655487547043346552e-02,-1.221647364366806876e-02,1.010103096506906190e-01,3.295636846961015609e-02,-1.566143520176410675e-02,1.419871598672496071e-01,-2.573518655413728484e-01,-2.984568910332085004e-02,-1.381664639991285193e-01,1.756734337775106569e-02,9.955888240262220079e-02,-1.483155086547789658e-01,2.194178645015568696e-01,1.332990881207019862e-01,5.001874781192584551e-01,-6.149930357933044434e-01
8.738489999999999869e-01,4.846514231304371173e-02,2.433441836696682500e-02,1.014132738113403320e+00,1.009041807142860118e-02,-5.286867152561147698e-02,-1.198383865256058556e-02,9.587102739917044425e-02,1.657907838828884955e-02,-1.447724085301160812e-02,1.955808876663459595e-01,-2.042634457227988365e-01,3.108056588323953109e-02,-2.416448880074133776e-01,-2.340009963730918519e-02,9.521119596935365137e-02,-1.997809665730445605e-01,2.244381658375941280e-01,1.280284984485782485e-01,5.243960623137353672e-01,6.798367500305175781e-01
9.007880000000000331e-01,5.070316973668567706e-02,2.425068147378775865e-02,1.013793349266052246e+00,1.375108903550083424e-02,-5.504419431966667275e-02,-1.220106256060415895e-02,9.144460144526382617e-02,2.380386973665931521e-02,-2.700022049248218536e-02,1.465744093752805732e-01,-7.645005903867875541e-02,-2.301169259175499249e-02,-2.673352142959027344e-01,-2.483504635442113362e-01,1.982741987683846741e-01,-2.151469188718648229e-01,1.515060464510790267e-02,2.313285263625423915e-01,4.987895064557307245e-01,-7.358122467994689941e-01
9.231610000000000094e-01,5.388872978585972084e-02,2.423652283813138020e-02,1.012801766395568848e+00,1.565263028842785523e-02,-5.641197732484370952e-02,-1.385434816288388937e-02,7.654988524082516343e-02,3.013283968559863843e-02,-4.567922651767730713e-02,-1.803830636669576798e-02,-2.271936374201542416e-02,-7.007938856020291818e-02,-2.846067678114085897e-01,-6.725479614229726288e-02,5.210002774100307155e-02,-2.239642073741171246e-01,2.171517348059428254e-01,8.954321086947390762e-02,4.998254540615429953e-01,-7.602224946022033691e-01
9.483160000000000478e-01,5.589474048502636461e-02,2.436309816563239639e-02,1.011776208877563477e+00,1.390251487059794393e-02,-5.576970279212090098e-02,-1.536841722295267942e-02,7.724718660939412784e-02,3.348533808190429922e-02,-6.443604081869125366e-02,-1.415468589581392600e-01,5.002394360635569609e-02,-8.888365457531063885e-02,-2.605951146253540629e-01,-4.992686529686879426e-01,-2.516060643042064005e-01,-2.127045434266417456e-01,-2.261801874563206249e-01,-2.097804579052671425e-01,5.285406422802709780e-01,6.953687667846679688e-01
9.728379999999999805e-01,5.889533906981914146e-02,2.504077096333749697e-02,1.009710788726806641e+00,8.573445756580052798e-03,-5.256030909012299190e-02,-1.765358211487311202e-02,6.940996222626905077e-02,3.289084410861523033e-02,-8.164730668067932129e-02,-2.055579727397632839e-01,1.086728509509677920e-01,-5.071625119932435949e-02,-1.072862351293140948e-01,-4.896405635798732892e-01,-2.699373104519287025e-01,-9.269237532978116811e-02,-2.308866809615473248e-01,-2.213420420526821253e-01,5.296264207815514213e-01,6.768357753753662109e-01
9.988960000000000061e-01,6.097736328259847211e-02,2.609113265119218650e-02,1.008012771606445312e+00,3.833476454451061576e-03,-4.893518008611486003e-02,-1.778261248439760855e-02,5.867596322415950111e-02,4.177503901464725555e-02,-9.691476076841354370e-02,-2.539012530513633514e-01,2.112660775029693849e-01,-2.313228839208828803e-03,1.086860715942093991e-01,-4.692820989325489078e-01,-2.807980918357549371e-01,8.286729653565708120e-02,-2.271816496300653188e-01,-2.316172761758487630e-01,5.308911501061214233e-01,6.768556833267211914e-01
1.023646999999999974e+00,6.389669379419572748e-02,2.779005523775074718e-02,1.005254626274108887e+00,-4.131239154675120026e-03,-3.977518100962385006e-02,-1.664122155676484027e-02,7.048157831114211513e-02,3.995944914988447394e-02,-9.995572268962860107e-02,-2.353207261336114908e-01,3.445703786468231611e-01,2.677368051488545481e-02,1.005256266768132095e-01,-3.901183218356739091e-01,-2.760455676951932835e-01,2.704499816963825201e-02,-2.254937264582084488e-01,-2.295633132040795499e-01,5.313879599268653831e-01,6.785602569580078125e-01
1.050691999999999959e+00,6.579487872614787902e-02,2.889987930274792033e-02,1.003429889678955078e+00,-7.910224230840279605e-03,-3.151021604656567554e-02,-1.573444511677490887e-02,5.371090463704684959e-02,3.713453892292796488e-02,-9.552802145481109619e-02,-1.553310643233415667e-01,4.451332058135737402e-01,6.561461339483132260e-02,8.432596226063646117e-02,-3.552543066511637537e-01,-2.724967944528363661e-01,-1.177624017725518828e-02,-2.246686568786823435e-01,-2.284146445147877957e-01,5.302807731432558347e-01,6.271224021911621094e-01
1.074383000000000088e+00,6.827607214351216758e-02,3.053661991457585004e-02,1.000913023948669434e+00,-9.208138250567307614e-03,-1.815955949730652108e-02,-1.397256932953894193e-02,5.571853071316123368e-02,4.615090414333940239e-02,-8.510129153728485107e-02,6.122153153509687917e-02,4.773303513669807097e-01,9.321064438204537672e-02,7.842534466373810020e-02,-2.606063827907306729e-01,-1.649468986359690637e-01,-3.711157038529735303e-02,-2.266627843063800107e-01,-1.258224640201041078e-01,5.068747472832626499e-01,-6.036686897277832031e-01
1.099815999999999905e+00,6.967975029248411889e-02,3.167147179713854233e-02,9.994097352027893066e-01,-8.125155516822029841e-03,-9.508542148800591676e-03,-1.285440527485159912e-02,5.436588542415457526e-02,3.552517132026117297e-02,-8.056012541055679321e-02,7.221899725852232166e-02,3.907564801407998334e-01,7.123364390755380915e-02,3.887877681582333628e-02,-2.075102877209961671e-01,8.859326847343892974e-02,-5.616751516371689540e-02,-2.289411713627781397e-01,1.245749609767680954e-01,5.050381087482681552e-01,-6.899012327194213867e-01
1.123591000000000006e+00,7.176172569536809487e-02,3.340093753962283113e-02,9.972859621047973633e-01,-4.876932530697931402e-03,3.284215365700005052e-03,-1.080301943822870037e-02,6.368872228069566432e-02,5.004312097319980890e-02,-8.947674185037612915e-02,9.023982850051955051e-02,4.140478270617592993e-01,7.745972012937737960e-02,1.074470154379051634e-01,-1.114092025535553532e-01,1.799708261207906557e-01,1.421487954539899130e-02,-2.269743014200227282e-01,2.103305020020612981e-01,5.051688566290537530e-01,-7.296427488327026367e-01
1.150193000000000021e+00,7.319125390967148870e-02,3.458617461298193335e-02,9.959072470664978027e-01,-2.207162547880667409e-03,1.093566797170386629e-02,-1.052133878624506025e-02,4.624591130801807698e-02,4.221341726717430659e-02,-8.497069031000137329e-02,1.391810362452409466e-01,3.633601264447681167e-01,1.237738573668832782e-02,-3.012089210717254495e-02,-8.150465919138036308e-02,1.960438439852227877e-01,-9.343363004746457756e-02,-2.270024031210803039e-01,2.256686135977300500e-01,5.043951514922178081e-01,-7.587640285491943359e-01
1.175178999999999974e+00,7.546819053964591573e-02,3.638294486286414858e-02,9.934141635894775391e-01,9.276534416421649675e-04,2.033866197129574616e-02,-1.185216000458111374e-02,7.615372056280091118e-02,5.539352533882976187e-02,-9.861631691455841064e-02,1.101318455745810693e-01,2.552916189579277351e-01,-9.554141489454665015e-02,-1.382359004109923184e-01,1.717174056878992272e-02,1.898765110470924666e-01,-1.985541694781494670e-01,-2.268647957637970614e-01,2.236430350179248183e-01,5.057113780277896486e-01,-7.576105594635009766e-01
1.199362999999999957e+00,7.618570616882554269e-02,3.698929497579826753e-02,9.914886355400085449e-01,3.032985351462540689e-03,2.475199669067529307e-02,-1.334533368074075632e-02,6.301903626206215026e-02,4.561905437443199846e-02,-1.050705388188362122e-01,1.185716756786121401e-01,1.942402826933838367e-01,-5.659194113229058104e-02,-1.880086288794810823e-01,2.131475351372447147e-02,1.850169956640845825e-01,-2.202240431124501130e-01,-2.279269728876552881e-01,2.229719503348919774e-01,5.063114040059152332e-01,-7.601760029792785645e-01
1.223527000000000031e+00,7.747581788159171867e-02,3.804038124818938382e-02,9.881682395935058594e-01,4.468418606596009576e-03,2.940550702901956193e-02,-1.636106018742711221e-02,8.072678733621070635e-02,5.807156776125925457e-02,-1.276077926158905029e-01,-1.673131611056723460e-03,1.149106754801166169e-01,-1.177622363829949753e-01,-4.875782121802325203e-02,8.394454673490639451e-02,1.747647029902966442e-01,-8.833470893457907869e-02,-2.179960303339307515e-01,2.215460356214801474e-01,5.303424797647106059e-01,4.258818626403808594e-01
1.248159000000000018e+00,7.844768105023434968e-02,3.883317115187020357e-02,9.855684638023376465e-01,3.758591951834486591e-03,3.147111615297215614e-02,-1.812115242781153768e-02,7.505366289114713541e-02,5.407857038538558397e-02,-1.377830058336257935e-01,-4.767301931974780860e-02,8.610068194902116556e-02,-7.388931835196380082e-02,2.347640607686979075e-01,8.902786298713877278e-02,-1.263430586318115001e-01,1.987033182586893099e-01,-2.148923831298593656e-01,-7.475516916171594251e-02,5.358328847355375846e-01,6.747097969055175781e-01
1.273468999999999962e+00,8.015215290528704406e-02,4.013163005649052206e-02,9.812131524085998535e-01,1.030853812990230670e-03,3.220016085390153826e-02,-2.135865888242993726e-02,9.333358447664064084e-02,6.466880683486714299e-02,-1.504809856414794922e-01,-9.920327229799326407e-02,-1.853070737754113420e-02,-1.188638079638289491e-01,3.006530193929955463e-01,1.083398337697708547e-01,-2.736266310461308859e-01,2.338241454393810703e-01,-2.210148292125619918e-01,-2.129578101816555491e-01,5.383753216761045790e-01,7.427282333374023438e-01
1.299023000000000039e+00,8.099301823948144852e-02,4.113032187804634143e-02,9.782248139381408691e-01,1.825371338946642403e-04,3.137040932187229458e-02,-2.205826151349765674e-02,8.275748343579229782e-02,5.590217375109144543e-02,-1.376037597656250000e-01,2.113713374490600993e-03,-6.799278649179169021e-02,8.328561417232864528e-03,2.857453564882227459e-01,8.593999667929191899e-02,-2.553631870422573558e-01,2.252055518617822605e-01,-2.221985797146997510e-01,-1.929668365924014084e-01,5.374438187849871484e-01,7.284321784973144531e-01
1.323422000000000098e+00,8.192728146759412078e-02,4.211832448476578866e-02,9.753268957138061523e-01,1.190161509692227353e-03,2.940592700036903651e-02,-2.192166027674891104e-02,8.820492580191394150e-02,5.594826199957667057e-02,-1.302296221256256104e-01,7.414324209014988565e-02,-1.141316509389452838e-01,1.094970335641476215e-02,-1.683533781479507607e-01,7.897966165484737733e-02,1.597280118934364945e-01,-2.265209886466661993e-01,-2.263577192578242192e-01,2.218433998597078571e-01,5.343053450631368717e-01,5.692389011383056641e-01
1.348797000000000024e+00,8.353979882095836917e-02,4.349366985546360836e-02,9.712834954261779785e-01,6.046814115091301255e-03,2.524677138441577817e-02,-2.021272401453289014e-02,1.004563693111433786e-01,5.359382342204857541e-02,-1.187341809272766113e-01,1.971091698569198414e-01,-1.815160542992953763e-01,7.047898022672959006e-02,-2.016361957473530309e-01,6.449117373588289515e-02,1.662839238714013401e-01,-2.271750650461587806e-01,-2.254477878334854857e-01,2.238694132501412581e-01,5.355023487926260373e-01,6.613917350769042969e-01
1.373920000000000030e+00,8.561897877424570757e-02,4.481250979566538117e-02,9.674786925315856934e-01,1.109875272403528824e-02,2.151219476981292011e-02,-2.095055041998694634e-02,1.020163740891766729e-01,5.473444657393776447e-02,-1.139280349016189575e-01,9.667967193093479628e-02,-1.031348009545014766e-01,-5.160183959805917514e-02,-2.306353449987348925e-01,3.769258505396361203e-02,1.656555421970109521e-01,-2.264001318827663367e-01,-2.264571515395655821e-01,2.255331720122157324e-01,5.096050227898868412e-01,-7.399899363517761230e-01
1.398827000000000043e+00,8.699541432398272267e-02,4.577993994499098690e-02,9.648239016532897949e-01,1.181466607869641021e-02,1.956571528723105580e-02,-2.273317028921462146e-02,1.262602878209139468e-01,6.759110915720566160e-02,-1.246887370944023132e-01,-1.692392617344777106e-03,-8.948290079492716986e-02,-1.148376193002532408e-01,-2.195517155430501688e-01,6.071057304127069898e-02,1.566139359440057444e-01,-2.241679053661275733e-01,-2.146423972523643364e-01,2.216958323892564975e-01,5.103397201393365945e-01,-7.594090104103088379e-01
1.424471000000000043e+00,8.943070217655985088e-02,4.738927890916042052e-02,9.607293605804443359e-01,8.890680180380229614e-03,1.770207639782994669e-02,-2.585471649143444850e-02,1.217716334567648384e-01,5.489718981860708391e-02,-1.260910928249359131e-01,-1.767069138823428309e-01,-8.519629928106145500e-02,-1.189883446647301696e-01,2.330033796985646333e-01,2.993811648046265650e-02,-2.935087187527519181e-01,2.254073480649232963e-01,-2.220173384842431263e-01,-2.201024250922081760e-01,5.385437374300807711e-01,7.482445240020751953e-01
1.449195000000000011e+00,9.118928200404612106e-02,4.855673550316196713e-02,9.579101204872131348e-01,5.209818623326553308e-03,1.684729392491757238e-02,-2.793867861412113740e-02,1.350370879092202825e-01,6.535833876926200325e-02,-1.336315125226974487e-01,-1.859504511642968427e-01,-3.269324534743620059e-02,-1.189654700653417635e-01,2.736658772598120626e-01,3.951087326878466310e-02,-3.007132028976543525e-01,2.260714120091841528e-01,-2.222848879945246159e-01,-2.215046073987364528e-01,5.393175949659848589e-01,7.449314594268798828e-01
1.473038999999999987e+00,9.397102949902967628e-02,5.039569407322663092e-02,9.536232948303222656e-01,4.186936349867455688e-04,1.475319092995874826e-02,-2.900830501889029023e-02,1.218638012981319851e-01,6.847212252835613300e-02,-1.282392144203186035e-01,-9.928782811931449737e-02,-1.018737275362857214e-01,-4.943405804928206228e-03,3.090060144564444888e-01,1.117144757530877386e-02,-3.063263681529962978e-01,2.297931672290957905e-01,-2.214025430914806081e-01,-2.244677560221578216e-01,5.394575941306963829e-01,7.545897960662841797e-01
1.499114000000000058e+00,9.627880715176391491e-02,5.165489087324790646e-02,9.509522914886474609e-01,2.045044468575734243e-04,1.306839971913142939e-02,-2.826945985032569553e-02,1.278553555381264917e-01,6.583380316372405838e-02,-1.120027303695678711e-01,1.450408268226437321e-02,-9.195370767683568036e-02,7.247513477293107687e-02,2.000489605133197457e-01,1.270634369781278861e-02,-2.191122589638800355e-01,1.217376676179674350e-01,-2.217279020807941259e-01,-1.393490913590988423e-01,5.383057473977784779e-01,7.407727241516113281e-01
1.524002999999999997e+00,9.986147720439009223e-02,5.339443494698242754e-02,9.473897218704223633e-01,4.322635892578982966e-03,1.042897397867004194e-02,-2.666551074590794990e-02,1.323714436943224937e-01,6.100394249525490503e-02,-1.131547987461090088e-01,2.107560915966245896e-01,-5.478210178737352720e-02,8.930894150046521374e-02,-1.740536636683130134e-01,-6.746502674980114911e-03,1.514634724987656833e-01,-2.229112295044297920e-01,-2.286826491324518429e-01,2.268798827555822961e-01,5.341940795709357870e-01,4.912695884704589844e-01
1.549528000000000016e+00,1.023523780343071760e-01,5.453043403751019202e-02,9.453862905502319336e-01,8.765946156404131120e-03,8.793908530382088529e-03,-2.563749801603365519e-02,1.325473158602392953e-01,5.827338745102354084e-02,-8.871623128652572632e-02,2.428871240243819785e-01,-1.168479709338420963e-01,4.701236081508498865e-02,-2.018968911060708415e-01,6.959870484493424492e-03,1.547369532606663600e-01,-2.220516423940605000e-01,-2.053975130368418112e-01,2.274475190937046698e-01,5.346109382442683078e-01,6.006134748458862305e-01
1.574583000000000066e+00,1.064007977356609125e-01,5.615414663967849968e-02,9.425829648971557617e-01,1.422730514889909009e-02,8.178168063796675824e-03,-2.624382772727429369e-02,1.584099707877689445e-01,5.943879277405865469e-02,-1.008707731962203979e-01,1.004424330884188116e-01,-6.662052208080435599e-03,-1.053556542399398249e-01,-2.351245116832197390e-01,2.596961694291449740e-02,1.527206587383823921e-01,-2.234626922035385377e-01,-2.099136171598415257e-01,2.275320517646943486e-01,5.108329469181501770e-01,-7.522516846656799316e-01
1.599258000000000068e+00,1.092830244887046803e-01,5.725118123932128322e-02,9.407856464385986328e-01,1.512285661501912640e-02,8.474743537649098712e-03,-2.780212552973226892e-02,1.566807418679019848e-01,5.826587381862785575e-02,-9.490507096052169800e-02,1.678829753009601633e-02,-2.461893464611313335e-04,-7.792252849112894786e-02,-2.408247336990534948e-01,7.130443341773540222e-03,1.466820628675452043e-01,-2.226552624137491387e-01,-2.218951838524968190e-01,2.258577931450385656e-01,5.104262083865632738e-01,-7.596734762191772461e-01
1.623667999999999889e+00,1.137974692099676666e-01,5.897420655428118469e-02,9.379749894142150879e-01,1.214347627606529069e-02,9.102532735419943677e-03,-3.077228515390229013e-02,1.643536431197671344e-01,6.918187779525108994e-02,-1.093825548887252808e-01,-1.694544029322428424e-01,4.958212107173688016e-02,-1.103394563331241418e-01,2.211484067719974023e-01,1.847653685427261272e-02,-3.105544499001455239e-01,2.072458891161890193e-01,-2.248101836692287248e-01,-2.230373896555394309e-01,5.360696356252743211e-01,5.568959712982177734e-01
1.649610999999999938e+00,1.169094171193925530e-01,6.015037832187939554e-02,9.360240697860717773e-01,8.732607679308708112e-03,9.012938411177007225e-03,-3.292275291365576173e-02,1.724893536093665969e-01,6.291818689059343328e-02,-1.077558025717735291e-01,-1.879432946902596380e-01,1.421564530372210373e-02,-1.182980189068830318e-01,2.400780336692560912e-01,2.713220280218542335e-02,-3.167769462922060963e-01,2.127168601156317063e-01,-2.233263097992528312e-01,-2.234616679368042480e-01,5.382655390664442541e-01,6.733777523040771484e-01
1.674139999999999961e+00,1.216142252821532099e-01,6.200515058711103533e-02,9.330501556396484375e-01,3.742709598018667018e-03,8.241850993059962605e-03,-3.399436441773739936e-02,1.640145979337198356e-01,7.216010480854469222e-02,-9.942135959863662720e-02,-1.272051841398874061e-01,-4.563718287367184850e-02,2.407540070439721097e-02,2.647722014445605399e-01,1.458742617530933705e-02,-3.219581917006167915e-01,1.922815402572959631e-01,-2.228483403712284983e-01,-2.258558992157849443e-01,5.392739318708203999e-01,7.474923133850097656e-01
1.700407999999999920e+00,1.246963775775751654e-01,6.314046239031680108e-02,9.311898946762084961e-01,3.110330490414428811e-03,6.706079797113018159e-03,-3.329660185358940261e-02,1.612489926075253710e-01,6.910282543423043600e-02,-1.064072698354721069e-01,-9.524008134746578952e-03,-8.469269450057620441e-02,5.208474122778580795e-02,2.538450419076605513e-01,7.019023385153838612e-03,-3.178018800993888116e-01,1.828171227391476583e-01,-2.227903095617666251e-01,-2.237585945350394900e-01,5.400494131285334953e-01,7.518687248229980469e-01
1.723749999999999893e+00,1.293687563443163546e-01,6.461601943451041052e-02,9.286379814147949219e-01,6.523760026464276059e-03,4.003461733107949172e-03,-3.180246104091510873e-02,1.614826517388831817e-01,5.255488366559452756e-02,-8.342293649911880493e-02,1.782609775487404569e-01,-7.641517902663684525e-02,5.796884752351944697e-02,-1.848752461197271102e-01,5.547092211454693333e-02,1.370189050814409892e-01,-2.198805741716354234e-01,-1.623265192185994465e-01,2.268935738894040099e-01,5.375777550573835883e-01,6.930943727493286133e-01
1.748289999999999900e+00,1.325418071423910826e-01,6.555645444345313544e-02,9.271816015243530273e-01,1.060699923001010188e-02,2.614969869831673677e-03,-3.059692010105563575e-02,1.745586104456263721e-01,5.976264158585631314e-02,-8.361186087131500244e-02,1.934579271191920746e-01,-6.723798070050253373e-02,7.555055425949792902e-02,-1.974316474858526238e-01,3.801255080592483293e-02,1.416011976927357141e-01,-2.198455245699463823e-01,-1.854312359681044853e-01,2.284204424408550760e-01,5.376309774452426860e-01,6.845633983612060547e-01
1.775317999999999952e+00,1.375332881003562824e-01,6.687337054928253754e-02,9.251232147216796875e-01,1.629297277523251986e-02,1.364450030378216994e-03,-3.074757985626308532e-02,1.717548484689749855e-01,4.810562580991233073e-02,-7.724446058273315430e-02,1.145580349373732931e-01,-4.880632738327295161e-02,-3.228416796033919955e-02,-2.487769920488476783e-01,1.523590498319160602e-02,1.410733375192054495e-01,-2.211453701450475373e-01,-1.963384421818951120e-01,2.284198198712469596e-01,5.122278810878396760e-01,-6.810463070869445801e-01
1.798851999999999896e+00,1.409870655718633570e-01,6.767323907616573653e-02,9.237907528877258301e-01,1.720833165727314942e-02,8.863307255060348666e-04,-3.201814789459689337e-02,1.765674453098294849e-01,6.295396825199948976e-02,-7.835952192544937134e-02,-7.605903442145914295e-03,1.692404314347924557e-02,-8.913771716394801314e-02,-2.329617631208669160e-01,-3.498745145979420546e-03,1.262881824050492430e-01,-2.192474065961985963e-01,-2.194575217053116589e-01,2.174019091643584756e-01,5.110865011360790078e-01,-7.561360597610473633e-01
1.823520000000000030e+00,1.463567376780118834e-01,6.876306484255774454e-02,9.216453433036804199e-01,1.477754457600707200e-02,2.268263133888837046e-04,-3.464141036108392413e-02,1.847757025552996257e-01,5.415157336658404930e-02,-7.703953236341476440e-02,-1.384703906860386136e-01,-4.508056740984178051e-02,-1.222148270756393956e-01,1.128121181555153951e-01,-3.579455154503946579e-03,-3.225488990779551979e-01,1.231695174551273725e-01,-2.255094698251721153e-01,-2.242675875084021997e-01,5.386589321438149947e-01,7.352942228317260742e-01
1.849426999999999932e+00,1.500072744091328625e-01,6.955577205137616903e-02,9.200435876846313477e-01,1.101911734328897725e-02,1.276809693764313636e-04,-3.623437999070411308e-02,1.777469211697636775e-01,5.679535258503275869e-02,-8.874269574880599976e-02,-2.005106664201295741e-01,3.470602608793658256e-02,-4.969958066877182279e-02,2.250018477424827745e-01,-1.032304418951990321e-02,-3.283367268329148159e-01,2.047575503781981221e-01,-2.236260974545435654e-01,-2.257742720444300688e-01,5.379128808017583641e-01,6.381146907806396484e-01
1.873588999999999949e+00,1.536141562161285057e-01,7.040704298526230531e-02,9.184196591377258301e-01,7.416553977193898056e-03,-5.061900731622159810e-04,-3.679653702793772574e-02,1.904454227217063367e-01,6.354163122448791556e-02,-9.312541037797927856e-02,-1.966889391859139580e-01,-4.219439228878078818e-02,-2.536442525558352604e-02,2.597607793248858932e-01,3.962169279687177692e-03,-3.308012842755201910e-01,2.092056533563872167e-01,-2.224726355702543734e-01,-2.267281982365204618e-01,5.402022389039604633e-01,7.357773780822753906e-01
1.898587000000000025e+00,1.591683155546629036e-01,7.161078622923280901e-02,9.162475466728210449e-01,5.213051305269467486e-03,-1.936833661478898350e-03,-3.566707940039259839e-02,1.760183070241864711e-01,4.442781082472117837e-02,-7.127427309751510620e-02,-1.052494897346840236e-02,-9.829188116858557367e-02,4.920115477623247802e-02,2.503057056141709813e-01,-1.765735609577570586e-02,-3.262839684667727669e-01,2.059835473659413496e-01,-2.215882236053531573e-01,-2.257124502903405661e-01,5.391412522794858386e-01,7.542254924774169922e-01
1.923327000000000009e+00,1.650469977246148134e-01,7.260487787317101982e-02,9.145854115486145020e-01,7.912862142927806416e-03,-3.527060801846948479e-03,-3.362076477092346138e-02,1.866803274496300624e-01,5.513962816987616478e-02,-7.000251114368438721e-02,1.086020944846646519e-01,-5.103690265954630850e-02,1.056676496352824263e-01,-1.644800020616531411e-01,3.690972152117436567e-01,1.146380967652521066e-01,-2.095997643457236659e-01,1.563609085399165766e-01,2.097618983855413233e-01,5.390945873250604370e-01,7.443809509277343750e-01
1.948768000000000056e+00,1.689623683695566092e-01,7.320089446466543359e-02,9.136638641357421875e-01,1.218564432703439851e-02,-4.422508631193755591e-03,-3.199401115755295955e-02,1.766946747678324603e-01,4.314525348277681305e-02,-4.941564425826072693e-02,2.664375559843490393e-01,-5.245710323408541570e-02,5.578450273430778789e-02,-2.243348442904923024e-01,2.529938954931404416e-01,1.349593248153489189e-01,-2.263535764878911727e-01,5.561201800894827879e-02,2.255413014573655339e-01,5.367940978252605522e-01,6.940908432006835938e-01
1.973527000000000031e+00,1.749482538751113148e-01,7.398802437417940914e-02,9.124859571456909180e-01,1.753630116213796691e-02,-6.391370769641913085e-03,-3.209459473699571852e-02,1.852014331520163704e-01,4.818726371671375880e-02,-4.061358422040939331e-02,1.340021508916038329e-01,-1.095557661741243527e-01,-6.718296818987762320e-02,-2.478318880684486636e-01,4.169883769513815786e-01,-2.030890795384569791e-01,-2.256373965202879139e-01,2.164287067500331452e-01,-1.119128005995265462e-01,5.318471856223334626e-01,4.472743272781372070e-01
2.000134000000000079e+00,1.788892915027964770e-01,7.457578576588838604e-02,9.117800593376159668e-01,1.872600593642343922e-02,-9.483958405861692142e-03,-3.300642600038816710e-02,1.836303996201410771e-01,5.172046730230589473e-02,-4.563962668180465698e-02,1.084966747308214845e-02,-1.967788749018846706e-01,-8.898926113371103883e-03,-1.811233332016834105e-02,3.768087431542548327e-01,-3.234162700609701235e-01,9.417460984292986420e-03,1.985761782135892495e-01,-2.297787272340037767e-01,5.378531008410086800e-01,7.530858516693115234e-01
2.023919999999999941e+00,1.849470771718293993e-01,7.599874566262360132e-02,9.107596278190612793e-01,1.661979616299481821e-02,-1.666591588769361643e-02,-3.261825603816115304e-02,1.643410229642076614e-01,4.827732293424550486e-02,-3.691811114549636841e-02,-1.005693651093241964e-01,-2.809476117428703623e-01,5.199930937597966457e-02,2.072255729316439254e-01,-9.756448673905472602e-02,-3.200833737187848138e-01,2.246971092193802144e-01,-2.152681741598437559e-01,-2.280259672922303749e-01,5.372921878822664032e-01,7.517499923706054688e-01
2.049685000000000201e+00,1.887810606028199889e-01,7.702865317006075963e-02,9.102284908294677734e-01,1.352277601810619040e-02,-2.347940553078231574e-02,-3.156983609894470355e-02,1.659575519079786177e-01,5.721865666902082453e-02,-3.775528818368911743e-02,-1.559544285105120276e-01,-3.493923242638518611e-01,3.604439293355736484e-02,2.375831356775633119e-01,-1.284996037725174844e-01,-3.189842494311285748e-01,2.236824276508193043e-01,-2.130631224437894711e-01,-2.301081442827021262e-01,5.374216943433299809e-01,7.493596076965332031e-01
2.074313000000000073e+00,1.943400928008753303e-01,7.847327098390204092e-02,9.097579717636108398e-01,1.050503885975171206e-02,-3.425932144564325377e-02,-2.934880677435702800e-02,1.572801853826351348e-01,4.038249710363519401e-02,-2.360297925770282745e-02,-7.385434324765868808e-02,-3.168015315825803979e-01,6.687435773248047444e-02,2.327641562967863176e-01,-1.626718023569127813e-01,-3.157555340714589542e-01,2.180633643049874892e-01,-1.732788943345256738e-01,-2.335740296076517786e-01,5.364458932985526340e-01,7.487721443176269531e-01
2.098913000000000029e+00,1.979746330858421222e-01,7.935327663396005149e-02,9.096105694770812988e-01,1.018466063949604455e-02,-3.872303319020709012e-02,-2.738406300409645944e-02,1.637694783916864016e-01,4.768753035125019440e-02,-1.937299594283103943e-02,1.397016285012294377e-02,-1.855242247634549535e-01,1.052686132619436304e-01,3.422269468215925758e-02,-8.169153191254795165e-02,-3.033560362339432492e-01,3.393477630311827250e-03,-7.561313312818117305e-02,-2.267624605712576513e-01,5.363372195582118973e-01,7.550258636474609375e-01
2.125128000000000128e+00,2.037981610695246137e-01,8.189229104707818063e-02,9.097925424575805664e-01,1.294214660707773343e-02,-4.083311472175266132e-02,-2.442240864692690749e-02,1.545591328701896583e-01,3.951135547754117822e-02,-1.417204504832625389e-03,1.550543737022987700e-01,-3.487714629044591508e-02,1.177546823350366367e-01,-9.654436992239749660e-02,1.948281565357530276e-01,-2.860986134633564104e-01,-9.993126735090079871e-02,2.208113888257015600e-01,-2.179050953372067834e-01,5.350496106382875983e-01,7.553572654724121094e-01
2.148912999999999851e+00,2.075982653306024661e-01,8.346332196961099570e-02,9.100387096405029297e-01,1.596823725837788477e-02,-3.978980066480897193e-02,-2.246709977595351404e-02,1.481420098347334680e-01,3.860218395367261135e-02,7.701036520302295685e-03,1.639322518411121254e-01,7.682306839470937065e-02,1.152547558052553767e-01,-2.302825754741198994e-01,1.128354072914386913e-01,9.948104815450792282e-02,-2.168047754456748077e-01,1.318604060096489894e-01,1.622292754696465500e-01,5.332801865656456863e-01,6.934001445770263672e-01
2.173751000000000211e+00,2.130669446338834538e-01,8.577625022168504365e-02,9.108774065971374512e-01,2.012907094801072785e-02,-3.800030535504084206e-02,-1.971046921921915107e-02,1.511361144704618242e-01,4.546614176451931055e-02,2.920561237260699272e-03,1.101258691138096296e-01,5.805753129025674475e-02,5.943255788159507169e-02,-2.515508223255600306e-01,9.619965788948763030e-02,1.501464294624779983e-01,-2.191633369021980804e-01,9.467125936173310941e-02,2.053133901475206191e-01,5.341622542381108119e-01,7.232587337493896484e-01
2.199037000000000130e+00,2.165208229457662170e-01,8.731145005816259852e-02,9.114575386047363281e-01,2.043185590018681275e-02,-3.793478798159544141e-02,-1.894534640072476073e-02,1.339305878939576477e-01,3.567672372128307540e-02,8.468416519463062286e-03,-4.577824961363462924e-02,-5.081859226146243774e-02,3.127870930979127773e-02,1.483140748656940067e-01,-2.373511452170912472e-01,-2.841147609701483723e-01,1.941481360719171101e-01,-2.241196953054030161e-01,-2.311932432065340604e-01,5.343214279596862903e-01,7.568576335906982422e-01
2.226214000000000137e+00,2.206512898055167093e-01,8.900581548494393425e-02,9.121391177177429199e-01,1.908594633682765898e-02,-3.839452840353141383e-02,-1.926668925137597910e-02,1.307548224523716052e-01,4.605688315713908632e-02,1.043175812810659409e-02,-8.465432793432303704e-02,-8.605805773763988004e-03,-5.975367112252320811e-02,1.831342961313995876e-01,-2.342079256882037830e-01,-2.848314687535239975e-01,2.048298185305635621e-01,-2.238904743993938851e-01,-2.309921875132998625e-01,5.337564265537205754e-01,7.335114479064941406e-01
2.251533999999999924e+00,2.265119467705024314e-01,9.152477990082451276e-02,9.132322072982788086e-01,1.499508462216064472e-02,-4.000587323895921088e-02,-1.893008893047820607e-02,1.251517853795585944e-01,4.645027128855345327e-02,1.165630761533975601e-02,-1.018365688955802650e-01,-2.173707345320369591e-02,2.973296666928441218e-02,2.221588819683412153e-01,-2.390354004504285090e-01,-2.865426503564508787e-01,2.188642166104002307e-01,-2.181097423070533503e-01,-2.337061712230489030e-01,5.339930646168629114e-01,7.543659210205078125e-01
2.274713999999999903e+00,2.320682001392560811e-01,9.391602927780698384e-02,9.145382642745971680e-01,1.302588453025797614e-02,-3.882688762166464080e-02,-1.608251040459585113e-02,1.243286085777287886e-01,3.343181636538870155e-02,2.881351672112941742e-02,1.020299152978742380e-02,6.318272623052022252e-02,9.068066662015972224e-02,2.943710731608147058e-02,-2.289093785688458005e-01,-2.621874913656864203e-01,2.523338933567226272e-02,-2.221883855571027688e-01,-2.172236050880036740e-01,5.312572306704417269e-01,6.762028932571411133e-01
2.300828000000000095e+00,2.356109295869669440e-01,9.534975176003110398e-02,9.155806899070739746e-01,1.428294716237831635e-02,-3.624566123333239354e-02,-1.386504766708274161e-02,1.284186557723461797e-01,3.472438054429303339e-02,2.885045111179351807e-02,1.231944007566071475e-01,1.472887540741366352e-01,1.254066212540744796e-01,-1.250580849657440263e-01,-1.919116964729497554e-01,1.598319961685746027e-01,-1.276489612645417271e-01,-2.092125302262395625e-01,1.987364576598633914e-01,5.255633598210626145e-01,3.673313856124877930e-01
2.325619999999999798e+00,2.409417497704565148e-01,9.753461715706826518e-02,9.173780083656311035e-01,1.839007595234282144e-02,-3.032315409724195554e-02,-1.029154367601714526e-02,1.138114207128340105e-01,3.061501976261181077e-02,4.132242128252983093e-02,1.686206477022723083e-01,2.298224318323456306e-01,1.338707741811350771e-01,-2.110960926157868511e-01,-1.761195693684317887e-01,2.069199737250317639e-01,-1.831141961346690050e-01,-2.205316119676702102e-01,2.360300930754268556e-01,5.259134821851950692e-01,4.437366724014282227e-01
2.349320000000000075e+00,2.444331142954243585e-01,9.890513321726027152e-02,9.185970425605773926e-01,2.068641311753671372e-02,-2.513610172644198393e-02,-9.125565906137111938e-03,1.222250508459380297e-01,3.009487711587617922e-02,3.609367087483406067e-02,7.074718207523036928e-02,2.715107638327844963e-01,2.825791062141422977e-02,-2.485065073817828152e-01,-1.306351594142058370e-01,2.035989673671936839e-01,-2.072774690481491433e-01,-2.250513049647343278e-01,2.298457063263998346e-01,5.225371942309716689e-01,2.417641878128051758e-01
2.374340000000000117e+00,2.495954397638318889e-01,1.009096630359614388e-01,9.203737378120422363e-01,2.115140702950334822e-02,-1.749673799602380342e-02,-9.559063291371350246e-03,1.233906195123794930e-01,3.382643398962738301e-02,2.875882200896739960e-02,-2.368327882759882486e-02,2.085160714442536312e-01,-4.279252733885976351e-02,-2.563969459281619234e-01,-8.341409315034409300e-02,5.474430641545069420e-03,-2.174309480027623309e-01,-2.288929315952678845e-01,3.335936894798424701e-02,5.313440126202495506e-01,6.982576847076416016e-01
2.398572000000000148e+00,2.529408870342813032e-01,1.022412339750828625e-01,9.214378595352172852e-01,1.923529563707230758e-02,-1.234340134176115100e-02,-1.043498032926448715e-02,1.088747727013335415e-01,3.251124017301492558e-02,2.795866504311561584e-02,-1.033597801237273461e-01,2.393081220387864028e-01,-4.279484860216661163e-02,-2.495693244402095168e-01,-6.799872549964516844e-02,-2.430516947011025219e-01,-2.214228600224062704e-01,-2.344099840633555865e-01,-2.126280231657735331e-01,5.319458594670349871e-01,7.327499389648437500e-01
2.423970000000000180e+00,2.578752428067217495e-01,1.041789940410293575e-01,9.229182004928588867e-01,1.406516103941999468e-02,-6.271959123756332133e-03,-1.083067881934485222e-02,1.215746465985584196e-01,4.255454657714173583e-02,1.759346202015876770e-02,-1.844982174974110767e-01,1.797950568141800376e-01,-1.570149657881691682e-02,-1.618376697909276740e-01,-6.461299858701419208e-03,-2.544816277268801552e-01,-1.792654305426847061e-01,-2.333429730968477611e-01,-2.226727841160681676e-01,5.328413417427477761e-01,7.425402402877807617e-01
2.448137000000000008e+00,2.610305319978473149e-01,1.054550400560441692e-01,9.238430261611938477e-01,9.628802286115241416e-03,-3.293764951538102892e-03,-9.403848106872114698e-03,1.101684756013499300e-01,3.969985374764928299e-02,2.006594836711883545e-02,-2.317219156823481785e-01,1.391317646874601632e-01,1.095379467357191217e-01,2.532669757499372287e-01,4.449427635038971651e-03,-2.537788555358505560e-01,2.128954047021068829e-01,-2.286078996659706708e-01,-2.261878933604493935e-01,5.326730764777100058e-01,7.474442720413208008e-01
2.475245000000000140e+00,2.655864443651640427e-01,1.073951194475718934e-01,9.252914190292358398e-01,2.835062221338321108e-03,-1.329781636374427478e-04,-6.408759899082072664e-03,1.069754974772088307e-01,4.543159041347233362e-02,2.376614324748516083e-02,-2.143768406407631777e-01,1.174711407206717739e-01,1.323232637913332732e-01,3.156061712925263274e-01,3.074328290322944635e-02,-2.461805191476289789e-01,2.233734049116792297e-01,-2.276515940595425780e-01,-2.271439365700645696e-01,5.323732774945727497e-01,7.495914697647094727e-01
2.498174999999999812e+00,2.685614223587085569e-01,1.086212313415641229e-01,9.263865351676940918e-01,1.458683252112702466e-04,2.553231118174181802e-04,-4.238309312616372893e-03,1.127423013916961647e-01,3.740535823307111069e-02,4.315727204084396362e-02,-8.818815211653985298e-02,-2.748763535645171174e-02,9.620236739264759196e-02,3.197758956661018170e-01,4.433177838217944311e-02,-2.396875182742984334e-01,2.192504507135828173e-01,-2.273825121837060870e-01,-2.269079098610389533e-01,5.309700928690601618e-01,7.527798414230346680e-01
2.525837000000000110e+00,2.726439255303504949e-01,1.100062480477837501e-01,9.284373521804809570e-01,1.204481276432441909e-03,-6.017867948906463482e-04,-1.249403462837417322e-04,1.044398912418995351e-01,3.004094679213116861e-02,6.065993756055831909e-02,9.331951009882438752e-02,-6.232984363944158585e-02,1.479194428984278165e-01,1.585717593358338950e-01,4.842641021489357822e-02,-1.432486337344875960e-01,6.887465321912196459e-02,-2.117363024388421167e-01,-1.419908289274455782e-01,5.291407633451069570e-01,7.311331033706665039e-01
2.551413000000000153e+00,2.752112031530962177e-01,1.107156149656797761e-01,9.300343990325927734e-01,5.169650389130452280e-03,-1.806686262751266980e-03,2.754726590761702454e-03,1.085046556186873568e-01,3.381284975821402528e-02,5.326830223202705383e-02,2.280735658035464297e-01,-3.085340349704907351e-02,1.431065064910336526e-01,-6.539320055295165524e-02,4.410558045327322985e-02,7.786890536723665990e-02,-1.357316342047468760e-01,-2.174108528187433942e-01,7.135385094270878248e-02,5.287058516723647239e-01,6.826243400573730469e-01
2.573407000000000000e+00,2.777753812241414710e-01,1.113724127630457278e-01,9.317295551300048828e-01,1.055551214106883497e-02,-3.464229322037937209e-03,5.598085829323418139e-03,1.106636010106093332e-01,2.484912957135011757e-02,6.514329463243484497e-02,2.499427908524871345e-01,-8.125788586233191613e-02,1.390976633351319602e-01,-1.825334235837346442e-01,6.327693726410058006e-02,2.164538468344619493e-01,-2.076217504463964691e-01,-1.914064497029130119e-01,2.021620044541391770e-01,5.284020694609645741e-01,7.200043201446533203e-01
2.599254000000000175e+00,2.816964272772229383e-01,1.122970446350646523e-01,9.341904520988464355e-01,1.817228953486429641e-02,-4.728992013012023321e-03,8.989820639307533057e-03,1.132543034826882372e-01,2.631850094017086292e-02,6.276755034923553467e-02,1.854339590555532935e-01,-2.286868003827567664e-02,9.414002298812923497e-02,-2.368639543740734821e-01,4.361382833513596791e-02,2.488136652749029787e-01,-2.171973235862421081e-01,-2.081285952906151981e-01,2.254696740820216483e-01,5.274191438320470215e-01,6.658303737640380859e-01
2.624591000000000118e+00,2.854356953880455849e-01,1.131159787460820354e-01,9.364606738090515137e-01,2.171822616110476514e-02,-5.617444150926909074e-03,9.574641734966471418e-03,1.210612934139095320e-01,2.777263543120299730e-02,6.158631667494773865e-02,6.064297680979035404e-02,-2.118787571607995412e-02,2.917727183837799318e-03,-2.652437642665694262e-01,1.094704985724416768e-01,2.445952803947668841e-01,-2.239923332783514964e-01,-1.465963468101615930e-01,2.198555824865694175e-01,5.225964613376139489e-01,4.067347049713134766e-01
2.649159000000000042e+00,2.878492370263380784e-01,1.136769853712986250e-01,9.377902150154113770e-01,2.072936792652572274e-02,-6.193517981227136815e-03,9.359893468890545520e-03,1.194575500896720155e-01,2.593508801315065962e-02,5.355941876769065857e-02,-9.585034761751969057e-02,-6.197129109238464634e-02,-1.818138365547564833e-02,1.732940952862750406e-01,1.628183091180301911e-02,-1.993835076945402740e-01,2.100696588527554420e-01,-2.331506932361416262e-01,-2.236450278021623883e-01,5.294298319573997880e-01,7.522633075714111328e-01
2.674055000000000071e+00,2.902418922337582363e-01,1.142670923437408698e-01,9.390414953231811523e-01,1.830271550967888655e-02,-6.725047870172362607e-03,8.957539360141764107e-03,1.231944914927802087e-01,3.709210464724292666e-02,4.084578901529312134e-02,-1.575523892335619902e-01,-3.104350263566227949e-03,-2.279013869596002370e-02,2.121837058653524288e-01,1.795734043728680618e-02,-2.006016389656399002e-01,2.208195383364811026e-01,-2.337259472068192179e-01,-2.237479854754759467e-01,5.303010360041621185e-01,7.526237964630126953e-01
2.700384999999999813e+00,2.937316906034919128e-01,1.151913439149238189e-01,9.405804872512817383e-01,1.348704970992632181e-02,-8.595687656007822142e-03,1.007181288961489507e-02,1.042858594511679726e-01,3.346127529486257746e-02,4.642903059720993042e-02,-1.265186231711521725e-01,-7.796897551785481051e-02,8.682445945565585299e-02,2.073195929156368411e-01,-1.113700694142177872e-02,-1.993633804673189958e-01,1.916182770208499919e-01,-2.332728534616985705e-01,-2.261355196328596606e-01,5.297948587933885012e-01,7.554423809051513672e-01
2.723831000000000113e+00,2.959923973828039734e-01,1.157382953311632129e-01,9.416265487670898438e-01,1.188208696040073120e-02,-1.040910040089371158e-02,1.228773521874204633e-02,1.094203656747862741e-01,2.924127528144931931e-02,5.078043416142463684e-02,-7.348621943608944773e-02,-8.794551932614283474e-02,1.340117774390489902e-01,1.573059506427535448e-01,-7.736106087221750194e-03,-1.929291916403494678e-01,1.341730536071640556e-01,-2.326809848827421090e-01,-2.259794670911921821e-01,5.293798182555508047e-01,7.524548768997192383e-01
2.750665999999999833e+00,2.994547059906801922e-01,1.166128230857218506e-01,9.432655572891235352e-01,1.345481107358711785e-02,-1.313083460108699363e-02,1.637296527509635169e-02,1.135300284191141096e-01,2.145141922629004855e-02,4.913780465722084045e-02,9.551761442126985302e-02,-7.675541891046157306e-02,1.522194205124760003e-01,-2.105204738931618913e-01,4.054911112059403355e-02,2.330434061786142153e-01,-2.166379920797017467e-01,-1.721043986494644185e-01,1.885187140739998102e-01,5.292755910689548315e-01,7.462015151977539062e-01
2.773699000000000137e+00,3.017441379520531264e-01,1.171143695128458728e-01,9.443967938423156738e-01,1.631332204479651535e-02,-1.405004250036379077e-02,1.930811045847735663e-02,1.041671620289883471e-01,1.340289056235111249e-02,5.430860072374343872e-02,1.439468543237097109e-01,-5.574403171164812876e-02,1.307093234771132817e-01,-2.351548043101131524e-01,3.157779192500617671e-02,2.568404295672496174e-01,-2.173264844867175694e-01,-1.667456742131057379e-01,2.041028414563545446e-01,5.287314850544854172e-01,7.427929639816284180e-01
