timestamp,x,y,z,roll,pitch,yaw,vx,vy,vz,p,q,r,psp,qsp,rsp,pres,qres,rres,thrust_sp, thrust_res
0.000000000000000000e+00,-1.837014528999002597e-02,-9.873612981209143810e-03,9.997115135192871094e-01,6.809545402172020694e-03,-8.903681426686516076e-03,1.085688827912267840e-03,9.644572538162617462e-03,2.522419828376642678e-02,-6.981892976909875870e-03,-2.673671145688505391e-02,5.659597857024795467e-03,-3.281032446191204516e-02,1.166939039065335859e-02,8.202906451753141925e-02,2.080548025652105837e-01,4.173730506827773995e-02,1.436304941790576550e-01,2.048955457331701480e-01,5.024344902299223703e-01,-5.327723622322082520e-01,-7.347079515457153320e-01,8.670054302212010100e+01,-5.252573490142822127e-02
6.146499999999999880e-02,-1.857338852606884444e-02,-9.423249907746084758e-03,9.995530247688293457e-01,6.859330178473196579e-03,-8.884893077147015816e-03,1.244869210723642539e-03,1.635749816782279542e-02,2.620495862680077143e-02,-1.101338677108287811e-02,5.713132153432648463e-02,-2.909812916271463032e-02,-2.570198537267085522e-03,-2.499345545113706435e-01,-2.284406415996284023e-01,3.237930178918426577e-02,-2.169500353894581735e-01,-1.708191222774546603e-01,2.878638342740810069e-02,5.015887256809895556e-01,-5.942808985710144043e-01,-6.337634325027465820e-01,5.224204399901443452e+01,-5.252573490142822127e-02
9.040600000000000025e-02,-1.874040471949573253e-02,-8.986560318580074855e-03,9.994192719459533691e-01,6.886841408952885761e-03,-8.661227579871644267e-03,1.240106784900385506e-03,1.186370597197385687e-03,2.936532191737681319e-02,-1.864882931113243103e-02,2.463846198230481080e-02,1.623329505029690728e-02,1.810906840178647115e-02,-2.404920465512793148e-01,-1.266791162685079047e-02,5.597309065825797209e-02,-2.100658149135948838e-01,5.683620887623008072e-02,5.236467484229886254e-02,5.065794635361150489e-01,-3.631396293640136719e-01,-1.217753529548645020e+00,1.944734490677801659e+02,-5.252573490142822127e-02
1.133979999999999988e-01,-1.905103776966894299e-02,-8.098020259275673025e-03,9.991490840911865234e-01,7.215457988030759412e-03,-8.643138718535725573e-03,9.424347415860623300e-04,-4.721649163181412465e-03,2.670318081569598295e-02,-1.258342992514371872e-02,-5.166008450561911276e-03,1.354129190032056333e-02,-4.305863453726233719e-02,-1.774770239723731380e-01,2.952338512767144207e-02,2.010342553255748677e-01,-1.429545766809256768e-01,1.017351734671324698e-01,1.982536036729458939e-01,5.026091764717465216e-01,-5.501890778541564941e-01,-7.125343084335327148e-01,-7.917471616061448003e+00,-5.252573490142822127e-02
1.348380000000000134e-01,-1.936637622222276214e-02,-7.223840594942755253e-03,9.989491701126098633e-01,7.612133330668733808e-03,-8.591083427948120743e-03,9.191955924729988681e-04,4.895581156559936434e-03,3.125081089535448192e-02,-2.343518473207950592e-02,-3.002869044847973276e-02,7.925218187012410265e-02,1.749581870385136587e-02,-2.156702699527286438e-01,8.123574359121391031e-02,2.107834881191963106e-01,-1.832050409409292646e-01,1.447284163071802243e-01,2.080698404607517482e-01,5.025380355036004332e-01,-5.987926721572875977e-01,-9.830535650253295898e-01,8.668846724766753198e+01,-5.252573490142822127e-02
1.572919999999999874e-01,-1.944880096710416978e-02,-6.558175811950605130e-03,9.987155795097351074e-01,8.275407506538835431e-03,-8.891340439382000582e-03,8.360103255342643536e-04,4.136678773418373152e-03,3.125844568768312848e-02,-8.439045399427413940e-03,5.276279263741368020e-02,-3.904429006766207272e-02,-8.812822325016149080e-03,-2.546802355514678484e-01,-2.424029762503276397e-01,8.033112878181535021e-02,-2.178068217608166990e-01,-1.748030910542657523e-01,7.783191295318091230e-02,5.013364801444520902e-01,-6.040472388267517090e-01,-9.177955389022827148e-01,8.783387631110032601e+01,-5.252573490142822127e-02
1.772229999999999916e-01,-1.935203791082831457e-02,-6.120286431032775400e-03,9.985932707786560059e-01,8.719869139891504514e-03,-8.591832949365718619e-03,4.773217626188319684e-04,1.420369942432627049e-04,2.502294600040984307e-02,-1.190123520791530609e-02,1.147636792189705122e-02,8.479882930256876089e-03,-1.619416172039348650e-02,-2.587569368233176847e-01,1.845300767955243559e-02,1.564355071531289276e-01,-2.143109941864434487e-01,8.721652688114013563e-02,1.549419900548231199e-01,5.004976676147417924e-01,-6.628206968307495117e-01,-1.319894194602966309e+00,3.825700969226529935e+01,-5.252573490142822127e-02
2.011580000000000035e-01,-1.916331407040798226e-02,-5.437675490262142836e-03,9.983066916465759277e-01,9.189979601704666157e-03,-8.542839633406407174e-03,3.100801634252636774e-04,2.005242513317118461e-02,3.336842105060250363e-02,-2.157217264175415039e-02,-1.922248433726088390e-02,9.785113688812699384e-03,2.600386448560865899e-02,-1.919446451466401693e-01,5.732222864335498325e-02,1.700793739672438187e-01,-1.525506413809656625e-01,1.090510100216940947e-01,1.690738879077837709e-01,5.041092565878456666e-01,-5.136492848396301270e-01,-9.341818094253540039e-01,6.048323755343051289e+01,-5.252573490142822127e-02
2.267049999999999899e-01,-1.895138865343521523e-02,-4.882848472381739156e-03,9.979800581932067871e-01,7.710765089216316259e-03,-6.800404650627367431e-03,-8.736653884389156133e-05,2.224495804033552356e-03,2.703849272523022040e-02,-1.776669546961784363e-02,-1.153242303909461780e-01,6.432600605149230155e-02,-5.390161057685004253e-02,6.841087293779160583e-02,1.157626549639124425e-01,1.787211358231174108e-01,1.040502914860313016e-01,1.733375442649917053e-01,1.788425191520590929e-01,5.039056825419075958e-01,-5.116089582443237305e-01,-6.709080934524536133e-01,3.089539423878512281e+01,-5.252573490142822127e-02
2.467199999999999949e-01,-1.864083083598593385e-02,-4.230972104810705632e-03,9.974641799926757812e-01,4.622119172790409639e-03,-4.085295702266789064e-03,-5.712266303574686788e-04,1.857853747337279843e-02,3.830674442365931964e-02,-2.997762337327003479e-02,-1.621214955818985615e-01,1.079404136972942074e-01,-4.910429178945725087e-02,1.354070681789981967e-01,1.610051472516569881e-01,1.674410242040819674e-01,1.405296393441407277e-01,1.850068371126133149e-01,1.689967561922643968e-01,5.045231899191188196e-01,-5.310278534889221191e-01,-1.378965735435485840e+00,1.304652055252194316e+02,-5.252573490142822127e-02
2.739840000000000053e-01,-1.792580879657295484e-02,-2.361428482417842704e-03,9.964357614517211914e-01,-1.314610933797540505e-03,-1.345584511345032652e-03,-2.926862614049063893e-03,1.441978574824401456e-02,4.008542411498867281e-02,-5.183174088597297668e-02,-1.980545832189113398e-01,4.998208396869870118e-02,-9.529827158191102321e-02,2.387260059149742819e-01,1.247155659522399263e-01,1.575941715234518425e-01,2.043236762073364909e-01,1.362211825544385468e-01,1.657828083242640638e-01,5.091952240143534647e-01,-3.770928382873535156e-01,-1.476568341255187988e+00,9.460139849547820745e+01,-5.252573490142822127e-02
3.028040000000000176e-01,-1.719659186740279608e-02,-3.854405360604277325e-04,9.949741363525390625e-01,-7.821874154894447456e-03,-8.843470675541365011e-04,-5.441286630021302528e-03,2.301311100255877887e-02,4.924202581250267108e-02,-7.010421156883239746e-02,-2.490507469340028646e-01,5.014491968798581722e-02,-1.077299264863216255e-01,2.963858984517689921e-01,1.197762792247385188e-01,1.426165271746420993e-01,2.113787428843549032e-01,1.204142637292793111e-01,1.578524148189836274e-01,5.114782670182679292e-01,-3.375209569931030273e-01,-4.879165887832641602e-01,1.030948070302807622e+02,-5.252573490142822127e-02
3.298949999999999938e-01,-1.665827424450282146e-02,1.011747266836261110e-03,9.937240481376647949e-01,-1.248705530450445328e-02,-5.225695045563139018e-04,-6.792039351779965983e-03,2.832327991276173407e-02,5.109345616215742875e-02,-7.732450217008590698e-02,-1.934601156118950782e-01,1.810416754254796229e-02,-6.822886338216258006e-02,3.148544988667740796e-01,1.106686244814201192e-01,1.383272002928669087e-01,2.148544988667740741e-01,1.056131091884166123e-01,1.573369801459789386e-01,5.134593728624792242e-01,-2.695110440254211426e-01,-1.157816767692565918e+00,6.397660610632523515e+01,-5.252573490142822127e-02
3.535190000000000277e-01,-1.577169385763124709e-02,3.463581214239223448e-03,9.914115071296691895e-01,-2.071880758130727890e-02,4.943078363488506710e-04,-9.538667404105583003e-03,2.094500859285078342e-02,6.086587724136327537e-02,-9.684366732835769653e-02,-2.775512643305930172e-01,3.515559285546578788e-02,-1.220349347231829279e-01,3.203541535763624881e-01,1.323506054856318226e-01,1.569441173465436767e-01,2.203541535763624826e-01,1.267225573357007862e-01,1.836346920808988870e-01,5.166799086338436098e-01,-1.886959075927734375e-01,-5.965191125869750977e-01,-1.562928282111922806e+00,-5.252573490142822127e-02
3.780240000000000267e-01,-1.523117429520745927e-02,5.365031196384256219e-03,9.896884560585021973e-01,-2.497806609821121016e-02,-2.734834204010105907e-05,-1.115515807282418947e-02,3.249140939476075074e-02,6.355753372488229247e-02,-1.014470979571342468e-01,-1.325177339334243087e-01,-2.518458182173980570e-02,-7.779073422481472266e-02,3.218440807584367347e-01,6.019126539363324480e-02,1.151600871993097019e-01,2.218440807584367569e-01,4.739016630919160034e-02,1.463439428750169524e-01,5.157802771794129937e-01,-2.676086425781250000e-01,-5.544120073318481445e-01,5.226564230259683086e+01,-5.252573490142822127e-02
4.008090000000000264e-01,-1.469991089326524482e-02,7.253056112550209517e-03,9.878732562065124512e-01,-2.713208936431242904e-02,-1.943837467443199074e-03,-1.324654069374786580e-02,2.901012076123092587e-02,5.824066208636097253e-02,-1.091143563389778137e-01,-1.019248794586986862e-01,-1.607987405721463814e-01,-9.862042534251493076e-02,3.151176362885518278e-01,-1.643759875925202840e-01,1.259579772890232485e-01,2.151176362885518223e-01,-1.607535670563287333e-01,1.630624923270188043e-01,5.133199917802282464e-01,-4.426926374435424805e-01,-6.619893312454223633e-01,8.383344817460219645e+01,-5.252573490142822127e-02
4.253080000000000194e-01,-1.387809844249129378e-02,1.011653268779127632e-02,9.849771857261657715e-01,-2.635303862484925791e-02,-5.914946250228814151e-03,-1.589770540491342032e-02,2.949027874528182408e-02,7.351850783090410624e-02,-1.175125390291213989e-01,7.340090610530582149e-02,-7.934610697990916728e-02,-4.326135819559421419e-02,3.162252587543582516e-01,-2.122553356701629423e-01,-1.034475069633414707e-01,2.162252587543582183e-01,-1.840354343887880828e-01,-5.883023462975543738e-02,5.239935975807953339e-01,8.040630817413330078e-02,-7.201403379440307617e-01,1.171443832095919362e+02,-5.252573490142822127e-02
4.461709999999999843e-01,-1.333054008150017476e-02,1.207970970037827198e-02,9.828509688377380371e-01,-2.345241294543341792e-02,-9.570708661324589528e-03,-1.792982725101710528e-02,3.091213309833433162e-02,6.962088956260611972e-02,-1.161637157201766968e-01,1.584544799720011277e-01,-2.004193277359816727e-01,-1.170391163188221756e-01,3.142369322013350841e-01,-2.435285803088361456e-01,-7.542450613085666111e-02,2.142369322013351063e-01,-1.929434276384018876e-01,-2.505865551625973894e-02,5.220984175904714863e-01,-3.195196390151977539e-02,-1.069457888603210449e+00,3.758114881351419712e+01,-5.252573490142822127e-02
4.732480000000000020e-01,-1.291269527282873537e-02,1.462605610591545709e-02,9.794149398803710938e-01,-1.659404143099572904e-02,-1.389365033088929557e-02,-2.068350452749068147e-02,3.260898025895608149e-02,7.666015750277396790e-02,-1.282487511634826660e-01,2.309101634043813356e-01,-1.069484454275017871e-01,-8.442838727876782190e-02,2.740858633230749963e-01,-2.635060383351168767e-01,-9.247986632495600046e-02,1.740858633230749908e-01,-1.858724888400812569e-01,-3.445005849899677314e-02,5.228394709706553067e-01,-6.077849864959716797e-02,-1.382940649986267090e+00,7.459806936007198885e+01,-5.252573490142822127e-02
4.989839999999999831e-01,-1.247002908484546625e-02,1.728613977846989516e-02,9.757468700408935547e-01,-7.424915498238370513e-03,-1.844742557837686370e-02,-2.355312596317005180e-02,2.422362289262216736e-02,7.602470608409017672e-02,-1.345632672309875488e-01,3.544643198089000302e-01,-1.948584751064468268e-01,-8.464447363741250951e-02,7.956697472684359784e-02,-2.846011200299597421e-01,-4.326230611067416465e-02,-2.043302527315640424e-02,-1.846011200299597366e-01,2.263219667789367548e-02,5.224860188311504228e-01,-1.272760033607482910e-01,-1.148520588874816895e+00,1.390739486343468059e+02,-5.252573490142822127e-02
5.330139999999999878e-01,-1.217910053189541313e-02,1.908035705512187152e-02,9.731529355049133301e-01,-7.639430903049614259e-04,-2.108128621727933805e-02,-2.565642672319468076e-02,2.450065884611133532e-02,8.119991100772196158e-02,-1.341959834098815918e-01,3.329467937572708758e-01,-1.150667762770841845e-01,-1.276664667606578207e-01,-1.007906327596259366e-01,-2.827857902314790950e-01,5.699467569304539349e-02,-1.739563788890963747e-01,-1.827857902314790617e-01,1.285612360307864521e-01,5.196495458392517142e-01,-2.975481748580932617e-01,-5.105861425399780273e-01,7.376010077155980582e+01,-5.252573490142822127e-02
5.529450000000000198e-01,-1.173033165981931213e-02,2.182501217097481544e-02,9.690942168235778809e-01,9.312827981781093140e-03,-2.330041438438446022e-02,-2.848441994833850188e-02,2.474878854638139225e-02,8.392978732500194772e-02,-1.617204993963241577e-01,3.192497836078310725e-01,-3.455658895225037497e-02,-5.849499587614140350e-02,-2.128241696210550760e-01,-2.910212146191577531e-01,7.038288250835258997e-02,-2.235910484966693035e-01,-1.910212146191577476e-01,1.495105833161660402e-01,5.207138287780660457e-01,-3.745979666709899902e-01,-6.399720907211303711e-01,8.816052327796701604e+01,-5.252573490142822127e-02
5.783800000000000052e-01,-1.108395215579543319e-02,2.421511883688620692e-02,9.662184119224548340e-01,1.591088116757714138e-02,-2.240336457580149876e-02,-2.938043407495416481e-02,2.554719897225604316e-02,8.888700181214699569e-02,-1.605456620454788208e-01,3.017534384926271462e-01,1.182888970896991965e-01,-4.160257309374204571e-02,-2.456001127150105323e-01,-2.884398581897288372e-01,-1.957828590467742408e-02,-2.186931456471146451e-01,-1.884398581897288594e-01,6.186785140638422636e-02,5.200638811163719177e-01,-4.262871146202087402e-01,-5.987969636917114258e-01,8.814680825811362297e+01,-5.252573490142822127e-02
5.982779999999999765e-01,-1.043991978475177461e-02,2.653042718859413562e-02,9.634379744529724121e-01,2.233506606378990109e-02,-1.983124648724143846e-02,-2.966749822831982186e-02,3.048081467883788365e-02,8.430101548438673209e-02,-1.662712395191192627e-01,3.040824689835444072e-01,1.692786714469441678e-01,1.571555529665320111e-02,-2.895572198987964585e-01,-2.720288453474739021e-01,-2.751768409188875414e-02,-2.182654862181936106e-01,-1.720288453474738966e-01,5.470343548801071681e-02,5.226223445423298086e-01,-3.316664695739746094e-01,-1.710094332695007324e+00,1.164567744054684084e+02,-5.252573490142822127e-02
6.236220000000000097e-01,-9.372182068370494765e-03,2.989587795525323888e-02,9.591858983039855957e-01,3.225014405569068959e-02,-1.354615860236174640e-02,-2.949470070807946875e-02,3.845528007434962509e-02,8.256196616924557641e-02,-1.559438854455947876e-01,3.509095776736027572e-01,2.239381358039030656e-01,3.065130836061466524e-02,-3.231144947726825589e-01,-1.084535100416454817e-01,6.548378735689061592e-02,-2.231144947726825534e-01,-3.740190567340660743e-02,1.474056702741541602e-01,5.196375151661599689e-01,-4.789051413536071777e-01,-1.049680590629577637e+00,8.017495979852240851e+01,-5.252573490142822127e-02
6.505149999999999544e-01,-8.237515701386179112e-03,3.304387646096303144e-02,9.549584388732910156e-01,4.127417291483122946e-02,-4.893086018660897096e-03,-2.940876261669744807e-02,3.949855611155380503e-02,6.814132538039092968e-02,-1.558241695165634155e-01,3.020713233179377899e-01,2.718633689203923121e-01,-8.485861924749937141e-03,-3.180584764660401853e-01,2.082509340960472244e-01,1.272125269752765464e-01,-2.180584764660401798e-01,2.227859886570088821e-01,2.094034250139088782e-01,5.230080915149023513e-01,-3.227179050445556641e-01,-6.860409975051879883e-01,1.805770057296606694e+02,-5.252573490142822127e-02
6.691979999999999595e-01,-7.936797990824740606e-03,3.432608867566424443e-02,9.535544514656066895e-01,4.346441619493810610e-02,-1.641041245605823207e-03,-2.944985896831586736e-02,3.819824851504045188e-02,7.772014461964053822e-02,-1.672047227621078491e-01,1.989548501214992715e-01,3.480037201172530015e-01,-1.016002201125460955e-02,-3.163449189687666530e-01,2.361499910708778904e-01,1.246295690487928542e-01,-2.163449189687666474e-01,2.308029759329178754e-01,2.071628008293865952e-01,5.330994626943362791e-01,1.667349338531494141e-01,-9.388931989669799805e-01,9.309635265148756389e+01,-5.252573490142822127e-02
6.938919999999999533e-01,-6.536035759904046741e-03,3.929156999947656242e-02,9.477912187576293945e-01,4.751933729023778002e-02,1.202639939093175236e-02,-3.069552395589814076e-02,4.246311975550196016e-02,7.139149559295958347e-02,-1.718069463968276978e-01,3.567451406489814160e-03,3.599589033425542595e-01,-5.207043117205759769e-02,-3.056283977713527555e-01,3.344266631062221551e-01,1.090377257442424752e-01,-2.056283977713527222e-01,2.361748230037200302e-01,1.962382124869740951e-01,5.254281748406333108e-01,-3.049249053001403809e-01,-7.937287092208862305e-01,7.480981888472071262e+01,-5.252573490142822127e-02
7.179889999999999883e-01,-5.647184481917852383e-03,4.164583309678621809e-02,9.447587132453918457e-01,4.627136479245611000e-02,1.919532806362833632e-02,-3.148870243220924792e-02,4.746466601473058045e-02,6.388431382260353897e-02,-1.604414135217666626e-01,-1.034377366226411354e-01,3.931903444415496551e-01,-5.911880522569430696e-02,-2.829437673304259770e-01,3.320047497507332412e-01,1.012909612876664311e-01,-1.829437673304259715e-01,2.320047497507332079e-01,1.912948391326284303e-01,5.204996975704984097e-01,-5.497981905937194824e-01,-1.483987212181091309e+00,-7.500230727591001845e-01,-5.252573490142822127e-02
7.507829999999999782e-01,-4.689995031329714618e-03,4.394158821838554246e-02,9.417860507965087891e-01,4.304407116713295650e-02,2.646224515638651020e-02,-3.167030663867365092e-02,6.528099171766701958e-02,7.277706092146540851e-02,-1.768807470798492432e-01,-1.817637769308468321e-01,4.059964178061282181e-01,1.160710573608532761e-02,-1.967633988078233420e-01,3.299555348606652005e-01,9.782200051742853675e-02,-9.676339880782332259e-02,2.299555348606652228e-01,1.889971210840575011e-01,5.223037462654369634e-01,-5.412201881408691406e-01,-1.365059733390808105e+00,3.277355965675523208e+01,-5.252573490142822127e-02
7.749239999999999462e-01,-2.981483459827936628e-03,4.707467204360286928e-02,9.371949434280395508e-01,3.585657413315240100e-02,3.600792273234620922e-02,-3.244764178912973307e-02,6.277403390646368875e-02,5.594749931737835053e-02,-1.735251396894454956e-01,-2.579657705184618677e-01,2.302289313353264311e-01,-5.018096474508713239e-02,3.275463580763138260e-03,3.222593472381043433e-01,7.868972138079474710e-02,1.032754635807631438e-01,2.222593472381043656e-01,1.722166606991649973e-01,5.220742072604322992e-01,-5.698992013931274414e-01,-7.661873102188110352e-01,-9.442455123748823098e+01,-5.252573490142822127e-02
7.993390000000000217e-01,-1.674106654824014965e-03,4.895337470665839935e-02,9.342159628868103027e-01,2.990940290005164245e-02,4.076377119452168074e-02,-3.352572774120421428e-02,7.824892003408061292e-02,5.908914869194689667e-02,-1.692542284727096558e-01,-3.547050133090747792e-01,2.471196618692113600e-01,-7.020960477526402843e-02,7.472073415416194409e-02,3.215616218156903683e-01,7.196897832616674928e-02,1.747207341541619496e-01,2.215616218156903905e-01,1.686142085090841236e-01,5.225518060736267234e-01,-5.511470437049865723e-01,-1.286947131156921387e+00,1.785263916955261010e+01,-5.252573490142822127e-02
8.331699999999999662e-01,4.305670386333350559e-04,5.159999191167503191e-02,9.299196600914001465e-01,2.118377887742141363e-02,4.234340050193585725e-02,-3.574817998473633907e-02,7.678140131807767443e-02,5.439939362161755332e-02,-1.632831096649169922e-01,-2.870853188601670269e-01,-3.488646737293410460e-02,-4.562925714370415914e-02,1.483649293123922852e-01,3.156960361790718816e-01,5.692798264763446192e-02,2.153052282376526905e-01,2.156960361790718761e-01,1.569279826476344675e-01,5.301258886003457071e-01,-1.436230540275573730e-01,-8.350340127944946289e-01,7.129306376410787038e+01,-5.252573490142822127e-02
8.590410000000000545e-01,2.721577810497566394e-03,5.410952135365591775e-02,9.257824420928955078e-01,1.166537867492633933e-02,3.767229514897296738e-02,-3.809734619264881772e-02,8.264883580211884739e-02,4.931205355325465889e-02,-1.602033376693725586e-01,-3.534449178317020102e-01,-2.081859805146305531e-01,-2.208478469136802846e-02,2.100008148714557488e-01,3.089725753662159180e-01,4.986653496080853398e-02,2.161790536532262608e-01,2.089725753662159125e-01,1.498665349608085395e-01,5.339612508671024438e-01,5.100512504577636719e-02,-1.225062727928161621e+00,7.852535983093761729e+01,-5.252573490142822127e-02
8.840940000000000465e-01,3.936699478963871270e-03,5.615445592513280959e-02,9.230749607086181641e-01,5.150707365233358342e-03,3.240649873727519115e-02,-3.992730503875119297e-02,9.102414203839015450e-02,6.090649679668901084e-02,-1.530943363904953003e-01,-3.781306819732241364e-01,-2.172161987277324291e-01,-1.404407060927361506e-01,2.687421283224757929e-01,3.044600823016151425e-01,-9.743319752766876896e-05,2.210132248819894618e-01,2.044600823016151647e-01,9.990256680247233678e-02,5.349713498551741386e-01,1.120136976242065430e-01,-1.015555262565612793e+00,8.715192290360957372e+01,-5.252573490142822127e-02
9.009139999999999926e-01,5.306046762974217686e-03,5.975892776632393127e-02,9.191393256187438965e-01,-4.974914890927532689e-03,2.190575586847520739e-02,-4.204200249869916028e-02,1.031575610328973047e-01,5.332156736265158958e-02,-1.451203823089599609e-01,-3.675638157153437446e-01,-4.055019884684810116e-01,-7.140403399623466985e-02,3.203575196002663161e-01,2.171421686079323121e-01,-4.451708385340563678e-02,2.203575196002663106e-01,1.171421686079323066e-01,5.548291614659436877e-02,5.346315157496529524e-01,9.782254695892333984e-02,-8.173240423202514648e-01,6.240329252158030471e+01,-5.252573490142822127e-02
9.209100000000000064e-01,5.812451565703522817e-03,6.097144113367616858e-02,9.178479313850402832e-01,-7.761872993245627628e-03,1.833077330515275882e-02,-4.276542432685515038e-02,9.285007039643901339e-02,6.125596041038246925e-02,-1.495578438043594360e-01,-2.569831649931322293e-01,-3.655877741969583705e-01,-1.078597385783135187e-01,3.179330534634197680e-01,1.562205871381651678e-01,-4.774089098570643425e-02,2.179330534634197625e-01,5.622058713816515535e-02,5.225910901429357130e-02,5.346551539277584197e-01,6.488728523254394531e-02,-9.473708868026733398e-01,6.704958334599484715e+01,-5.252573490142822127e-02
9.475930000000000186e-01,8.149155415500541899e-03,6.565133891891829221e-02,9.129447340965270996e-01,-1.498744146840051174e-02,2.699181327668886965e-03,-4.535229036173471506e-02,1.175872160152036661e-01,6.144930274537901971e-02,-1.337322592735290527e-01,-6.790385752272956599e-02,-4.276594400446018240e-01,-8.420757004042617178e-02,3.100085666639117443e-01,-6.684107658108617844e-02,-9.136486235355545382e-02,2.100085666639117110e-01,-1.668410765810861840e-01,8.635137646444558668e-03,5.298444548448038027e-01,-1.680890917778015137e-01,-9.040230512619018555e-01,8.014568560773973616e+01,-5.252573490142822127e-02
9.681440000000000046e-01,8.782393694929941166e-03,6.680764173709217990e-02,9.117704629898071289e-01,-1.588555390726515901e-02,-1.287924615354096858e-03,-4.597239350008752723e-02,1.057743582930975312e-01,7.156511718745522943e-02,-1.466239392757415771e-01,-8.446260095022026237e-02,-3.729023568460201332e-01,-3.458412180184276125e-02,3.085632464520591256e-01,-1.188142797749377894e-01,-9.340613287710929080e-02,2.085632464520591478e-01,-1.807966008539495795e-01,6.593867122890715617e-03,5.294761676618323643e-01,-2.554842233657836914e-01,-1.091564774513244629e+00,8.941244231131699394e+01,-5.252573490142822127e-02
1.002888000000000002e+00,1.093216187599583764e-02,6.959285556100182346e-02,9.084553718566894531e-01,-1.542997828545929380e-02,-1.285888412129931879e-02,-4.761621301467711120e-02,1.133374958201608940e-01,6.510321381032782573e-02,-1.295694708824157715e-01,6.557111654839731241e-02,-3.794174113988496577e-01,-3.147020955868483350e-02,3.103678836366286498e-01,-2.213619829845373532e-01,-1.958038322767287343e-01,2.103678836366286442e-01,-2.173799616822357506e-01,-9.580383227672872870e-02,5.265375301602549518e-01,-3.728419542312622070e-01,-1.030593276023864746e+00,8.724681301420126545e+00,-5.252573490142822127e-02
1.022143000000000024e+00,1.313559548514373239e-02,7.236089930123076885e-02,9.055413007736206055e-01,-1.133653856994001723e-02,-2.366641581727635391e-02,-4.937486863084838973e-02,1.043952469412903761e-01,7.319224265579792055e-02,-1.114789173007011414e-01,2.377969557772093567e-01,-3.783928804748991070e-01,-4.420505808177038753e-02,3.013319089132476813e-01,-3.062679336785384399e-01,-1.750289025172870605e-01,2.013319089132476758e-01,-2.253919882292998722e-01,-7.502890251728705495e-02,5.247081787139058484e-01,-4.228927493095397949e-01,-7.900639772415161133e-01,5.636661765386671163e+01,-5.252573490142822127e-02
1.047803999999999958e+00,1.457507573858325862e-02,7.424623329769755586e-02,9.038714766502380371e-01,-7.600055507542178082e-03,-3.037829548141401936e-02,-5.025136500826010710e-02,9.767233296497113137e-02,6.947693176007289917e-02,-1.143238618969917297e-01,1.453839035449772665e-01,-3.487824524149304994e-01,-5.840861780219339799e-02,2.866943684941748449e-01,-3.267378186191316480e-01,-6.959305395768931868e-02,1.866943684941748394e-01,-2.267378186191316425e-01,3.040694604231068340e-02,5.222423644532149245e-01,-5.847679972648620605e-01,-7.125033140182495117e-01,6.821053108978941282e+01,-5.252573490142822127e-02
1.079606000000000066e+00,1.594536722288691921e-02,7.615209398196842727e-02,9.023729562759399414e-01,-2.462585850788990248e-03,-3.633813305249544712e-02,-5.017845753967420386e-02,9.914552362298456600e-02,8.077299126575591959e-02,-1.026046425104141235e-01,2.807736960191798969e-01,-2.867453245685854801e-01,4.838760278276019178e-02,4.702009469820665755e-02,-3.182656978463061503e-01,7.620837912244507462e-03,-5.297990530179334800e-02,-2.182656978463061448e-01,1.076208379122445130e-01,5.226741148741775866e-01,-5.316382050514221191e-01,-1.196562886238098145e+00,1.385546630121290832e+02,-5.252573490142822127e-02
1.098988000000000076e+00,1.859238252078553727e-02,7.774395364356685711e-02,9.003707766532897949e-01,6.135813428944585091e-03,-4.309202483482033053e-02,-5.051343075661551829e-02,8.720498323252240391e-02,7.540201756811885925e-02,-9.111892431974411011e-02,3.185710675061123043e-01,-1.906847902752290547e-01,-1.161733836576426225e-02,-1.552792471680034536e-01,-3.111950874516977161e-01,1.120364896403539534e-01,-2.260490428342294411e-01,-2.111950874516977106e-01,2.120364896403539590e-01,5.231787649849265476e-01,-4.759404659271240234e-01,-9.143623113632202148e-01,5.935251339671324189e+01,-5.252573490142822127e-02
1.116643000000000052e+00,2.031424997456751300e-02,7.880955195696992543e-02,8.992657661437988281e-01,1.201404919640764769e-02,-4.526517309114153065e-02,-5.051794441279677805e-02,9.701153082334586231e-02,7.149700281813742286e-02,-8.884906768798828125e-02,2.517393745354878920e-01,-8.188245237425079148e-02,-2.989577401396093653e-03,-2.114594138627419462e-01,-3.082459553151697951e-01,9.950819567508581431e-02,-2.434920358456711675e-01,-2.082459553151697895e-01,1.995081956750858199e-01,5.199888792859928000e-01,-6.536100506782531738e-01,-9.309633970260620117e-01,9.194926336151893054e+01,-5.252573490142822127e-02
1.146927999999999948e+00,2.359567167820033132e-02,8.095191948876123700e-02,8.972107172012329102e-01,2.421945658072600580e-02,-4.364541102148056240e-02,-4.928081577102583211e-02,8.568167616275514098e-02,7.573268419485530700e-02,-7.795560359954833984e-02,3.002595105296227973e-01,1.190362067353676612e-01,5.926259199917709684e-03,-2.844297658320589228e-01,-2.944549611073410400e-01,9.805380774951014122e-02,-2.423030108952441697e-01,-1.944549611073410622e-01,1.980538077495101468e-01,5.187199520971264022e-01,-6.961343288421630859e-01,-1.002842545509338379e+00,7.332015462674094408e+01,-5.252573490142822127e-02
1.172004000000000046e+00,2.525341594175349591e-02,8.183034621936136066e-02,8.963406682014465332e-01,3.038355835280942205e-02,-4.050657588664297037e-02,-4.780932316650465808e-02,7.840266322806190014e-02,6.106819718735195107e-02,-8.689191192388534546e-02,2.583149557426152598e-01,1.926767090156483175e-01,1.309407658870785640e-01,-3.332895511835054503e-01,-2.487919966315924603e-01,1.121427244882251817e-01,-2.396204239911015887e-01,-1.487919966315924547e-01,2.121427244882251872e-01,5.209077008465867742e-01,-6.258192062377929688e-01,-3.978453874588012695e-01,-7.044579416549342277e+00,-5.252573490142822127e-02
1.201259000000000077e+00,2.702455296644289823e-02,8.256622732098396755e-02,8.954905271530151367e-01,3.716120189173405947e-02,-3.568136552817113838e-02,-4.684029380664189723e-02,7.841655224532990964e-02,6.426094735976616013e-02,-6.319119036197662354e-02,3.774840111360654449e-01,2.360508607350660648e-01,6.105642024088257097e-03,-3.388069108438300781e-01,-2.383167204054080224e-01,9.062980407678833394e-02,-2.388069108438300447e-01,-1.383167204054080168e-01,1.906298040767883395e-01,5.179878789242954307e-01,-7.016659379005432129e-01,-9.354602098464965820e-01,4.266097906530612249e+01,-5.252573490142822127e-02
1.219980000000000064e+00,2.960453855488828778e-02,8.342619242520134260e-02,8.945112228393554688e-01,4.604937901432162167e-02,-2.665728793641419792e-02,-4.605955187336463474e-02,6.974174756337118974e-02,4.386208877895118180e-02,-6.895269453525543213e-02,2.687068151743237099e-01,3.054744405184795508e-01,-4.296406650280036599e-02,-3.301820664458993138e-01,-1.331013920482289059e-01,5.823051332580714279e-02,-2.301820664458993082e-01,-3.310139204822890036e-02,1.582305133258071483e-01,5.191211758810676535e-01,-6.752109527587890625e-01,-9.614311456680297852e-01,5.450737869008671055e+01,-5.252573490142822127e-02
1.245068999999999981e+00,3.221580043968500645e-02,8.410262892669448376e-02,8.933983445167541504e-01,5.149717350542164923e-02,-1.570718636171242188e-02,-4.644361695995469219e-02,9.291635073878042050e-02,4.094222443770439285e-02,-8.101686090230941772e-02,9.151798677597990095e-02,3.635537656263698181e-01,-1.835849267237325833e-02,-3.155002979697775212e-01,1.833245138576835020e-01,6.655949703810648543e-02,-2.155002979697774879e-01,2.040657102869586348e-01,1.665594970381064910e-01,5.212320903440923470e-01,-6.234955787658691406e-01,-8.687485456466674805e-01,5.421599598990479763e+01,-5.252573490142822127e-02
1.273832000000000075e+00,3.491888037792750810e-02,8.512301939901438519e-02,8.922315835952758789e-01,5.138490938970998595e-02,-4.226618128972070565e-03,-4.753415533582217023e-02,7.325973342416579326e-02,4.234703913447361578e-02,-8.220691978931427002e-02,-4.905116959272630417e-02,3.574729670985993257e-01,-9.637937624895318717e-03,-2.996619723347372366e-01,2.625306268561697354e-01,1.004588875996412223e-02,-1.996619723347372033e-01,2.251303354397094225e-01,1.100458887599641278e-01,5.222128810904490548e-01,-5.887809395790100098e-01,-1.127105832099914551e+00,8.117859462535325576e+01,-1.346881389617919991e-02
1.301565000000000083e+00,3.682996502546000833e-02,8.624198791296150413e-02,8.913903832435607910e-01,4.848032861209218558e-02,3.315749914475585314e-03,-4.852775610656068217e-02,7.645516715528624663e-02,3.553686730191225190e-02,-8.539632707834243774e-02,-1.576888123800973263e-01,3.831783507708803049e-01,-9.687125425909827448e-02,-2.399180730122935923e-01,3.189911454217913556e-01,4.071360321319772435e-02,-1.399180730122935867e-01,2.258160655114614113e-01,1.407136032131977299e-01,5.218694987889815895e-01,-6.330285668373107910e-01,-1.236230969429016113e+00,8.811982901089207587e+01,-1.346881389617919991e-02
1.325164999999999926e+00,3.877188619891073357e-02,8.728092416671730247e-02,8.904916644096374512e-01,4.407235786304348341e-02,1.029156601339331623e-02,-4.925055647351483934e-02,9.212057182298882818e-02,3.773367689792160584e-02,-8.703378587961196899e-02,-2.025104853577195940e-01,3.439153912484924636e-01,-9.558735133502553258e-03,-8.530457441908224914e-02,3.199570814918056283e-01,5.895676184476605908e-02,1.469542558091775121e-02,2.199570814918056227e-01,1.589567618447660646e-01,5.223128764467381835e-01,-6.295124292373657227e-01,-1.113579392433166504e+00,8.887416876320662595e+01,-1.346881389617919991e-02
1.351792000000000105e+00,4.078292232457223637e-02,8.822571321829697499e-02,8.895772099494934082e-01,3.870013216163169928e-02,1.678187580148504665e-02,-5.047737869131618815e-02,7.946335401516473051e-02,2.788043055862129971e-02,-8.838052302598953247e-02,-2.565355441099879674e-01,2.821260252483223097e-01,-7.277978689387590294e-02,-6.913117065900373226e-02,3.179114617673546861e-01,3.865862074996759268e-02,3.086882934099626982e-02,2.179114617673546805e-01,1.386586207499675982e-01,5.223852086143685458e-01,-6.438075304031372070e-01,-6.322835683822631836e-01,1.125068691782608710e+02,-1.346881389617919991e-02
1.391626999999999947e+00,4.387853648707714521e-02,8.952283051177728490e-02,8.880514502525329590e-01,2.863866505007272092e-02,2.541071574022812918e-02,-5.137341114595339597e-02,9.872077395852738024e-02,2.988008398250517964e-02,-1.043393164873123169e-01,-3.610617893318074367e-01,3.058807943209277957e-01,-4.448831116140593875e-04,5.722703767932299512e-02,3.121259544078239800e-01,2.193993242866196236e-02,1.526527515004797997e-01,2.121259544078239745e-01,1.219399324286619679e-01,5.240433515388643881e-01,-6.346920728683471680e-01,-1.304379582405090332e+00,-7.665582777207840870e+00,-1.346881389617919991e-02
1.412045999999999912e+00,4.744322998355991056e-02,9.170461629800676084e-02,8.860557079315185547e-01,1.584044028874540336e-02,2.952494954059514676e-02,-5.295664441123282273e-02,9.625858732233290305e-02,2.119355820667883153e-02,-8.452475816011428833e-02,-3.193198826500849852e-01,-2.222764877280895487e-02,1.276337627138922001e-02,1.913239434951501117e-01,3.099591293427179650e-01,3.846533607926824749e-02,2.087928161355882550e-01,2.099591293427179872e-01,1.384653360792682530e-01,5.313902950834576977e-01,-1.730434298515319824e-01,-8.208051919937133789e-01,1.059309816114260343e+02,-1.346881389617919991e-02
1.431108999999999964e+00,4.925845265097542752e-02,9.270969400899556345e-02,8.851504921913146973e-01,9.778731556536532712e-03,2.787213127478027630e-02,-5.325826072601369532e-02,9.253694393739253510e-02,1.959918483136678310e-02,-8.890382200479507446e-02,-2.556193389244728609e-01,-1.078195490451776262e-01,-2.324586297500229673e-02,2.409958083780887050e-01,3.046565678288894463e-01,4.301654485286993124e-02,2.181872208048884487e-01,2.046565678288894408e-01,1.430165448528699368e-01,5.343627592590428632e-01,-4.065406322479248047e-02,-6.470495462417602539e-01,9.365009657806800192e+01,-1.346881389617919991e-02
1.451287999999999911e+00,5.114755734752227112e-02,9.370169697029674671e-02,8.842931389808654785e-01,3.816490259550399475e-03,2.383812063581625118e-02,-5.378818002530172393e-02,1.037877902441370070e-01,2.043620426383251781e-02,-8.188853412866592407e-02,-3.305193630181821329e-01,-1.737365682820941615e-01,-4.164638159165207076e-02,2.872105817591707466e-01,2.917346329934641935e-01,1.135325509873365279e-02,2.230283404451438301e-01,1.917346329934641880e-01,1.113532550987336583e-01,5.352761441081291816e-01,2.359938621520996094e-02,-8.631781339645385742e-01,6.077288538556324227e+01,-1.346881389617919991e-02
1.468356999999999912e+00,5.208203308107623580e-02,9.419403557134391203e-02,8.839038014411926270e-01,1.227059903863377769e-03,2.125852521400672934e-02,-5.401383563928829901e-02,1.153830707108035869e-01,2.409247448080329909e-02,-7.866173982620239258e-02,-2.671999960039315170e-01,-2.693734920607046002e-01,-4.309592112793053653e-02,3.044652323893921042e-01,2.590869198846914578e-01,3.834549457730429545e-03,2.195802499107765426e-01,1.590869198846914800e-01,1.038345494577304351e-01,5.334856189056519371e-01,-7.414293289184570312e-02,-6.432725191116333008e-01,-2.706217937845266164e+01,-1.346881389617919991e-02
1.496378999999999904e+00,5.522001607837249970e-02,9.468988455984650443e-02,8.824567198753356934e-01,-7.529169361812020934e-03,8.406978098441930669e-03,-5.493451235096458163e-02,1.077910525058778241e-01,2.653418401325029208e-02,-6.708916276693344116e-02,-1.602622918981881917e-01,-3.410087651145253251e-01,-2.908821190150133809e-02,3.077233615517792620e-01,-1.886433263558139062e-02,-5.261946504094214272e-03,2.077233615517792287e-01,-1.188643326355813962e-01,9.473805349590579128e-02,5.309613170008056215e-01,-1.818842887878417969e-01,-1.145171046257019043e+00,-1.708980607700515009e+01,-1.346881389617919991e-02
1.521298000000000039e+00,5.672522095908934942e-02,9.473183270834266423e-02,8.818144202232360840e-01,-1.057443916042201393e-02,1.043230889831159303e-03,-5.547955335347598549e-02,1.169390542546247663e-01,1.920401392556042239e-02,-7.588144391775131226e-02,-1.727131577600834467e-01,-3.439168789710526086e-01,-3.243571134582679677e-02,3.060370727540240310e-01,-6.249583435734384906e-02,-2.002317270181445952e-02,2.060370727540240532e-01,-1.624958343573438546e-01,7.997682729818554603e-02,5.315551107531989450e-01,-1.965381503105163574e-01,-6.080573797225952148e-01,7.002933533368295116e+01,-1.346881389617919991e-02
1.543776999999999955e+00,5.909531622606518930e-02,9.490919176653971057e-02,8.808459043502807617e-01,-1.296955875782555834e-02,-9.932344932180869890e-03,-5.584682553611641787e-02,1.054857883220886861e-01,2.434090789284188913e-02,-7.183571159839630127e-02,-8.759613432381421760e-02,-3.472741437880175752e-01,3.172290325399449579e-02,2.964112525845368218e-01,-1.591525214090412088e-01,-1.090130833836863433e-01,1.964112525845368162e-01,-2.034584770553181932e-01,-9.013083383686337768e-03,5.270343139227778861e-01,-4.410051107406616211e-01,-7.399195432662963867e-01,8.712196569390989964e+01,-1.346881389617919991e-02
1.570624999999999938e+00,6.150444102646364375e-02,9.494780302194445742e-02,8.802416920661926270e-01,-1.137706082914362316e-02,-2.114345305840181766e-02,-5.616906660514109362e-02,1.097462692254451422e-01,2.590557377519856971e-02,-5.440610274672508240e-02,1.066254848231438512e-01,-3.359308644164348823e-01,4.435840334745298763e-02,2.699763824316387950e-01,-2.402917011703316064e-01,-2.137466297042734942e-01,1.699763824316387617e-01,-2.186668336752755903e-01,-1.137466297042734747e-01,5.248428505596595128e-01,-5.029270052909851074e-01,-6.937385797500610352e-01,1.082416482680196879e+02,-1.346881389617919991e-02
1.593623999999999929e+00,6.304629717820516011e-02,9.479728891170659255e-02,8.799549937248229980e-01,-8.282524624730707580e-03,-2.886619765672771010e-02,-5.667349602136262376e-02,1.054809798485576988e-01,2.173703856813753721e-02,-5.172817036509513855e-02,1.466527567702203549e-01,-4.169337474552796130e-01,-4.234070493523800494e-02,2.431229926649605688e-01,-2.932660831302535964e-01,-1.750507099684356915e-01,1.431229926649605633e-01,-2.189810991606561674e-01,-7.505070996843567210e-02,5.228146624368735784e-01,-6.118643283843994141e-01,-8.301769495010375977e-01,-1.718715505569804902e+00,-1.346881389617919991e-02
1.620745000000000102e+00,6.457011483229017912e-02,9.465791822454207305e-02,8.798584342002868652e-01,-3.764530834000864336e-03,-3.534676231368116817e-02,-5.668940658111676356e-02,9.978642445879734590e-02,2.378225074161267882e-02,-4.713315516710281372e-02,1.870119816864031503e-01,-2.722127821629806155e-01,9.712897501360239633e-03,4.262324935763996819e-02,-3.129531040598310665e-01,-6.454536093802148988e-02,-5.737675064236003736e-02,-2.129531040598310609e-01,3.545463906197852261e-02,5.226489152841228281e-01,-6.114214658737182617e-01,-1.029748797416687012e+00,9.576513978664331717e+01,-1.346881389617919991e-02
1.647186000000000039e+00,6.680545497134322830e-02,9.450321256572559447e-02,8.797734975814819336e-01,4.397151470709253877e-03,-4.319387684304398789e-02,-5.700852824783897432e-02,9.169645134153196764e-02,2.915947183153753952e-02,-3.656101599335670471e-02,2.677793433378154453e-01,-2.243468867056236382e-01,1.901439475004052318e-02,-1.435838866149785897e-01,-3.074230493530922814e-01,1.002258214309809381e-01,-2.197332774755699769e-01,-2.074230493530922759e-01,2.002258214309809436e-01,5.217362494316986066e-01,-6.272394657135009766e-01,-9.230929613113403320e-01,7.436312451300189252e+01,-1.346881389617919991e-02
1.669181000000000026e+00,6.831002455186466205e-02,9.445672027403489990e-02,8.798050284385681152e-01,9.631837107379068175e-03,-4.554228794991055373e-02,-5.704039051531606397e-02,9.190721082584178692e-02,2.937545006132921341e-02,-2.691554091870784760e-02,2.462423943450584851e-01,-7.215578690621153590e-02,-1.146833644522676776e-02,-2.003314941387079884e-01,-3.044173004453403220e-01,8.457241328495720967e-02,-2.427502676338640641e-01,-2.044173004453403442e-01,1.845724132849572152e-01,5.202485142377050176e-01,-6.768848896026611328e-01,-1.276981472969055176e+00,1.744286333633552601e+02,-1.346881389617919991e-02
1.697638999999999898e+00,7.122234482681730205e-02,9.484438849980256214e-02,8.799662590026855469e-01,1.792306629329826206e-02,-4.546577570004162183e-02,-5.613507669906026010e-02,8.456980367214948779e-02,1.649541046216551968e-02,-2.619436942040920258e-02,2.764405205471606175e-01,2.025091563079780416e-02,5.656162332435838574e-02,-2.659511388682468391e-01,-2.986100852489541047e-01,9.104364807380335711e-02,-2.449911245237212931e-01,-1.986100852489540991e-01,1.910436480738033627e-01,5.199960524335608403e-01,-6.937896013259887695e-01,-1.503157258033752441e+00,1.170134894643378090e+02,-1.346881389617919991e-02
1.726431000000000049e+00,7.335971216667952488e-02,9.525682118531959841e-02,8.800406455993652344e-01,2.353561274195855105e-02,-4.288981077667775033e-02,-5.462459361702554084e-02,8.394428686783669824e-02,2.918912874757894141e-02,-2.863965742290019989e-02,3.014458848615275688e-01,1.488716281846174661e-01,1.000049229962945985e-01,-2.897785831468012718e-01,-2.854977035533984298e-01,1.049399334971578557e-01,-2.439864436285945626e-01,-1.854977035533983964e-01,2.049399334971578612e-01,5.207018837363259767e-01,-6.730978488922119141e-01,-1.682948648929595947e+00,9.258148616166282352e+01,-1.346881389617919991e-02
1.744977000000000000e+00,7.541817373614118081e-02,9.560738297178658640e-02,8.801473379135131836e-01,2.900370844758196412e-02,-3.914345016281561840e-02,-5.284565478715741449e-02,9.436539277970963646e-02,2.187131566379939274e-02,-1.765988208353519440e-02,2.983141025594420737e-01,1.890173239653912818e-01,9.157888034341246652e-02,-3.267447890077606609e-01,-2.062604914847652737e-01,9.109003890039174545e-02,-2.387635546460890879e-01,-1.062604914847652821e-01,1.910900389003917510e-01,5.196500330167928006e-01,-6.931786537170410156e-01,-7.099746465682983398e-01,4.921997215922893076e+01,-1.346881389617919991e-02
1.773315999999999892e+00,7.943418379688112207e-02,9.613255025019608324e-02,8.803524971008300781e-01,3.793990701943485144e-02,-2.712820657258396828e-02,-5.054802657218049333e-02,9.519206962714106546e-02,2.094562957016782995e-02,-3.359239920973777771e-02,1.586717149331632326e-01,3.682101030493961091e-01,8.527057720504698651e-03,-3.157310621155311470e-01,1.218172138447677910e-01,5.035932918771576783e-02,-2.157310621155311137e-01,1.798894815422098503e-01,1.503593291877157734e-01,5.213594210902470216e-01,-6.708163022994995117e-01,-1.145599007606506348e+00,3.309739941587304202e+01,-1.346881389617919991e-02
1.796686000000000005e+00,8.165368410044804293e-02,9.715422189972602873e-02,8.803793787956237793e-01,3.975067279687885535e-02,-2.005689943271127262e-02,-5.034773174443429866e-02,7.585400792998667208e-02,1.240496879271327235e-02,-3.744133561849594116e-02,4.358583741871559919e-02,3.829438760813554388e-01,3.245255989861123985e-02,-3.080694636452508961e-01,1.925465697460849723e-01,2.815326586774125062e-02,-2.080694636452508905e-01,2.175861979270481139e-01,1.281532658677412562e-01,5.221125897798809534e-01,-6.521275043487548828e-01,-1.641605973243713379e+00,8.968548595357742670e+01,-1.346881389617919991e-02
1.818599000000000077e+00,8.387596949606898611e-02,9.814696566666658573e-02,8.802222013473510742e-01,3.918969888834535759e-02,-1.285444218335962674e-02,-5.064217178847085776e-02,8.062230039845010021e-02,1.728412520678583239e-02,-3.702651709318161011e-02,-7.385786286544165913e-02,3.935874446994815923e-01,-4.974901983312100817e-02,-2.900565912885763042e-01,2.609750177672910398e-01,4.260829798659296341e-02,-1.900565912885763264e-01,2.313601885421643078e-01,1.426082979865929690e-01,5.221354152546423544e-01,-6.583680510520935059e-01,-9.757958650588989258e-01,7.798897824522734368e+01,-1.346881389617919991e-02
1.849448999999999899e+00,8.715194711065339661e-02,9.955209317808612346e-02,8.797142505645751953e-01,3.502887911159170697e-02,-2.175508840414286382e-03,-5.088536542769350746e-02,9.089791371530829556e-02,5.802623906534722098e-03,-3.984512761235237122e-02,-1.832837278259495106e-01,3.415587428428901173e-01,1.801272058455732905e-02,-2.056273321836196155e-01,3.300758329485077858e-01,7.837578080247090129e-02,-1.056273321836196100e-01,2.300758329485077802e-01,1.783757808024709068e-01,5.221887659655408687e-01,-6.768294572830200195e-01,-1.063676476478576660e+00,-2.417109349147508013e+01,-1.346881389617919991e-02
1.871868000000000087e+00,8.938079083653949208e-02,1.004561505052529585e-01,8.792067170143127441e-01,3.079951550904696383e-02,4.748857336509759719e-03,-5.148878314872740170e-02,8.659379459909474774e-02,1.249934880086729823e-02,-4.189220815896987915e-02,-1.515185544946781315e-01,3.056428109207345312e-01,-5.875822033892564439e-02,-9.681457604758599012e-02,3.247723654688163264e-01,6.989498673020819175e-02,3.185423952414020207e-03,2.247723654688163208e-01,1.698949867302081973e-01,5.223801652968008691e-01,-6.848301887512207031e-01,-8.970686197280883789e-01,6.010851971518527392e+01,-1.346881389617919991e-02
1.897078999999999960e+00,9.258552000085570888e-02,1.015976415461568721e-01,8.782155513763427734e-01,2.212425755431680560e-02,1.384544802280429643e-02,-5.206869169749173132e-02,8.720859734827716980e-02,8.630003481628603992e-03,-4.669760540127754211e-02,-3.189387546222741121e-01,2.878642910901318963e-01,-3.854834364907460537e-02,1.284483026275511364e-01,3.134922955454368942e-01,4.903682038105172669e-02,1.782027734677029684e-01,2.134922955454368887e-01,1.490368203810517322e-01,5.233436043054207065e-01,-6.640318632125854492e-01,-6.612325906753540039e-01,5.063187471350811819e+01,-1.346881389617919991e-02
1.919864000000000015e+00,9.467488684593049209e-02,1.022793966110750186e-01,8.774455189704895020e-01,1.605732242002310545e-02,1.808981849858204427e-02,-5.218813110595932336e-02,9.747703523887508992e-02,1.920570737253983473e-02,-5.431881174445152283e-02,-2.498861339268698967e-01,1.775519454643106343e-01,1.350936359616845654e-02,2.015528387731223559e-01,3.128445865025843431e-01,3.465653284386291388e-02,2.027407442163457196e-01,2.128445865025843375e-01,1.346565328438629194e-01,5.246560042646766231e-01,-6.357476115226745605e-01,-7.225261926651000977e-01,9.946891914710946025e+01,-1.346881389617919991e-02
1.946538000000000102e+00,9.776866534927018682e-02,1.032723698046221078e-01,8.763377070426940918e-01,7.123020419790932790e-03,1.954036030934536150e-02,-5.240450889103098753e-02,8.426600283722532336e-02,6.461301095975895657e-03,-4.610741138458251953e-02,-2.805694317721152964e-01,-7.994136296608965464e-02,3.555289607287065792e-03,2.644473020871265234e-01,2.992820733749282924e-01,-8.483574403913658746e-02,2.180172809805020206e-01,1.992820733749282591e-01,1.516425596086341289e-02,5.301004062479761636e-01,-3.182730674743652344e-01,-8.089891672134399414e-01,8.900834099926235865e+01,-1.346881389617919991e-02
1.975835999999999926e+00,9.982873821136817316e-02,1.038800731429868618e-01,8.756222724914550781e-01,9.552534430574187527e-04,1.764697927455882720e-02,-5.227291276395829023e-02,9.421286146314863941e-02,1.342373163188325877e-02,-5.272479355335235596e-02,-3.764190912657520149e-01,-1.079014231093997078e-01,-1.760071217511036817e-02,3.163197454359136240e-01,2.978133294066684922e-01,-8.679717902593721279e-02,2.217252102749507903e-01,1.978133294066685144e-01,1.320282097406279276e-02,5.316944914598124017e-01,-2.696820497512817383e-01,-1.039481759071350098e+00,1.039508073182017824e+02,-1.346881389617919991e-02
1.994215999999999989e+00,1.019741789153517791e-01,1.041588346580762658e-01,8.748064637184143066e-01,-4.752045994494501387e-03,1.357819271238969172e-02,-5.195434543413290918e-02,9.281602783395716261e-02,1.408265885492747740e-02,-4.968201741576194763e-02,-2.668854745530399031e-01,-2.218672259683253656e-01,2.708884939345988438e-02,3.216927182731995072e-01,2.163317566526640201e-01,-1.053638291540886229e-01,2.216927182731995016e-01,1.163317566526640007e-01,-5.363829154088612175e-03,5.320884773970203652e-01,-2.479690313339233398e-01,-9.803229570388793945e-01,8.450436399639420415e+01,-1.346881389617919991e-02
2.022664999999999935e+00,1.063972565634509343e-01,1.040128038342870431e-01,8.731920719146728516e-01,-1.441910439744589247e-02,1.133520889263994746e-03,-5.210412392276730920e-02,8.901275938743336003e-02,1.111135285554686568e-02,-4.032169654965400696e-02,-1.675964237273902535e-01,-3.270421366666547702e-01,3.585761820562485130e-02,3.043140070083785731e-01,-7.465793396312153662e-02,-1.079372446126442980e-01,2.043140070083785675e-01,-1.746579339631215422e-01,-7.937244612644294220e-03,5.288305454742250333e-01,-4.041873216629028320e-01,-2.656618356704711914e-01,-5.231641451379211993e+00,-1.346881389617919991e-02
2.053824000000000094e+00,1.086122833188187392e-01,1.040188245363566910e-01,8.723474740982055664e-01,-1.702046378482234903e-02,-6.215682136438305250e-03,-5.207370694252566601e-02,9.956101636851888426e-02,1.448377744708336315e-02,-3.957223147153854370e-02,-1.529069581210351636e-01,-3.689610296081588525e-01,-2.718302470972855725e-02,3.021848221563199210e-01,-9.783879585696850234e-02,-6.228929195394582174e-02,2.021848221563198877e-01,-1.978387958569685079e-01,3.771070804605418381e-02,5.279598869250345938e-01,-4.613082408905029297e-01,-7.946366071701049805e-01,1.865909326523435254e+02,-1.346881389617919991e-02
2.077217000000000091e+00,1.108084330744289470e-01,1.040090764070292495e-01,8.715369701385498047e-01,-1.727324851480504381e-02,-1.387127616748484726e-02,-5.139164833055964721e-02,9.649021086588581431e-02,2.535475890521103615e-02,-4.620285704731941223e-02,2.641854224882853128e-03,-3.676156013005876799e-01,6.448659963576763854e-02,2.772077406972097702e-01,-1.563275573337600532e-01,-2.254876147354222538e-01,1.772077406972097924e-01,-2.124705401968841612e-01,-1.254876147354222482e-01,5.266832971583059742e-01,-5.692915320396423340e-01,-1.283603549003601074e+00,8.555479244922881321e+01,-1.346881389617919991e-02
2.102657999999999916e+00,1.129842801926172202e-01,1.040292626090088962e-01,8.707813620567321777e-01,-1.549836563708659361e-02,-2.172358038599697672e-02,-5.064749507685162300e-02,8.056523849749777644e-02,1.398235322151010311e-02,-3.278700262308120728e-02,9.366186104412516089e-02,-3.895501706949781040e-01,3.578225844042777493e-02,2.578184669001645224e-01,-2.218186419272687726e-01,-2.438965565118522694e-01,1.578184669001645446e-01,-2.179358051561365028e-01,-1.438965565118522638e-01,5.256544753157528227e-01,-5.823510289192199707e-01,-1.035736680030822754e+00,1.102577835072240475e+02,-1.346881389617919991e-02
2.131759000000000182e+00,1.164566370175637439e-01,1.046430105207157846e-01,8.698515295982360840e-01,-9.636276368061840597e-03,-3.240902233062858961e-02,-4.843988637949925291e-02,1.001223648089682866e-01,2.012493454205221619e-02,-2.498318068683147430e-02,2.549002689935452315e-01,-3.347982064253259837e-01,5.855410857727421509e-02,1.046335527915295827e-01,-2.707786040821987261e-01,-1.809098179902265680e-01,4.633552791529571904e-03,-2.166685788418976633e-01,-8.090981799022656240e-02,5.250645618769914647e-01,-5.966731905937194824e-01,-1.303455471992492676e+00,1.212327432014647997e+02,-1.346881389617919991e-02
2.155686000000000213e+00,1.197993282238992568e-01,1.053085038854411903e-01,8.689450025558471680e-01,-1.794693858795974204e-03,-4.171039059224024292e-02,-4.601272883326545937e-02,7.775364984233927579e-02,1.836996665310614701e-02,-2.338999137282371521e-02,2.266933947313706788e-01,-2.911530115741625124e-01,5.778798510949255396e-02,-9.411335139737847522e-02,-3.083177553382965286e-01,1.732595739624230580e-02,-1.941133513973784808e-01,-2.083177553382965230e-01,1.173259573962423113e-01,5.239097238409690105e-01,-6.631898283958435059e-01,1.084467172622680664e-01,-4.596269592518486746e+01,2.168934345245361259e-02
2.172860000000000014e+00,1.219060511703025790e-01,1.058010415461466125e-01,8.684396743774414062e-01,4.227555589538161372e-03,-4.614292071056547151e-02,-4.413105587747345737e-02,9.271297183964713473e-02,3.112020708700391491e-02,-2.634798921644687653e-02,3.179108329721840320e-01,-1.869708010829854439e-01,1.469773050441072204e-01,-1.371632325159292121e-01,-3.086099827982037302e-01,8.852861603134865032e-02,-2.304121233744665653e-01,-2.086099827982037247e-01,1.885286160313486559e-01,5.246135373952307557e-01,-6.481543183326721191e-01,-3.391648530960083008e-01,9.703077383984668813e+01,2.168934345245361259e-02
2.195097000000000076e+00,1.239649028288328514e-01,1.063241023186247136e-01,8.678123354911804199e-01,1.007776748042180613e-02,-4.830458225863543120e-02,-4.298255369747328025e-02,7.222459700344674438e-02,1.982245656779438314e-02,-1.912524923682212830e-02,2.728858168072629264e-01,-1.205010061871594207e-01,2.600915195952709785e-02,-1.959664742274323246e-01,-3.095043973209603561e-01,1.080922090979167527e-01,-2.412022514218382374e-01,-2.095043973209603227e-01,2.080922090979167582e-01,5.235990758685838964e-01,-6.832209825515747070e-01,-1.551717042922973633e+00,5.754869458785872638e+01,2.168934345245361259e-02
2.220848999999999851e+00,1.271721337787777573e-01,1.065951106387818814e-01,8.668187856674194336e-01,1.855074795929658599e-02,-4.780579150674579836e-02,-3.999083574787842821e-02,8.961487418084380929e-02,1.915752161691197664e-02,-2.373286150395870209e-02,2.620212013099517123e-01,4.560616784877213892e-02,1.488462592504114501e-01,-2.514280388911814823e-01,-3.008064982861008985e-01,1.141730376002644542e-01,-2.430564607595614990e-01,-2.008064982861008929e-01,2.141730376002644598e-01,5.274148228404091920e-01,-5.069767832756042480e-01,-1.459611296653747559e+00,8.578682763571248415e+01,2.168934345245361259e-02
2.244476999999999833e+00,1.291624483341644591e-01,1.067783072973400998e-01,8.661035299301147461e-01,2.454055493343132791e-02,-4.563159728305365981e-02,-3.717470291657343218e-02,6.727535384161288656e-02,1.794379415063807742e-02,-1.900616288185119629e-02,3.601087494049262094e-01,1.130920725083112699e-01,1.601916202853835014e-01,-2.914091739121017488e-01,-3.001451481310419833e-01,1.131911343228546307e-01,-2.427041101853596172e-01,-2.001451481310419778e-01,2.131911343228546363e-01,5.257012630010476917e-01,-5.909209251403808594e-01,-7.111221551895141602e-01,1.463285247782491467e+02,2.168934345245361259e-02
2.271357000000000070e+00,1.328364785177676421e-01,1.069783901360884804e-01,8.647759556770324707e-01,3.547219185057588764e-02,-3.805852074672610996e-02,-3.131990532934736393e-02,6.727513802173760993e-02,1.649131315558267918e-02,-1.761942915618419647e-02,2.678983780730451181e-01,2.157855228114131108e-01,1.746715028865719888e-01,-3.347153109223719447e-01,-1.528317874380528130e-01,1.126001596907687530e-01,-2.347153109223719114e-01,-5.283178743805280742e-02,1.991507798326408452e-01,5.244733085622460544e-01,-6.654444336891174316e-01,-1.264504790306091309e+00,4.796515029548169906e+01,2.168934345245361259e-02
2.294322000000000195e+00,1.347091677036816870e-01,1.069401972822403846e-01,8.639854192733764648e-01,3.881019215098684833e-02,-3.238490504220070676e-02,-2.996356249983356257e-02,6.273477042183601970e-02,1.317286428935533944e-02,-2.205273509025573730e-02,1.158610994451819420e-01,2.706104281835852721e-01,4.428489465472037513e-03,-3.222083552504962367e-01,8.836111309603648933e-02,7.007559914938271683e-02,-2.222083552504962312e-01,1.543982348379186187e-01,1.531828423241747839e-01,5.247006974558952042e-01,-6.814196705818176270e-01,-1.013525605201721191e+00,8.962942376086995466e+01,2.168934345245361259e-02
2.326064000000000132e+00,1.366372038060059135e-01,1.068196572084824519e-01,8.630308508872985840e-01,4.010648513240620133e-02,-2.603320114711871192e-02,-2.889487939820511997e-02,7.005800026350667009e-02,1.257829995751609878e-02,-2.905054017901420593e-02,4.076500381276686180e-02,3.052718577689699231e-01,6.420570575263806479e-02,-3.151115797040769939e-01,1.977602244026780420e-01,7.311917928925520949e-02,-2.151115797040770161e-01,2.148504481211516159e-01,1.538098866894681560e-01,5.255486823155072207e-01,-6.755769252777099609e-01,-1.112725615501403809e+00,8.517895445995968373e+01,2.168934345245361259e-02
2.348381999999999969e+00,1.385309428626561312e-01,1.066413312135370828e-01,8.619788885116577148e-01,3.957841179202082477e-02,-1.956430793772345744e-02,-2.863975631065129868e-02,6.632829877011241215e-02,1.118035111940942315e-02,-3.681173548102378845e-02,-5.348846041734568041e-02,3.092470556236204815e-01,-9.208176927134258463e-03,-2.903376050446085932e-01,2.512120473497423401e-01,7.966807532231043321e-02,-1.903376050446085876e-01,2.285496105116184562e-01,1.601248852267320444e-01,5.266928113682073365e-01,-6.566541194915771484e-01,-1.261699318885803223e+00,5.663580906943525406e+01,2.168934345245361259e-02
2.370585000000000164e+00,1.413397136376973173e-01,1.063236752674112523e-01,8.601043820381164551e-01,3.568238317160746242e-02,-9.046284930622316978e-03,-2.831263767819214294e-02,6.589141100596312972e-02,-7.368311488467970500e-04,-4.270105808973312378e-02,-1.662383943024352273e-01,3.742490260646741951e-01,3.041342776322734920e-02,-2.447628060390915350e-01,3.119164745307529962e-01,7.879340376725310624e-02,-1.447628060390915294e-01,2.183429241655922004e-01,1.590754615334105948e-01,5.274500151296651618e-01,-6.549565196037292480e-01,-1.066904187202453613e+00,3.198391807171546830e+01,3.794829845428467074e-02
2.395014000000000198e+00,1.432064649182291649e-01,1.060889142129974316e-01,8.587142229080200195e-01,3.166930444540152351e-02,-2.174370844804540681e-03,-2.852615839804983899e-02,7.284101832935514775e-02,2.567435870550935015e-03,-4.823323711752891541e-02,-2.233420421807711664e-01,3.827269119067369108e-01,-5.606711054174142589e-02,-1.863285366872712290e-01,3.170674090868088602e-01,4.999521186451719168e-02,-8.632853668727120955e-02,2.170674090868088546e-01,1.313251695148279496e-01,5.278577134665282111e-01,-6.702043414115905762e-01,-1.305878758430480957e+00,7.927439252626706434e+01,3.794829845428467074e-02
2.420615999999999879e+00,1.463989400645600569e-01,1.061979535299488464e-01,8.565611243247985840e-01,2.357796576859452070e-02,7.369429973601349104e-03,-2.839490777318220971e-02,7.031393659859640211e-02,-4.764444170043340143e-03,-5.365792661905288696e-02,-2.722824021831894981e-01,2.760155983113865008e-01,4.021139714356870148e-02,3.977511721959347407e-02,3.148501712802413977e-01,6.965471430934536134e-02,9.909330447467024072e-02,2.148501712802413643e-01,1.508387198687735353e-01,5.289617726733164549e-01,-6.494127511978149414e-01,-1.596695661544799805e+00,8.393086033254492406e+01,3.794829845428467074e-02
2.445078999999999780e+00,1.486145332435650224e-01,1.064512513790796810e-01,8.551757335662841797e-01,1.795290712929375337e-02,1.209344008776591650e-02,-2.862204053468908604e-02,6.696575171372935731e-02,-3.531959209694213262e-03,-4.864234849810600281e-02,-2.323104693288594036e-01,2.311823950435659691e-01,-2.964307455167288982e-02,1.450028627029057715e-01,3.178487799037552075e-01,6.843111700316667489e-02,1.655204146450460767e-01,2.178487799037552020e-01,1.502310239329230357e-01,5.286773269969861078e-01,-6.603835821151733398e-01,-1.519738078117370605e+00,3.919836685424396450e+01,3.794829845428467074e-02
