timestamp,x,y,z,roll,pitch,yaw,vx,vy,vz,p,q,r,psp,qsp,rsp,pres,qres,rres,thrust_sp, thrust_res
0.000000000000000000e+00,-2.443984813089936092e-02,7.599236770068703781e-03,9.881459474563598633e-01,1.247793423602024630e-02,-2.996989543011974177e-03,1.420309780767647174e-03,1.557956988697346834e-02,-1.170232654707057448e-03,-9.465160779654979706e-03,-4.313115077299090050e-02,4.499041324334022290e-02,-4.608566670693935857e-03,-2.842391140998692389e-01,1.686773625557851930e-01,1.583575354780154265e-01,-2.069515228271484319e-01,1.908853054046630859e-01,1.543181777000427191e-01,5.033944046449237986e-01,-5.384626984596252441e-01,2.759352922439575195e-01,4.870886227344770703e+01,2.020626306533813421e-01
3.562900000000000095e-02,-2.443984813089936092e-02,7.599236770068703781e-03,9.881459474563598633e-01,1.247793423602024630e-02,-2.996989543011974177e-03,1.420309780767647174e-03,1.557956988697346834e-02,-1.170232654707057448e-03,-9.465160779654979706e-03,-4.313115077299090050e-02,4.499041324334022290e-02,-4.608566670693935857e-03,-2.840428910028401921e-01,1.663646187324535897e-01,1.583642024499517797e-01,-2.069515228271484319e-01,1.908853054046630859e-01,1.543181777000427191e-01,5.034147439067432339e-01,-5.384626984596252441e-01,-4.956996440887451172e-02,9.610093237680865741e+01,2.020626306533813421e-01
5.520800000000000013e-02,-2.445987467892898198e-02,7.683589398668262682e-03,9.879739880561828613e-01,1.247941976910244000e-02,-3.157407221755503812e-03,1.241927733475905755e-03,1.683882070738637257e-02,-6.007999225829031668e-03,-6.638898048549890518e-04,-2.584216594471772446e-02,4.028232728510518050e-03,-2.781075203334205589e-02,-2.967342063465663315e-01,7.019303441387991782e-02,-6.397897614438741165e-02,-2.158048331737518200e-01,9.479634761810303012e-02,-6.752264499664306641e-02,5.009947304406363600e-01,-6.320925951004028320e-01,1.839021444320678711e-01,9.058891507509500229e+01,2.020626306533813421e-01
7.212000000000000355e-02,-2.450104068034900107e-02,7.745528657081488834e-03,9.877786636352539062e-01,1.265242637247679901e-02,-3.251133528443528320e-03,1.237701612821691735e-03,7.630542760490578204e-03,-5.617181305635728268e-03,1.152441254816949368e-03,1.808827039430655967e-02,-2.149257868050016146e-02,-3.579062436231020532e-03,1.170638643824451069e-01,1.764270062190624877e-01,-1.955755703190339978e-01,1.980393648147582841e-01,2.093190014362335261e-01,-1.991321325302123912e-01,5.035836174819519062e-01,-4.902965426445007324e-01,-3.010953664779663086e-01,1.014261371745332951e+02,2.020626306533813421e-01
9.376600000000000212e-02,-2.464606212851864694e-02,8.109626288124355958e-03,9.875256419181823730e-01,1.271947236048330890e-02,-3.462766915959925029e-03,9.675812502311092892e-04,1.014630153607191422e-02,-5.287145109874733483e-03,-6.925331894308328629e-03,-3.166987071957215807e-03,-7.444503216710033483e-03,2.207515089619499059e-03,-2.513428857934923433e-01,-1.757977080857382191e-01,-2.190544312143687111e-01,-1.703688383102416881e-01,-1.447807788848876898e-01,-2.218503713607788141e-01,5.017066738565062467e-01,-6.227934360504150391e-01,1.326357126235961914e-01,8.829470234421191321e+01,2.020626306533813421e-01
1.180139999999999939e-01,-2.477735177869911862e-02,8.436940098470818716e-03,9.872322678565979004e-01,1.304361077265171233e-02,-3.460052149099945851e-03,8.172487064769438057e-04,1.089981270567308078e-02,-1.731247617338260584e-03,4.532450344413518906e-03,4.827902054759606459e-02,1.213189167904188404e-02,-2.449556435445162869e-02,-2.905694172614766146e-01,1.838744073015388947e-01,2.080245730182206654e-01,-2.105350255966186579e-01,2.147870779037475419e-01,2.056445717811584417e-01,5.074614366846746938e-01,-2.757970094680786133e-01,1.518996953964233398e-01,1.114088206465329307e+02,2.020626306533813421e-01
1.460089999999999999e-01,-2.487166735089823763e-02,8.788025812824428948e-03,9.869486689567565918e-01,1.278384769127267027e-02,-3.506194330313849861e-03,4.203018823742199549e-04,1.752380110555175341e-02,-6.051605155780339848e-03,-1.906998222693800926e-04,-5.010504049797009918e-02,-5.049443463019885267e-03,2.566156298855606054e-03,-2.929256813801638937e-01,-8.535016945623749574e-02,-1.589581116197619493e-01,-2.108019769191741832e-01,-5.927306413650512695e-02,-1.602075934410095159e-01,5.038098711668366203e-01,-4.889885187149047852e-01,-1.292639970779418945e-01,1.129783434762885008e+02,2.020626306533813421e-01
1.696419999999999872e-01,-2.496889079108671403e-02,9.294308387242685224e-03,9.865302443504333496e-01,1.205381539472222437e-02,-3.598531296604257079e-03,-2.259138545963529701e-04,1.216908293525978228e-02,3.926086524281220506e-03,2.242384653072804213e-04,-3.635685017127789770e-02,-2.089480109477213562e-02,-1.438749314348061227e-02,-2.641437672547540805e-01,-1.488416519445793229e-01,-2.036761624064928056e-01,-1.957886338233947587e-01,-1.167681097984313854e-01,-2.031374931335449274e-01,5.006374292010825622e-01,-6.563036441802978516e-01,6.416976451873779297e-02,9.534614866219806117e+01,2.020626306533813421e-01
1.948850000000000027e-01,-2.504918470797698818e-02,9.319169791123268001e-03,9.861256480216979980e-01,1.013934770911105454e-02,-4.445606861931405973e-03,-1.296407693371717101e-03,9.815902212509049901e-03,-5.574725330604384139e-03,6.525078788399696350e-04,-1.328104111498301931e-01,-5.250225504876531585e-02,-5.783500316844981254e-02,-2.501962446789194328e-01,-1.892214773693608465e-01,-1.929068345823504727e-01,-1.852037787437438854e-01,-1.504208564758300615e-01,-1.893628120422363170e-01,5.010485567261873108e-01,-6.353099942207336426e-01,2.319468259811401367e-01,8.729182566837894797e+01,2.020626306533813421e-01
2.182699999999999918e-01,-2.521253725993673547e-02,8.994258106524164256e-03,9.855228066444396973e-01,5.711615715089898501e-03,-6.447158579755196683e-03,-3.161191758589487820e-04,1.093646063711650740e-02,7.382090842388370870e-03,-3.885758575052022934e-03,-1.853791092640042770e-01,-5.207203278071392133e-02,4.878583501485282692e-02,-1.062071263764594875e-01,-2.024359624797189283e-01,-2.173915047847267135e-01,-8.165447115898132047e-02,-1.517468690872192383e-01,-2.165898442268371638e-01,5.010071359077727937e-01,-6.587354540824890137e-01,6.082354784011840820e-01,-8.748622651253585047e+01,2.020626306533813421e-01
2.441210000000000047e-01,-2.541382020787946727e-02,8.723872564568540058e-03,9.848924279212951660e-01,9.717420703257110149e-04,-8.247024040604955530e-03,1.704392750221925485e-03,5.682062298041388538e-04,2.681252095013393275e-03,-1.349945832043886185e-02,-2.139879221140136289e-01,-3.857825408009575574e-02,2.515814630855734910e-02,4.357037042511249791e-02,-2.153733393322224687e-01,-2.120337471484679270e-01,4.313306808471679271e-02,-1.443379998207092174e-01,-2.168367862701416071e-01,5.018887372734316399e-01,-6.544107794761657715e-01,-6.022056341171264648e-01,1.099966517148761227e+02,2.020626306533813421e-01
2.684670000000000112e-01,-2.543490328080620297e-02,8.644443553927851423e-03,9.841802120208740234e-01,-5.856722162866743499e-03,-9.107877096929950511e-03,6.147920270003893019e-04,1.465982393950954026e-02,2.450654588933947817e-02,-1.338359061628580093e-02,-2.590239940002334040e-01,4.681336259594631732e-03,2.798690512280024335e-03,2.538180077865820339e-01,8.773617808875464052e-02,-2.145817621222667892e-01,1.907619595527648981e-01,1.516075015068054088e-01,-2.162754893302917536e-01,5.019780187328626297e-01,-6.536023020744323730e-01,7.198131084442138672e-02,9.639926820956564768e+01,2.020626306533813421e-01
2.928359999999999852e-01,-2.561385757849374625e-02,8.876602734934501207e-03,9.837088584899902344e-01,-1.141634256540599232e-02,-9.341908281890853871e-03,9.057449063762898793e-04,1.086353437915664986e-02,1.772296378807488096e-02,-1.230901479721069336e-02,-3.017208994239435338e-01,-2.402135226552024050e-02,1.689063423570834332e-02,2.957520497570078066e-01,4.926725671577360244e-02,-2.191377097572357047e-01,2.049479126930236761e-01,1.199350118637084878e-01,-2.215388774871826227e-01,5.012381711579400045e-01,-6.914097666740417480e-01,1.000946760177612305e-01,9.700611685694293840e+01,2.020626306533813421e-01
3.167760000000000020e-01,-2.583950147374142192e-02,9.460399808092529936e-03,9.828901290893554688e-01,-2.107578682282250718e-02,-7.787773723488378153e-03,3.243962629005813988e-03,4.789857443800356503e-03,3.070970225473304907e-02,-1.425825525075197220e-02,-3.719984956393636022e-01,6.417598332474741540e-02,1.057118667678760698e-01,3.195659875869750755e-01,1.533298559377362646e-01,-2.136702842080294429e-01,2.195659875869750977e-01,2.184311091899871771e-01,-2.225190639495849554e-01,5.013912880883568679e-01,-6.960177421569824219e-01,-1.664623022079467773e-01,8.749753047561220853e+01,2.020626306533813421e-01
3.409510000000000041e-01,-2.600224584411518422e-02,1.034820776771662107e-02,9.820496439933776855e-01,-2.922150429431286459e-02,-4.311142688208091656e-03,5.972565007099685415e-03,7.688847167488252823e-03,4.161639316735025323e-02,-1.815632358193397522e-02,-2.436252193809851085e-01,1.383386588243851190e-01,1.446320566923804118e-01,3.211338281631469505e-01,1.852846792165774858e-01,-2.048491933456189629e-01,2.211338281631469727e-01,2.247810781002044511e-01,-2.213701486587524303e-01,5.012409119793875822e-01,-7.245125174522399902e-01,-6.651930809020996094e-01,5.616986039444615386e+01,2.020626306533813421e-01
3.653379999999999961e-01,-2.606609876550509269e-02,1.147722026118291709e-02,9.812754988670349121e-01,-3.501559238452434802e-02,7.633606992329955432e-04,8.946039399294997488e-03,1.205844935477959172e-02,5.345488748537446932e-02,-1.955346390604972839e-02,-1.255658680411848305e-01,2.036149994821648268e-01,1.053173663676011673e-01,3.132334709167480247e-01,2.187668244847124077e-01,-1.865769674012456858e-01,2.132334709167480469e-01,2.223355472087860107e-01,-2.116025090217590332e-01,5.016827498980741540e-01,-7.119637727737426758e-01,-2.535797357559204102e-01,9.120850885546354903e+01,2.020626306533813421e-01
3.905520000000000103e-01,-2.627057400673580428e-02,1.241265337067952099e-02,9.807684421539306641e-01,-3.544852292160009799e-02,4.476170802392820391e-03,1.232832763158644984e-02,-2.581235363539644001e-03,5.009627471039242858e-02,-4.708356689661741257e-03,1.207770705149205787e-01,4.951842244922664837e-02,1.427761692842023367e-01,2.374918937683105358e-01,2.200520605842558597e-01,1.096589313546004751e-01,1.374918937683105302e-01,2.122069537639617864e-01,7.509309053421020508e-02,5.086657117386551574e-01,-2.881610393524169922e-01,1.180621385574340820e-01,9.586884254881162803e+01,2.020626306533813421e-01
4.173700000000000188e-01,-2.651602595448407720e-02,1.347459352392329363e-02,9.805295467376708984e-01,-2.988675578007767009e-02,5.044121034729620590e-03,1.582903951099222037e-02,1.497388127057128551e-02,6.745012968599251035e-02,1.041524810716509819e-04,2.837463301510192437e-01,1.576284124098515163e-02,1.089312075455270840e-01,3.001013755798339622e-01,2.462743859837050742e-01,-5.473211015692010240e-02,2.001013755798339844e-01,2.184573948383331243e-01,-9.917721748352049949e-02,5.043365680142565255e-01,-5.001345276832580566e-01,-2.008022069931030273e-01,9.361609589637967588e+01,2.020626306533813421e-01
4.419540000000000135e-01,-2.677666239667560871e-02,1.474725269951429260e-02,9.804513454437255859e-01,-2.058911400777318698e-02,2.583940957090913315e-03,1.963896490488425614e-02,-7.318176641803735179e-03,5.619274893109908048e-02,8.743240498006343842e-03,3.498179182325524272e-01,-1.499602029035461692e-01,1.179389163746716040e-01,3.131536841392517090e-01,2.051848708210486094e-01,-1.538355214090435241e-01,2.131536841392517034e-01,2.140494704246520830e-01,-2.087967753410339411e-01,5.019364140363560267e-01,-5.929904580116271973e-01,-1.834762096405029297e-02,1.005770217172956364e+02,2.020626306533813421e-01
4.686389999999999723e-01,-2.767528590309559222e-02,1.583151222793635973e-02,9.801767468452453613e-01,-9.946009538934151226e-03,-1.652341211759944528e-03,2.358878672459259820e-02,9.380634689392165423e-03,6.714967780499957184e-02,6.934326142072677612e-03,4.039302242756924732e-01,-1.600500232683261526e-01,1.095698833194848620e-01,3.116923093795776478e-01,2.008220520856207891e-01,-1.347022087331011253e-01,2.116923093795776423e-01,2.205475866794586182e-01,-2.007458209991455078e-01,5.039038138250867549e-01,-4.985632896423339844e-01,1.498414278030395508e-01,9.052824250469778633e+01,2.020626306533813421e-01
4.939709999999999934e-01,-2.877356239441265090e-02,1.688923666445744237e-02,9.797587394714355469e-01,2.624904970976890098e-04,-7.381346087391493782e-03,2.496124968325398250e-02,-8.107435797416416828e-04,6.540319209252329347e-02,-4.961619153618812561e-03,2.986508950798834605e-01,-2.041201677012691729e-01,-1.098591206366205004e-02,2.723439704971804542e-01,1.384157096168041889e-01,-1.205938861906064863e-01,2.183952569961547796e-01,2.063901185989379938e-01,-1.906151890754699540e-01,5.057348596002657626e-01,-4.519442319869995117e-01,4.616224765777587891e-02,9.813939550440979076e+01,2.020626306533813421e-01
5.194060000000000343e-01,-2.992864366909878462e-02,1.810739317843670232e-02,9.792175889015197754e-01,9.775381167066856530e-03,-1.414937923908454742e-02,2.620467436517230631e-02,-3.852476520460838567e-03,7.080147779091762461e-02,-1.278418395668268204e-02,2.778314042562964881e-01,-2.161977778394142402e-01,9.793139050461195649e-02,2.130157007719424567e-01,6.321089863777160089e-02,-1.342635404143531774e-01,2.155589461326599121e-01,1.632108986377716064e-01,-2.081058025360107422e-01,5.079642334100904488e-01,-3.689039945602416992e-01,5.590273141860961914e-01,-3.751536896916509711e+00,2.020626306533813421e-01
5.440150000000000263e-01,-3.124784209581547151e-02,1.968829476394628325e-02,9.785343408584594727e-01,1.941721419612990607e-02,-2.138833651510685385e-02,2.850232533749757699e-02,-1.468036863377863294e-02,6.967275706222252063e-02,-1.672991365194320679e-02,3.501213590531339070e-01,-2.311496741413168743e-01,1.000274477483072688e-01,1.437991684562016093e-01,-1.973225951194763073e-01,-1.067448624349992825e-01,2.095410346984863115e-01,-9.732259511947631558e-02,-1.875984907150268499e-01,5.060018958704530778e-01,-4.930002093315124512e-01,1.969310045242309570e-01,7.925959833652481734e+01,2.020626306533813421e-01
5.648509999999999920e-01,-3.228491025421594690e-02,2.110524189619046934e-02,9.780328869819641113e-01,2.603651443010045197e-02,-2.605304789235773910e-02,2.999987821118679440e-02,-1.366774362182143418e-02,6.323307913233347510e-02,-6.975396070629358292e-03,3.463762840321470970e-01,-2.168077212805771259e-01,4.798986791912594752e-02,9.737589359283446711e-02,-2.874274373054504506e-01,-1.991899388155429773e-03,1.973758935928344727e-01,-1.874274373054504450e-01,-8.747069835662842074e-02,5.035452356653674633e-01,-5.873036980628967285e-01,-5.480408668518066406e-03,1.019901195546795805e+02,2.020626306533813421e-01
5.938360000000000305e-01,-3.447668031771079777e-02,2.378171395068335789e-02,9.768815636634826660e-01,3.851377938195095496e-02,-3.402452866769389850e-02,3.344877049314394502e-02,-3.085031596985945285e-02,5.765025182608288917e-02,-1.026413775980472565e-02,3.411863415633317187e-01,-1.502439069442549346e-01,4.955702848826005341e-02,-2.985154211521148793e-01,-3.151375532150268444e-01,3.151211956038382778e-01,-1.985154211521148737e-01,-2.151375532150268388e-01,2.187955677509307861e-01,5.016785135953613084e-01,-7.048137784004211426e-01,5.140775442123413086e-01,2.338464160477771614e+01,1.914463758468628041e-01
6.179620000000000113e-01,-3.618284028421956539e-02,2.560902524140268310e-02,9.758866429328918457e-01,4.563554314303025494e-02,-3.658190194670196682e-02,3.585565014972797587e-02,-1.883677548812983174e-02,5.308356311870165295e-02,-2.413958683609962463e-02,1.692870724890691847e-01,4.216087941786655913e-03,6.026381158350846423e-02,-3.204553723335266113e-01,-3.121924161911010520e-01,3.244052290916442649e-01,-2.204553723335266058e-01,-2.121924161911010742e-01,2.244052290916442871e-01,5.025703573593718332e-01,-7.189142704010009766e-01,4.330718517303466797e-02,8.486943077734221674e+01,1.914463758468628041e-01
6.424020000000000286e-01,-3.776224554324222188e-02,2.770996416729784931e-02,9.748464822769165039e-01,5.063464449633008069e-02,-3.384450717925013841e-02,3.692622246888442594e-02,-2.957871693119974374e-02,4.765437490546863691e-02,-3.545962646603584290e-02,1.331914714707658487e-01,1.571185706559518613e-01,2.411212599703010939e-02,-3.201829850673675315e-01,-1.807363152503967396e-01,3.118043005466460960e-01,-2.201829850673675537e-01,-8.073631525039672019e-02,2.118043005466461182e-01,5.041280298132159166e-01,-6.889721751213073730e-01,-1.610308885574340820e-01,3.776257229824808093e+01,1.914463758468628041e-01
6.661979999999999569e-01,-3.920384714815150495e-02,2.987936664743021109e-02,9.734907150268554688e-01,5.081293031760649587e-02,-2.626043476973149993e-02,3.446380852181694932e-02,-2.185816001099116085e-02,4.436753712564348029e-02,-5.242474749684333801e-02,-8.053749628725175025e-02,3.483917928749363235e-01,-1.580405747794570437e-01,-3.168853163719177468e-01,-4.021520614624024548e-02,2.733627637370837915e-01,-2.168853163719177135e-01,5.978479385375976007e-02,1.742554306983947754e-01,5.101486728738912069e-01,-4.465931057929992676e-01,1.621068716049194336e-01,-3.826838195723337321e+01,1.914463758468628041e-01
6.912909999999999888e-01,-4.062290856531122762e-02,3.198093519037317756e-02,9.718331098556518555e-01,4.567845152678222387e-02,-1.692560266889175935e-02,3.048187723387383793e-02,-2.284701428753279154e-02,4.332345247966351565e-02,-6.946515291929244995e-02,-2.789302210333626797e-01,3.136622287041805346e-01,-1.134462511947919305e-01,-3.153267741203308328e-01,-1.225843787193298395e-01,2.370443260924750550e-01,-2.153267741203307994e-01,-2.258437871932983398e-02,1.499660611152648926e-01,5.117410473326062803e-01,-4.406626224517822266e-01,-1.088050603866577148e-01,4.411917664177965293e+01,1.914463758468628041e-01
7.163199999999999568e-01,-4.161534288842370227e-02,3.326039099436890745e-02,9.705953001976013184e-01,4.072567583223635213e-02,-1.128260444256512507e-02,2.750733099025209558e-02,-2.387517819023624727e-02,3.780511747403041134e-02,-6.719332933425903320e-02,-2.685647070746087217e-01,2.361912624172493591e-01,-1.710942462232668548e-01,-3.169728279113769309e-01,-1.348582029342651478e-01,1.583132371820140383e-01,-2.169728279113769531e-01,-3.485820293426513533e-02,8.009814620018004816e-02,5.103722701482630297e-01,-5.142242908477783203e-01,-1.210886240005493164e-01,1.210624665854563915e+02,1.914463758468628041e-01
7.429590000000000360e-01,-4.299193194567996201e-02,3.571436105856953119e-02,9.686595201492309570e-01,3.165796294709078557e-02,-4.717726670725452820e-03,2.348081761488453670e-02,-4.200884985646140962e-02,4.072363549782477554e-02,-7.931471616029739380e-02,-3.183244370323218275e-01,1.786315310163933412e-01,-9.583854799122731860e-02,-3.169584155082702526e-01,-6.190806095942062715e-02,1.942606506194053673e-01,-2.169584155082702470e-01,2.567135095596313407e-02,1.277579784393310380e-01,5.106740902731411458e-01,-5.596692562103271484e-01,1.754845380783081055e-01,8.864370452023204905e+01,1.914463758468628041e-01
7.653079999999999883e-01,-4.395894559263047868e-02,3.722566190185259277e-02,9.673581719398498535e-01,2.533379262939645590e-02,-1.873418209441757298e-03,2.060807890729259712e-02,-3.888332275370526975e-02,3.176276095394551385e-02,-7.537318766117095947e-02,-3.444017326143896662e-01,1.440602579156111673e-01,-1.391144373830672798e-01,-3.169580578804016002e-01,-1.714520383314419028e-03,1.052097959771364777e-01,-2.169580578804015947e-01,6.375457048416137418e-02,4.704514145851135254e-02,5.097664332883914406e-01,-6.026549935340881348e-01,6.500184535980224609e-02,1.069339948910424027e+02,1.914463758468628041e-01
7.929310000000000525e-01,-4.535966568188917747e-02,3.942566749554220901e-02,9.654402732849121094e-01,1.535792270483089111e-02,2.279618957752749253e-03,1.703657244476467630e-02,-3.417251163766966277e-02,3.845803862051683231e-02,-7.554065436124801636e-02,-3.703192351594928322e-01,1.348973329427758938e-01,-1.418282209389012949e-01,-2.548125820561794597e-01,1.274932089305690630e-01,2.893029372792134055e-02,-2.110674262046813854e-01,1.642005264759063554e-01,-1.896239519119262765e-02,5.092745976667125696e-01,-6.426452398300170898e-01,-6.614100933074951172e-02,9.290944452485015859e+01,1.914463758468628041e-01
8.148009999999999975e-01,-4.624427336483664941e-02,4.084642546308352856e-02,9.641655683517456055e-01,8.724769733308282427e-03,4.679466876702065292e-03,1.479619620229542971e-02,-3.455987314737088423e-02,3.623541635682848983e-02,-6.718466430902481079e-02,-3.157039742417838690e-01,9.758287785939599723e-02,-8.572715539764842740e-02,-1.725986145297918606e-01,1.719306622240269478e-01,-1.165114715118771016e-01,-1.704393088817596491e-01,1.952093124389648326e-01,-1.580265998840331976e-01,5.089316471470132219e-01,-6.380317807197570801e-01,2.458654642105102539e-01,8.866534938971182100e+01,1.914463758468628041e-01
8.408949999999999481e-01,-4.770032880571788841e-02,4.355636183638721820e-02,9.624562263488769531e-01,-1.085422596727687828e-03,6.964571186198531549e-03,1.193863574948884204e-02,-4.108604958505397697e-02,4.287773918682755842e-02,-6.726743280887603760e-02,-2.864539283846167517e-01,4.006052049633328921e-02,-1.151932345953844694e-01,2.023176283323556701e-01,1.939364061430098873e-01,-1.679043395347972478e-01,1.333039999008178711e-01,2.088421940803527888e-01,-2.013588666915893388e-01,5.084917046889109171e-01,-6.740240454673767090e-01,1.047042608261108398e-01,1.686795675163071735e+02,1.914463758468628041e-01
8.668900000000000494e-01,-4.870589541264679773e-02,4.534816446591267286e-02,9.613763093948364258e-01,-7.318293242367854973e-03,6.658439720414577323e-03,1.126981554037606928e-02,-4.711710034175117801e-02,3.918542913978335929e-02,-7.435570657253265381e-02,-3.144642028858715688e-01,-2.595188511757522826e-02,1.254554267757046655e-02,2.968985319137573131e-01,1.833391988396837757e-01,-1.868486646244026939e-01,1.968985319137573076e-01,2.049981236457824596e-01,-2.184111356735229381e-01,5.091257837301147449e-01,-6.783632636070251465e-01,1.481169462203979492e-01,9.626767095482701109e+01,1.914463758468628041e-01
8.910339999999999927e-01,-5.028809707453864297e-02,4.809851689965127103e-02,9.601195454597473145e-01,-1.373328566367063713e-02,3.719171172160695704e-03,1.144898706822245101e-02,-3.921488491980410634e-02,5.348489846193479891e-02,-6.610770523548126221e-02,-1.682231109179633810e-01,-1.139390676283370818e-01,4.734575783463818022e-02,3.096510410308838113e-01,-2.276605445481197365e-01,-1.939777344619723898e-01,2.096510410308837780e-01,-1.926314949989318681e-01,-2.260145187377929632e-01,5.078186256049589398e-01,-7.255871295928955078e-01,2.652317285537719727e-01,-1.643191064482793138e+02,1.914463758468628041e-01
9.170519999999999783e-01,-5.139370480773992889e-02,4.990493599593855828e-02,9.595291614532470703e-01,-1.497838785489908307e-02,-1.384896638370047839e-04,1.229502902866135006e-02,-5.374011053013919709e-02,4.473119649534133824e-02,-3.900542110204696655e-02,3.105426193551788852e-02,-2.524661565994635315e-01,3.859977422442032596e-02,3.097505331039428489e-01,-2.491494525709406216e-01,-1.820131842777817643e-01,2.097505331039428711e-01,-1.750115633010864147e-01,-2.163597106933593806e-01,5.076056177386026880e-01,-6.362968087196350098e-01,1.277834177017211914e-01,1.001699356125737097e+02,1.914463758468628041e-01
9.398680000000000367e-01,-5.262947612347132487e-02,5.145138664939973017e-02,9.591015577316284180e-01,-1.399302513014429039e-02,-4.512428063514040133e-03,1.352692319148865278e-02,-4.532128142497721113e-02,4.473685724495581745e-02,-2.789291366934776306e-02,4.465418312351870922e-02,-2.225728215458423753e-01,5.214619213539641029e-02,3.140941023826598899e-01,-2.732050574946371380e-01,-1.805459275010271036e-01,2.140941023826599121e-01,-1.782137989997863714e-01,-2.183488011360168457e-01,5.070877820784739365e-01,-6.247886419296264648e-01,2.405954599380493164e-01,1.079071739043641571e+02,1.914463758468628041e-01
9.653399999999999759e-01,-5.433815278168870055e-02,5.373718806154220012e-02,9.586558938026428223e-01,-8.439332086960528098e-03,-8.290725327031678304e-03,1.557196076946151808e-02,-4.464358699451877188e-02,4.676747032663563369e-02,-3.050423599779605865e-02,1.901990785906923775e-01,-6.789666733145689748e-02,7.419617265034052223e-02,3.173562407493591420e-01,1.473170518875120683e-02,-1.595006783855558441e-01,2.173562407493591364e-01,1.147317051887512124e-01,-2.031689643859863337e-01,5.100444084920108256e-01,-4.838327169418334961e-01,-5.802685022354125977e-01,8.834103151735210702e+01,1.914463758468628041e-01
9.924840000000000328e-01,-5.572733281009446815e-02,5.608221363423569750e-02,9.580920338630676270e-01,-8.312453153227921700e-04,-5.634106627268264944e-03,1.755584860048215595e-02,-2.961703860070090052e-02,5.927558699199594189e-02,-3.345265239477157593e-02,2.402099169054340566e-01,2.225653661030523034e-01,9.759904541062373873e-02,-6.105507346250645118e-02,5.837950996343790888e-02,2.359595184343730723e-01,-1.498628497123718206e-01,1.513325750827789196e-01,1.865630328655242809e-01,5.098871023843662975e-01,-5.099227428436279297e-01,-3.319607973098754883e-01,7.839546329330231345e+01,1.914463758468628041e-01
1.015023999999999926e+00,-5.655725805790256383e-02,5.765076170226576119e-02,9.577030539512634277e-01,5.206934795959338239e-03,-1.993994165277790387e-03,1.883059052722240931e-02,-3.022801190397498075e-02,4.926938402954019608e-02,-2.622344158589839935e-02,3.093455741864465924e-01,1.731618382904135944e-01,5.286826321867678369e-02,-9.359790433705969526e-02,4.446838501705470403e-02,2.206233536819898478e-01,-1.350902438163757158e-01,1.171806156635284424e-01,1.676345229148864802e-01,5.118709219493180473e-01,-3.805738091468811035e-01,1.243950128555297852e-01,7.564989800168643796e+01,1.427273988723754827e-01
1.046950999999999965e+00,-5.771220988865539275e-02,6.005072939123227982e-02,9.571585655212402344e-01,1.492057843213101878e-02,2.870905961507741466e-03,1.907746108313254293e-02,-2.759324647874773079e-02,5.176248975239553657e-02,-1.047047786414623260e-02,3.138037683555937041e-01,1.322891895109806759e-01,-8.693923043578218046e-02,-1.457073266779759790e-01,6.724641650953791516e-02,2.236148851101860957e-01,-1.297206044197082575e-01,1.070063710212707520e-01,1.699614465236663763e-01,5.107040929667202578e-01,-3.854454755783081055e-01,3.650580644607543945e-01,8.461068272101462640e+01,1.427273988723754827e-01
1.068524999999999947e+00,-5.810167064177512719e-02,6.085963679388543823e-02,9.569764137268066406e-01,1.742035659229731331e-02,3.760932327844024314e-03,1.845865795499413570e-02,-2.346364614763782330e-02,5.733747122079427966e-02,-1.931581459939479828e-02,2.621433720430965675e-01,8.124024232699283976e-02,-5.134228919596060120e-02,-1.422065808347642013e-01,6.571048761814943240e-02,2.130048824138298658e-01,-1.147158622741699108e-01,9.711230993270873746e-02,1.611106574535369762e-01,5.115957068808618668e-01,-3.768662810325622559e-01,2.440774440765380859e-02,1.274270827408843871e+02,1.427273988723754827e-01
1.090919999999999890e+00,-5.881750559338922574e-02,6.254814529624884434e-02,9.566119313240051270e-01,2.071323729072043623e-02,5.091038594404961870e-03,1.623404538757774671e-02,-2.338014586894794633e-02,6.259412160602326192e-02,-2.676043100655078888e-02,1.007676998514327182e-01,2.822502769507856737e-02,-1.196783136974148287e-01,-2.500919426998737261e-01,1.007310192720696773e-01,2.531630554875081707e-01,-2.057900905609130748e-01,1.247012972831725991e-01,2.075256943702697698e-01,5.128522206896398705e-01,-3.444263339042663574e-01,1.474130153656005859e-02,9.467459763281323148e+01,1.427273988723754827e-01
1.118536999999999892e+00,-5.984196509184556284e-02,6.522254953393155641e-02,9.559793472290039062e-01,2.104568405143903906e-02,5.533917234727958601e-03,1.282765635620882784e-02,-3.339591452625201989e-02,6.268839504268149121e-02,-2.762676961719989777e-02,-2.964370597118252959e-02,-6.704064873868936444e-03,-9.226571836114051683e-02,-2.577021212414390416e-01,-1.965351884518919956e-01,-1.207564769398361548e-02,-2.125137448310852051e-01,-1.662882328033447321e-01,-4.822432994842529297e-02,5.073906847834840361e-01,-6.445139050483703613e-01,-2.110115289688110352e-01,1.706297231281291999e+02,1.427273988723754827e-01
1.145698000000000105e+00,-6.090282589606184349e-02,6.799581225849052335e-02,9.552649259567260742e-01,1.800234093449745373e-02,4.779419474540969048e-03,8.752062986741858050e-03,-2.077964328392674365e-02,7.199548396595921440e-02,-3.490563854575157166e-02,-1.026887113349077563e-01,-3.002702416670339700e-02,-1.732829380247152273e-01,-2.291011282453354614e-01,-2.140151461004351774e-01,3.099655371767386786e-02,-2.126903235912322998e-01,-1.890547156333923229e-01,6.308591365814208464e-03,5.083750488041518523e-01,-6.280304789543151855e-01,-1.179980039596557617e-01,1.049876505247772229e+02,1.427273988723754827e-01
1.167643999999999904e+00,-6.171791048036138344e-02,6.997798515596405367e-02,9.547761082649230957e-01,1.468516423668867615e-02,3.540645383918183953e-03,5.943978367545239838e-03,-2.283959483944955279e-02,7.033936175920299516e-02,-3.296875953674316406e-02,-2.024894340409877369e-01,-6.907769996671773993e-02,-1.006824877498722348e-01,-1.649305104972641767e-01,-2.216973506047783260e-01,-1.521260650086593835e-01,-1.690188288688659612e-01,-1.841277122497558538e-01,-1.690131425857543945e-01,5.078831184777292673e-01,-6.523556113243103027e-01,1.176723241806030273e-01,6.525503310384402766e+01,1.427273988723754827e-01
1.191027999999999976e+00,-6.284805621217096072e-02,7.302021041961238856e-02,9.540220499038696289e-01,8.505997928837790920e-03,3.167652767572803896e-03,3.616459553095883149e-03,-1.444263318265073467e-02,7.849310845152268623e-02,-4.002627730369567871e-02,-2.106818251192066060e-01,1.639467134763152728e-02,-5.469380725362243956e-02,2.060446836836590107e-02,1.431874545497210244e-02,-1.726806419259149794e-01,-3.234683275222777904e-02,4.849026203155517439e-02,-1.829926371574401855e-01,5.107771082282483999e-01,-5.341213941574096680e-01,1.618540287017822266e-02,1.019029663408702220e+02,1.427273988723754827e-01
1.215427999999999953e+00,-6.374090095963909353e-02,7.617377900602310958e-02,9.532693624496459961e-01,2.345629752540702179e-04,6.263614421157859269e-03,2.402669356144368409e-03,-1.764895004933506734e-02,8.544491115570047868e-02,-3.494655713438987732e-02,-2.995988033380524440e-01,1.449406113107389593e-01,-1.742657980864711909e-02,2.881563186645507701e-01,1.966008175671476177e-01,-1.974241609228086225e-01,1.881563186645507646e-01,2.153774499893188477e-01,-2.042244672775268555e-01,5.084063149141154758e-01,-6.474639773368835449e-01,2.666074037551879883e-01,9.776783321356110434e+01,1.427273988723754827e-01
1.242140999999999940e+00,-6.435803624315672433e-02,7.836424874100120230e-02,9.528449773788452148e-01,-4.912781457755253586e-03,9.802814933508541273e-03,2.741613458022541285e-03,-1.203035596628884707e-02,8.732488329928005111e-02,-3.826539590954780579e-02,-2.568885422944133801e-01,1.992237206136923400e-01,5.068597810029415451e-02,3.043742060661315807e-01,2.274414262369590378e-01,-1.975488089319861473e-01,2.043742060661315751e-01,2.189007103443145752e-01,-2.052013635635376032e-01,5.084516783554954289e-01,-6.641266942024230957e-01,6.710755825042724609e-02,-1.527526899379558856e+01,1.427273988723754827e-01
1.266748999999999903e+00,-6.535595259046710070e-02,8.166404186423485700e-02,9.525259137153625488e-01,-8.968217714723452846e-03,1.366005868115105493e-02,4.136175400039586274e-03,-1.741469403312075059e-02,7.867687517974004952e-02,-2.373268269002437592e-02,-1.000610074258055093e-01,7.910015203531924055e-02,9.441864537961239257e-02,3.070332050323486550e-01,2.480957683042786521e-01,-1.930787664383284696e-01,2.070332050323486217e-01,2.205116808414459284e-01,-2.046097040176391435e-01,5.079866917118754932e-01,-6.361243128776550293e-01,-5.589150190353393555e-01,6.442809527084142474e+01,1.427273988723754827e-01
1.289153999999999911e+00,-6.603532393132645339e-02,8.376467839510738644e-02,9.526256918907165527e-01,-7.227133749644729273e-03,1.355500245332730280e-02,5.465247024105453211e-03,-1.392931005849292955e-02,8.423781758061653357e-02,-4.093462135642766953e-03,1.806312029933412888e-01,-3.148280166254520396e-02,6.984848410796157259e-02,2.866438746452331654e-01,2.160028492369483744e-01,-9.323191416613720028e-02,1.866438746452331598e-01,1.863690912723541260e-01,-1.084617733955383218e-01,5.148020713946026561e-01,-1.980953812599182129e-01,1.024931669235229492e-01,-6.286671744167108500e+00,1.427273988723754827e-01
1.316961000000000048e+00,-6.711012777003191876e-02,8.677893550481942386e-02,9.532406926155090332e-01,-7.795144837728985084e-04,9.477239656749514296e-03,8.139705323524794311e-03,-2.190581918450999060e-02,8.001753934462450812e-02,1.154922042042016983e-02,2.902839900905939130e-01,-2.139463518679832199e-01,9.777364617995934482e-02,2.999421596527099831e-01,-2.182289521833745416e-02,-1.645903590375328296e-01,1.999421596527099498e-01,-1.722786426544189314e-02,-1.873998641967773438e-01,5.108273900342032992e-01,-3.478981256484985352e-01,3.639510869979858398e-01,-7.973608599340325043e+01,1.427273988723754827e-01
1.340810999999999975e+00,-6.820622972228075620e-02,8.961032742710352272e-02,9.541193842887878418e-01,8.322222612458582761e-03,3.106702919238646388e-03,1.027752550085461215e-02,-8.210772419958737786e-03,8.403405610847178298e-02,1.586663164198398590e-02,3.524626092649069675e-01,-1.948624729027310376e-01,5.024668755141797893e-02,2.725519305390282643e-01,-4.316700704064222599e-02,-1.498070195591226228e-01,2.000980138778686579e-01,-8.581244945526122700e-03,-1.787940859794616699e-01,5.167416261063606520e-01,-1.281130313873291016e-02,-4.509148597717285156e-01,9.340021410728309093e+01,1.427273988723754827e-01
1.365115999999999996e+00,-6.894141611438767137e-02,9.144737582149754795e-02,9.547922611236572266e-01,1.438395641071307969e-02,-1.657809442289659430e-03,1.138942595196807718e-02,-1.254989626776544485e-02,7.676955726983852868e-02,2.336102910339832306e-02,2.790985855405032079e-01,-2.385201424528398673e-01,6.164087637987326895e-02,2.280692434398536583e-01,-1.613416201226290925e-01,-1.655375381752680897e-01,1.993983507156371904e-01,-8.969085216522217074e-02,-1.979435205459594560e-01,5.138505487911985137e-01,-1.364332437515258789e-01,-7.878005504608154297e-02,8.934037015519501779e+01,1.427273988723754827e-01
1.392384000000000066e+00,-6.983500008633546086e-02,9.415379548565110113e-02,9.558648467063903809e-01,2.335237791307340563e-02,-5.520871670241955798e-03,1.368575974458843478e-02,-1.020194888623160608e-02,8.076236024974337013e-02,1.430086232721805573e-02,2.271284411798833169e-01,-3.168283091586975714e-02,9.051697670207847768e-02,9.474133748905963492e-02,-1.224091602205604479e-01,4.633770819568795718e-02,1.180574297904968262e-01,-2.794522047042846680e-02,7.133978605270385048e-03,5.174626052846647006e-01,2.382910251617431641e-02,-2.069467306137084961e-01,9.756075553830464742e+01,1.427273988723754827e-01
1.414500000000000091e+00,-7.034970506169399562e-02,9.591320225127357435e-02,9.566376209259033203e-01,2.921487691618466706e-02,-6.525469057337751622e-03,1.533277759865794669e-02,3.047249508337623869e-03,7.996041332155361114e-02,2.641255408525466919e-02,3.299931517905973499e-01,-5.141350731295984272e-02,8.497677070872911020e-02,5.840491670426923437e-02,-1.304926685086173488e-01,1.411381930145220176e-01,1.190467000007629367e-01,-3.935526609420775951e-02,9.723386764526366355e-02,5.150066658465328739e-01,-5.768311023712158203e-02,6.698882579803466797e-02,-5.588767454398166734e+01,1.427273988723754827e-01
1.442797000000000107e+00,-7.093832288835787148e-02,9.854144691681604451e-02,9.578989744186401367e-01,3.643969471224493828e-02,-4.468416823412368899e-03,1.734062456840258781e-02,-7.892632432896283176e-03,7.305406955671298053e-02,3.571833297610282898e-02,2.087491603163874609e-01,1.236688554566290899e-01,2.360363375922906043e-02,-2.526883780956268311e-01,-6.072500701106149645e-02,2.331010570735444765e-01,-1.526883780956268255e-01,2.804916501045226843e-02,1.834679067134857011e-01,5.078974566034096805e-01,-3.950040340423583984e-01,-2.825056314468383789e-01,1.207457643740212347e+02,1.427273988723754827e-01
1.465483000000000091e+00,-7.126678033245895105e-02,1.002871255752244839e-01,9.587772488594055176e-01,4.028456059629328262e-02,-1.845834923126510319e-03,1.725928346797994326e-02,1.678842742946408395e-02,7.402536429304484855e-02,1.304410211741924286e-02,1.445087033805276810e-01,1.933194979209168496e-01,-5.360533679699271484e-03,-2.847630023956299050e-01,-5.196700312641518160e-02,2.415691764574540989e-01,-1.847630023956298717e-01,-1.476752758026123004e-03,1.925764024257659857e-01,5.149654010342115118e-01,-1.057950854301452637e-01,-1.376446485519409180e-01,-5.251938724535738601e+01,1.427273988723754827e-01
1.492847000000000035e+00,-7.154220438857138153e-02,1.027906600187982883e-01,9.600871801376342773e-01,4.412704952003011077e-02,2.678493779390445084e-03,1.566800115408728544e-02,1.357593284286315012e-03,6.824833822103565373e-02,2.245310321450233459e-02,7.861140822373356707e-02,1.169498518685200689e-01,-5.846891665946415267e-02,-3.046623110771179421e-01,-1.764395775449621381e-02,2.489003433210117966e-01,-2.046623110771179088e-01,2.003384828567504952e-02,2.045022547245025635e-01,5.105089138800321669e-01,-3.023490905761718750e-01,2.706507444381713867e-01,7.247335460363193249e+01,1.427273988723754827e-01
1.517360999999999960e+00,-7.165568075240455470e-02,1.043765833861513975e-01,9.608542323112487793e-01,4.371083131684656148e-02,5.928627680219067386e-03,1.371413173151010516e-02,7.131896986994297472e-03,6.286685622559499975e-02,1.563939638435840607e-02,-9.872631064816005109e-02,1.699054849343774876e-01,-1.029076704401082898e-01,-3.124401807785034402e-01,1.053441440860207884e-01,2.267305772812666931e-01,-2.124401807785034069e-01,1.156229496002197238e-01,1.881822466850280595e-01,5.098515171208983787e-01,-3.620983362197875977e-01,7.291924953460693359e-02,8.941300921701810012e+01,1.427273988723754827e-01
1.540084000000000009e+00,-7.172378526584402558e-02,1.059512316619472955e-01,9.615508913993835449e-01,4.095441404624512727e-02,8.139481202890097578e-03,1.147802302028973036e-02,1.333482991637095424e-02,6.679079718879606109e-02,1.483472436666488647e-02,-1.435446723564789417e-01,1.143766260498443599e-01,-1.297823852449462856e-01,-3.093616306781769021e-01,9.842256968622495328e-02,1.962921011888558998e-01,-2.093616306781768688e-01,9.082700014114379605e-02,1.642452299594878984e-01,5.103593787253853931e-01,-3.369272947311401367e-01,1.361011266708374023e-01,9.216568473555996377e+01,1.427273988723754827e-01
1.567922000000000038e+00,-7.181881089316444200e-02,1.101615709162850065e-01,9.624994993209838867e-01,3.364179710642502957e-02,1.058076029513266292e-02,7.529941602140361075e-03,1.937735428378598718e-02,6.054169396240417778e-02,1.825581490993499756e-02,-3.167503248591511666e-01,2.529656526167081698e-02,-1.539552358656974262e-01,-3.050206852265286983e-01,7.754599001926175406e-04,1.533053384434189259e-01,-2.143929541110992376e-01,-2.559467554092407018e-02,1.325197219848632812e-01,5.094090640266394354e-01,-3.709279298782348633e-01,3.998323678970336914e-01,-9.947226593980276732e+01,1.427273988723754827e-01
1.591949000000000058e+00,-7.191549202415922770e-02,1.141457250468668611e-01,9.633136391639709473e-01,2.419138007408767541e-02,1.066045759627964884e-02,4.030150718391016518e-03,1.589055765246439808e-02,6.839377966173991463e-02,1.043307129293680191e-02,-3.568404576390853955e-01,-1.924258305440334355e-02,-7.637789227695890304e-02,-2.230920190203817266e-01,-4.799417109390040348e-02,1.771737132876865031e-02,-2.037755191326141302e-01,-7.051620483398436667e-02,6.650876998901367014e-03,5.085602296015456769e-01,-4.456090927124023438e-01,3.701490163803100586e-01,1.165485175064000174e+02,1.427273988723754827e-01
1.614672000000000107e+00,-7.193969910658655487e-02,1.167480825026890323e-01,9.638170599937438965e-01,1.760873403241291699e-02,9.287105417927987716e-03,1.742206029539654843e-03,1.437181012716761373e-02,6.906723963269620348e-02,1.721930690109729767e-02,-3.295981943931819425e-01,-7.437906792116742716e-02,-1.153408092857613892e-01,-1.307429841180363095e-01,-9.479166265368944855e-02,-8.047918876220072626e-02,-1.559642314910888727e-01,-1.070639133453369085e-01,-8.525490760803222656e-02,5.079051862992758348e-01,-4.526033401489257812e-01,-2.752572298049926758e-01,4.592548163949205531e+01,1.427273988723754827e-01
1.640360000000000040e+00,-7.187510022855982117e-02,1.193015039851091225e-01,9.642623662948608398e-01,1.066544014595731567e-02,8.257014680515206706e-03,-2.872361595677352854e-04,8.662280044575006513e-03,6.574916400181501919e-02,2.712309127673506737e-03,-3.431153027785301957e-01,-5.161122260447108256e-02,-6.574742821228601874e-02,1.351279314989980440e-01,5.272975712738499354e-02,-1.906896444513185573e-01,6.583371162414550226e-02,5.175456404685974121e-02,-1.898785471916198675e-01,5.081657033482521735e-01,-4.960463047027587891e-01,9.435474872589111328e-02,8.824231479327791305e+01,1.427273988723754827e-01
1.666190000000000060e+00,-7.203362041353447709e-02,1.227480885185088799e-01,9.650194644927978516e-01,7.765846683686273471e-04,7.485187083248634465e-03,-1.594491192312443928e-03,2.452872673811410179e-02,7.763908169854878694e-02,1.035283226519823074e-02,-3.144112377259802860e-01,2.071767432611045304e-02,3.488020098591829241e-03,3.109102487564087136e-01,2.207500985474479538e-01,-2.158125204526234187e-01,2.109102487564086803e-01,2.118523478507995661e-01,-2.113011717796325628e-01,5.066511674499839524e-01,-5.448135733604431152e-01,2.246705293655395508e-01,8.603334282323658044e+01,1.312777280807495006e-01
1.689689999999999914e+00,-7.206124009008618714e-02,1.250067753780277902e-01,9.655686020851135254e-01,-4.327899634950331531e-03,7.696367691377270503e-03,-1.571384925988778165e-03,2.348800470959323816e-02,7.308173088369689097e-02,2.059262990951538086e-02,-2.258551841145751415e-01,-1.165326928466553155e-02,-2.221491531947266534e-03,3.161774635314941184e-01,2.194083415115708202e-01,-2.214150255833474967e-01,2.161774635314941406e-01,2.125332534313201793e-01,-2.169872760772705023e-01,5.054727811123072012e-01,-5.650004148483276367e-01,4.629787206649780273e-01,1.918036647250055751e+02,1.312777280807495006e-01
1.715300999999999965e+00,-7.206115076134311792e-02,1.283196160549352483e-01,9.665600061416625977e-01,-7.706508364565799359e-03,7.072507300806440966e-03,8.382749765480706160e-05,1.220513446149171233e-02,6.649815250045021386e-02,3.873334079980850220e-02,-5.947441108940134530e-02,-4.681357935839110251e-02,6.277985461396896893e-02,3.074063897132873757e-01,-2.007339871385435404e-01,-2.262381366182632525e-01,2.074063897132873424e-01,-1.944687366485595703e-01,-2.264930963516235130e-01,5.013000944557499672e-01,-7.087765932083129883e-01,2.103611230850219727e-01,8.477744178960048771e+01,1.312777280807495006e-01
1.740132999999999930e+00,-7.211956596568837308e-02,1.303798257083735590e-01,9.674443006515502930e-01,-5.663310099320115025e-03,4.674363687737548290e-03,1.750911323622442823e-03,2.395267805211755488e-02,7.151928476960155157e-02,3.036307170987129211e-02,1.465785325652288473e-01,-1.169000359658548260e-01,1.106170488386194195e-01,2.808483362197876088e-01,-9.927654432705791676e-02,-1.484123226437995824e-01,1.808483362197876032e-01,-8.853743076324462058e-02,-1.533571600914001298e-01,5.116741676225544655e-01,-1.903071403503417969e-01,-4.713892936706542969e-03,1.019190514363655922e+02,1.299087285995483287e-01
1.766942000000000013e+00,-7.218228041806949713e-02,1.332821625516698305e-01,9.689339399337768555e-01,1.433902156039311166e-03,-1.946059805408850707e-04,4.895211660964836689e-03,6.083891497532920370e-03,6.313966621805013058e-02,4.952469840645790100e-02,2.486841672025115468e-01,-1.312877308412781774e-01,1.564920818562910987e-01,2.820396661758423074e-01,-1.320675892317124400e-01,-1.177382164036200607e-01,1.820396661758422741e-01,-7.354545593261718750e-02,-1.317557215690612626e-01,5.150953141279890346e-01,7.488059997558593750e-02,6.700283288955688477e-01,6.461845947319883976e+01,1.340056657791137695e-01
1.793322000000000083e+00,-7.203790925121461575e-02,1.360985683952803948e-01,9.703559875488281250e-01,9.632627170488367724e-03,-1.751298418942504043e-03,7.747152828918081949e-03,3.122645349599867046e-02,7.309375828856816415e-02,4.005362465977668762e-02,3.160272130452085326e-01,2.062064252736759556e-02,1.010919906986502137e-01,2.106992821377015046e-01,1.277458484336503608e-03,3.240528888718723077e-02,1.116953730583190862e-01,4.659281373023986539e-02,1.037199497222900287e-02,5.174540294353876524e-01,1.698346138000488281e-01,1.774200201034545898e-01,1.000245072247657987e+02,1.340056657791137695e-01
1.816225999999999896e+00,-7.175976622820427753e-02,1.379703716855039675e-01,9.713035821914672852e-01,1.521158486356518832e-02,-9.642223958412632356e-04,9.062204761424568281e-03,2.474763049574680782e-02,6.021559273632721976e-02,5.659556761384010315e-02,2.825202030189686297e-01,3.293933748689133190e-02,4.635490071281722635e-02,1.370988476272126111e-01,-2.207900497712704871e-02,7.518588622102373442e-02,8.355710506439208152e-02,2.696430087089538366e-02,4.939799308776855052e-02,5.154155111026640368e-01,1.314094066619873047e-01,5.140100717544555664e-01,9.877659751245862196e+01,1.340056657791137695e-01
1.842670000000000030e+00,-7.122285747949488877e-02,1.406246109361055929e-01,9.727395772933959961e-01,2.383022026646481814e-02,2.331523425038506403e-03,1.067316797667605677e-02,3.851118131725751043e-02,6.770380979531463728e-02,4.813892766833305359e-02,2.772775178022797715e-01,1.179108197845814970e-01,3.073047170962819180e-02,-3.451474565215868762e-02,-3.175010253889732487e-02,1.582454478696498079e-01,-4.210061430931091170e-02,-1.686658859252929479e-02,1.281952500343322698e-01,5.137248753996849215e-01,1.377904415130615234e-02,6.541298627853393555e-01,9.443881950266438707e+01,1.340056657791137695e-01
1.864807000000000103e+00,-7.092953956046813002e-02,1.424041178195656066e-01,9.737151265144348145e-01,2.919487906283152814e-02,4.073992834089823489e-03,1.064482726503025029e-02,3.077527700731337926e-02,5.915720009440689903e-02,4.305394738912582397e-02,2.710652499361472789e-01,3.713459504585518711e-02,-1.454799705221969473e-03,-6.787334355111981909e-02,-5.608549963953447098e-02,1.577821783075817053e-01,-3.440684080123901367e-02,-4.439778327941894254e-02,1.278337955474853349e-01,5.138085972978052585e-01,3.151297569274902344e-03,-6.999373435974121094e-03,1.196337412752514524e+02,1.340056657791137695e-01
1.891874999999999973e+00,-7.039451057884262009e-02,1.449280787833662765e-01,9.752231240272521973e-01,3.555992012184795020e-02,6.213201220922393020e-03,9.562489039731362703e-03,4.008162456457067119e-02,6.473916128175841167e-02,4.414886236190795898e-02,1.585259530015925289e-01,9.572824841064819790e-02,-6.963948478314983814e-02,-2.356324803886226116e-01,3.436563138895348812e-02,2.180915855783419899e-01,-1.688672125339507890e-01,2.336567044258117468e-02,1.914511263370513861e-01,5.099507184035543261e-01,-1.916120052337646484e-01,2.888906002044677734e-02,9.887892740660375068e+01,1.340056657791137695e-01
1.917561000000000071e+00,-6.998407088366480344e-02,1.465518442096699347e-01,9.761583209037780762e-01,3.751601094617822152e-02,7.276761692501576562e-03,8.382799909543547923e-03,4.530543789905128182e-02,6.261313758606264213e-02,4.181759059429168701e-02,3.419367078799220167e-02,4.780586162006591339e-02,-3.818072289176945716e-02,-2.786397346727502722e-01,1.240037516410630314e-01,2.273439405672653402e-01,-1.982998073101043535e-01,1.032710552215576200e-01,2.041433215141296442e-01,5.101944875677109081e-01,-1.831798553466796875e-01,2.823606729507446289e-01,1.004136026112139177e+02,1.340056657791137695e-01
1.940034999999999954e+00,-6.945126754459000906e-02,1.481446388269721803e-01,9.770409464836120605e-01,3.820467805624327973e-02,8.828055024179715105e-03,6.771846592352563469e-03,3.525051916171516309e-02,6.172209443365703208e-02,4.405163228511810303e-02,2.659870035042894224e-02,9.530488900341031744e-02,-1.033474026015974573e-01,-2.939694588970180877e-01,2.103867810251029424e-01,2.308510161773420777e-01,-2.106174409389495739e-01,1.884979963302612360e-01,2.121826171875000056e-01,5.068335064452323957e-01,-3.482362031936645508e-01,2.404693365097045898e-01,9.326121975767333083e+01,1.340056657791137695e-01
1.967410000000000103e+00,-6.860066321027070979e-02,1.501009878252005936e-01,9.781444668769836426e-01,3.529772715232998986e-02,1.028655367999165016e-02,3.676764187383557356e-03,4.955290393277952954e-02,5.876879563191224343e-02,3.119379095733165741e-02,-1.873021895411877136e-01,4.142622491100624721e-02,-1.080144577081599555e-01,-2.701394095910024662e-01,1.161441890752587525e-01,1.534005986628672047e-01,-2.048204541206359863e-01,7.186088562011717917e-02,1.436795175075530895e-01,5.116752762441880709e-01,-1.369825005531311035e-01,2.942775487899780273e-01,9.260041261585293171e+01,1.340056657791137695e-01
1.989673000000000025e+00,-6.799389771224970125e-02,1.512219871745199284e-01,9.788385629653930664e-01,3.174177563946376651e-02,9.816906290970539573e-03,1.403509105733485385e-03,4.613296238056303900e-02,6.008435996188946082e-02,3.599837049841880798e-02,-1.774143359016065180e-01,-4.397064658256500530e-02,-1.429033458335730311e-01,-2.490920788628969429e-01,-1.077872199039803663e-01,1.810097989961982068e-01,-2.099555969238281194e-01,-1.440517187118530162e-01,1.775275111198425237e-01,5.071045436842916976e-01,-3.574561476707458496e-01,1.244164705276489258e-01,1.106075984757554238e+02,1.340056657791137695e-01
2.016023000000000120e+00,-6.703899995973969239e-02,1.529173193445100554e-01,9.797366261482238770e-01,2.430580156073884265e-02,7.174408013083111157e-03,-2.318732203189255350e-03,4.170887291047065820e-02,5.523379399121183808e-02,3.948388621211051941e-02,-2.987360086502462986e-01,-1.067405583900402632e-01,-1.392988707001068527e-01,-1.731023649214982196e-01,-3.309781690012703059e-02,4.159862626096658828e-02,-1.800459623336791992e-01,-4.900224208831786832e-02,4.826327562332153459e-02,5.031761020312024435e-01,-5.462868809700012207e-01,4.211560487747192383e-01,3.648853369727101636e+01,1.939345598220825195e-01
2.041523000000000199e+00,-6.603883357208528704e-02,1.545677265224760233e-01,9.804578423500061035e-01,1.509081028888758363e-02,3.919588267404794379e-03,-5.472788579815052006e-03,4.854905985798439738e-02,6.415277402756607017e-02,2.141329832375049591e-02,-3.160277228573681318e-01,-7.369854275738788041e-02,-1.046913168310721065e-01,2.260338973429782128e-01,1.652304798940597841e-01,-2.086812599455737660e-01,1.502429366111755205e-01,1.641530156135559138e-01,-1.933434247970580999e-01,5.035902811559893610e-01,-5.935219526290893555e-01,-4.794538021087646484e-02,9.507752415233062493e+01,1.939345598220825195e-01
2.066122000000000014e+00,-6.509374969229492214e-02,1.559346361064228581e-01,9.808551669120788574e-01,8.797300815776957356e-03,2.790298707086913410e-03,-7.262238295170840748e-03,4.071578434624932574e-02,5.613249167867424144e-02,2.740575559437274933e-02,-2.686496264989427507e-01,-5.460532920496839748e-02,-8.168338460000852674e-02,3.053348302841186745e-01,1.772170203955532042e-01,-2.326973762912079025e-01,2.053348302841186412e-01,1.904643595218658281e-01,-2.124574184417724609e-01,5.020418818472606182e-01,-6.489038467407226562e-01,1.813744306564331055e-01,8.995758702973239451e+01,1.939345598220825195e-01
2.092598000000000180e+00,-6.362999261533018591e-02,1.579396079259727526e-01,9.815392494201660156e-01,1.795728759886457485e-03,1.938608590962731526e-03,-8.135509555887978847e-03,5.772641489357926980e-02,5.556767920993282983e-02,3.300915658473968506e-02,-1.517921011716502344e-01,-3.780947530578499666e-02,-3.707098046547716713e-02,3.154790878295898326e-01,2.007244273768122311e-01,-2.420416674342870111e-01,2.154790878295898271e-01,2.039134204387664795e-01,-2.192771315574645885e-01,5.011839484435737235e-01,-6.684086918830871582e-01,3.512672185897827148e-01,-4.546361741762662234e+01,1.939345598220825195e-01
2.114634999999999820e+00,-6.275025502197632832e-02,1.591401842874597128e-01,9.821782708168029785e-01,8.273040157706816958e-04,-8.887232731868976998e-05,-6.788648012502678138e-03,3.998198747189948138e-02,5.385284091720479727e-02,3.385205194354057312e-02,-4.307948645005208344e-04,-1.245805161005797135e-01,8.936807377746611158e-02,3.079724788665771373e-01,-1.915645491825852254e-01,-2.444993116612386441e-01,2.079724788665771318e-01,-1.591213703155517634e-01,-2.256775617599487138e-01,5.020555427838154783e-01,-6.161959171295166016e-01,-1.412245035171508789e-01,1.287721382337566638e+02,1.939345598220825195e-01
2.140217999999999954e+00,-6.194559718117346320e-02,1.602763296950770189e-01,9.829308390617370605e-01,3.021947161463610799e-03,-3.016784645865522307e-03,-4.945849405965397141e-03,3.569300609164634958e-02,4.710362388681166995e-02,4.541039839386940002e-02,1.783428634982628380e-01,-1.612954850486943981e-01,1.317724913738859971e-01,3.161204576492309681e-01,-1.397882565060558357e-01,-2.215414928362541558e-01,2.161204576492309626e-01,-8.805141448974608542e-02,-2.080123186111450251e-01,5.079799272880179961e-01,-2.534488439559936523e-01,-1.008628606796264648e-01,1.015671532601373741e+02,1.939345598220825195e-01
2.167348000000000052e+00,-6.076317623209283314e-02,1.612894926606280865e-01,9.842226505279541016e-01,1.021863727461225918e-02,-8.483555865291370068e-03,-1.817932850403649811e-03,4.684435699750002374e-02,5.127906147336840081e-02,5.194263160228729248e-02,3.442281405722025789e-01,-1.597349123604410726e-01,1.135630285690121116e-01,3.115995764732361062e-01,-1.764888337431373688e-02,-1.310994134529498700e-01,2.115995764732360729e-01,5.894216895103454590e-02,-1.266186475753784124e-01,5.128639602607943937e-01,3.867077827453613281e-02,9.919273853302001953e-02,1.203602138557523489e+02,1.939345598220825195e-01
2.192460000000000075e+00,-5.988124828933663601e-02,1.612841770569180544e-01,9.849925041198730469e-01,1.537420581823875469e-02,-1.010131030072036751e-02,2.791859849508084046e-04,4.169299288595634118e-02,3.898368744569497002e-02,5.117486417293548584e-02,2.289573705476942722e-01,-4.587089542820613208e-02,1.033564289326023289e-01,2.407350694580771555e-01,-4.401825922566984101e-02,1.176817298565461523e-01,1.762898683547973466e-01,4.807246327400207381e-02,1.160931229591369573e-01,5.164466810068304436e-01,2.328664064407348633e-01,-1.053668260574340820e-01,4.079380000661598338e+00,1.939345598220825195e-01
2.215462000000000042e+00,-5.844164848202443308e-02,1.612360606913391670e-01,9.860904812812805176e-01,2.410286812432020295e-02,-8.761260395522940669e-03,3.637021652536763603e-03,4.716204990210157155e-02,3.967839477897748546e-02,4.713341221213340759e-02,2.704095521888557618e-01,8.287948198120043131e-02,1.182114769133825044e-01,-3.117550075643465979e-02,-1.496585660613842794e-01,1.703151547792303155e-01,-4.185331463813781600e-02,-7.289149761199950617e-02,1.593039035797119141e-01,5.108205314297716848e-01,-7.788157463073730469e-02,8.470038175582885742e-01,-2.213759591140054184e+01,1.939345598220825195e-01
2.243154999999999788e+00,-5.689587432844379206e-02,1.610633819796142563e-01,9.872268438339233398e-01,3.355907847316813575e-02,-6.119632726649504306e-03,5.050507251506533568e-03,4.911986446589695215e-02,3.311366038794874567e-02,4.346812516450881958e-02,2.844210641571451870e-01,1.189132427849924900e-01,2.257122629882888851e-02,-1.923802920801351291e-01,-7.813124813690661141e-02,1.947601410694224933e-01,-1.367144644260406550e-01,-2.054325342178344588e-02,1.798873186111450140e-01,5.093405039939034040e-01,-1.646491885185241699e-01,5.224668979644775391e-02,1.047392092239071815e+02,1.939345598220825195e-01
2.265439999999999898e+00,-5.584121184988665582e-02,1.604261643236516433e-01,9.880002737045288086e-01,3.945793032905163533e-02,-4.692219982199041795e-03,4.449631669078853852e-03,5.085240029129924760e-02,3.021326533850626772e-02,4.198152571916580200e-02,2.688627397343270609e-01,1.032274034773254939e-01,-4.545755893150983662e-02,-2.598609827533934769e-01,-4.044035794239178583e-02,2.088697276946784309e-01,-1.647422254085540716e-01,6.182724237442016255e-03,1.957603991031646729e-01,5.045417901372825087e-01,-4.197127819061279297e-01,-3.745210170745849609e-02,8.292805195860364620e+01,1.939345598220825195e-01
2.292424000000000017e+00,-5.425804688134155257e-02,1.589631742234430267e-01,9.890060424804687500e-01,4.419563325296433504e-02,-8.953729176477409624e-04,2.403840642186456326e-03,5.300449099797636260e-02,2.549691126830470889e-02,3.394661843776702881e-02,5.082583856161509983e-02,1.708995906408177223e-01,-1.028647676172814857e-01,-3.164069890975952370e-01,1.385214649451446678e-01,2.189195405318874188e-01,-2.164069890975952037e-01,1.583412766456603893e-01,2.118940293788909857e-01,5.040220480972973371e-01,-4.734444618225097656e-01,-5.869284868240356445e-01,1.050277983767185646e+02,1.939345598220825195e-01
2.315153000000000016e+00,-5.310182955978387520e-02,1.580536514777802215e-01,9.895707368850708008e-01,4.421010748748333691e-02,1.855783367951335805e-03,8.557519385919269174e-04,5.589954081449065998e-02,2.509583715992637007e-02,3.325191140174865723e-02,-4.084403310118447927e-02,1.503213099762102378e-01,-8.995119424576103473e-02,-3.125391006469726562e-01,1.913233629715109241e-01,2.103464339313763642e-01,-2.125391006469726507e-01,1.907997608184814342e-01,2.079571187496185303e-01,5.045355642474468327e-01,-4.457784891128540039e-01,-3.964020013809204102e-01,1.129569513238080276e+02,1.990947484970092829e-01
2.342044000000000015e+00,-5.138292534137783169e-02,1.567751308414483680e-01,9.900328516960144043e-01,3.975466712647295758e-02,5.191941427265867048e-03,-2.130925037135703026e-03,6.335077986885515045e-02,2.060422806577117891e-02,1.881715655326843262e-02,-2.121888598037735829e-01,5.322488272833624662e-02,-1.331348512211591728e-01,-3.143046200275421143e-01,1.640163547769033225e-01,1.783136801364400836e-01,-2.143046200275421087e-01,1.356380939483642634e-01,1.846699655055999700e-01,5.072250398227542423e-01,-3.582122325897216797e-01,6.090772151947021484e-02,1.215516310734343648e+02,1.990947484970092829e-01
2.367477000000000054e+00,-5.030391593677074891e-02,1.559726594873235006e-01,9.901973009109497070e-01,3.504699162082013791e-02,5.620213976791132993e-03,-4.060598899372860372e-03,5.241646562017678035e-02,1.933954305040622157e-02,1.419776398688554764e-02,-2.016213508669509324e-01,-1.677016293180620329e-02,-7.679878880634849470e-02,-2.901734615378406268e-01,-6.969152810560258482e-02,1.630286006501562579e-01,-2.155939579010009710e-01,-9.138261079788208285e-02,1.746759653091430609e-01,5.075498136736026344e-01,-3.584148883819580078e-01,-1.026920080184936523e-01,9.803357538359878731e+01,1.990947484970092829e-01
2.390109999999999957e+00,-4.927592541484569766e-02,1.552517339528513562e-01,9.902825951576232910e-01,2.939102689984513656e-02,4.415188653533519414e-03,-6.519854426693508925e-03,4.949608382931781209e-02,1.786542309073997636e-02,1.070703193545341492e-02,-3.327376368533481177e-01,-7.819659915912227643e-02,-1.103925370859824145e-01,-2.459715743805224175e-01,-1.101106267735835892e-01,1.029122147315926356e-01,-2.071634709835052379e-01,-1.235326409339904674e-01,1.213260054588317788e-01,5.078091462957604607e-01,-3.580266237258911133e-01,-2.729429006576538086e-01,-8.552723946611698125e+01,1.990947484970092829e-01
2.417279999999999873e+00,-4.778131401578027126e-02,1.541812737663475485e-01,9.902483224868774414e-01,1.972216236358418848e-02,7.918776547397587962e-04,-9.540895308994920554e-03,5.015408809264737533e-02,1.558747245981888588e-02,-1.568477600812911987e-03,-3.615167617451762183e-01,-1.173089511810688768e-01,-8.716502100195164249e-02,-6.372682454225299387e-02,-1.206706201581124877e-01,-2.020055537191308148e-01,-8.567789196968078613e-02,-1.121420860290527344e-01,-1.753631114959716686e-01,5.073639332944186453e-01,-4.306584000587463379e-01,-2.888742685317993164e-01,1.321073879073655917e+02,1.990947484970092829e-01
