timestamp,x,y,z,roll,pitch,yaw,vx,vy,vz,p,q,r,psp,qsp,rsp,pres,qres,rres,thrust_sp, thrust_res
0.000000000000000000e+00,-1.013079983939569294e-02,5.607006139601440099e-03,9.996154308319091797e-01,1.442453986817649435e-02,-9.631639890828047612e-04,9.293758390949969500e-03,-3.883978354642261040e-03,-6.007776711661559806e-03,-1.676909811794757843e-02,-4.330323794885938132e-02,8.623333102381527254e-03,5.843283686813863708e-04,-2.913771288218505728e-01,1.981561935069340030e-01,-9.428991439525102880e-02,-1.963434576988220270e-01,2.137336671352386419e-01,-1.203600168228149414e-01,5.268970283128092680e-01,7.369103431701660156e-01,-7.516964673995971680e-01,9.175307983798866474e+01,0.000000000000000000e+00
3.958500000000000213e-02,-1.116632470034179155e-02,5.776819756979570050e-03,9.986231327056884766e-01,1.482065468964989530e-02,-1.371085389296311519e-03,9.422696358310339235e-03,-2.746792504541564685e-05,-1.421585709588861577e-03,-1.529966108500957489e-02,9.649402693256450142e-03,-4.110646957860820266e-02,4.431175766049712944e-02,-2.922008679884259275e-01,1.995881325062766609e-01,-9.910047299679203281e-02,-1.992553889751434160e-01,2.147902429103851207e-01,-1.255341768264770508e-01,5.269371871589249023e-01,7.401580810546875000e-01,-2.052930593490600586e-01,-8.023003161380023229e+00,0.000000000000000000e+00
8.036899999999999600e-02,-1.185115430368217405e-02,5.858169862049656361e-03,9.978516697883605957e-01,1.494828664825537806e-02,-9.764809418448816558e-04,9.192999532267645199e-03,-2.976893827064015351e-03,-8.168190539199236128e-03,-9.787696413695812225e-03,-4.306362843262760698e-02,7.734621484087707104e-03,-3.731046231396314972e-02,-2.993483793985575181e-01,1.977642326694913910e-01,-9.596995518006731785e-02,-1.995442450046539251e-01,2.138760030269622747e-01,-1.217606306076049749e-01,5.265573558005819388e-01,7.375779151916503906e-01,-1.059972167015075684e+00,9.464562397035403762e+01,0.000000000000000000e+00
1.182399999999999979e-01,-1.261713064731012982e-02,5.896067251506192236e-03,9.970818758010864258e-01,1.543406815563990071e-02,-8.046686096692123868e-04,9.040771593793951039e-03,-2.582397754765969073e-03,-2.467134798225462892e-03,-1.138440147042274475e-02,1.161031859831625733e-02,1.885410003939976681e-02,3.141768204996497893e-02,-2.973057267396227443e-01,1.997017711621173752e-01,-9.596629680305454602e-02,-1.999562680721282959e-01,2.144292891025543213e-01,-1.213307619094848577e-01,5.267655873029004621e-01,7.388610839843750000e-01,-9.345411062240600586e-01,2.540171257989837272e+01,0.000000000000000000e+00
1.595100000000000129e-01,-1.342391956103632968e-02,6.103023512629464874e-03,9.963826537132263184e-01,1.480685278956349500e-02,-8.826262195562595281e-04,9.089023409352640220e-03,-4.941475813811963859e-03,-7.607220750930907341e-03,-3.854828653857111931e-03,-6.093995456013464457e-02,-2.457350261911160280e-02,-3.540138692075005949e-02,-2.955217775775551003e-01,1.952621345030735589e-01,-9.037113238169554308e-02,-1.974151253700256181e-01,2.130802810192108099e-01,-1.158759355545043862e-01,5.262312752351455680e-01,7.363522052764892578e-01,-1.054266571998596191e+00,9.898831288616150914e+01,0.000000000000000000e+00
1.998520000000000019e-01,-1.454374108512978235e-02,6.474735458465856984e-03,9.952979087829589844e-01,1.365488574813148240e-02,-1.452425946024238357e-03,9.820052109801930690e-03,-5.566196616781936973e-03,5.404840384216182472e-03,-1.838891766965389252e-02,-7.631906511127810322e-02,1.058463189974249465e-02,4.797470874829247445e-02,-2.657289767282049464e-01,1.906300216376304313e-01,-8.889746717496121997e-02,-1.865925908088683915e-01,2.129460632801055964e-01,-1.164663434028625488e-01,5.274219489240908887e-01,7.383687496185302734e-01,-1.400109648704528809e+00,1.279777052710141305e+02,0.000000000000000000e+00
2.363379999999999925e-01,-1.559043540454509678e-02,6.955830724630028376e-03,9.941790699958801270e-01,8.262696602530527137e-03,-4.361114317011027808e-03,1.179822431708826835e-02,-1.664670396102217731e-02,8.110449908008958431e-03,-1.935768127441406250e-02,-2.055067870902881344e-01,-1.061685685679460284e-01,2.972949008309709942e-02,-1.922645038053697741e-01,1.558907516750299704e-01,-6.235777743287354569e-02,-1.488464891910552812e-01,2.067003786563873236e-01,-9.550037384033202570e-02,5.275101506173530685e-01,7.336006164550781250e-01,-8.859435319900512695e-01,1.127740661785917666e+02,0.000000000000000000e+00
2.731489999999999752e-01,-1.686269789088497631e-02,6.643200063841170344e-03,9.926926493644714355e-01,-9.077812635026332073e-04,-1.020018257766341918e-02,1.439819545764197024e-02,-1.983958951958817926e-02,1.487194629073638683e-02,-3.682949393987655640e-02,-2.744382065619155875e-01,-2.024684366436491634e-01,1.002274800160646295e-01,-9.918051080677361964e-02,1.112917735812915393e-01,-5.325245316093980830e-02,-1.201464056968688937e-01,2.018886923789977861e-01,-9.359446763992308738e-02,5.288444743993747643e-01,7.293273210525512695e-01,-1.087331175804138184e+00,9.850153896439303480e+01,0.000000000000000000e+00
3.098859999999999948e-01,-1.828027381189126568e-02,6.608657244517635726e-03,9.908941984176635742e-01,-1.172996406919897018e-02,-1.744435352374074100e-02,1.680591506340744015e-02,-3.195235315657971031e-02,2.064180918917910695e-02,-3.824617713689804077e-02,-2.837143232141745575e-01,-2.080634511439068968e-01,3.519301314712806883e-02,6.031900353287279748e-02,9.045321941375730757e-02,-1.127081527624337887e-02,-3.463822603225708008e-02,1.904532194137573131e-01,-5.804350376129149836e-02,5.287859452568859364e-01,7.109067440032958984e-01,-8.359032869338989258e-01,9.211143937317172004e+01,0.000000000000000000e+00
3.489309999999999912e-01,-1.994480183885704791e-02,7.040392285212704500e-03,9.884912967681884766e-01,-2.305252993151224450e-02,-2.496156842283059341e-02,2.013066473040706766e-02,-3.592692393398342482e-02,3.918878629957354975e-02,-5.187451466917991638e-02,-2.734488930785246574e-01,-2.334107470388914474e-01,1.279120481675072585e-01,2.393993735313415527e-01,4.772246479988095924e-02,1.906702962498572906e-01,1.393993735313415472e-01,1.477224647998809648e-01,1.350819289684295488e-01,5.291565143581034025e-01,6.644778251647949219e-01,-1.248097062110900879e+00,7.500783289894856409e+01,0.000000000000000000e+00
3.915649999999999964e-01,-2.246132404168525373e-02,8.420679637903270495e-03,9.849740862846374512e-01,-3.635253298620237661e-02,-3.423507209305887145e-02,2.348430262531885429e-02,-5.525238639948749919e-02,3.863016954325342728e-02,-5.230145156383514404e-02,-2.559994836511384486e-01,-2.701154798956878489e-01,1.672687220250371545e-02,3.044767379760742188e-01,-2.023094654083252009e-01,2.791616635853120254e-01,2.044767379760742132e-01,-1.023094654083251953e-01,2.153006136417388861e-01,5.293217135050219957e-01,6.542761325836181641e-01,-5.122529268264770508e-01,7.697535255918806385e+00,0.000000000000000000e+00
4.298500000000000099e-01,-2.487396201928195050e-02,1.019746510282310177e-02,9.818241000175476074e-01,-4.507948156708361381e-02,-4.067700068371515876e-02,2.668745624006772441e-02,-6.568219393421086127e-02,6.857824462889812456e-02,-6.867727637290954590e-02,-1.471818882974725295e-01,-1.890776997561170458e-01,9.587050793255615100e-02,3.138829231262206809e-01,-2.666575193405151256e-01,2.942433035667635366e-01,2.138829231262207031e-01,-1.666575193405151201e-01,2.220960080623626542e-01,5.308964936517363009e-01,6.584081649780273438e-01,-9.107979536056518555e-01,9.788990235440756749e+01,0.000000000000000000e+00
4.705489999999999950e-01,-2.765339698013817224e-02,1.263922757566973004e-02,9.785397648811340332e-01,-5.084873875881618793e-02,-4.647042865168971026e-02,2.930121374783594551e-02,-7.058014281355645680e-02,8.054748541948261731e-02,-7.002463936805725098e-02,-9.015657016514612432e-02,-1.892335103333416535e-01,5.083232362338390570e-02,3.173622488975524902e-01,-2.889238595962524414e-01,3.024804104927449888e-01,2.173622488975524847e-01,-1.889238595962524359e-01,2.237263977527618464e-01,5.314456429362529599e-01,6.653654575347900391e-01,-8.743537664413452148e-01,9.310208318020120544e+01,0.000000000000000000e+00
5.090919999999999890e-01,-3.166427825064849905e-02,1.652475330435659862e-02,9.744128584861755371e-01,-5.091041701122578367e-02,-5.186913600627218734e-02,3.056010235893033208e-02,-9.110261824496951322e-02,9.647586265697252750e-02,-8.157058060169219971e-02,1.280328291714044886e-01,-1.495788771379382154e-01,2.470684953277458087e-02,3.184013366699218750e-01,-3.105136036872863659e-01,3.067953825569332826e-01,2.184013366699218694e-01,-2.105136036872863603e-01,2.248096525669097956e-01,5.325133602133458322e-01,6.557532548904418945e-01,-9.637042284011840820e-01,9.659657188411979689e+01,0.000000000000000000e+00
5.485640000000000516e-01,-3.645491047526282918e-02,2.129487448819233214e-02,9.699760079383850098e-01,-4.225914523153343622e-02,-5.422953092993254565e-02,2.734827622313466822e-02,-1.033903588241298771e-01,1.099278553179643403e-01,-8.767253905534744263e-02,2.373165565556247525e-01,9.792017768895142082e-03,-1.093560173853722201e-01,3.155586242675781361e-01,-3.151083350181579368e-01,2.968774139202446372e-01,2.155586242675781306e-01,-2.151083350181579590e-01,2.230892479419708252e-01,5.329601274364472729e-01,6.320170164108276367e-01,-1.261178374290466309e+00,9.666673158727417103e+01,0.000000000000000000e+00
5.905580000000000274e-01,-4.051783747034718580e-02,2.532846869696871520e-02,9.662000536918640137e-01,-3.080385623544356841e-02,-5.012749079583289635e-02,2.296871377522294658e-02,-1.097371956688134309e-01,1.271918825831669375e-01,-9.920457005500793457e-02,3.829342959738787355e-01,2.298987287707438820e-01,-1.372662626310703349e-01,3.107589006423950306e-01,-3.061790108680725320e-01,2.756168377370742384e-01,2.107589006423950251e-01,-2.061790108680724987e-01,2.127026796340942272e-01,5.342646376489301741e-01,6.358695030212402344e-01,-1.071485877037048340e+00,9.038658438131172090e+01,0.000000000000000000e+00
6.295319999999999805e-01,-4.499442896880005011e-02,2.997122213510531458e-02,9.618063569068908691e-01,-1.828862078175554073e-02,-4.138652460272407296e-02,1.786136522006516111e-02,-1.149772624921935743e-01,1.408745648355620717e-01,-1.130694821476936340e-01,3.967810249791700050e-01,2.968519195475434747e-01,-1.358227182286036172e-01,3.052601218223571777e-01,-2.589831113815307395e-01,1.782468083629949462e-01,2.052601218223571722e-01,-1.589831113815307617e-01,1.283135890960693248e-01,5.363992886131372373e-01,6.731772422790527344e-01,-9.674645662307739258e-01,9.924286037614953671e+01,0.000000000000000000e+00
6.677650000000000530e-01,-5.060243169886149972e-02,3.621352862551932561e-02,9.559820890426635742e-01,-1.576047708573456111e-03,-2.725861966283082971e-02,1.055084294119659587e-02,-1.231605073205260664e-01,1.485594590858606567e-01,-1.316807121038436890e-01,3.316094151325503225e-01,3.312886691346807466e-01,-1.232031007768456810e-01,2.518131375312805398e-01,-1.576484680175781194e-01,-5.487824244044467448e-03,1.518131375312805065e-01,-5.764846801757812084e-02,-3.609330654144286832e-02,5.387240519925614590e-01,6.957238912582397461e-01,8.546960353851318359e-02,-8.062310900053446971e+00,0.000000000000000000e+00
7.053260000000000085e-01,-5.503343465492195608e-02,4.141235529165734203e-02,9.510459303855895996e-01,1.151625614201923220e-02,-1.514136126686005390e-02,4.470151509350117972e-03,-1.289484308165656512e-01,1.423291262342308572e-01,-1.396141350269317627e-01,3.355629812591917616e-01,3.370935719343235437e-01,-1.900556218903818873e-01,1.169024882070504173e-01,-3.205483555793763040e-02,-5.916501842917542414e-03,7.331546545028685968e-02,6.794516444206237515e-02,-1.982878446578979423e-02,5.397869656860447840e-01,6.942441463470458984e-01,-1.216456294059753418e+00,-2.364817079352431861e+01,0.000000000000000000e+00
7.463920000000000554e-01,-5.964893701186421010e-02,4.680381999696124617e-02,9.457037448883056641e-01,2.506070759871983217e-02,-2.229176955817813166e-03,-1.503678524025417939e-03,-1.267008554289144329e-01,1.440635337617280909e-01,-1.358287185430526733e-01,4.264824325283824713e-01,3.577823967375955982e-01,-1.513817681334531928e-01,-1.321289977626677881e-01,9.974267482757567804e-02,2.354702725987767482e-03,-9.320853352546691617e-02,1.997426748275756836e-01,5.276459455490112478e-03,5.404603631779705264e-01,7.156450748443603516e-01,-8.720692396163940430e-01,8.407599502221852106e+01,0.000000000000000000e+00
7.848749999999999893e-01,-6.584793887340674445e-02,5.360127077526825184e-02,9.391261935234069824e-01,4.104327312868706612e-02,1.386155022520174640e-02,-7.998294702201324408e-03,-1.304976705013430605e-01,1.377538474979772276e-01,-1.487197726964950562e-01,3.559176467142354805e-01,3.477656806711275084e-01,-9.999663531201112565e-02,-3.045101583003997914e-01,1.809876196787493507e-01,-3.211219984594219229e-02,-2.045101583003997858e-01,2.200312077999115046e-01,-1.021882295608520473e-02,5.423769671323533936e-01,7.346034049987792969e-01,-9.639276266098022461e-01,1.030335743843716045e+02,0.000000000000000000e+00
8.213439999999999630e-01,-7.080747187460736947e-02,5.887546978188758218e-02,9.337789416313171387e-01,5.346586233230820467e-02,2.524179414342841987e-02,-1.152778026412413365e-02,-1.250355225026505146e-01,1.286091594488490975e-01,-1.424426734447479248e-01,3.610210577555358902e-01,3.305489184034319794e-01,-8.167056490277362080e-02,-3.098206639289856068e-01,2.585891555899019201e-01,-1.399614599990862684e-01,-2.098206639289856013e-01,2.232618391513824518e-01,-1.071342587471008218e-01,5.426021142096564276e-01,7.405861616134643555e-01,-8.278602361679077148e-01,1.188974195619674106e+02,0.000000000000000000e+00
8.582220000000000404e-01,-7.535254304840539874e-02,6.353295198127743848e-02,9.288598895072937012e-01,6.455387416871194439e-02,3.425506714535608843e-02,-1.269689351385802460e-02,-1.147892916485967474e-01,1.160400853727819037e-01,-1.503672748804092407e-01,2.281235657692739782e-01,2.129035425935308090e-01,2.143639140502193868e-02,-3.084722638130187877e-01,3.216452860434791394e-01,-1.995549617745497883e-01,-2.084722638130187822e-01,2.239526152610778753e-01,-1.622738242149353027e-01,5.437097619331716647e-01,7.410824298858642578e-01,-1.280063986778259277e+00,1.185112406662948814e+02,0.000000000000000000e+00
8.959399999999999586e-01,-8.089015225700701972e-02,6.804007989591974448e-02,9.238413572311401367e-01,7.291235751503565010e-02,3.960618123205517094e-02,-1.387342362684087886e-02,-1.190997834153261492e-01,9.994569433610019094e-02,-1.401810050010681152e-01,2.071831933339609577e-01,9.267231711735288147e-02,-6.983855609160093125e-02,-3.092659294605255016e-01,3.230510354042053223e-01,-2.103489971918802992e-01,-2.092659294605254960e-01,2.230510354042053167e-01,-1.691295862197876032e-01,5.434616624330068646e-01,7.366919517517089844e-01,-1.030259490013122559e+00,1.013647679248407201e+02,0.000000000000000000e+00
9.324219999999999731e-01,-8.593327726256613786e-02,7.196530352236114869e-02,9.189019203186035156e-01,7.457150080903877931e-02,4.114654393447958469e-02,-1.464669486830417686e-02,-1.046948378036966221e-01,8.532778908197297119e-02,-1.391836702823638916e-01,-4.620069146638554336e-02,-1.054853746624198098e-02,5.380333156807717149e-02,-3.066412627696991078e-01,3.226072728633880837e-01,-2.202673628481465473e-01,-2.066412627696991022e-01,2.226072728633880504e-01,-1.765148162841796708e-01,5.438229464548735015e-01,7.310211658477783203e-01,-5.315393209457397461e-01,8.905786670093411317e+01,0.000000000000000000e+00
9.680250000000000243e-01,-9.062511619088188530e-02,7.553470000547704566e-02,9.136201739311218262e-01,6.885490541320457569e-02,3.854901123260523477e-02,-1.486688809953302590e-02,-9.336645632233023240e-02,7.565248172421507045e-02,-1.357569545507431030e-01,-1.927038186573781786e-01,-1.390433827343331707e-01,-1.439614477035663399e-02,-3.053818583488464578e-01,3.227374851703643799e-01,-2.188092865416697286e-01,-2.053818583488464244e-01,2.227374851703643743e-01,-1.748695135116577204e-01,5.441843575537875788e-01,7.330822944641113281e-01,-7.408241033554077148e-01,-8.938696741326014106e+00,0.000000000000000000e+00
1.009098000000000050e+00,-9.561550156677448009e-02,7.900268185509017049e-02,9.077431559562683105e-01,5.877263824130114084e-02,3.166578139588116514e-02,-1.343860375726074231e-02,-9.360469424457330823e-02,5.974014915407966503e-02,-1.317084431648254395e-01,-3.329126745128714870e-01,-1.776965932488760169e-01,6.002049661319350943e-02,-3.056789040565490723e-01,3.013217198803890273e-01,-1.938309210579886310e-01,-2.056789040565490667e-01,2.227065861225128174e-01,-1.549761056900024470e-01,5.444920408157201130e-01,7.319252490997314453e-01,-1.150246977806091309e+00,9.963138885689654956e+01,0.000000000000000000e+00
1.046432999999999947e+00,-1.013464861914692150e-01,8.250704951597608028e-02,9.007876515388488770e-01,4.342997132153816886e-02,1.818067278678858756e-02,-9.748643116466551226e-03,-7.486959883784125025e-02,5.294787451985120269e-02,-1.389837712049484253e-01,-3.891453996425915940e-01,-2.945979128528601332e-01,1.274752282226345734e-01,-2.931081414222717063e-01,2.229935581813257406e-01,-1.621434104539496712e-01,-1.931081414222717285e-01,2.205007553100585826e-01,-1.348162651062011774e-01,5.456667235025212115e-01,7.301292419433593750e-01,-1.171379446983337402e+00,8.928845388731375010e+01,0.000000000000000000e+00
1.087579000000000073e+00,-1.056419122162888941e-01,8.479527866674317627e-02,8.953970670700073242e-01,3.107782687346947667e-02,5.481728890697645795e-03,-6.087814924304093753e-03,-7.893234573062674064e-02,4.713487600560960916e-02,-1.173549443483352661e-01,-2.808623771694129245e-01,-3.452545663215874638e-01,8.957190795240252412e-02,-2.925375819206237904e-01,1.256097371614075531e-01,-9.373489066941222136e-02,-1.925375819206237848e-01,2.142389237880706621e-01,-7.754144668579100730e-02,5.448662330133657861e-01,7.379453182220458984e-01,-1.069565176963806152e+00,8.698756123142239005e+01,0.000000000000000000e+00
1.127844000000000069e+00,-1.096083707225661841e-01,8.664562600228616074e-02,8.905212283134460449e-01,1.838456446378934975e-02,-7.732331906384226627e-03,-1.935015122960148356e-03,-7.644041758023539801e-02,3.595867944404020078e-02,-1.166291534900665283e-01,-3.833831025203452980e-01,-3.861438496787931163e-01,1.140894987705911995e-01,-2.158835637216856562e-01,1.092654645442962535e-01,-6.970921171172064779e-02,-1.785258293151855413e-01,2.092654645442962591e-01,-6.545641422271727961e-02,5.454747938506967486e-01,7.445248365402221680e-01,-1.009536385536193848e+00,1.291279501083793093e+02,0.000000000000000000e+00
1.174819999999999975e+00,-1.148091722807524084e-01,8.901010768485849434e-02,8.844142556190490723e-01,2.381054754763464905e-03,-2.396744795346372747e-02,4.197301227707243322e-03,-9.861162723214846049e-02,3.979913019905379629e-02,-1.090796515345573425e-01,-3.765634821678641164e-01,-3.617544694943701789e-01,1.731440464054483375e-01,1.780346947110091338e-01,4.894821643829344593e-02,3.941260228846731051e-02,1.046135544776916476e-01,1.489482164382934515e-01,2.662430405616760323e-02,5.447397496922296023e-01,6.963627338409423828e-01,-7.853115797042846680e-01,5.878825097881097861e+01,0.000000000000000000e+00
1.218288000000000038e+00,-1.204916025542335234e-01,8.946908855820895345e-02,8.778164386749267578e-01,-1.589302170449403626e-02,-4.155209252124114627e-02,1.096599246295439957e-02,-1.010535504728210521e-01,5.633542084537725841e-02,-1.047950536012649536e-01,-3.492050076210672094e-01,-2.541406586552706348e-01,1.165380085534008792e-01,3.052255392074584850e-01,-2.606881737709045299e-01,2.064513927481188005e-01,2.052255392074584794e-01,-1.606881737709045244e-01,1.757767081260681041e-01,5.443857878914658555e-01,6.553635597229003906e-01,-5.818923711776733398e-01,-1.388912393665016864e+01,0.000000000000000000e+00
1.268394000000000021e+00,-1.247474376748451130e-01,9.023717588937814338e-02,8.735931515693664551e-01,-2.798136841938568889e-02,-5.060639401880240307e-02,1.496546101420726665e-02,-1.164596000992994679e-01,5.684866130603325601e-02,-9.065514057874679565e-02,-3.435654485666846392e-01,-2.034552434106879082e-01,5.067063821787042011e-02,3.136345148086547852e-01,-3.110411405563354714e-01,2.595916257789072090e-01,2.136345148086547796e-01,-2.110411405563354381e-01,2.190188169479370117e-01,5.433494068342644701e-01,6.248004436492919922e-01,-8.594449758529663086e-01,1.556546836370379765e+02,0.000000000000000000e+00
1.317226999999999926e+00,-1.326247808084182744e-01,9.387344322677131092e-02,8.674270510673522949e-01,-4.608048724209899694e-02,-6.064266309731625171e-02,2.007113946331134588e-02,-1.401337640861571587e-01,8.760181313077727849e-02,-8.684552460908889771e-02,-2.267039951828258293e-01,-1.290498977817251536e-01,3.376048038405632390e-02,3.228134989738464244e-01,-3.207436561584472434e-01,2.795631623326630955e-01,2.228134989738464189e-01,-2.207436561584472656e-01,2.266917407512664684e-01,5.444523366504336881e-01,6.632012128829956055e-01,-5.873669385910034180e-01,-1.103589044578860836e+02,0.000000000000000000e+00
1.363877999999999924e+00,-1.394003468391734335e-01,9.783618225135415347e-02,8.640215396881103516e-01,-4.906731249525105032e-02,-6.535608731839714913e-02,2.146157686570197148e-02,-1.509881234953639184e-01,9.723191294703842358e-02,-8.065509796142578125e-02,6.904288528717332507e-02,-6.885186576784317614e-02,4.618777115734166300e-02,3.240606546401977317e-01,-3.243506908416747825e-01,2.836421105803541565e-01,2.240606546401977539e-01,-2.243506908416748047e-01,2.273874521255493109e-01,5.446143504192836327e-01,6.712517738342285156e-01,-1.141552567481994629e+00,9.822029226493941678e+01,0.000000000000000000e+00
1.403750000000000053e+00,-1.441901379603458266e-01,1.011312016125213709e-01,8.621128797531127930e-01,-4.249661004474843129e-02,-6.287354578725112830e-02,1.876341672348947817e-02,-1.576170737011041989e-01,1.042665474079462334e-01,-6.691908091306686401e-02,2.061596787040766154e-01,1.200278872040615313e-01,-8.384546341398757541e-02,3.231316089630126842e-01,-3.237421154975891335e-01,2.765003184243339796e-01,2.231316089630126787e-01,-2.237421154975891002e-01,2.267400741577148271e-01,5.435702903706250977e-01,6.483082771301269531e-01,-9.298726320266723633e-01,7.417032193311077037e+01,0.000000000000000000e+00
1.442711000000000077e+00,-1.505477774841658956e-01,1.060444835989267781e-01,8.599601387977600098e-01,-2.909380130007398549e-02,-5.183867030578159785e-02,1.397883563692960129e-02,-1.744393958515747522e-01,1.275669213375074384e-01,-6.881778687238693237e-02,3.551175362604612751e-01,3.163416372108171504e-01,-1.121322178248837509e-01,3.213462591171264426e-01,-3.091929912567138450e-01,2.602615474602568701e-01,2.213462591171264648e-01,-2.091929912567138672e-01,2.216673910617828203e-01,5.438787752740887882e-01,6.362090110778808594e-01,-8.643258810043334961e-01,1.065082282189404879e+02,0.000000000000000000e+00
1.485672000000000104e+00,-1.562279155525528318e-01,1.104923142709735295e-01,8.585049510002136230e-01,-1.615189713883786668e-02,-3.978295300441003768e-02,8.613956461964793546e-03,-1.903337939125328004e-01,1.327696814143514703e-01,-7.386055588722229004e-02,3.283344042363007254e-01,3.586761513833150450e-01,-1.208542220172201392e-01,3.160071611404419167e-01,-2.899088740348815807e-01,2.053226758626872650e-01,2.160071611404418834e-01,-1.899088740348815751e-01,1.802568912506103405e-01,5.451095606371889613e-01,6.669133901596069336e-01,-9.660695791244506836e-01,9.426749786771296158e+01,0.000000000000000000e+00
1.526440000000000019e+00,-1.622829867675105731e-01,1.149529300184632952e-01,8.576146364212036133e-01,-3.524131757265574691e-03,-2.701647407831675451e-02,3.131387161019153972e-03,-1.994420053608730037e-01,1.380584853269410106e-01,-5.669740214943885803e-02,3.464528588239400575e-01,3.566920367537065872e-01,-1.378283120453239197e-01,3.089205503463745006e-01,-2.293375134468078613e-01,-1.020514396142830488e-01,2.089205503463744951e-01,-1.293375134468078558e-01,-1.128604173660278237e-01,5.446575950081318229e-01,6.943945884704589844e-01,-1.039498209953308105e+00,2.117672148386856534e+01,0.000000000000000000e+00
1.565846999999999989e+00,-1.707818521501881792e-01,1.211861194109044720e-01,8.563395738601684570e-01,1.255849327239984096e-02,-1.115920539761527941e-02,-4.139950394746928601e-03,-1.909482489613473222e-01,1.443525410761171135e-01,-6.675371527671813965e-02,3.387259971550177218e-01,3.429174344643895478e-01,-1.236924883184976898e-01,2.432707541168539489e-01,6.714952588081357643e-02,-2.063014225562198323e-01,1.469095945358276367e-01,1.671495258808135820e-01,-1.974047183990478571e-01,5.456651452820596715e-01,6.950590610504150391e-01,-1.022680878639221191e+00,9.457510909736282656e+01,0.000000000000000000e+00
1.609474000000000071e+00,-1.794577745714798778e-01,1.277436479319315199e-01,8.552120327949523926e-01,2.871212776357433966e-02,5.325293563950950215e-03,-1.139960024165390801e-02,-1.918214285605477076e-01,1.369827043884650764e-01,-5.400760844349861145e-02,3.627649158205670799e-01,3.714765521775577617e-01,-2.143874503946405219e-01,-5.623653071714270098e-03,1.145054280757903942e-01,-1.930500411408807848e-01,5.981898307800292448e-03,2.145054280757903997e-01,-1.637274742126464677e-01,5.454343502430581969e-01,7.172944545745849609e-01,-1.104221701622009277e+00,9.966263697234936103e+01,0.000000000000000000e+00
1.647313999999999945e+00,-1.867791915691638660e-01,1.332697276272091225e-01,8.541550040245056152e-01,4.164192211343681338e-02,1.786220391062598445e-02,-1.647868440586139002e-02,-1.922303548368374249e-01,1.365774387371475884e-01,-5.778658762574195862e-02,3.909251965341288826e-01,3.353557140863733799e-01,-1.089652186907235781e-01,-2.656272940868931176e-01,1.220379114151000921e-01,-2.271001606768565106e-01,-1.731548488140106090e-01,2.220379114151000977e-01,-1.830691695213317871e-01,5.464084233434606253e-01,7.415924072265625000e-01,-1.283030152320861816e+00,9.768914260413338013e+01,0.000000000000000000e+00
1.687812000000000090e+00,-1.938620803484324695e-01,1.383701276968854754e-01,8.531848788261413574e-01,5.411143241877294091e-02,2.979630259818999427e-02,-2.008182720555830650e-02,-1.783818082632913082e-01,1.153743938431746885e-01,-4.409237205982208252e-02,3.090584496107210977e-01,2.716732130097852527e-01,-4.252351621763461598e-02,-3.024607002735137939e-01,1.654779686556506202e-01,-2.413826196137182634e-01,-2.024607002735137884e-01,2.250424325466156006e-01,-1.861895799636840709e-01,5.457604950619664441e-01,7.474706172943115234e-01,-1.051252007484436035e+00,1.003425481532782726e+02,0.000000000000000000e+00
1.728377999999999970e+00,-2.005364808786041508e-01,1.424542241499476281e-01,8.524829149246215820e-01,6.693496284737412982e-02,4.033099925223582183e-02,-1.952559411667836517e-02,-1.696628523455174231e-01,1.087753019426483531e-01,-4.172365739941596985e-02,3.633433361260970385e-01,2.683609023876623034e-01,4.545591616346898733e-02,-2.874075889587402455e-01,2.325733222069957251e-01,-2.557093244027839329e-01,-1.874075889587402399e-01,2.243944644927978460e-01,-2.008863687515258789e-01,5.457184116994097112e-01,7.420946359634399414e-01,-1.165897250175476074e+00,1.080441874991146136e+02,0.000000000000000000e+00
1.771649999999999947e+00,-2.087344784133307873e-01,1.465994665674733022e-01,8.522958159446716309e-01,8.162098893370602071e-02,4.608769601962681151e-02,-1.666821520115512045e-02,-1.560745726838458913e-01,9.137743537076263578e-02,-2.315762825310230255e-02,2.725815888421843636e-01,4.890999612389390627e-02,9.548133550128301561e-02,-2.940576612949371560e-01,2.729214682197260711e-01,-2.511128189569986624e-01,-1.940576612949371227e-01,2.247334778308868464e-01,-2.033502817153930720e-01,5.445032664686384472e-01,7.390754222869873047e-01,-8.049775362014770508e-01,1.211809293864210844e+02,0.000000000000000000e+00
1.825890000000000013e+00,-2.135351543213495074e-01,1.486982516102894059e-01,8.525014519691467285e-01,8.623344996733302292e-02,4.586745416280590959e-02,-1.484320404213597053e-02,-1.585653626185943021e-01,7.153279468736770119e-02,-2.304181829094886780e-02,5.704517346952504842e-02,-2.296080059819359878e-02,3.340063055123405900e-02,-3.045041322708129661e-01,2.643988230395560302e-01,-2.456471463436115388e-01,-2.045041322708129883e-01,2.249535977840423639e-01,-2.031713247299194169e-01,5.446211765098828428e-01,7.382898330688476562e-01,-1.274515509605407715e+00,1.000806035684191215e+02,0.000000000000000000e+00
1.868325000000000014e+00,-2.265501799778948944e-01,1.546607110721135714e-01,8.532156944274902344e-01,7.828678840447425569e-02,3.956751643184652778e-02,-7.536989093124557559e-03,-1.281017315320015226e-01,4.296362279708102611e-02,-9.940593503415584564e-03,-2.427627762546044621e-01,-1.697562122422631159e-01,7.093017312701414834e-02,-3.036432862281799316e-01,2.388613275117546786e-01,-2.305159668640077986e-01,-2.036432862281799261e-01,2.243903696537017656e-01,-2.091090202331542802e-01,5.437532139702819789e-01,7.390203475952148438e-01,-1.081001877784729004e+00,1.094254156738312673e+02,0.000000000000000000e+00
1.905947999999999976e+00,-2.338139729118128285e-01,1.573586176211214660e-01,8.539841771125793457e-01,6.429589305313787584e-02,3.052730003657555535e-02,-1.451307232508813405e-03,-1.212292118158436321e-01,8.370487546528351461e-03,4.792181309312582016e-03,-3.346295260726661058e-01,-2.779367064686705247e-01,1.390742221707409743e-01,-3.015881955623626598e-01,1.749201439504749211e-01,-2.115252623558503131e-01,-2.015881955623626542e-01,2.230391263961792048e-01,-2.083165884017944280e-01,5.426992717759298035e-01,7.349689006805419922e-01,-9.549401998519897461e-01,1.298800768794027647e+02,0.000000000000000000e+00
1.954909000000000008e+00,-2.396061414465470996e-01,1.600730919806767349e-01,8.550232052803039551e-01,5.260071917538314268e-02,2.092320456606544532e-02,3.630638062350078927e-03,-1.199452778182621138e-01,2.462348214460043094e-03,5.109460093080997467e-03,-3.355919087008584767e-01,-2.441811604861836016e-01,1.811877403317334601e-01,-3.072477459907531627e-01,1.210226953029632513e-01,-1.803768460359011228e-01,-2.072477459907531572e-01,2.210226953029632568e-01,-1.922902107238769476e-01,5.427245528876822878e-01,7.341084480285644531e-01,-1.244505763053894043e+00,8.427880382924371361e+01,0.000000000000000000e+00
2.020255000000000134e+00,-2.489834124850681119e-01,1.635797416834790241e-01,8.571357131004333496e-01,3.031945949480049918e-02,1.678686835996590077e-03,1.349415076451504318e-02,-1.202856218886916295e-01,-1.396030984634362253e-02,1.469483599066734314e-02,-3.627737989014016007e-01,-3.185722439439062081e-01,1.674737130297058452e-01,-1.673588543997896472e-01,1.009376347064971924e-01,-9.360820868925970317e-02,-8.421435356140136164e-02,2.009376347064971979e-01,-1.339031696319580023e-01,5.411497326728809121e-01,6.857821941375732422e-01,-1.469177246093750000e+00,2.465533682815605943e+01,0.000000000000000000e+00
2.087363999999999997e+00,-2.587260238806077806e-01,1.665453951718834924e-01,8.601456880569458008e-01,5.332174313243795774e-03,-1.862443476087771721e-02,2.496163638557018921e-02,-1.135536584093326390e-01,-1.591398526564924421e-02,2.424798160791397095e-02,-3.673130680072010379e-01,-3.155103450670461718e-01,1.380306196258919982e-01,2.110343143665209253e-01,-2.260264158248901367e-01,-6.596103488768131906e-02,1.267869472503662109e-01,-1.260264158248901312e-01,-1.377326488494872991e-01,5.402914150724962283e-01,6.814851760864257812e-01,-9.124959707260131836e-01,5.716862529639877977e+01,0.000000000000000000e+00
2.144671000000000216e+00,-2.659800364201649892e-01,1.680420838982435716e-01,8.624264597892761230e-01,-1.348972304322745841e-02,-2.992007387691941744e-02,3.363751865836176608e-02,-1.245887596339438769e-01,3.577413647691809247e-03,1.272478234022855759e-02,-3.935712108003937559e-01,-1.606799184937525438e-01,1.896448210327543737e-01,3.125363111495971791e-01,-2.892691850662231223e-01,2.466992102735264536e-01,2.125363111495971735e-01,-1.892691850662231445e-01,1.518450915813445989e-01,5.403661237958400365e-01,6.402593851089477539e-01,-1.592185258865356445e+00,1.588769346610182254e+02,0.000000000000000000e+00
2.199466000000000143e+00,-2.738573399240494255e-01,1.698249334277469047e-01,8.644732832908630371e-01,-3.091196246050090593e-02,-3.818873076622764096e-02,4.155944725500077680e-02,-1.368795774707319002e-01,2.641062208384832577e-02,2.058861777186393738e-02,-2.738565487042182167e-01,-1.290786345541990177e-01,1.231381735827506568e-01,3.226326823234558216e-01,-3.123576402664184348e-01,3.214256525039672630e-01,2.226326823234558161e-01,-2.123576402664184570e-01,2.214256525039672852e-01,5.401124470216587259e-01,6.567783355712890625e-01,-1.181435704231262207e+00,9.745230579466318943e+01,0.000000000000000000e+00
2.250484000000000151e+00,-2.815286376306820326e-01,1.726286568757795792e-01,8.665381073951721191e-01,-4.371095384581227122e-02,-4.457325994591010421e-02,4.794574016848258957e-02,-1.526963153256386818e-01,4.248648495803974967e-02,3.177762776613235474e-02,-1.273452013869590671e-01,-1.178166191060236456e-01,1.189571044785889820e-01,3.258920669555663840e-01,-3.225007534027099498e-01,3.269006669521331565e-01,2.258920669555664062e-01,-2.225007534027099443e-01,2.269006669521331787e-01,5.395388672008978315e-01,6.691899299621582031e-01,-1.259062170982360840e+00,9.449458799723754510e+01,0.000000000000000000e+00
2.304832999999999910e+00,-2.895942163228110711e-01,1.761702072023821619e-01,8.690497875213623047e-01,-4.196060373319689119e-02,-4.108755039528433350e-02,5.175708257452811545e-02,-1.635092625078883588e-01,5.014720398494964398e-02,4.109507799148559570e-02,1.615962421569265561e-01,1.489333491572382706e-01,-3.507075155842683672e-02,3.258290171623229869e-01,-3.214590907096862571e-01,3.265452206134795698e-01,2.258290171623229814e-01,-2.214590907096862793e-01,2.265452206134795921e-01,5.388139596413777932e-01,6.689568758010864258e-01,-9.409047365188598633e-01,8.647012659046973226e+01,0.000000000000000000e+00
2.351971999999999952e+00,-2.963561858056410481e-01,1.787614044280003978e-01,8.717141151428222656e-01,-2.820865845618432052e-02,-2.761000450995454436e-02,4.864177455139746115e-02,-1.627744646588499544e-01,6.802844597273344229e-02,2.969402447342872620e-02,2.854044473367429724e-01,3.175715307875780491e-01,-6.416478080364249048e-02,3.232996940612792858e-01,-2.993089795112610085e-01,3.161386072635650746e-01,2.232996940612792802e-01,-1.993089795112609752e-01,2.161386072635650690e-01,5.393101246289055961e-01,6.554664373397827148e-01,-1.243765473365783691e+00,1.009408863849497351e+02,0.000000000000000000e+00
2.404180000000000206e+00,-3.032948599311539040e-01,1.819014128105616301e-01,8.741593360900878906e-01,-9.372825239264234720e-03,-9.995729844768375116e-03,4.132656800697392246e-02,-1.647164925123376922e-01,8.283860133223956701e-02,2.556832320988178253e-02,3.036580163965200696e-01,3.481253917864222669e-01,-1.588165841072786966e-01,3.091578364372253307e-01,-1.458041191101074330e-01,-4.112063646316527210e-02,2.091578364372253251e-01,-4.580411911010742049e-02,-1.411206364631652777e-01,5.401198520271111025e-01,6.867996454238891602e-01,-8.046668767929077148e-01,7.458743475553427515e+01,0.000000000000000000e+00
2.450415000000000010e+00,-3.094889087100134994e-01,1.844852457252243172e-01,8.756639957427978516e-01,6.507444032693725580e-03,5.243453359976779637e-03,3.465758232282473844e-02,-1.485883543536850315e-01,8.754564000250643352e-02,1.818173564970493317e-02,3.795342884674199335e-01,3.202736469708483136e-01,-1.395050427714878694e-01,2.682448506355285534e-01,9.980211257934568092e-02,-9.022075776514870693e-02,1.682448506355285478e-01,1.998021125793456865e-01,-1.894901275634765514e-01,5.410121031504302458e-01,7.086393833160400391e-01,-1.286487698554992676e+00,7.989666374079024536e+01,0.000000000000000000e+00
2.496722999999999804e+00,-3.154544664718996194e-01,1.870301835281105718e-01,8.769605755805969238e-01,2.254616384105046639e-02,2.138750735090910737e-02,2.704595025038443457e-02,-1.407246170392679185e-01,8.695654604825535372e-02,9.905530139803886414e-03,3.202199176130346436e-01,3.712227617363026422e-01,-1.534004764134588861e-01,6.575068367920611223e-02,1.232515215873718206e-01,-1.302235898871553221e-01,7.254445552825927387e-03,2.232515215873718262e-01,-2.079780578613281139e-01,5.420687192681630240e-01,7.340013980865478516e-01,-1.391008734703063965e+00,8.633717012808625668e+01,0.000000000000000000e+00
2.552897000000000194e+00,-3.231765445291148175e-01,1.904921466210080794e-01,8.778948187828063965e-01,4.123611190179822528e-02,3.979043181543784335e-02,1.833873559610874060e-02,-1.252366901469860461e-01,7.890899519586978828e-02,1.126771979033946991e-02,3.949855878740302084e-01,3.447638897333597519e-01,-1.677676987271034537e-01,-1.833731075928654031e-01,1.687812712594669029e-01,-1.640214652780039584e-01,-1.152446508407592718e-01,2.249935626983642634e-01,-2.162076473236083929e-01,5.420317432465644458e-01,7.363896369934082031e-01,-6.958473920822143555e-01,8.643684307864425875e+01,0.000000000000000000e+00
2.619240000000000013e+00,-3.318217911408629095e-01,1.940034872148163059e-01,8.784890174865722656e-01,6.421853499922011710e-02,5.471512056396798940e-02,1.667933431044973588e-02,-1.114585338903952005e-01,4.835686472774933936e-02,3.088295087218284607e-02,3.642222012327073211e-01,9.402353655991790848e-02,-1.920627296349659494e-02,-2.482548654079437256e-01,2.667649043192460434e-01,-1.761486851346255877e-01,-1.482548654079437200e-01,2.256213247776031328e-01,-2.220057964324951005e-01,5.397348004155190226e-01,6.856088638305664062e-01,-1.354347825050354004e+00,7.533230103547001022e+01,0.000000000000000000e+00
2.665312999999999821e+00,-3.398578913698219184e-01,1.963854459510129269e-01,8.792349696159362793e-01,8.143800975991488666e-02,5.514240644337409236e-02,1.791231275914329304e-02,-9.038464287993755453e-02,2.709599805156229571e-02,3.487342223525047302e-02,2.814155197098887617e-01,-4.594600396181483526e-02,-2.301745369417326770e-02,-2.833027005195617454e-01,2.782253286915294388e-01,-1.731432141436338445e-01,-1.833027005195617676e-01,2.259422600269317405e-01,-2.220562934875488226e-01,5.385430188959918762e-01,6.357142925262451172e-01,-3.139241933822631836e-01,-5.036544610945884415e+01,0.000000000000000000e+00
2.715416999999999970e+00,-3.456744574543197390e-01,1.974683554752290071e-01,8.795997500419616699e-01,8.736541915580656181e-02,5.056437002427194294e-02,2.051423531013280357e-02,-6.952861923364721253e-02,5.765782425069455874e-03,2.652020752429962158e-02,2.957588074998584657e-02,-1.737491044659993933e-01,7.715647092151525777e-02,-3.021202743053436057e-01,2.578281402723206495e-01,-1.645465124262742440e-01,-2.021202743053436279e-01,2.258538365364074485e-01,-2.211858272552490179e-01,5.383375772901637379e-01,5.900745391845703125e-01,-8.912817239761352539e-01,9.289913093920344522e+01,0.000000000000000000e+00
2.759028999999999954e+00,-3.510240187825603986e-01,1.985221210928230506e-01,8.795791864395141602e-01,8.524912630082884246e-02,4.405255010781861102e-02,2.349811784484433230e-02,-6.343802054997751960e-02,-1.050253574092828435e-02,2.728903479874134064e-02,-5.685384252914370273e-02,-1.456477090889431725e-01,1.138195962047038740e-01,-3.075821995735168457e-01,2.127163757708127045e-01,-1.508268484837930190e-01,-2.075821995735168402e-01,2.253384053707122581e-01,-2.168787002563476451e-01,5.377423399760805633e-01,5.555636882781982422e-01,-5.023115873336791992e-01,-2.663874863104689084e+01,0.000000000000000000e+00
2.806881000000000181e+00,-3.558796414528871965e-01,1.989807070977723524e-01,8.794020414352416992e-01,7.627952335462308275e-02,3.455113961125722000e-02,2.669591559025365907e-02,-4.400800943666486470e-02,-2.655591298721646579e-02,2.142130397260189056e-02,-2.052186357713610965e-01,-2.577331614387661785e-01,2.513572707469572190e-02,-3.050664484500885121e-01,1.610011607583182180e-01,-1.341756928926277903e-01,-2.050664484500885065e-01,2.248243510723113847e-01,-2.102321505546569658e-01,5.391469464365667985e-01,6.064836978912353516e-01,-1.019440770149230957e+00,-7.405069799998716462e+01,0.000000000000000000e+00
2.857067999999999941e+00,-3.607365521149748511e-01,1.980750436967831929e-01,8.792184591293334961e-01,6.181549634834661994e-02,1.830562762100140795e-02,3.119827269686340637e-02,-4.472123547925746512e-02,-6.559899270721486486e-02,2.817502804100513458e-02,-3.086479193376227559e-01,-3.510157134927809341e-01,8.009468985563485133e-02,-3.054976582527160756e-01,1.227394700050353782e-01,-1.105204733412529505e-01,-2.054976582527160700e-01,2.227394700050353837e-01,-2.008535385131835771e-01,5.391964696352334885e-01,6.310315132141113281e-01,-5.421167612075805664e-01,2.260588392618037190e+01,0.000000000000000000e+00
2.908792000000000044e+00,-3.640381587296891985e-01,1.962962623724435196e-01,8.788095712661743164e-01,4.746340794679661940e-02,4.443425150374213928e-03,3.548110627667606237e-02,-2.951026779272085052e-02,-6.588868740608606889e-02,1.201310381293296814e-02,-3.720395137062928459e-01,-2.771299872535157860e-01,1.069742036218403192e-01,-2.975417613983154519e-01,1.135855734348296953e-01,-7.321130037307738148e-02,-1.975417613983154186e-01,2.135855734348297008e-01,-1.732113003730773870e-01,5.413711630163008381e-01,6.819584369659423828e-01,-9.115294218063354492e-01,9.502995871495065217e+01,0.000000000000000000e+00
2.959271999999999903e+00,-3.667464057851797521e-01,1.927896736388372556e-01,8.778159618377685547e-01,2.909761198233212429e-02,-1.114731970829185848e-02,4.085088764398566580e-02,-2.131175291515588488e-02,-8.049123571635750929e-02,1.081542391330003738e-02,-3.237374795162460961e-01,-2.829367619739109885e-01,1.024230355660660924e-01,-8.949610137035990398e-02,-1.423225760459899958e-01,-8.930258750915526234e-02,-8.368974924087524761e-03,-4.232257604598999023e-02,-1.893025875091552679e-01,5.411342469491529084e-01,6.553224325180053711e-01,-4.099730253219604492e-01,7.074867719669035182e+01,0.000000000000000000e+00
3.004812999999999956e+00,-3.682205138116610432e-01,1.890787912284004613e-01,8.767808079719543457e-01,1.348888150326748615e-02,-2.114451270819217577e-02,4.511701233432333785e-02,-3.180166450883379486e-02,-9.038593152002069586e-02,1.337859779596328735e-02,-3.330776669011299984e-01,-2.091259284894906312e-01,6.261108575938853504e-02,7.731801195784381020e-02,-2.548093795776367188e-01,-4.800837039947508655e-02,6.380496025085448386e-02,-1.548093795776367132e-01,-1.480083703994750921e-01,5.412949484048925619e-01,6.636354923248291016e-01,-1.116108536720275879e+00,9.368576382591380991e+01,0.000000000000000000e+00
3.052684000000000175e+00,-3.694735850379243236e-01,1.851446923004178846e-01,8.755658268928527832e-01,-2.149206294676566428e-03,-2.972663001298259111e-02,4.970147471614779627e-02,-3.334260358549161196e-02,-8.408934166252371445e-02,1.345645054243505001e-03,-3.478483855802502189e-01,-1.799305317130262261e-01,1.470866837158998908e-01,2.440313339233398382e-01,-2.894047975540161022e-01,7.957243919372566920e-03,1.440313339233398326e-01,-1.894047975540160966e-01,-9.204275608062743863e-02,5.423419140709576647e-01,6.631294488906860352e-01,-9.043806791305541992e-01,1.294856607755912137e+02,0.000000000000000000e+00
3.105646999999999824e+00,-3.696087039263305507e-01,1.797689899214280906e-01,8.739768266677856445e-01,-1.954054019354998367e-02,-3.734655706776734974e-02,5.378617648230840653e-02,-5.652750671933225862e-02,-6.738218186937781906e-02,1.631562015973031521e-03,-2.668776805706709054e-01,-1.483767030809278742e-01,8.544354189673603051e-02,3.103693723678588867e-01,-3.028347253799438255e-01,2.737071156501770242e-01,2.103693723678588812e-01,-2.028347253799438477e-01,1.737071156501769909e-01,5.423844144908906983e-01,6.511285305023193359e-01,-1.165704131126403809e+00,9.408517962819780678e+01,0.000000000000000000e+00
3.155035999999999952e+00,-3.698651486982275083e-01,1.745947484492091084e-01,8.728451132774353027e-01,-3.405290831486353087e-02,-4.049167229366634757e-02,5.801146509643252680e-02,-5.901050683259861235e-02,-6.383004040250114808e-02,1.153121609240770340e-02,-1.827188532706538748e-01,-4.175750162919249914e-03,1.983342648682137957e-02,3.200480341911315918e-01,-3.109878540039062722e-01,3.186911940574645996e-01,2.200480341911315862e-01,-2.109878540039062389e-01,2.186911940574645941e-01,5.421608692008347274e-01,6.675524711608886719e-01,-1.175182461738586426e+00,9.206317725649640238e+01,0.000000000000000000e+00
3.199901000000000106e+00,-3.692853833604117786e-01,1.702615556371362970e-01,8.718664646148681641e-01,-3.735943328655286222e-02,-3.437443915419202689e-02,6.045417026679854311e-02,-6.117909293355326683e-02,-3.879615080111514097e-02,-2.814651932567358017e-03,-5.119281458706582272e-02,2.634671969678159531e-01,6.291904526217576010e-02,3.204033017158508523e-01,-2.996390342712402233e-01,3.179602742195129506e-01,2.204033017158508190e-01,-1.996390342712402177e-01,2.179602742195129450e-01,5.432686691997400397e-01,6.612093448638916016e-01,-1.147503256797790527e+00,1.013866535584887352e+01,0.000000000000000000e+00
3.248320000000000096e+00,-3.692640233206903599e-01,1.672967639056388844e-01,8.711152672767639160e-01,-3.446018611176803609e-02,-2.611976663752280103e-02,6.157730213448692203e-02,-6.869775358256159647e-02,-3.879342774864523447e-02,8.035408332943916321e-03,9.852061932312228265e-02,2.620512066256596717e-01,3.422748680197681363e-03,3.185491800308227761e-01,-2.837786674499511719e-01,3.096904695034027322e-01,2.185491800308227428e-01,-1.837786674499511663e-01,2.096904695034026989e-01,5.424898319307165373e-01,6.508097648620605469e-01,-1.046697735786437988e+00,7.855783055025185035e+01,0.000000000000000000e+00
3.299272999999999900e+00,-3.691750143050130939e-01,1.632025386093594876e-01,8.705155849456787109e-01,-2.150674069396860816e-02,-1.089377612773478887e-02,5.831189752666809945e-02,-5.731274312950827843e-02,-2.367244819337938067e-02,7.223413325846195221e-03,2.461680472707450107e-01,2.999902478895188351e-01,-8.928418561475189030e-02,2.970358610153198131e-01,-4.513233900070204307e-03,2.104735374450689145e-03,1.970358610153198076e-01,9.548676609992980124e-02,-9.789526462554931641e-02,5.432235161184069128e-01,6.807746887207031250e-01,-1.000259041786193848e+00,2.920459798522139039e+01,0.000000000000000000e+00
3.338757000000000197e+00,-3.692236622799158208e-01,1.598260445410231989e-01,8.700159788131713867e-01,-3.790933717238841039e-03,6.198415925477096522e-03,5.055503261283513655e-02,-5.944784035446527837e-02,-1.610224111080203399e-02,1.652172952890396118e-02,3.561092776149589745e-01,3.882555352296748752e-01,-2.044007323142293386e-01,2.247958898544311634e-01,1.081450879573822021e-01,-5.982818603515624445e-02,1.247958898544311440e-01,2.081450879573822077e-01,-1.598281860351562500e-01,5.430835713802500964e-01,7.012150287628173828e-01,-8.112472295761108398e-01,1.034471833197508914e+02,0.000000000000000000e+00
3.379417000000000115e+00,-3.693834951021354729e-01,1.575254093334216010e-01,8.695065975189208984e-01,8.869473130332787211e-03,1.769957395308519033e-02,4.465089863574425721e-02,-5.393175628318164216e-02,-1.562124475264167756e-02,1.258889399468898773e-02,3.508560036743617605e-01,3.400532548809666045e-01,-1.509395462183574232e-01,1.001925809250689553e-01,1.214020490646362249e-01,-9.464290142059325617e-02,2.142308950424194267e-02,2.214020490646362305e-01,-1.946429014205932617e-01,5.438370865862529602e-01,7.204003334045410156e-01,-1.065679669380187988e+00,-1.215151851840231672e+02,0.000000000000000000e+00
3.416202000000000183e+00,-3.693247976855382197e-01,1.548166463229750656e-01,8.690029382705688477e-01,2.432126103074288073e-02,3.235428175396193318e-02,3.685755104412755806e-02,-3.641597829819999410e-02,-1.815555147466221125e-02,1.529140397906303406e-02,2.907569797779767096e-01,2.996918651818800128e-01,-1.729711852685498208e-01,-3.582273961944022755e-02,1.250831425227992844e-01,-1.136949896812438909e-01,-9.305083751678466450e-03,2.233075618743896318e-01,-2.136949896812438965e-01,5.434225011059474753e-01,7.019007205963134766e-01,-1.073645472526550293e+00,1.119535965347331512e+02,0.000000000000000000e+00
3.454352999999999785e+00,-3.693159878658806572e-01,1.528141021293668023e-01,8.687717914581298828e-01,3.674999855075421207e-02,4.263522766560945421e-02,3.201596171554814407e-02,-1.668432999241885664e-02,-1.851057024122726088e-02,2.171963267028331757e-02,3.797331649761117034e-01,2.421389772547258012e-01,-1.150134101409983345e-01,-8.366309404373169223e-02,2.030600419023639580e-01,-1.271225677551272581e-01,1.633690595626830985e-02,2.235693097114563044e-01,-2.169440388679504395e-01,5.407553868548224951e-01,5.738267898559570312e-01,-8.039907217025756836e-01,-6.915014655352973705e+01,0.000000000000000000e+00
3.492678000000000171e+00,-3.697730921345932509e-01,1.511640597484807946e-01,8.689718246459960938e-01,4.920916174054212194e-02,4.822399630253437763e-02,3.037523512698696304e-02,-2.163691970522829341e-02,-3.674272138128043680e-02,2.874121256172657013e-02,2.880670981733136071e-01,1.147377054144677472e-01,-5.213684306503405669e-02,-1.626572966575622614e-01,2.322083901515976101e-01,-1.361950451186237643e-01,-6.265729665756225586e-02,2.249479115009307695e-01,-2.210652351379394365e-01,5.383051935068255966e-01,4.607995748519897461e-01,-1.239275813102722168e+00,9.573259393524820382e+01,0.000000000000000000e+00
3.533256000000000174e+00,-3.699367982384931808e-01,1.492254818060785582e-01,8.694739341735839844e-01,6.064223440420558192e-02,4.832665805944125204e-02,3.050347440989529743e-02,-8.554232145997559683e-03,-4.068486001109018757e-02,4.284340515732765198e-02,3.028191564484473686e-01,-1.394742172418845204e-02,1.392577670056474592e-02,-2.377865791320800670e-01,2.422514229752451009e-01,-1.364881720302153212e-01,-1.377865791320800615e-01,2.253748476505279541e-01,-2.215448141098022294e-01,5.376710508282817047e-01,4.802274703979492188e-01,-8.255192041397094727e-01,7.771215067816672217e+01,0.000000000000000000e+00
3.569812000000000207e+00,-3.697229119920765750e-01,1.460647490551253702e-01,8.707337379455566406e-01,6.956092596143627349e-02,4.369171199336219225e-02,3.124714258782921791e-02,1.599220523691904233e-02,-6.257852133056573951e-02,4.602820053696632385e-02,1.453564525695452692e-01,-1.491392107487695962e-01,-3.768249835354124666e-02,-2.809753656387329324e-01,2.273766373349756509e-01,-1.346674138194035586e-01,-1.809753656387328991e-01,2.248151600360870361e-01,-2.220473885536193848e-01,5.339008974554517728e-01,2.882397174835205078e-01,-8.831301927566528320e-01,5.768439678628853784e+01,0.000000000000000000e+00
3.606158999999999892e+00,-3.690704182226996477e-01,1.429711561080670712e-01,8.720102310180664062e-01,7.132880809458383431e-02,3.939137841950590690e-02,3.290944632520786256e-02,3.299458537006962761e-02,-7.005387593238304733e-02,3.913664445281028748e-02,7.081575781033942057e-03,-1.332038982768028734e-01,1.036826631793841130e-01,-2.956599414348602406e-01,2.084934664614611632e-01,-1.276509330031261602e-01,-1.956599414348602350e-01,2.243521749973297064e-01,-2.200245380401611162e-01,5.314712785331991984e-01,1.293500661849975586e-01,-8.675688505172729492e-01,9.118838711816869136e+01,0.000000000000000000e+00
3.641601000000000088e+00,-3.679376743224936908e-01,1.394007043032993998e-01,8.732835650444030762e-01,6.992094791574078594e-02,3.299003867358529796e-02,3.452302587791560018e-02,4.634975979001848545e-02,-8.520863109285925496e-02,4.338356107473373413e-02,-4.837898592632131761e-02,-2.267052639459770924e-01,-2.414992548993930965e-03,-3.039410114288330078e-01,1.734842674199454926e-01,-1.202597339514082653e-01,-2.039410114288330023e-01,2.238698244094848577e-01,-2.177470922470092773e-01,5.316376711166084235e-01,1.574234962463378906e-01,-6.526659727096557617e-01,9.263604571275288890e+01,0.000000000000000000e+00
3.677202999999999999e+00,-3.663647724230471026e-01,1.355413407443849527e-01,8.746755123138427734e-01,6.616436572662119653e-02,2.471580956146635089e-02,3.660904581972052041e-02,5.316352639125845186e-02,-1.037820110621732461e-01,4.396911710500717163e-02,-1.494946466949262365e-01,-1.934802337166294517e-01,8.447063347756292306e-02,-3.092791080474853738e-01,1.237972795963287187e-01,-1.125857353210449052e-01,-2.092791080474853405e-01,2.237972795963287242e-01,-2.125857353210449108e-01,5.339474135785612363e-01,2.889305353164672852e-01,-3.022512197494506836e-01,-8.019930942291351528e+01,0.000000000000000000e+00
3.713330000000000020e+00,-3.643334090163679595e-01,1.311523393091925671e-01,8.760944008827209473e-01,6.001909436615908422e-02,1.565802125583259929e-02,3.845999375433543921e-02,5.890024627509645588e-02,-1.233953054810504879e-01,4.478285461664199829e-02,-1.899429981734585826e-01,-2.670768925859079435e-01,3.224653865016420540e-02,-3.121033310890197754e-01,1.232810080051421897e-01,-1.052671670913696289e-01,-2.121033310890197698e-01,2.232810080051421953e-01,-2.052671670913696345e-01,5.375599165873587992e-01,4.940037727355957031e-01,-8.686150312423706055e-01,1.004219081212446554e+02,0.000000000000000000e+00
3.750558999999999976e+00,-3.621540978133848121e-01,1.264047473286378787e-01,8.773588538169860840e-01,5.036792420676607096e-02,6.438543416939612740e-03,4.127579219684295031e-02,5.441811350567222344e-02,-1.293688248330637780e-01,3.346771374344825745e-02,-2.790319615211049320e-01,-2.521103805542558862e-01,9.241567439475047163e-02,-3.108346462249755859e-01,1.215205490589141846e-01,-9.413013458251950905e-02,-2.108346462249755804e-01,2.215205490589141901e-01,-1.941301345825195146e-01,5.406913622150324450e-01,6.232581138610839844e-01,-3.494799137115478516e-02,1.206783230861565244e+02,0.000000000000000000e+00
3.787345000000000184e+00,-3.589768455858651786e-01,1.214530148507589891e-01,8.784210681915283203e-01,3.939555334238083878e-02,-3.154865051160360423e-03,4.383203545908387344e-02,5.644872434853638599e-02,-1.432835243834121308e-01,4.023650661110877991e-02,-2.839248076314653813e-01,-3.089085415732831241e-01,5.494316704305667737e-02,-3.069999277591705100e-01,1.172231853008270097e-01,-7.053034305572508655e-02,-2.069999277591705322e-01,2.172231853008270153e-01,-1.705303430557250921e-01,5.412992754649567084e-01,6.844518184661865234e-01,-9.551643133163452148e-01,8.440604342329187659e+01,0.000000000000000000e+00
3.823729999999999851e+00,-3.557279831698873518e-01,1.160019536747808888e-01,8.792786002159118652e-01,2.761595662710593715e-02,-1.173401544680818809e-02,4.665139152831753594e-02,6.417485993280121204e-02,-1.399905930049053782e-01,1.705123297870159149e-02,-2.969351212047983690e-01,-2.705717639257544382e-01,1.050363116648905248e-01,-2.724224984645843284e-01,1.072461724281310869e-01,-2.979549169540404718e-02,-1.724224984645843506e-01,2.072461724281310924e-01,-1.297954916954040527e-01,5.430304354585328008e-01,6.883749961853027344e-01,-1.576370120048522949e+00,7.274309243433407346e+01,0.000000000000000000e+00
3.861026999999999987e+00,-3.527277824624275859e-01,1.107759559930504845e-01,8.796592354774475098e-01,1.508741681802793638e-02,-1.854890553071442127e-02,4.955969310445591802e-02,6.214387096708379882e-02,-1.461420280097388280e-01,1.885862089693546295e-02,-3.363225124624209528e-01,-2.116404280465540855e-01,5.748105203452690687e-02,-1.269983142141827559e-01,8.933661580085752729e-02,-1.395990848541259211e-02,-5.375685095787047924e-02,1.893366158008575328e-01,-1.139599084854125977e-01,5.426099892530078517e-01,6.683566570281982422e-01,-1.155032753944396973e+00,8.870733456253989857e+01,0.000000000000000000e+00
3.897561000000000053e+00,-3.500408474174072082e-01,1.055924600920910283e-01,8.798485398292541504e-01,2.358132463244697573e-03,-2.459219763915565515e-02,5.259385814432943063e-02,6.512893945388752159e-02,-1.391210495525806723e-01,1.216043252497911453e-02,-3.362455592473256316e-01,-2.071384072585553127e-01,1.166680761333320077e-01,1.025229232820053793e-01,4.957138299942015491e-02,-4.092311859130851048e-03,9.018530845642089289e-02,1.495713829994201605e-01,-1.040923118591308566e-01,5.430488587877827511e-01,6.620950698852539062e-01,-9.163652658462524414e-01,5.282956321104059327e+01,0.000000000000000000e+00
3.935118999999999811e+00,-3.476217636984081372e-01,1.005593361903891203e-01,8.800925016403198242e-01,-1.031852268119547167e-02,-3.009600206767015784e-02,5.523645745439283161e-02,5.135576625846925009e-02,-1.348855350923975627e-01,9.303874336183071136e-03,-3.784333322124758259e-01,-1.612299414295832733e-01,2.316164458478947932e-02,2.296953942868444898e-01,-2.116333961486816517e-01,1.155945062637329102e-01,1.355000853538513017e-01,-1.116333961486816323e-01,1.559450626373290981e-02,5.429229095978080899e-01,6.380386352539062500e-01,-1.457716584205627441e+00,1.037675533427703414e+02,0.000000000000000000e+00
3.972153000000000045e+00,-3.453152278712974255e-01,9.606800891351702232e-02,8.803674578666687012e-01,-2.315850884240911942e-02,-3.521309059691879462e-02,5.804463457168181767e-02,4.054404220192394520e-02,-1.233040215935269773e-01,1.439345534890890121e-02,-3.326320039191451028e-01,-1.379177815383541561e-01,5.539745946088165535e-02,2.929267883300781250e-01,-2.771766066551208385e-01,2.472247898578643910e-01,1.929267883300781194e-01,-1.771766066551208330e-01,1.472247898578643854e-01,5.424241753354626105e-01,6.253817081451416016e-01,-1.284138321876525879e+00,1.149638726378220355e+02,0.000000000000000000e+00
4.015219000000000094e+00,-3.420521591113314663e-01,9.104647024576292824e-02,8.806427717208862305e-01,-3.800099475396290227e-02,-4.186625573723734561e-02,6.035695352522370272e-02,3.278430145949583208e-02,-1.122885242555767965e-01,1.350397523492574692e-02,-3.139074685102618001e-01,-1.924251730333215726e-01,8.054801994240624180e-03,3.119899988174438255e-01,-3.086340188980102317e-01,3.175795435905456321e-01,2.119899988174438477e-01,-2.086340188980102539e-01,2.175795435905456543e-01,5.427270061518159050e-01,6.340948343276977539e-01,-7.747555971145629883e-01,-1.198696969903187153e+02,0.000000000000000000e+00
4.051787000000000027e+00,-3.400564297768155497e-01,8.753266297167802690e-02,8.810672760009765625e-01,-4.585901228576339667e-02,-4.610991693091803789e-02,6.194107877688681540e-02,5.792029788201129119e-03,-9.589147549129597992e-02,2.429957687854766846e-02,-1.012326501376147742e-01,-7.076420180548305405e-02,3.665168589072419214e-02,3.191827178001404031e-01,-3.189637422561645286e-01,3.243268370628357156e-01,2.191827178001403698e-01,-2.189637422561645508e-01,2.243268370628356823e-01,5.423360632200089348e-01,6.492826938629150391e-01,-8.410176038742065430e-01,1.015168352565218868e+02,0.000000000000000000e+00
4.092806000000000388e+00,-3.382227033834551144e-01,8.414385866504213440e-02,8.818842172622680664e-01,-4.799632424274157677e-02,-4.977720860555190363e-02,6.268668813968375497e-02,-6.293161417178311234e-03,-8.721398856855490378e-02,3.798281773924827576e-02,1.081478695675341939e-02,-7.445777632791963918e-02,-1.558958297156414321e-03,3.209261894226074219e-01,-3.230872631072997936e-01,3.257939517498016357e-01,2.209261894226074163e-01,-2.230872631072997880e-01,2.257939517498016302e-01,5.410112086314452506e-01,6.279484033584594727e-01,-6.818755865097045898e-01,9.305188128980159945e+01,0.000000000000000000e+00
4.133098000000000383e+00,-3.358792027038517980e-01,8.016536208741953384e-02,8.832550048828125000e-01,-4.170916004526567522e-02,-4.735801949012041767e-02,6.014605454126918660e-02,-3.833029775931320448e-03,-6.860223974203985553e-02,3.548199310898780823e-02,2.327025687709773083e-01,1.577863455106421620e-01,-8.993221193360635690e-02,3.187219858169555442e-01,-3.207477688789367454e-01,3.235673248767853005e-01,2.187219858169555664e-01,-2.207477688789367676e-01,2.235673248767852672e-01,5.409888096137357438e-01,6.184816360473632812e-01,-3.902519941329956055e-01,-1.229239663418516670e+02,0.000000000000000000e+00
4.170271999999999757e+00,-3.343051528954579243e-01,7.751954997840702910e-02,8.845837712287902832e-01,-3.175085236291606827e-02,-3.915120068359212446e-02,5.532773290992561849e-02,-8.423468744584645604e-03,-5.555851568108452487e-02,3.840062767267227173e-02,2.919508596177635695e-01,2.932097791774807560e-01,-1.067591715544858599e-01,3.111676692962646595e-01,-3.090450763702392578e-01,3.108646512031555398e-01,2.111676692962646540e-01,-2.090450763702392523e-01,2.108646512031555065e-01,5.404744662548317535e-01,6.021189689636230469e-01,-1.020496249198913574e+00,1.001335170439191984e+02,0.000000000000000000e+00
