timestamp,x,y,z,roll,pitch,yaw,vx,vy,vz,p,q,r,psp,qsp,rsp,pres,qres,rres,thrust_sp, thrust_res
0.000000000000000000e+00,4.663001461375365815e-03,2.123692635281031540e-02,9.798014163970947266e-01,7.855179034168996086e-03,-1.305182924705228231e-02,1.808589222081158354e-03,2.146491048661729184e-02,-5.369935046872200551e-02,1.461722422391176224e-02,-3.034636160330465154e-02,7.461023854107301165e-03,2.098010311836465049e-03,-9.309397520254980574e-02,-5.982384823826442793e-02,5.081874983597800544e-03,0.000000000000000000e+00,0.000000000000000000e+00,0.000000000000000000e+00,5.123803389723660118e-01,0.000000000000000000e+00
2.458000000000000115e-02,5.274779840264316733e-03,2.015941725994323599e-02,9.799509048461914062e-01,7.228034939919883613e-03,-1.299350396769738403e-02,2.037327257349508258e-03,1.304159694493717443e-02,-4.669022466050524317e-02,8.975326083600521088e-03,-1.079990924038013930e-02,1.172322742162616553e-02,1.062119079456857497e-02,-6.272421943790763843e-02,-7.557645850958510936e-02,5.782706911357460289e-03,0.000000000000000000e+00,0.000000000000000000e+00,0.000000000000000000e+00,5.127861454307540701e-01,0.000000000000000000e+00
4.759200000000000236e-02,6.150973310786155175e-03,1.853287186121070629e-02,9.802412390708923340e-01,6.616395824922943932e-03,-1.313618450154008244e-02,2.192681735958101896e-03,6.595598820482329906e-03,-5.161936650572736263e-02,1.490936987102031708e-02,-4.062736910181941920e-03,1.626128829090763700e-02,-3.680085857844761412e-03,-6.749367715738752160e-02,-7.947341034615545974e-02,6.188235211227244292e-03,0.000000000000000000e+00,0.000000000000000000e+00,0.000000000000000000e+00,5.123248007701407536e-01,0.000000000000000000e+00
7.328400000000000192e-02,6.597871105499392153e-03,1.743029507972539485e-02,9.804803133010864258e-01,6.459062131435454324e-03,-1.330925919559255988e-02,2.335518328201668936e-03,1.684905975920251986e-02,-4.766207159706678520e-02,1.337622571736574173e-02,-1.912966713256005966e-02,2.047175338348231066e-02,9.239923637499605769e-03,-6.134531517339886914e-02,-6.735751861961206122e-02,6.589878964335826872e-03,0.000000000000000000e+00,0.000000000000000000e+00,0.000000000000000000e+00,5.124240933077160998e-01,0.000000000000000000e+00
9.715300000000000324e-02,6.971142990788576667e-03,1.633840581691471325e-02,9.807047247886657715e-01,6.578672127048981397e-03,-1.295959183964456862e-02,2.323898676614533088e-03,1.506013878655168038e-02,-4.825793656459883424e-02,1.089257746934890747e-02,-3.787457918623731053e-03,1.644980522677687990e-02,-1.094379435534832343e-02,-6.490271845508839565e-02,-7.044347090892770502e-02,6.554995162135646147e-03,0.000000000000000000e+00,0.000000000000000000e+00,0.000000000000000000e+00,5.125955655540115341e-01,0.000000000000000000e+00
1.227860000000000062e-01,7.547193768932910184e-03,1.477116364420868501e-02,9.808398485183715820e-01,5.779866514107626953e-03,-1.126077073805964446e-02,2.433531838932134761e-03,1.115338753846582820e-02,-4.585931495875169434e-02,9.517457336187362671e-03,-6.429822804343525433e-02,8.232757491868676614e-02,-8.297028653978198980e-04,-5.804143383864450445e-02,-6.237563977808373988e-02,6.849186464081613579e-03,0.000000000000000000e+00,0.000000000000000000e+00,0.000000000000000000e+00,5.126911131882987416e-01,0.000000000000000000e+00
1.508510000000000129e-01,8.123088009388297961e-03,1.329028939327499097e-02,9.806507825851440430e-01,4.177035703269803453e-03,-9.037721948949251072e-03,2.809546008733176947e-03,1.375708778109707188e-02,-3.863057488923291732e-02,-5.586003419011831284e-03,-3.368826653100377710e-02,6.070427386382934443e-02,6.487210906797334468e-03,-4.200072407262606111e-02,-4.347009619669229413e-02,7.884408256778385748e-03,0.000000000000000000e+00,0.000000000000000000e+00,0.000000000000000000e+00,5.138398012926163050e-01,0.000000000000000000e+00
1.735510000000000108e-01,8.506182291493604580e-03,1.229919016599074176e-02,9.802858233451843262e-01,2.652627593630264586e-03,-7.701790075798298219e-03,3.038629748339793935e-03,8.751276077999336697e-03,-4.835953773786948184e-02,-1.264595799148082733e-02,-6.018552697049054517e-02,2.961747115807590591e-02,1.419461103235956055e-02,-4.531885000049163531e-02,-4.065975645346289746e-02,8.493567238952226539e-03,0.000000000000000000e+00,0.000000000000000000e+00,0.000000000000000000e+00,5.144061903662219271e-01,0.000000000000000000e+00
1.996259999999999979e-01,9.059330490810892783e-03,1.076207012445378440e-02,9.794257879257202148e-01,4.699549169073801748e-04,-6.108688629786751534e-03,3.573387503535085941e-03,2.248782562405371790e-02,-3.257950059742108218e-02,-3.596398979425430298e-02,-7.033579298391276491e-02,6.848898719133084123e-02,2.014475745054398678e-02,-1.242353647428878771e-02,-1.414338364597604591e-02,1.000245040101954697e-02,0.000000000000000000e+00,0.000000000000000000e+00,0.000000000000000000e+00,5.162230912111075432e-01,0.000000000000000000e+00
2.237180000000000002e-01,9.435408807313989260e-03,9.788225539016325721e-03,9.787024259567260742e-01,-5.686013741755736222e-04,-5.467374483144160635e-03,3.734250076218303960e-03,1.011265907716897561e-02,-4.335424955614639725e-02,-3.677422180771827698e-02,-5.604961353778869365e-02,4.531071486005041130e-03,1.324578009277694104e-02,-2.296594937157853122e-02,-2.735793849436208083e-02,1.042841944674854915e-02,0.000000000000000000e+00,0.000000000000000000e+00,0.000000000000000000e+00,5.163586531199825247e-01,0.000000000000000000e+00
2.497840000000000060e-01,1.002509753182197726e-02,8.388732553613631807e-03,9.772042036056518555e-01,-1.761709264965570943e-03,-4.230193360845513340e-03,3.982676259349560155e-03,2.458473427412171189e-02,-3.160017648583198641e-02,-4.806449636816978455e-02,-3.781647122330670380e-02,8.474154393801394680e-02,-1.094647149418492837e-02,-2.688579768380450815e-04,2.659270831300758519e-04,1.115161217715471276e-02,0.000000000000000000e+00,0.000000000000000000e+00,0.000000000000000000e+00,5.173335131723605373e-01,0.000000000000000000e+00
2.739300000000000068e-01,1.042171377999720656e-02,7.484951253559873723e-03,9.760548472404479980e-01,-2.057617543017884430e-03,-3.675407753900961083e-03,4.222665154750560035e-03,1.982918848786173818e-02,-3.452167704587301433e-02,-5.337106063961982727e-02,3.264255491171528124e-03,-1.338110682092495153e-02,1.003573400694076842e-02,-6.108885664872472712e-03,-5.964945509814306365e-03,1.181696659084435774e-02,0.000000000000000000e+00,0.000000000000000000e+00,0.000000000000000000e+00,5.178394737134703885e-01,0.000000000000000000e+00
2.993390000000000217e-01,1.143462909618508591e-02,5.986783777512444046e-03,9.741190075874328613e-01,-2.521049736822847994e-03,-2.556915478348686932e-03,4.419185206512299402e-03,1.775580278271459908e-02,-2.838235076971126758e-02,-6.218547746539115906e-02,-1.359460074730935338e-02,4.469194678641925239e-02,-6.518974781873302510e-03,3.251598809697481014e-03,1.565520502298157210e-03,1.237522827060894004e-02,0.000000000000000000e+00,0.000000000000000000e+00,0.000000000000000000e+00,5.186666099238048666e-01,0.000000000000000000e+00
3.231439999999999868e-01,1.207130626518456741e-02,5.076844650978428776e-03,9.726483225822448730e-01,-2.882249894580629114e-03,-2.321066447341646466e-03,4.659948159131843681e-03,3.218136794074780149e-02,-2.844944481073072642e-02,-7.673840969800949097e-02,-1.783045157655262572e-02,-1.886894822195843424e-02,1.875027225334269243e-02,2.718125905258216100e-03,1.872753634654964611e-02,1.306928194734530146e-02,0.000000000000000000e+00,0.000000000000000000e+00,0.000000000000000000e+00,5.198922259702829507e-01,0.000000000000000000e+00
3.477620000000000156e-01,1.275335339210157889e-02,4.245055364363613248e-03,9.710522890090942383e-01,-3.228850958248116396e-03,-2.003317471932053451e-03,4.815308344421120879e-03,1.197104201318250141e-02,-2.731381531543702196e-02,-7.570405304431915283e-02,-3.047579743195400533e-03,1.890271212159136752e-02,1.196445679960157597e-03,5.689205829082802542e-03,-4.279968430102535498e-03,1.347774531636364292e-02,0.000000000000000000e+00,0.000000000000000000e+00,0.000000000000000000e+00,5.199681485558205196e-01,0.000000000000000000e+00
3.740789999999999949e-01,1.378728340848697775e-02,3.095824358087752217e-03,9.684845209121704102e-01,-3.877974264208246605e-03,-2.396597463247829296e-03,5.240935148029368662e-03,3.056606516765619092e-02,-2.037607251975460942e-02,-8.924361318349838257e-02,-1.826564735659650524e-02,-2.674240030535804738e-02,-1.232444791944529820e-02,1.566571374666673663e-02,1.971496113137342562e-02,1.469712301122599873e-02,0.000000000000000000e+00,0.000000000000000000e+00,0.000000000000000000e+00,5.212042508541058217e-01,0.000000000000000000e+00
3.987680000000000113e-01,1.434005015246488969e-02,1.948313064012797795e-03,9.666381478309631348e-01,-3.879284436579573479e-03,-2.779933164972714366e-03,5.518977197570995585e-03,2.185741314077420047e-02,-2.147438945022174875e-02,-8.713587373495101929e-02,3.659922832562688411e-02,-3.937933424706980406e-02,7.892421420872824597e-03,1.141177517780335784e-02,2.197622975780333474e-03,1.545594588558762972e-02,0.000000000000000000e+00,0.000000000000000000e+00,0.000000000000000000e+00,5.212266703667524093e-01,0.000000000000000000e+00
4.233580000000000121e-01,1.520380737626811189e-02,3.340754341736955064e-04,9.638313651084899902e-01,-3.499161535575535508e-03,-3.466531633814939894e-03,5.586992532768952913e-03,2.786847223079117961e-02,-1.758523083127824446e-02,-1.059244424104690552e-01,1.502487120652093618e-02,-1.770636310591974447e-02,-1.962865118919605856e-02,1.222174326244577711e-02,7.337198966194739304e-03,1.565152856598966968e-02,0.000000000000000000e+00,0.000000000000000000e+00,0.000000000000000000e+00,5.228691479525326979e-01,-0.000000000000000000e+00
4.492499999999999827e-01,1.580369325297727515e-02,-6.464323293420957571e-04,9.619273543357849121e-01,-2.989888113860622327e-03,-3.695792419363241876e-03,5.760013061927304889e-03,2.821470104561488168e-02,-1.399490247479460471e-02,-1.032090112566947937e-01,1.097906835187054814e-02,1.532966532663399689e-02,5.745244360434847812e-03,1.048625815987985592e-02,4.484862243665950314e-03,1.613211750034715397e-02,0.000000000000000000e+00,0.000000000000000000e+00,0.000000000000000000e+00,5.228612547981189573e-01,0.000000000000000000e+00
4.731630000000000003e-01,1.675231611616902899e-02,-1.985175685242926251e-03,9.588876366615295410e-01,-2.380478307738279845e-03,-3.978918228784600331e-03,5.679794640151003549e-03,2.307185270186182593e-02,-1.118939521343553442e-02,-1.072011515498161316e-01,3.147322686306418520e-03,-2.144979346355395302e-03,-2.415034032403318154e-02,7.243336255635319729e-03,-2.005882601562914563e-03,1.590175518491682150e-02,0.000000000000000000e+00,0.000000000000000000e+00,0.000000000000000000e+00,5.234313179227390034e-01,-0.000000000000000000e+00
4.977630000000000110e-01,1.723352775704938347e-02,-2.848062143111718385e-03,9.568219780921936035e-01,-2.507304404816725410e-03,-4.295673841021807604e-03,6.038508401673858828e-03,3.291804358628136473e-02,-4.381524177749506442e-03,-1.117962822318077087e-01,-1.599326709741760678e-03,8.904580201221753283e-03,2.393777565483503483e-02,1.324810892267175647e-02,7.891900836449238302e-03,1.691262459765896509e-02,0.000000000000000000e+00,0.000000000000000000e+00,0.000000000000000000e+00,5.239797743765165494e-01,0.000000000000000000e+00
5.225579999999999670e-01,1.795900824859627404e-02,-3.971351742349998881e-03,9.536150693893432617e-01,-2.585622999552519841e-03,-4.859990593170770978e-03,6.150732603718678249e-03,2.381067810571154894e-02,-4.807977119901249256e-03,-1.134207397699356079e-01,1.815601905892209877e-02,-6.066338369173085443e-03,5.448362750789160656e-04,1.027751714126755311e-02,-7.876289268092929660e-03,1.721585533459957240e-02,0.000000000000000000e+00,0.000000000000000000e+00,0.000000000000000000e+00,5.243901346570900568e-01,0.000000000000000000e+00
5.478410000000000224e-01,1.844866712464548683e-02,-4.658196132401563536e-03,9.513764381408691406e-01,-2.807446263050772037e-03,-5.434460973434251940e-03,6.224331530277238400e-03,3.337564143361458624e-02,-4.417948389199590625e-03,-1.250166445970535278e-01,-2.021171970850939650e-02,-2.847803325573894026e-02,1.244003656314405203e-02,1.177907580644452050e-02,1.366357685866143729e-03,1.742897910878504764e-02,0.000000000000000000e+00,0.000000000000000000e+00,0.000000000000000000e+00,5.254703697927235462e-01,0.000000000000000000e+00
5.730899999999999883e-01,1.923914067234987896e-02,-5.574439794063926201e-03,9.480643272399902344e-01,-2.372409965391074609e-03,-5.833216371855964866e-03,6.126082537044164056e-03,2.804336417336393203e-02,-3.838679261905435930e-03,-1.270266920328140259e-01,1.026291098892789105e-02,1.491852598109973810e-02,-3.894535124020854101e-03,8.868224376484851179e-03,-9.377881374329558040e-03,1.714604545419484705e-02,0.000000000000000000e+00,0.000000000000000000e+00,0.000000000000000000e+00,5.259233712477427991e-01,-0.000000000000000000e+00
5.992800000000000349e-01,1.985261031083403876e-02,-6.128491252019330551e-03,9.457738399505615234e-01,-1.994529313431514343e-03,-5.922002293523132010e-03,6.102056832799407360e-03,3.413143375348783731e-02,7.287631220954487706e-05,-1.279560178518295288e-01,-9.508662734748882586e-03,1.830282145806751137e-02,-4.859368652994634254e-03,9.693056361785626004e-03,-1.623901136017067478e-03,1.708460994834548607e-02,0.000000000000000000e+00,0.000000000000000000e+00,0.000000000000000000e+00,5.262277685841912911e-01,0.000000000000000000e+00
6.224060000000000148e-01,2.084241869463935443e-02,-6.851371832383062847e-03,9.424137473106384277e-01,-1.373976635915331087e-03,-5.704915086280015757e-03,6.051288072346450164e-03,3.358275068291208254e-02,5.899819728142805322e-03,-1.248007118701934814e-01,1.643280753898567620e-02,2.984707424260078443e-02,1.011134585523855954e-02,9.607633403404635189e-03,-2.216629785590409907e-03,1.694275206552431356e-02,0.000000000000000000e+00,0.000000000000000000e+00,0.000000000000000000e+00,5.263091110629579683e-01,0.000000000000000000e+00
6.490059999999999718e-01,2.150602806608771511e-02,-7.239858647869620856e-03,9.400879740715026855e-01,-1.357526694041987034e-03,-5.620613819422359825e-03,5.851339357957563436e-03,3.711433885302527214e-02,-2.285503013030394019e-04,-1.296553462743759155e-01,-2.219927340606171404e-02,-1.766948785182733891e-02,-1.095305026609806782e-02,1.153298769706653966e-03,2.385120481217333031e-03,1.638476762660256991e-02,0.000000000000000000e+00,0.000000000000000000e+00,0.000000000000000000e+00,5.269047039102858765e-01,0.000000000000000000e+00
6.726130000000000164e-01,2.253126495804322685e-02,-7.693144211760457110e-03,9.365805983543395996e-01,-1.505892422138314316e-03,-5.724034215157658423e-03,6.142912228353392123e-03,3.672847582696760899e-02,1.076695710633730416e-02,-1.355786919593811035e-01,-9.588058698991475809e-04,-7.958693363067374099e-03,1.674785154599538195e-02,1.482372077047776349e-02,7.589115626036544446e-04,1.719997352800528567e-02,0.000000000000000000e+00,0.000000000000000000e+00,0.000000000000000000e+00,5.276655446199003396e-01,0.000000000000000000e+00
6.978199999999999958e-01,2.297253194651528371e-02,-7.327516701950939279e-03,9.341871738433837891e-01,-1.544955257729175224e-03,-6.159269360791252979e-03,6.206905136487028685e-03,3.236133959583718106e-02,9.253576979856759435e-03,-1.336806714534759521e-01,1.063498910101796056e-02,-7.292536058852441827e-02,-3.087765715829574042e-02,9.959011263317921539e-03,-5.922742669558892642e-03,1.737710141760184790e-02,0.000000000000000000e+00,0.000000000000000000e+00,0.000000000000000000e+00,5.277735767026311420e-01,-0.000000000000000000e+00
7.231319999999999970e-01,2.331160066720112597e-02,-5.868640762312448030e-03,9.307216405868530273e-01,-1.848668691498248562e-03,-7.008299154058539315e-03,6.481861324274751368e-03,3.805139047194861651e-02,2.035910175633537378e-02,-1.365633606910705566e-01,-1.199754115708459405e-02,-3.967013505715519944e-02,3.884370231442855603e-03,2.419960409787406952e-02,-4.033549894410739037e-03,1.814885951442068990e-02,0.000000000000000000e+00,0.000000000000000000e+00,0.000000000000000000e+00,5.283146287190713108e-01,0.000000000000000000e+00
7.488789999999999614e-01,2.356403198403856855e-02,-4.855724693226196563e-03,9.283811450004577637e-01,-1.630784464772043474e-03,-7.495168208882185823e-03,6.401235408457051079e-03,3.067972891971312843e-02,2.333418994298034135e-02,-1.430625915527343750e-01,3.687411387082514813e-02,-2.826396439134112870e-02,-9.166705335612057928e-03,2.245698659078442308e-02,-1.627143650257790314e-02,1.792390793292503171e-02,0.000000000000000000e+00,0.000000000000000000e+00,0.000000000000000000e+00,5.290343015994440901e-01,0.000000000000000000e+00
7.751590000000000424e-01,2.401983753166124155e-02,-3.276279698831886019e-03,9.251953363418579102e-01,-1.245462937818420058e-03,-7.811566185901952508e-03,6.085988527427810268e-03,3.678435118733872078e-02,1.961396509802056445e-02,-1.346814930438995361e-01,1.193461378325369818e-02,7.162167340210067248e-03,-1.973743759862949670e-02,1.620830365999417766e-02,-9.394104783861280047e-03,1.704042321300641705e-02,0.000000000000000000e+00,0.000000000000000000e+00,0.000000000000000000e+00,5.287350222617982487e-01,-0.000000000000000000e+00
7.985569999999999613e-01,2.416182418560283360e-02,-1.958385674658324419e-03,9.230476021766662598e-01,-7.382437026193872315e-04,-7.588167170277770879e-03,5.956120469867265399e-03,3.930607423070137801e-02,3.152159721822356958e-02,-1.408594846725463867e-01,2.986131761764958259e-02,4.683569545050134120e-02,-1.307412241453298138e-02,2.667436161892625460e-02,-7.454755715134792071e-03,1.668104838485606756e-02,0.000000000000000000e+00,0.000000000000000000e+00,0.000000000000000000e+00,5.294225545183711690e-01,0.000000000000000000e+00
8.233810000000000295e-01,2.416948976457107892e-02,4.512502616965031088e-04,9.200037121772766113e-01,-1.705860475177443469e-04,-7.202767235519935696e-03,5.635966142070403251e-03,3.196027802226381748e-02,3.096061194382878842e-02,-1.362623572349548340e-01,6.725191474137339788e-03,1.019810871494236659e-02,-2.723858764952167763e-02,1.980726908919225662e-02,-1.294568384682973430e-02,1.578806620739481303e-02,0.000000000000000000e+00,0.000000000000000000e+00,0.000000000000000000e+00,5.293856561466097066e-01,0.000000000000000000e+00
8.490699999999999914e-01,2.418940027395656209e-02,2.948125642441994359e-03,9.168338179588317871e-01,4.803806572332783173e-05,-6.902262733253339277e-03,5.589843039514041934e-03,4.061027203337101710e-02,4.101164485094684758e-02,-1.331834048032760620e-01,-1.656509281076461518e-02,-5.550331646370443642e-03,-1.856679380307163984e-03,2.991167621383836878e-02,1.785321697022998651e-04,1.565109353082072552e-02,0.000000000000000000e+00,0.000000000000000000e+00,0.000000000000000000e+00,5.294771831002141882e-01,0.000000000000000000e+00
8.728780000000000427e-01,2.423243174071864833e-02,4.654821753621979884e-03,9.148429036140441895e-01,3.652548562439030607e-04,-6.913132812204958455e-03,5.465779751318899926e-03,3.195736053164261598e-02,4.672290446432512262e-02,-1.372698396444320679e-01,2.544617674544666711e-02,-4.776665225123896338e-03,-8.755191551940492284e-03,3.101226475392283854e-02,-1.131405573455313701e-02,1.531749801055493077e-02,0.000000000000000000e+00,0.000000000000000000e+00,0.000000000000000000e+00,5.299976082044196568e-01,-0.000000000000000000e+00
9.032310000000000061e-01,2.431268514364119671e-02,6.352326265531354002e-03,9.127942919731140137e-01,6.844507197440723601e-04,-7.210401741135852305e-03,5.371549715571299899e-03,2.719809474222958587e-02,4.196476675377778381e-02,-1.312855929136276245e-01,7.897122573196541789e-03,-3.655047291651694619e-02,-3.237766503886220070e-03,2.340075895881614867e-02,-1.475740277373896805e-02,1.505603134908384266e-02,0.000000000000000000e+00,0.000000000000000000e+00,0.000000000000000000e+00,5.297895326599668664e-01,0.000000000000000000e+00
9.296809999999999796e-01,2.415556107111982778e-02,8.998451752373846577e-03,9.100145101547241211e-01,1.880316100758321757e-03,-7.412692051760982892e-03,5.011736581841619298e-03,3.872073003550081244e-02,5.110031429018145610e-02,-1.327968984842300415e-01,5.576324516254063668e-02,2.426405174325152458e-02,-1.556377693842212959e-02,2.778887681022412792e-02,-3.164406674092138695e-03,1.403818486973873458e-02,0.000000000000000000e+00,0.000000000000000000e+00,0.000000000000000000e+00,5.301901756782831932e-01,-0.000000000000000000e+00
9.493840000000000057e-01,2.410991964160891579e-02,1.077762729060974603e-02,9.082329273223876953e-01,2.931502798848004566e-03,-7.448464963363932156e-03,4.615588938746695291e-03,3.018658619283093661e-02,4.593363060469787817e-02,-1.268242597579956055e-01,5.879821329959734194e-02,-4.031936929746356840e-02,-2.334014839499014282e-02,1.394917313430768351e-02,-1.570916730733151051e-02,1.295071768490418940e-02,0.000000000000000000e+00,0.000000000000000000e+00,0.000000000000000000e+00,5.299594768537828626e-01,-0.000000000000000000e+00
9.760830000000000339e-01,2.413963503552108564e-02,1.344353534575032892e-02,9.056978225708007812e-01,4.176931966346094337e-03,-6.451235051853965174e-03,4.160347144385179163e-03,3.163112388727649937e-02,5.398672297906746687e-02,-1.234466359019279480e-01,3.972180450643443550e-02,7.088226804977301732e-02,-2.320855131032337204e-02,1.720782402446379561e-02,-4.713963641082220997e-03,1.166017689327708551e-02,0.000000000000000000e+00,0.000000000000000000e+00,0.000000000000000000e+00,5.299825760702565614e-01,0.000000000000000000e+00
1.002161000000000080e+00,2.418153473244866528e-02,1.522124090226091055e-02,9.040509462356567383e-01,4.677467282245871896e-03,-6.186574142739154070e-03,3.742532153565791830e-03,4.391834298380483531e-02,5.738287604054925078e-02,-1.297895312309265137e-01,2.579717010918063450e-02,-1.488034652315275291e-02,-1.167091076851563269e-02,1.551063169848014740e-02,8.512130340619622482e-03,1.045749255702094205e-02,0.000000000000000000e+00,0.000000000000000000e+00,0.000000000000000000e+00,5.306500759987318183e-01,-0.000000000000000000e+00
1.027727000000000057e+00,2.423941143279092353e-02,1.782526259114534245e-02,9.017454981803894043e-01,5.052698570501306351e-03,-5.547029065034791984e-03,3.423292879258577059e-03,2.528989134194499500e-02,5.545680901156771481e-02,-1.223064064979553223e-01,1.428302527859153133e-02,-9.444868790907515188e-03,-3.321095239735594260e-03,1.177824804223611549e-02,-9.656312235012209574e-03,9.610126959540110647e-03,0.000000000000000000e+00,0.000000000000000000e+00,0.000000000000000000e+00,5.303472571402017000e-01,-0.000000000000000000e+00
1.048496000000000095e+00,2.430186572365359080e-02,1.957111247749381347e-02,9.003013372421264648e-01,5.235609837972617087e-03,-5.416694031503910267e-03,3.001844042060497486e-03,3.290341205990495593e-02,6.187284972263559085e-02,-1.265253573656082153e-01,-7.773470429581754923e-03,7.275777040093216706e-03,-4.284547631154481118e-02,1.857230395456600444e-02,5.172864896620213079e-03,8.390384393682059905e-03,0.000000000000000000e+00,0.000000000000000000e+00,0.000000000000000000e+00,5.308480148875943661e-01,0.000000000000000000e+00
1.075796999999999892e+00,2.445644620971870048e-02,2.217091112232566150e-02,8.982104659080505371e-01,5.517030627132229852e-03,-5.723722254127983078e-03,2.744863053043555823e-03,2.975164866885991397e-02,6.040527271670444176e-02,-1.201243475079536438e-01,3.661058394092963492e-02,-5.725297537139889537e-02,-1.255985386544886985e-02,1.479330019997409859e-02,-2.370324456295464562e-03,7.692505408287086954e-03,0.000000000000000000e+00,0.000000000000000000e+00,0.000000000000000000e+00,5.306135172214690998e-01,0.000000000000000000e+00
1.100122999999999962e+00,2.461181969743027678e-02,2.387689239958374482e-02,8.968744277954101562e-01,6.001777169957082936e-03,-5.610825327942770002e-03,2.312750039000333047e-03,2.554875486565581777e-02,6.288563660293508550e-02,-1.111707836389541626e-01,5.335913070366730959e-02,2.363502437850949212e-02,-2.899123862033059149e-02,1.580233291566736364e-02,-4.440113716409213075e-03,6.489627390006247332e-03,0.000000000000000000e+00,0.000000000000000000e+00,0.000000000000000000e+00,5.301393280704588262e-01,-0.000000000000000000e+00
1.123272000000000048e+00,2.542199796737101489e-02,2.607616625792936321e-02,8.949663043022155762e-01,7.156561939003392922e-03,-5.400031042749997567e-03,1.515389626461471906e-03,4.412772367874691348e-02,6.247921915369414325e-02,-1.144184768199920654e-01,5.046212631491978767e-02,-2.243219561624717334e-02,-3.727695073967950828e-02,8.393666083559743474e-03,1.699751319620673717e-02,4.185966634598359271e-03,0.000000000000000000e+00,0.000000000000000000e+00,0.000000000000000000e+00,5.306008803530564144e-01,-0.000000000000000000e+00
1.149199999999999999e+00,2.599772489905182241e-02,2.757344489735839149e-02,8.937788605690002441e-01,7.845079135112719218e-03,-4.947382491361285162e-03,1.149888556587486121e-03,3.264645482554467265e-02,6.213462972616406316e-02,-1.053131595253944397e-01,6.037633780862817351e-02,7.770523643659449191e-03,-2.642918604111458430e-02,4.854317236744661555e-03,2.730224649484965654e-03,3.210090275751087407e-03,0.000000000000000000e+00,0.000000000000000000e+00,0.000000000000000000e+00,5.300972155594039226e-01,-0.000000000000000000e+00
1.176096000000000030e+00,2.690990569580130332e-02,2.983679432592623720e-02,8.920542001724243164e-01,8.380618677299464178e-03,-4.334288322345170030e-03,4.995794267061981486e-04,3.768979498906382952e-02,7.470478486824176645e-02,-1.109357923269271851e-01,1.737565825270296835e-02,1.563923208720820537e-02,-5.585056871696708614e-02,1.514630856884630061e-02,1.616678033067413256e-02,1.332382216426120092e-03,0.000000000000000000e+00,0.000000000000000000e+00,0.000000000000000000e+00,5.307208871984772092e-01,0.000000000000000000e+00
1.199392000000000014e+00,2.751951453819801580e-02,3.132341530089427506e-02,8.910166621208190918e-01,8.447977780571441428e-03,-4.439985440152449669e-03,3.578639582846321332e-04,3.858865071367847954e-02,7.110865222179298117e-02,-1.055618524551391602e-01,2.680761265575943436e-03,-2.553665912210410782e-02,1.463345357282300717e-02,7.899276525122934933e-03,1.507018375281518607e-02,9.432515755796178070e-04,0.000000000000000000e+00,0.000000000000000000e+00,0.000000000000000000e+00,5.304804559812790199e-01,0.000000000000000000e+00
1.225753000000000092e+00,2.857170330626787255e-02,3.310606405967372184e-02,8.895686268806457520e-01,8.664788267783204989e-03,-4.514847711172276234e-03,-4.194324284354511434e-04,3.802569904227123820e-02,6.539360624958327761e-02,-9.876691550016403198e-02,4.130673933609969872e-02,1.236910018889047884e-02,-3.516490651118030913e-02,3.454355810823928931e-03,1.443181055530949088e-02,-1.229953035467967748e-03,0.000000000000000000e+00,0.000000000000000000e+00,0.000000000000000000e+00,5.301667809027220679e-01,-0.000000000000000000e+00
1.248847000000000040e+00,2.932827098730625415e-02,3.413324030273488796e-02,8.887590765953063965e-01,8.793478261552759023e-03,-4.873207898365539137e-03,-9.929155372316866845e-04,5.035753201457645462e-02,6.726500049778422197e-02,-1.011192798614501953e-01,1.923745305189402191e-02,-3.669600710001614391e-02,-3.749702041073441766e-02,7.164083578742457513e-03,2.480324540125679322e-02,-2.880032187297765223e-03,0.000000000000000000e+00,0.000000000000000000e+00,0.000000000000000000e+00,5.304814669425557128e-01,-0.000000000000000000e+00
1.272899000000000003e+00,3.052505032734264406e-02,3.565251866572172190e-02,8.875786066055297852e-01,9.328005906222017890e-03,-4.921301526939814153e-03,-1.627631731007772586e-03,3.536557221851204663e-02,6.810906212601158805e-02,-9.253811836242675781e-02,1.661236191925557701e-02,2.158673743116880372e-02,4.904741383989985430e-03,5.005862912881440391e-03,6.386307630422388693e-03,-4.584235710384465534e-03,0.000000000000000000e+00,0.000000000000000000e+00,0.000000000000000000e+00,5.300122832858095157e-01,0.000000000000000000e+00
1.298305999999999960e+00,3.133833028609764315e-02,3.667495625956657124e-02,8.868489265441894531e-01,9.776134956784919214e-03,-4.913798094217547430e-03,-2.389478599033489914e-03,4.645232484044130306e-02,6.843018480626317235e-02,-9.807787090539932251e-02,2.495240924171123614e-02,-1.337441267695315024e-02,-5.728774075293353862e-02,2.819505986140147767e-03,2.294559298885121348e-02,-6.789418031108940266e-03,0.000000000000000000e+00,0.000000000000000000e+00,0.000000000000000000e+00,5.305515766693943425e-01,-0.000000000000000000e+00
1.323226000000000013e+00,3.270588742934972537e-02,3.813817000476831670e-02,8.857551217079162598e-01,1.011372969833123844e-02,-5.265711347502533002e-03,-2.930115102022012863e-03,4.654178489568013000e-02,6.000512218902459560e-02,-9.507756680250167847e-02,-1.253993257487508173e-02,-3.568592946498911483e-02,-8.987158685599088218e-03,-6.661289365618631650e-03,1.779177064939291286e-02,-8.277999641776001560e-03,0.000000000000000000e+00,0.000000000000000000e+00,0.000000000000000000e+00,5.304845828623292459e-01,0.000000000000000000e+00
1.349344000000000099e+00,3.365329368707843660e-02,3.910103877082798940e-02,8.850414156913757324e-01,1.041058140496754769e-02,-5.376167356426098110e-03,-3.216644663950329885e-03,3.906624545938443271e-02,6.609208353359279087e-02,-8.949369192123413086e-02,4.221302195488826903e-02,4.443254078576513132e-03,-4.408830349167860291e-02,1.051699401728529472e-03,1.041178098063464535e-02,-9.053939276295219774e-03,0.000000000000000000e+00,0.000000000000000000e+00,0.000000000000000000e+00,5.302077177039768996e-01,-0.000000000000000000e+00
1.373485999999999985e+00,3.511636609370919621e-02,4.051836531597607233e-02,8.839762806892395020e-01,1.047114913418878759e-02,-6.505104832170260920e-03,-3.767531382903754889e-03,4.900008978291762324e-02,6.304138857318274114e-02,-8.738344907760620117e-02,4.917320916273485235e-03,-7.265457290537130630e-02,-6.192088553265735762e-02,-3.388563730979141618e-03,1.633535754017086464e-02,-1.062103870856706545e-02,0.000000000000000000e+00,0.000000000000000000e+00,0.000000000000000000e+00,5.302094307921590977e-01,0.000000000000000000e+00
1.398157000000000094e+00,3.612070550691315329e-02,4.144998041944307487e-02,8.832809329032897949e-01,1.058067122490053032e-02,-6.960634087319395036e-03,-3.857472065788680737e-03,4.369079590080806458e-02,6.290303634430809143e-02,-8.704887330532073975e-02,1.786930351362792102e-02,2.427437300483639877e-03,1.125000633724723698e-02,-2.509130294446959911e-03,5.408449080685896401e-03,-1.082536220028695872e-02,0.000000000000000000e+00,0.000000000000000000e+00,0.000000000000000000e+00,5.303073875230869261e-01,0.000000000000000000e+00
1.423145000000000104e+00,3.762436674703987377e-02,4.274295890067577458e-02,8.821781277656555176e-01,1.118668978361878064e-02,-7.478064837865172620e-03,-4.647519329293192669e-03,4.647582374247467146e-02,6.681500346103438903e-02,-8.669921010732650757e-02,3.067660901677230628e-02,1.190809462777580457e-02,-2.597879657157262448e-02,-1.629616000234806496e-03,7.528064364552798648e-03,-1.304921793062618907e-02,0.000000000000000000e+00,0.000000000000000000e+00,0.000000000000000000e+00,5.304418042495080421e-01,-0.000000000000000000e+00
1.447932999999999915e+00,3.862792776646050558e-02,4.347680582089845369e-02,8.815378546714782715e-01,1.126516444641529648e-02,-7.694745273089331761e-03,-5.101573001221382242e-03,4.537629156792550439e-02,6.067620494004578174e-02,-8.709345757961273193e-02,-4.886995745625309640e-02,-1.251674709392747858e-02,-1.472467666834503808e-02,-8.917475114740322506e-03,4.758038019338392023e-03,-1.430631290605988148e-02,0.000000000000000000e+00,0.000000000000000000e+00,0.000000000000000000e+00,5.305876872843586778e-01,0.000000000000000000e+00
1.473419999999999952e+00,4.017086078343420907e-02,4.458719358268220523e-02,8.804790973663330078e-01,1.147680719138773932e-02,-7.660081384581962638e-03,-5.466888699278360519e-03,5.393484405593350350e-02,6.415893042612695607e-02,-8.775801211595535278e-02,-1.376772526037835231e-02,8.073777493656697848e-03,-3.520361056858402598e-03,-3.931727229843945404e-03,1.466220451327502824e-02,-1.537802920847614052e-02,0.000000000000000000e+00,0.000000000000000000e+00,0.000000000000000000e+00,5.307965960396439087e-01,0.000000000000000000e+00
1.497614999999999919e+00,4.119238395304943706e-02,4.533467935566343199e-02,8.797012567520141602e-01,1.122096786746118458e-02,-7.813317851213641418e-03,-5.814797098678381460e-03,5.319180931518533578e-02,5.750467788503496602e-02,-8.197449147701263428e-02,-1.405790653342539435e-02,-4.641254290651199849e-02,-4.226990437467758460e-02,-9.315217235350371772e-03,1.075921428702361279e-02,-1.633020464085666035e-02,0.000000000000000000e+00,0.000000000000000000e+00,0.000000000000000000e+00,5.305015796250988069e-01,0.000000000000000000e+00
1.523787999999999920e+00,4.272217001487310650e-02,4.648479241187869482e-02,8.784719705581665039e-01,1.073933806269448434e-02,-8.056321172028813038e-03,-6.163089624463546912e-03,5.595679207120907162e-02,6.632922699880337836e-02,-8.344195783138275146e-02,-5.753131879984780400e-02,-1.108982121517471629e-02,-5.841109775731651368e-03,5.557387457257242057e-03,1.305092254097875958e-02,-1.731966516121064004e-02,0.000000000000000000e+00,0.000000000000000000e+00,0.000000000000000000e+00,5.307807973753140285e-01,0.000000000000000000e+00
1.547695000000000043e+00,4.372828323428044894e-02,4.726643940374076341e-02,8.776801228523254395e-01,1.098075982496090133e-02,-8.139657322169924214e-03,-6.574680678936406508e-03,4.554325902827995737e-02,6.524672580710513814e-02,-8.096354454755783081e-02,2.452810203107937820e-02,1.851710201777321532e-03,-2.386208602353075484e-02,4.619504859698217100e-04,2.115614118074190218e-03,-1.841958966626000560e-02,0.000000000000000000e+00,0.000000000000000000e+00,0.000000000000000000e+00,5.307253650494123676e-01,-0.000000000000000000e+00
1.573668000000000067e+00,4.528641000789588450e-02,4.842296913886137005e-02,8.764941096305847168e-01,1.109352938298612673e-02,-8.360660470879910378e-03,-7.276250209059309526e-03,5.598476964140900597e-02,5.510067571635099415e-02,-6.733107566833496094e-02,1.021617450178570648e-02,-1.047992995980877827e-02,-4.974144545348267721e-02,-8.669970980864739191e-03,1.571349469410426511e-02,-2.044389679799157866e-02,0.000000000000000000e+00,0.000000000000000000e+00,0.000000000000000000e+00,5.298936490476183758e-01,0.000000000000000000e+00
1.598511999999999933e+00,4.632997238876813278e-02,4.918822341803552600e-02,8.757330179214477539e-01,1.125867973070037754e-02,-8.335595068571288735e-03,-7.517419961251992078e-03,6.118587364447761884e-02,6.007422620103564787e-02,-6.705348938703536987e-02,2.729673335553760294e-02,4.881941809228511342e-03,-9.214315595153559080e-03,-7.315040883504207378e-04,1.798434473074209464e-02,-2.113555142432138600e-02,0.000000000000000000e+00,0.000000000000000000e+00,0.000000000000000000e+00,5.300048308625727733e-01,-0.000000000000000000e+00
1.624176000000000064e+00,4.793060990918028563e-02,5.033982331667653798e-02,8.746034502983093262e-01,1.120871788937528694e-02,-8.164633695376455336e-03,-8.002116048603458154e-03,3.926009613952113897e-02,5.969492787597405203e-02,-6.304612010717391968e-02,1.317741986205704478e-02,7.551485029356309192e-03,-7.786567721947202422e-04,-1.753735306113212225e-03,-3.059379147973888009e-03,-2.239199555554699517e-02,0.000000000000000000e+00,0.000000000000000000e+00,0.000000000000000000e+00,5.298527590847771362e-01,0.000000000000000000e+00
1.647561999999999971e+00,4.903023361126077756e-02,5.107568741876924306e-02,8.738583326339721680e-01,1.089466185817928451e-02,-8.343683858936801201e-03,-8.246522130988642729e-03,5.810598258509172553e-02,6.099528877506163460e-02,-6.490547955036163330e-02,-3.466522985598657902e-02,-9.035837048591668572e-03,-1.240062158796099469e-02,2.411535616609241338e-03,2.255743289270530430e-02,-2.319772712445072882e-02,0.000000000000000000e+00,0.000000000000000000e+00,0.000000000000000000e+00,5.301268172094572018e-01,0.000000000000000000e+00
1.674565999999999999e+00,5.068171334649367032e-02,5.216543038858622444e-02,8.727649450302124023e-01,1.108674103444541766e-02,-9.066733687615569082e-03,-8.604295899725444841e-03,4.465872914036539409e-02,4.755373629741548730e-02,-5.372289568185806274e-02,4.209388358785465939e-02,-3.762692152240579985e-02,-7.197934666012299580e-03,-1.159467280567757358e-02,-5.569100611662047839e-04,-2.408970776404056879e-02,0.000000000000000000e+00,0.000000000000000000e+00,0.000000000000000000e+00,5.294423629713113089e-01,0.000000000000000000e+00
1.698744000000000032e+00,5.178695356115035897e-02,5.287698874803587606e-02,8.720194697380065918e-01,1.142261601933949877e-02,-9.412572100907512507e-03,-8.861220111007428457e-03,5.694051477609104323e-02,5.014740630715332909e-02,-5.183049663901329041e-02,2.678323539141900730e-02,-2.813419263038749799e-02,-3.648822312723844913e-02,-5.832882642611269923e-03,1.464456915266866902e-02,-2.488034122292759331e-02,0.000000000000000000e+00,0.000000000000000000e+00,0.000000000000000000e+00,5.294382016597762863e-01,0.000000000000000000e+00
1.725036000000000014e+00,5.290195644674708375e-02,5.356510184740309599e-02,8.712987899780273438e-01,1.195573488225472672e-02,-9.696341181620882210e-03,-9.108114655728583031e-03,6.115166569347113557e-02,5.238574430340124655e-02,-5.189093202352523804e-02,3.602850698919593531e-02,7.339024511990704588e-03,-1.583238139387992821e-02,-7.460677634957578463e-03,1.337906648020893707e-02,-2.556806918874071632e-02,0.000000000000000000e+00,0.000000000000000000e+00,0.000000000000000000e+00,5.295624334591294557e-01,-0.000000000000000000e+00
1.747381000000000073e+00,5.468795553295298373e-02,5.435044654476035159e-02,8.701934814453125000e-01,1.278509414466185400e-02,-9.665422214397700884e-03,-9.691196845624805434e-03,4.418740129391967447e-02,4.909285072767077818e-02,-5.030028894543647766e-02,2.597843010384238288e-02,1.683996661637982700e-02,-2.170426859858209240e-02,-1.633337033759153789e-02,-3.307544819548553089e-03,-2.711932230700758728e-02,0.000000000000000000e+00,0.000000000000000000e+00,0.000000000000000000e+00,5.295818057612164953e-01,0.000000000000000000e+00
1.772572000000000036e+00,5.647284594838977712e-02,5.513337368270908312e-02,8.691093325614929199e-01,1.311730789480733926e-02,-9.865987520098595809e-03,-1.001829229706086011e-02,6.474227528287504474e-02,4.771159737408162127e-02,-5.078136175870895386e-02,-5.229983033798499270e-03,-1.888417915987379916e-02,-2.028697240044648187e-02,-1.788653728683882796e-02,2.256226825988554008e-02,-2.816445494618663448e-02,0.000000000000000000e+00,0.000000000000000000e+00,0.000000000000000000e+00,5.297783959135047294e-01,0.000000000000000000e+00
1.798243999999999954e+00,5.767103900887159129e-02,5.567720216127791666e-02,8.683018088340759277e-01,1.314942129343672945e-02,-9.989176254309839464e-03,-1.017700182297964773e-02,4.388484126061056173e-02,4.694923156787754459e-02,-4.622620344161987305e-02,6.162247122932846231e-03,5.475158852643699503e-03,-4.347403840488674003e-03,-1.804825256714403039e-02,-4.919254507886522410e-03,-2.847112253656308711e-02,0.000000000000000000e+00,0.000000000000000000e+00,0.000000000000000000e+00,5.295550881149363454e-01,0.000000000000000000e+00
1.825341000000000102e+00,5.939763316690496037e-02,5.649132019723513559e-02,8.670635819435119629e-01,1.291320510728552820e-02,-1.055136295111047673e-02,-1.038840409341101889e-02,5.623559096953369141e-02,5.289222110675702304e-02,-5.115402117371559143e-02,-4.997980244595186944e-03,2.277049670534746391e-03,-2.463132771024754974e-02,-9.728718956006642687e-03,1.178971342661972940e-02,-2.914902480742292967e-02,0.000000000000000000e+00,0.000000000000000000e+00,0.000000000000000000e+00,5.300861219119963330e-01,0.000000000000000000e+00
1.846902999999999961e+00,6.063195542542978295e-02,5.675736433323115560e-02,8.662328720092773438e-01,1.295578046670520754e-02,-1.118490497274704509e-02,-1.065023774766782338e-02,5.233330333946786123e-02,4.143908437700300623e-02,-4.608001932501792908e-02,-2.932634515808757621e-03,-4.485120672963765348e-02,-3.814341331259248069e-03,-2.295263475562944050e-02,5.812077734851561674e-04,-2.982304115785811005e-02,0.000000000000000000e+00,0.000000000000000000e+00,0.000000000000000000e+00,5.298318866406523941e-01,0.000000000000000000e+00
1.872849999999999904e+00,6.246641762687673433e-02,5.717233765922623279e-02,8.650150299072265625e-01,1.327143133140198591e-02,-1.146693489005690125e-02,-1.105837507492268834e-02,5.650996178224822891e-02,4.663425406881559904e-02,-4.919073358178138733e-02,-1.101368252302691204e-02,3.919529016558898765e-02,-1.228129196419146946e-02,-1.552880227107450439e-02,5.241742776360774902e-03,-3.099031511496985747e-02,0.000000000000000000e+00,0.000000000000000000e+00,0.000000000000000000e+00,5.302228677568538995e-01,0.000000000000000000e+00
1.898168000000000077e+00,6.367173886514093661e-02,5.745449800742324920e-02,8.641980290412902832e-01,1.365393657251003263e-02,-1.167077641551639289e-02,-1.134423944825835306e-02,5.644534745439738072e-02,3.994383261052529555e-02,-4.299008846282958984e-02,-3.049874728198785287e-02,-1.000084299319003826e-02,-2.180395529275523311e-02,-2.597480814061728024e-02,3.397845090451087624e-03,-3.178022801432067723e-02,0.000000000000000000e+00,0.000000000000000000e+00,0.000000000000000000e+00,5.298922295867193322e-01,0.000000000000000000e+00
1.923747000000000096e+00,6.549058895845401296e-02,5.788811655087627850e-02,8.628754615783691406e-01,1.361250115973243989e-02,-1.164408744069178603e-02,-1.152903460492638033e-02,5.559063144806038193e-02,4.367799928702439938e-02,-4.371076077222824097e-02,-2.676666635055034021e-02,8.104196773899079512e-03,-8.801677752783471781e-03,-1.935158347816407984e-02,3.887606638131583647e-03,-3.230113909302334552e-02,0.000000000000000000e+00,0.000000000000000000e+00,0.000000000000000000e+00,5.301104006795233081e-01,0.000000000000000000e+00
1.947545000000000082e+00,6.651616086324409205e-02,5.847708411573034754e-02,8.620216846466064453e-01,1.333061911454025937e-02,-1.189255870462746500e-02,-1.148091326533240419e-02,4.805449743105844052e-02,4.190503970406816298e-02,-3.987239301204681396e-02,-1.201563667123875870e-02,-2.440869866627830981e-02,-1.227608091683723979e-02,-2.009218821293793852e-02,-3.953505324865188957e-03,-3.212626108821897697e-02,0.000000000000000000e+00,0.000000000000000000e+00,0.000000000000000000e+00,5.299531551722548306e-01,0.000000000000000000e+00
1.971878000000000020e+00,6.803413114081019453e-02,5.937549018416460322e-02,8.606677651405334473e-01,1.272039105105643268e-02,-1.257811523867835568e-02,-1.153910568882499099e-02,5.464817432920327650e-02,4.114571864402146589e-02,-4.077770933508872986e-02,-4.020504106303670472e-02,-1.374647013345555412e-02,5.171051374795305978e-04,-1.551580998097012998e-02,1.674794863976666534e-03,-3.231696007767104195e-02,0.000000000000000000e+00,0.000000000000000000e+00,0.000000000000000000e+00,5.301898689993124192e-01,0.000000000000000000e+00
1.998831999999999942e+00,6.901518909236564747e-02,5.995998055055616616e-02,8.598356842994689941e-01,1.259814798157292415e-02,-1.311350260526600309e-02,-1.167035141078853755e-02,4.843245207433805044e-02,3.811210250789820453e-02,-3.463824838399887085e-02,-3.468876298568001129e-03,-1.732967326036826197e-02,-6.497897512668636584e-03,-1.692324871569291303e-02,-9.341957333567274188e-03,-3.263102643958493143e-02,0.000000000000000000e+00,0.000000000000000000e+00,0.000000000000000000e+00,5.298618798946460595e-01,0.000000000000000000e+00
2.023537999999999837e+00,7.052603864801372524e-02,6.081966154082836529e-02,8.585488200187683105e-01,1.250139500897624184e-02,-1.311294980507660135e-02,-1.195314145975601150e-02,4.221258309878981457e-02,3.760502017217502019e-02,-2.860969677567481995e-02,-2.662644986964175786e-03,2.889254089311527746e-02,-2.304377990293716288e-02,-1.503378764112433576e-02,-1.215675775372168643e-02,-3.340908206199988406e-02,0.000000000000000000e+00,0.000000000000000000e+00,0.000000000000000000e+00,5.295781444720338849e-01,0.000000000000000000e+00
2.047864999999999824e+00,7.184304656847365078e-02,6.102369814241458829e-02,8.577138781547546387e-01,1.238464222948178553e-02,-1.326614180348495431e-02,-1.208310219419117537e-02,5.791090243115191299e-02,3.985629388760288105e-02,-2.919810824096202850e-02,2.408557076472386989e-03,-1.388934104133539120e-02,-1.209143601060185544e-03,-1.148722616357645762e-02,5.249930623222665189e-03,-3.385728573751489723e-02,0.000000000000000000e+00,0.000000000000000000e+00,0.000000000000000000e+00,5.297580702779961515e-01,0.000000000000000000e+00
2.072967999999999922e+00,7.374487845969042443e-02,6.141076143010316263e-02,8.563414216041564941e-01,1.181698856497931209e-02,-1.286389091045214705e-02,-1.195623319090399761e-02,3.452361175033411000e-02,3.314247226967343557e-02,-2.396461926400661469e-02,-2.948784016986735670e-03,1.080946478708740693e-02,-4.461412936279606466e-04,-1.501330325458022710e-02,-1.906215565201158438e-02,-3.338983529478939394e-02,0.000000000000000000e+00,0.000000000000000000e+00,0.000000000000000000e+00,5.295177689312087210e-01,0.000000000000000000e+00
2.097233000000000125e+00,7.495954051618063108e-02,6.165987601748498109e-02,8.554612398147583008e-01,1.135629800466882687e-02,-1.299180292971047201e-02,-1.201280461197895555e-02,5.757684179096710791e-02,3.557493753815312715e-02,-3.472537919878959656e-02,-1.870228772493676139e-02,-4.330179187023235413e-03,4.815358007375575462e-03,-6.892292427907996746e-03,1.142223797333758242e-02,-3.368722523377010170e-02,0.000000000000000000e+00,0.000000000000000000e+00,0.000000000000000000e+00,5.304524726723424122e-01,0.000000000000000000e+00
2.126135000000000108e+00,7.676527955547607363e-02,6.205148911002721784e-02,8.540234565734863281e-01,1.105963123676918965e-02,-1.311737665342116443e-02,-1.187276282825133755e-02,3.942384469333649888e-02,2.471747342454804972e-02,-1.866080239415168762e-02,7.304924556525500129e-03,-4.269590848434538788e-02,1.414859664119686757e-02,-1.612067035996783693e-02,-1.356931677344097760e-02,-3.318560968435796399e-02,0.000000000000000000e+00,0.000000000000000000e+00,0.000000000000000000e+00,5.294273403727177696e-01,0.000000000000000000e+00
2.147543999999999897e+00,7.799396319635709673e-02,6.245899584397197890e-02,8.531782031059265137e-01,1.102552489884369401e-02,-1.270530091787924754e-02,-1.198499478341474855e-02,4.512205984432833550e-02,3.494955625704206092e-02,-2.371814660727977753e-02,-1.222929930464704100e-02,4.208662658416952723e-02,-2.912431279558900382e-02,-1.701858969886800750e-03,1.667699032157003757e-03,-3.356486565756700013e-02,0.000000000000000000e+00,0.000000000000000000e+00,0.000000000000000000e+00,5.299340382389027271e-01,0.000000000000000000e+00
2.174376999999999782e+00,7.984004553721305020e-02,6.326716377805464975e-02,8.516827821731567383e-01,1.110772497950948505e-02,-1.238406560264437850e-02,-1.178138538920481260e-02,4.518193952643565631e-02,2.682775346729770333e-02,-2.402369678020477295e-02,8.623497761361099967e-03,-4.008034793735155976e-02,1.679099804866113948e-03,-1.319867074311696989e-02,3.159108827907437800e-03,-3.300028723170717049e-02,0.000000000000000000e+00,0.000000000000000000e+00,0.000000000000000000e+00,5.301218503753135636e-01,0.000000000000000000e+00
2.198103000000000140e+00,8.107058142946699242e-02,6.379352299403154292e-02,8.507329821586608887e-01,1.092354036142513876e-02,-1.177442858016330973e-02,-1.156221457877437686e-02,4.390653989460117923e-02,3.158194967023397748e-02,-1.674602739512920380e-02,-1.298334978656429106e-02,4.240923172489137472e-02,-3.523625775159341077e-03,-4.038111858879742111e-03,6.800319270373030370e-03,-3.240431143047023399e-02,0.000000000000000000e+00,0.000000000000000000e+00,0.000000000000000000e+00,5.297262301081481217e-01,0.000000000000000000e+00
2.223805000000000032e+00,8.282475310618177267e-02,6.461415980261112080e-02,8.493447303771972656e-01,1.061253186736381936e-02,-1.171925264380435650e-02,-1.135369350101567143e-02,4.443006753724584867e-02,3.378079802508373447e-02,-2.352990955114364624e-02,-2.576245701622798326e-02,-6.786217124855734896e-03,2.117144630693609808e-03,-1.037311131189244326e-03,9.177520033223474094e-03,-3.183091014663164131e-02,0.000000000000000000e+00,0.000000000000000000e+00,0.000000000000000000e+00,5.303858266156474821e-01,0.000000000000000000e+00
2.247284000000000059e+00,8.395627954225452771e-02,6.552590673209902905e-02,8.484333753585815430e-01,1.028073020347621686e-02,-1.174164116708364958e-02,-1.110297674474480800e-02,3.402013849424421338e-02,2.950873636313396456e-02,-2.069859206676483154e-02,-3.311946846324782118e-02,7.275555232069229675e-03,1.506193016002762251e-02,-3.230674842681849866e-03,-3.927822051731605195e-04,-3.108596844717492758e-02,0.000000000000000000e+00,0.000000000000000000e+00,0.000000000000000000e+00,5.303007848196370499e-01,0.000000000000000000e+00
2.273446999999999996e+00,8.558262899675715685e-02,6.735443371564911463e-02,8.470612764358520508e-01,1.026885101628687534e-02,-1.172301398461383926e-02,-1.112803929645345136e-02,5.042022833040817748e-02,3.328991378556961367e-02,-2.095144428312778473e-02,-4.575402835842372860e-03,2.254754707106280953e-02,-1.890069537871514119e-02,3.391752481623721421e-03,2.039704690911191970e-02,-3.124928251507391730e-02,0.000000000000000000e+00,0.000000000000000000e+00,0.000000000000000000e+00,5.305002381414773982e-01,0.000000000000000000e+00
2.298273000000000010e+00,8.667518505921092964e-02,6.855154016930051220e-02,8.461691737174987793e-01,1.025921303121840253e-02,-1.174709475382695878e-02,-1.095993974490694356e-02,3.954206376914237014e-02,2.935954146997953387e-02,-2.235830947756767273e-02,3.669815201592784449e-03,-2.713112241996927868e-02,8.577173021957859578e-03,-1.042285675044113055e-03,4.732856928969220688e-03,-3.070770357561491970e-02,0.000000000000000000e+00,0.000000000000000000e+00,0.000000000000000000e+00,5.307179651687619071e-01,0.000000000000000000e+00
2.323395999999999795e+00,8.825849894757964442e-02,7.033798117462537747e-02,8.447669148445129395e-01,1.026262441987104042e-02,-1.133551478520655742e-02,-1.076852449292986513e-02,4.790281627772934731e-02,3.890630772224964312e-02,-3.013436123728752136e-02,-2.383963279176691541e-02,3.049936949134449127e-02,2.334496408281900789e-02,1.073436868696789163e-02,2.017602054382297214e-02,-3.024702669843792879e-02,0.000000000000000000e+00,0.000000000000000000e+00,0.000000000000000000e+00,5.314675906936118244e-01,0.000000000000000000e+00
2.349531999999999954e+00,8.933755124131428915e-02,7.163984767365950967e-02,8.438527584075927734e-01,1.012057823094876866e-02,-1.147631567803730768e-02,-1.072248658649388453e-02,3.768282510931553891e-02,3.475377817476271725e-02,-2.692158520221710205e-02,-2.516212503027301720e-02,-6.228236867988165559e-03,8.012698413289534929e-03,5.136781484805342558e-03,7.314907975193178646e-03,-3.005537761599264002e-02,0.000000000000000000e+00,0.000000000000000000e+00,0.000000000000000000e+00,5.313551902895379264e-01,0.000000000000000000e+00
2.374303999999999970e+00,9.099339694392631628e-02,7.374043661598696231e-02,8.423736691474914551e-01,1.010873419322380964e-02,-1.231341717955181103e-02,-1.035234809016682966e-02,4.669702437578819587e-02,3.458019378972610608e-02,-2.403821423649787903e-02,1.888080243722046114e-03,-5.230492554530168786e-02,-1.562852966297223218e-03,7.978564472921396977e-03,1.537431077658139855e-02,-2.905616817744732794e-02,0.000000000000000000e+00,0.000000000000000000e+00,0.000000000000000000e+00,5.313308042976441214e-01,0.000000000000000000e+00
2.397804999999999964e+00,9.206459817593343198e-02,7.512307148430165393e-02,8.414044380187988281e-01,1.055300559517632908e-02,-1.267951468947714488e-02,-1.022934967469391054e-02,3.874584597467091440e-02,3.518535689357329271e-02,-1.471088826656341553e-02,3.741516946664961984e-02,-3.812451902887674382e-02,-1.366076159934596738e-02,6.742838010277563653e-03,3.065517460469339116e-03,-2.865610644775229421e-02,0.000000000000000000e+00,0.000000000000000000e+00,0.000000000000000000e+00,5.307810535622350390e-01,0.000000000000000000e+00
2.423195000000000210e+00,9.365726403957887192e-02,7.717301083617440771e-02,8.398723006248474121e-01,1.081171955340594348e-02,-1.276168073282124560e-02,-1.032560170494556395e-02,4.420886192956164501e-02,4.242672014591093721e-02,-1.968205720186233521e-02,3.272302909819421735e-02,5.280372905005467458e-03,-3.325970768675522160e-02,1.323366724933498426e-02,1.152676961217159041e-02,-2.896951700607575120e-02,0.000000000000000000e+00,0.000000000000000000e+00,0.000000000000000000e+00,5.313304744591853535e-01,0.000000000000000000e+00
2.448036000000000101e+00,9.455639939388475745e-02,7.835201521643993250e-02,8.388420939445495605e-01,1.086443291401723195e-02,-1.270553780792771370e-02,-1.019156241097318727e-02,4.357532369194441757e-02,3.669369484964491585e-02,-1.483088918030261993e-02,1.347233395500476404e-02,-2.153607814834717499e-02,2.028865456681918852e-02,5.672373470423100299e-03,1.022100471039131403e-02,-2.858505611564343685e-02,0.000000000000000000e+00,0.000000000000000000e+00,0.000000000000000000e+00,5.311114555332231424e-01,0.000000000000000000e+00
2.472750000000000004e+00,9.570440810407342125e-02,7.991904485374957956e-02,8.372997641563415527e-01,1.071029620346493350e-02,-1.238936278981639383e-02,-1.031177448545217423e-02,3.871728854188884184e-02,3.862663078756053275e-02,-1.466458197683095932e-02,3.486805157978892927e-03,3.572209173223173106e-02,2.664345357552819530e-04,1.157838662950358075e-02,8.541561234492088539e-03,-2.891498457538604905e-02,0.000000000000000000e+00,0.000000000000000000e+00,0.000000000000000000e+00,5.312763701296453478e-01,0.000000000000000000e+00
2.497920999999999836e+00,9.641108269463395664e-02,8.097740684024630486e-02,8.363029956817626953e-01,1.027741084886571628e-02,-1.271128596238080277e-02,-1.033700030362982858e-02,4.129048037433197954e-02,3.830300405333927211e-02,-2.128321491181850433e-02,-4.509235602795824693e-02,-4.218389383296499567e-02,-2.166059740049157412e-02,1.409155231154141617e-02,1.108081623463168242e-02,-2.899682207047049598e-02,0.000000000000000000e+00,0.000000000000000000e+00,0.000000000000000000e+00,5.318993829387594907e-01,0.000000000000000000e+00
2.522705999999999893e+00,9.745038905690327213e-02,8.254851774585207635e-02,8.348188400268554688e-01,9.621357101477007873e-03,-1.276818867003082225e-02,-1.025928331097647472e-02,3.199584187164381671e-02,3.929148194804579081e-02,-1.865836791694164276e-02,-6.250082823042109326e-02,2.171993726125857546e-02,1.086548198581237940e-02,2.044761205088784298e-02,1.585247966860677156e-03,-2.873322598062422184e-02,0.000000000000000000e+00,0.000000000000000000e+00,0.000000000000000000e+00,5.318784564002103643e-01,0.000000000000000000e+00
2.548045000000000115e+00,9.813570780819046158e-02,8.356247990165192874e-02,8.338270187377929688e-01,9.549695819934825303e-03,-1.302808553968270999e-02,-1.045397294296179780e-02,4.472295124331444188e-02,4.675607274660235207e-02,-2.058559842407703400e-02,-9.102015842482140396e-05,9.446932317591735795e-03,-2.425545332781065683e-02,2.866833265083162247e-02,1.591620420036740299e-02,-2.935058329527601151e-02,0.000000000000000000e+00,0.000000000000000000e+00,0.000000000000000000e+00,5.321754943696181961e-01,0.000000000000000000e+00
2.574807999999999986e+00,9.961356372725449493e-02,8.516121074953512948e-02,8.323832750320434570e-01,9.506357385872347965e-03,-1.265089483073245091e-02,-1.080942141936547252e-02,2.913526169809225325e-02,3.604718151859803016e-02,-1.415598858147859573e-02,-1.067272772320394282e-02,-4.801324611341827031e-03,-2.723262293311516993e-02,1.702469801181418288e-02,2.164970276369499770e-05,-3.026599624338144334e-02,0.000000000000000000e+00,0.000000000000000000e+00,0.000000000000000000e+00,5.318585896140690661e-01,0.000000000000000000e+00
2.597714999999999996e+00,1.005732417900293968e-01,8.622041053265500077e-02,8.313683271408081055e-01,9.689729157737596646e-03,-1.194367199061341367e-02,-1.101025104953601286e-02,4.067544557978369085e-02,4.284709759497234982e-02,-1.309109665453433990e-02,8.879432837138429360e-03,6.391635297081812994e-02,4.702398878143833685e-03,2.708993698584187884e-02,2.185966197591169072e-02,-3.093843109163713079e-02,0.000000000000000000e+00,0.000000000000000000e+00,0.000000000000000000e+00,5.319415034882224447e-01,0.000000000000000000e+00
2.622723999999999833e+00,1.019620532708082339e-01,8.779356399346602280e-02,8.299781680107116699e-01,9.852546198048473675e-03,-1.165337326788185024e-02,-1.129455836880199904e-02,2.514172728183645608e-02,3.683126451628340736e-02,-3.284657839685678482e-03,3.101738141027318360e-02,-2.092652813738597045e-02,-2.036109287902144321e-02,1.892844744523477368e-02,5.821973129277803125e-03,-3.165287112603892838e-02,0.000000000000000000e+00,0.000000000000000000e+00,0.000000000000000000e+00,5.313762035938520700e-01,0.000000000000000000e+00
2.649716999999999878e+00,1.028793776009552796e-01,8.883801799640210495e-02,8.291248679161071777e-01,9.747962711021259871e-03,-1.137042691695144825e-02,-1.141673515530805538e-02,3.474378761380934183e-02,4.378421826507257475e-02,-7.832035422325134277e-03,-5.705419622657231793e-02,1.452227509780459717e-02,-9.871024173097025373e-03,2.927492956760500281e-02,2.290150357086126465e-02,-3.208438983631589636e-02,0.000000000000000000e+00,0.000000000000000000e+00,0.000000000000000000e+00,5.318508777731784098e-01,0.000000000000000000e+00
2.673262999999999945e+00,1.035122984078294811e-01,9.047157000437380803e-02,8.280021548271179199e-01,9.882278999651782775e-03,-1.171546554264857321e-02,-1.151198213627502298e-02,2.895320469259083165e-02,4.182225494563448359e-02,-2.989051863551139832e-03,1.397785051092807068e-02,-2.083061192908062034e-02,1.232218875330119180e-02,2.522179998976799287e-02,1.232632399009759086e-02,-3.229591639897622102e-02,0.000000000000000000e+00,0.000000000000000000e+00,0.000000000000000000e+00,5.316362831112017018e-01,0.000000000000000000e+00
2.697017999999999915e+00,1.039200309872649886e-01,9.154682004102449033e-02,8.273358345031738281e-01,1.024790771852311481e-02,-1.188385752031906328e-02,-1.184996411073346856e-02,2.722595909402699896e-02,3.958284929452371426e-02,5.430189892649650574e-03,2.153157996621490877e-02,-5.028778246818119135e-02,-3.943276944352411967e-02,2.233389796699850743e-02,1.208618806702339843e-02,-3.324172629914923238e-02,0.000000000000000000e+00,0.000000000000000000e+00,0.000000000000000000e+00,5.311349846929359630e-01,0.000000000000000000e+00
2.722482999999999986e+00,1.043164588535056697e-01,9.259060650235588497e-02,8.267751932144165039e-01,1.070272723836621434e-02,-1.200643743288742904e-02,-1.208870684261231787e-02,3.484552606509522255e-02,4.476281178019851648e-02,8.995017036795616150e-03,3.599999947037280101e-02,2.318053396564891469e-02,-1.416475552248061716e-02,2.614637546688418704e-02,1.968012499535742865e-02,-3.395545088515478094e-02,0.000000000000000000e+00,0.000000000000000000e+00,0.000000000000000000e+00,5.309881816402296506e-01,0.000000000000000000e+00
2.748387999999999831e+00,1.048985081328949881e-01,9.415697451629718995e-02,8.259844779968261719e-01,1.126312235367934664e-02,-1.185223003419788590e-02,-1.244747627617237562e-02,1.993532037261448731e-02,4.000563579172836809e-02,1.421835180371999741e-02,4.546178302088434847e-02,2.567025399966327628e-02,-8.444825165262171557e-03,1.712188101297798526e-02,4.101900354254660666e-03,-3.487542343528676758e-02,0.000000000000000000e+00,0.000000000000000000e+00,0.000000000000000000e+00,5.307086297941334685e-01,0.000000000000000000e+00
2.773702999999999808e+00,1.058750365277919270e-01,9.463994706219573672e-02,8.253866434097290039e-01,1.155633627323090704e-02,-1.170935511219250991e-02,-1.281504189708404517e-02,3.534585797354478781e-02,4.434789891869805878e-02,5.732732824981212616e-03,-2.830989772600178700e-02,2.479324957136335578e-02,-2.476166230124613593e-02,2.160683517562895367e-02,2.568923336593601295e-02,-3.602743447595352366e-02,0.000000000000000000e+00,0.000000000000000000e+00,0.000000000000000000e+00,5.314496778436251789e-01,0.000000000000000000e+00
