timestamp,x,y,z,roll,pitch,yaw,vx,vy,vz,p,q,r,psp,qsp,rsp,pres,qres,rres,thrust_sp, thrust_res
0.000000000000000000e+00,3.688246533247765014e-03,3.070367007701371286e-03,9.817866086959838867e-01,2.564102977689783694e-02,-3.093221551187408380e-03,-4.275787802954623441e-03,-6.959480073114288588e-03,-2.590891557542809864e-02,1.452856510877609253e-02,1.128932148974004859e-02,-6.306301061995189632e-03,1.417437128157653103e-02,-3.142383337020874245e-01,1.049151095887738694e-01,-1.874952077648435467e-01,-2.142383337020873912e-01,1.284262418746948131e-01,-1.756383419036865179e-01,5.018524735152055660e-01,-5.490247607231140137e-01,5.104378461837768555e-01,-1.041273523403209822e+01,2.347386598587036244e-01
2.634999999999999842e-02,3.532219139713311303e-03,1.481999862564032039e-03,9.818087220191955566e-01,2.572782009843821091e-02,-3.235160163229000574e-03,-4.532899098646616005e-03,1.708239194466226176e-03,-1.372014800682041548e-02,7.756793871521949768e-03,1.050256042400395280e-02,2.579378173491843340e-02,-2.777398160042304082e-02,-3.235791802406310924e-01,1.647040601322477815e-01,1.964779676415422116e-01,-2.235791802406310869e-01,1.812607347965240479e-01,2.090816259384155329e-01,5.046677385397099203e-01,-4.280604124069213867e-01,3.372284173965454102e-01,1.236540725829910059e+02,1.518632173538208008e-01
4.751600000000000268e-02,3.442327030387294044e-03,4.600027896850426628e-04,9.817417263984680176e-01,2.540577926810385842e-02,-2.940934640974113279e-03,-4.246624831074904266e-03,-3.546246980193336947e-03,-2.265433665214909575e-02,7.609299384057521820e-03,-4.211427227522402533e-02,7.030690864766405215e-03,3.906592985891008812e-02,-3.103024065494537354e-01,-1.571093347915919480e-01,1.743760527091065826e-01,-2.103024065494537298e-01,-1.369462251663207952e-01,1.861667454242706132e-01,5.064483368897055859e-01,-3.354932069778442383e-01,-1.347254514694213867e-01,8.706907953916648069e+01,1.518632173538208008e-01
7.445899999999999741e-02,3.322506984648130636e-03,-4.683089994350854890e-04,9.816929697990417480e-01,2.459539197826942497e-02,-2.808407918115207735e-03,-4.871626392009673415e-03,-3.538502854847444794e-03,-2.001734009078858650e-02,2.738539129495620728e-03,-5.757910040376972710e-02,1.492373929788330320e-02,-5.956344961582490244e-02,-3.151235163211822399e-01,-1.020872601113457512e-01,1.308861809981494082e-02,-2.151235163211822343e-01,-8.346898555755614957e-02,2.663846611976623466e-02,5.049209199639250745e-01,-4.363262653350830078e-01,1.062968969345092773e-01,9.604446037275099002e+01,1.518632173538208008e-01
9.960399999999999809e-02,3.012364001309302940e-03,-1.677410438128139076e-03,9.812207818031311035e-01,2.013879706561869445e-02,-3.883950110926459587e-03,-6.843539015018148229e-03,1.777653688415840091e-03,-1.373395014998595592e-02,-1.267118006944656372e-02,-1.994859027912458949e-01,-3.115153898066870541e-02,-5.861434301670413738e-02,-3.094809889793396218e-01,-1.749243372056583645e-01,-4.261453974438121628e-02,-2.094809889793395885e-01,-1.533726096153259222e-01,-2.353967428207397530e-02,5.073868617559733618e-01,-3.703343868255615234e-01,-2.135926485061645508e-01,-1.122745471238320469e+01,1.518632173538208008e-01
1.241280000000000022e-01,2.845595159817392635e-03,-2.292578493754878106e-03,9.806950092315673828e-01,1.547840408500157985e-02,-3.951933402655649630e-03,-8.379687063891926718e-03,-9.993331349051092546e-04,-1.357159112111030672e-02,-2.182800136506557465e-02,-2.701833060462670022e-01,1.053773679001100000e-02,-7.344258970294798017e-02,-3.135685503482818492e-01,-1.466271887889227243e-01,-1.165255156006033688e-01,-2.135685503482818437e-01,-1.215624332427978488e-01,-9.313738346099853516e-02,5.070126047769376587e-01,-4.304440021514892578e-01,3.920434713363647461e-01,4.684835972467125487e+01,1.518632173538208008e-01
1.476949999999999930e-01,2.655138633257173725e-03,-3.040552657586462031e-03,9.793511033058166504e-01,6.545302609795300430e-03,-2.121091494563742685e-03,-9.123020323505762891e-03,6.627033050167248016e-03,3.656735734688755079e-03,-3.968140855431556702e-02,-3.145394992594341965e-01,9.418707827662384235e-02,5.924296790011097892e-04,-1.853826112949588656e-01,9.312644380708093306e-02,-9.565476823180692201e-02,-1.455267190933227373e-01,9.989622831344603660e-02,-7.012048959732054831e-02,5.126679125227109335e-01,-2.088137865066528320e-01,-5.891463756561279297e-01,4.519127386975612382e+01,1.518632173538208008e-01
1.729030000000000011e-01,2.592764702137982744e-03,-3.622556690863907615e-03,9.783049821853637695e-01,1.973394512173680642e-04,1.179025854489701430e-04,-9.149921336637683103e-03,1.061408689596083808e-03,-1.090311441157755133e-03,-4.256639257073402405e-02,-3.208946834934213732e-01,1.169471222067807042e-01,5.387405062341313160e-03,-6.821882901856887726e-02,1.627801625945377861e-01,-2.130273535789685424e-01,-6.290232539176940363e-02,1.604327917098999079e-01,-1.874078035354614091e-01,5.083127385204273541e-01,-4.591631293296813965e-01,-2.280834913253784180e-01,-1.354393864109295862e+02,1.518632173538208008e-01
1.977970000000000006e-01,2.592805668816423360e-03,-4.591149038365791545e-03,9.766620397567749023e-01,-9.344833159502557302e-03,4.272343674054823737e-03,-8.105300360828611092e-03,7.432837835212316273e-03,1.435725806659928806e-02,-4.709693044424057007e-02,-3.279993561515981426e-01,1.030072365311188870e-01,6.386689480185391010e-02,2.615549090410301813e-01,2.460980026764651440e-01,-2.301370657381638651e-01,1.924637675285339189e-01,2.108226299285888561e-01,-2.075035929679870661e-01,5.074624318319682637e-01,-5.321354866027832031e-01,9.490740299224853516e-02,8.853730383334159626e+01,1.518632173538208008e-01
2.264950000000000019e-01,2.465815068499362973e-03,-5.263148956509928166e-03,9.749830961227416992e-01,-1.650551013273506354e-02,5.091161906072061427e-03,-6.051311856783460341e-03,-1.119917530674025170e-02,1.271399117522903528e-02,-4.494538158178329468e-02,-1.482566226168576529e-01,-3.707966763347524813e-02,9.489891581228919459e-02,3.012463569641113392e-01,2.235327067310847737e-01,-2.394529531805302536e-01,2.012463569641113337e-01,1.986914634704589899e-01,-2.225941658020019476e-01,5.066123486599192205e-01,-5.787319540977478027e-01,4.607168436050415039e-01,6.611050746719895699e+01,1.638611555099487305e-01
2.483029999999999959e-01,2.306562112970977907e-03,-5.590636303202508629e-03,9.739186763763427734e-01,-1.911037997386535320e-02,3.037861912426054189e-03,-3.961482447318860449e-03,-7.475815274414614534e-03,2.128346374331855154e-02,-5.100419744849205017e-02,-1.370467432063002255e-01,-1.261587855141967363e-01,1.087252023420972741e-01,2.992120265960693248e-01,-1.772523106644179614e-01,-2.377090779661172326e-01,1.992120265960693193e-01,-1.942430734634399414e-01,-2.266806721687316672e-01,5.046576748151894165e-01,-7.139219641685485840e-01,7.436954975128173828e-02,1.446232314481720493e+02,1.638611555099487305e-01
2.729579999999999784e-01,2.036135308621832198e-03,-5.865341824227795001e-03,9.729415178298950195e-01,-1.838284217709694468e-02,-8.788789373310734732e-04,-1.611994514375564118e-03,-6.380469918561286653e-03,1.777056097192501044e-02,-4.302253946661949158e-02,1.055243388211626332e-01,-2.230069710589230314e-01,1.154491422651923449e-01,2.532399654388427512e-01,-1.502507088720793083e-01,-1.907562416725512855e-01,1.532399654388427734e-01,-1.418868541717529241e-01,-1.862115740776061901e-01,5.209244920899177567e-01,1.783727407455444336e-01,2.235805988311767578e-02,2.963457546894661832e+01,1.638611555099487305e-01
2.989240000000000230e-01,1.681617183986547403e-03,-7.230914552711550751e-03,9.715942144393920898e-01,-1.316157970710018187e-02,-7.852018687243722539e-03,2.050156762036578831e-03,-8.801455176633761132e-03,2.723348389357719765e-02,-4.419351741671562195e-02,1.910545350198247505e-01,-1.946374930493461330e-01,1.159811467978074662e-01,2.746748448287720801e-01,-1.698227094701725282e-01,-1.902757563770503257e-01,1.747453093528747448e-01,-1.137660741806030273e-01,-1.958839416503906083e-01,5.206703620889904238e-01,1.510325670242309570e-01,-2.288907766342163086e-01,6.728946129719298064e+00,1.638611555099487305e-01
3.232169999999999765e-01,1.491294376959394034e-03,-7.966548153160760495e-03,9.705513715744018555e-01,-8.492797019094925140e-03,-1.029648654568293686e-02,4.534397853508768776e-03,-2.760556180361509095e-03,2.589499050222169099e-02,-5.455287918448448181e-02,2.610033655755816251e-01,-1.002181140582916602e-01,1.121601192018230608e-01,1.981045658713449231e-01,-1.437061461574042354e-01,-1.799518592443515863e-01,1.314216613769531306e-01,-7.677998542785643976e-02,-1.925511360168457031e-01,5.218553934588718857e-01,1.658649444580078125e-01,6.407307386398315430e-01,-2.191632168795422331e+01,1.638611555099487305e-01
3.481110000000000038e-01,1.401134134749979247e-03,-8.783827413987506730e-03,9.688622951507568359e-01,-1.562392885684337840e-03,-9.597110207570480611e-03,7.913949408288292048e-03,-6.953687643809752100e-04,3.577671334633913958e-02,-5.798029899597167969e-02,1.953384194862612666e-01,9.516348614375716441e-02,1.325779111364731033e-01,-1.675098815553996978e-01,-8.429473987238909893e-02,7.275464527216979338e-02,-1.966776788234710638e-01,-2.273547649383544922e-02,5.057753920555114330e-02,5.199238811615891631e-01,3.681015968322753906e-02,-7.753014564514160156e-03,7.842884242777616066e+01,1.638611555099487305e-01
3.730280000000000262e-01,1.379847702260436019e-03,-9.167798315196953179e-03,9.676690697669982910e-01,3.572301986354262972e-03,-7.337028853096505543e-03,9.939718256288598147e-03,6.437788776119068813e-04,4.027316252097998261e-02,-6.239727512001991272e-02,2.671704276094219455e-01,1.445733850941434973e-01,1.013411115332556456e-01,-2.049038620183470383e-01,-3.988468578743422505e-02,1.118515539696147004e-01,-2.026656210422515814e-01,6.119960546493529926e-03,8.395285606384277066e-02,5.168966981271684302e-01,-1.530259847640991211e-01,-1.863988637924194336e-01,7.682516182198136789e+01,1.638611555099487305e-01
3.975360000000000005e-01,1.675259137361961555e-03,-9.294057888401296638e-03,9.659338593482971191e-01,1.076633080577236307e-02,-2.755160896139141613e-03,1.236005683992217469e-02,4.303101237295555749e-03,3.684130687181357694e-02,-6.306703388690948486e-02,1.690673420350543021e-01,1.619071583099714329e-01,5.527635633623712019e-02,-2.575636729587620355e-01,2.759244898104120519e-02,2.230489371790942699e-01,-2.052443861961364691e-01,4.078071713447570940e-02,1.884022772312164140e-01,5.177748319318539183e-01,-1.201732754707336426e-01,-1.621568202972412109e-02,8.827858992795985671e+01,1.638611555099487305e-01
4.261150000000000215e-01,2.079630150042774493e-03,-9.091445198440266037e-03,9.640531539916992188e-01,1.359804757722750911e-02,1.919420278961858628e-03,1.195878585741024652e-02,1.091133864880501625e-02,5.477412473595272974e-02,-6.966046988964080811e-02,2.504903154394579404e-02,1.343976671823371438e-01,-3.655724958319330614e-02,-2.693132968344953415e-01,1.762448848688456526e-01,2.448589192577913243e-01,-2.134612262248992975e-01,1.539217650890350175e-01,2.114631593227386530e-01,5.172795031316266279e-01,-1.857244968414306641e-01,-2.014719247817993164e-01,7.103823623636387197e+01,1.638611555099487305e-01
4.490730000000000000e-01,2.334031824957940367e-03,-8.730796351955160198e-03,9.627566337585449219e-01,1.248688354057973793e-02,4.439328947096976563e-03,1.070522838706857403e-02,5.186720722325090065e-03,5.383709746901600007e-02,-7.299377024173736572e-02,-9.468385727530496954e-02,6.856156594547606342e-02,-5.350349048475013664e-02,-2.384240477417081117e-01,1.906987380610413729e-01,-1.218788676388610215e-02,-1.869166910648345781e-01,1.573653459548950140e-01,-4.204058647155761719e-02,5.150401159044772914e-01,-3.295870423316955566e-01,-1.233333349227905273e-01,7.935382762631431319e+01,1.638611555099487305e-01
4.755280000000000062e-01,2.623844386065255895e-03,-8.249073266528688872e-03,9.613469243049621582e-01,9.180181733186668427e-03,5.850170764886142294e-03,8.999944716096974426e-03,7.463684681500380160e-04,6.959586211510689069e-02,-8.185058087110519409e-02,-1.975315024637481209e-01,7.698085130369586304e-02,-8.951406760087719794e-02,-1.711287002959309689e-01,1.666133660899581093e-01,-2.340646124488608704e-02,-1.540547132492065263e-01,1.266103506088256669e-01,-4.847134351730346402e-02,5.190533274385122908e-01,-1.608138084411621094e-01,3.433328866958618164e-01,1.204663549954543527e+02,1.638611555099487305e-01
4.979819999999999802e-01,2.595655394394924369e-03,-6.399241303553977918e-03,9.590827822685241699e-01,2.094427022430382472e-03,4.643240009155613635e-03,7.008154447393568319e-03,4.294875404197429081e-04,7.414504739824531732e-02,-8.191870898008346558e-02,-2.645688970031156440e-01,-1.094141418865680060e-01,-1.293395967721605415e-02,-7.027233530866494604e-02,9.092695153950045017e-02,-1.840818123569093467e-01,-1.018656134605407659e-01,5.853706598281860352e-02,-2.036418199539184459e-01,5.123519937958379566e-01,-5.354210734367370605e-01,-1.177738904953002930e-01,9.575766755969132760e+01,2.211908102035522461e-01
5.249880000000000102e-01,2.481445107633149447e-03,-5.020302723200533238e-03,9.575427770614624023e-01,-3.075624980710103297e-03,1.940791194924518237e-03,6.737510283201306530e-03,-8.078664038583658127e-03,7.845208982795769115e-02,-8.605874329805374146e-02,-2.273905468592370971e-01,-1.452577031537777286e-01,-2.398238124169285983e-03,1.126492361774941164e-01,3.485935229233479149e-02,-1.917376830196983184e-01,4.370008707046508373e-02,2.676708698272705148e-02,-2.105951070785522516e-01,5.122521978041476576e-01,-5.696856379508972168e-01,-1.342240571975708008e-01,-6.650731499099366673e+00,2.211908102035522461e-01
5.510180000000000078e-01,2.192560763437129134e-03,-2.704223875306752817e-03,9.552307128906250000e-01,-1.014220291355725362e-02,-3.785512692474846119e-03,7.998239213909670228e-03,-1.318560425279441959e-03,8.738685592000013103e-02,-8.729367703199386597e-02,-2.275637823024252993e-01,-2.027669604224230648e-01,8.456046026156727180e-02,2.987124919891357422e-01,-1.230740080071653086e-01,-2.013479368971402284e-01,1.987124919891357366e-01,-1.002789258956909152e-01,-2.237360715866088812e-01,5.104579538386285753e-01,-6.860249638557434082e-01,-9.783422946929931641e-02,9.441472259527259325e+01,2.211908102035522461e-01
5.729779999999999873e-01,1.979713401337899678e-03,-1.020362888219362345e-03,9.538036584854125977e-01,-1.311877204939718156e-02,-7.192803976839190483e-03,9.449691040147241081e-03,-1.093604786283266378e-02,9.115361415199960127e-02,-7.807978242635726929e-02,-1.025264406237845066e-01,-1.779687331808311457e-01,5.469373805328315435e-02,3.072784662246704213e-01,-2.473282077381976363e-01,-2.002835220060700527e-01,2.072784662246704157e-01,-1.937760114669799805e-01,-2.266974091529846136e-01,5.091292514897414190e-01,-7.321563363075256348e-01,3.887821435928344727e-01,1.603995614119324955e+02,2.211908102035522461e-01
5.974129999999999718e-01,1.582861607780378837e-03,1.240850474320278523e-03,9.517659544944763184e-01,-1.441631988593229316e-02,-1.096436833321856597e-02,1.225842660264723008e-02,1.244364762036791932e-03,9.767044766755848817e-02,-7.939126342535018921e-02,2.931189118401330250e-03,-1.050724252088242189e-01,9.372644378665682952e-02,3.114640712738037109e-01,-1.996123077611659247e-01,-1.915422667483563657e-01,2.114640712738037054e-01,-1.323159456253051591e-01,-2.258035182952880804e-01,5.135563196662946694e-01,-5.161848664283752441e-01,-1.932513713836669922e-02,8.883279147721468405e+01,2.211908102035522461e-01
6.224490000000000300e-01,1.330832759540526503e-03,2.697669575355071073e-03,9.505158066749572754e-01,-1.222663920490365055e-02,-1.169096213153730801e-02,1.438796616930614579e-02,-1.145345097745398451e-02,1.013523561327341754e-01,-7.832907885313034058e-02,1.711759299666523459e-01,1.459599326690475853e-02,1.069568133604896221e-01,1.894645452499389704e-01,8.392187790572694372e-02,1.413121104930169514e-01,8.946454524993896484e-02,1.676232576370239313e-01,1.010545849800109780e-01,5.216805746175192660e-01,-8.669632673263549805e-02,-1.613208055496215820e-01,9.103427755992568393e+01,2.211908102035522461e-01
6.506889999999999619e-01,1.058015996155509033e-03,5.029545109101893167e-03,9.486088156700134277e-01,-5.986937149499548493e-03,-9.323717607569337318e-03,1.755211259211432451e-02,4.932221745408735258e-03,1.001744933772482499e-01,-7.938154786825180054e-02,2.467607300642078727e-01,1.311155599419191187e-01,1.021991463367072361e-01,-4.206795692443845991e-02,7.222035087526545993e-02,2.179358477514105330e-01,-1.420679569244384655e-01,1.258186340332031194e-01,1.687354087829589788e-01,5.180601918309070131e-01,-3.002011775970458984e-01,-5.660068988800048828e-02,1.035668892151445277e+02,2.576882600784301536e-01
6.724339999999999762e-01,9.536066655323475116e-04,6.682403946097013187e-03,9.472720026969909668e-01,-6.343225968899045709e-04,-6.449468880473263610e-03,1.848503289872974881e-02,2.433504419622499471e-03,1.093707462502372385e-01,-8.707393705844879150e-02,2.562861287144294620e-01,1.601082955007758490e-01,1.949708297727687639e-02,-5.529364212523210642e-02,1.017735582338626932e-01,2.334027438028126178e-01,-1.374350845813751276e-01,1.407176971435546708e-01,1.815475523471832275e-01,5.186128168916470660e-01,-3.133870959281921387e-01,5.171004533767700195e-01,9.915673169071568793e+01,2.576882600784301536e-01
7.001079999999999526e-01,1.446460735017055790e-03,8.613257157252611138e-03,9.452142715454101562e-01,7.472993364126483129e-03,-4.187457049579679236e-03,1.763871282891460446e-02,3.169388085023497337e-03,1.032109977934300149e-01,-7.953656464815139771e-02,2.662514324817656375e-01,2.375133308692179562e-02,-5.522180837224074240e-02,6.535512112789353123e-02,1.789971028144733411e-01,2.084111769773498712e-01,4.033466577529907365e-02,2.019083261489868220e-01,1.589274644851684515e-01,5.240429724110691190e-01,-4.786729812622070312e-03,-8.101522922515869141e-02,6.280367138053728837e+01,2.576882600784301536e-01
7.235169999999999657e-01,1.916532067141425537e-03,9.892312128752911438e-03,9.438095688819885254e-01,1.108776820724617640e-02,-3.991466788552111566e-03,1.600262092808440312e-02,-3.914204293204268277e-03,1.202636584582578716e-01,-9.119595587253570557e-02,1.561416206913295301e-01,-2.633741104518927574e-03,-9.471438358211715924e-02,1.276091966611142825e-01,1.710631260610821214e-01,2.397946219553639124e-01,1.109102010726928655e-01,1.978729784488677812e-01,1.948406517505645585e-01,5.246995120654494027e-01,-2.864503860473632812e-02,4.763138294219970703e-02,1.186247720706788300e+02,2.576882600784301536e-01
7.483499999999999597e-01,2.582830130105857880e-03,1.202404253494151858e-02,9.416287541389465332e-01,1.399400419785456692e-02,-5.476075998938956246e-03,1.291330550551297515e-02,-2.571557041811048903e-03,1.167335886938031392e-01,-9.021223336458206177e-02,7.206677594439220291e-02,-1.085775089717019859e-01,-1.045923256058365752e-01,1.869543614775098228e-01,1.457294231000303697e-01,2.009797718517670681e-02,1.926547408103942705e-01,1.799889743328094427e-01,-1.626248359680175851e-02,5.244896320041730897e-01,-5.207151174545288086e-02,-1.600166559219360352e-01,9.401091498135227198e+01,2.576882600784301536e-01
7.729899999999999549e-01,2.965104312148767862e-03,1.356704859543122164e-02,9.402409195899963379e-01,1.547108778502653652e-02,-7.414286779484413614e-03,1.066175545618070798e-02,-6.120611389285819486e-03,1.190266316740956343e-01,-9.477191418409347534e-02,8.282671626537492504e-02,-9.868724241475938797e-02,-1.141468342713903295e-01,1.740027668586789922e-01,1.263684935047663938e-01,-2.012732299526937690e-02,1.857696533203125056e-01,1.760861456394195446e-01,-5.029510259628295482e-02,5.257534195034734292e-01,-1.472878456115722656e-02,-1.324726343154907227e-01,9.191141728332789285e+01,2.576882600784301536e-01
7.974409999999999554e-01,3.424214140440429762e-03,1.618792547033993251e-02,9.382332563400268555e-01,1.852050158122571510e-02,-1.152668411508295243e-02,8.167134155277212468e-03,-3.214988265905366956e-03,1.202351168816629817e-01,-8.862238377332687378e-02,1.169850963887584666e-01,-1.441558223096215952e-01,-6.052128120803156736e-02,1.852663426182198370e-01,1.259381396049913948e-01,-1.241360208245593511e-01,2.141875505447387584e-01,1.995324432849883978e-01,-1.475231409072876032e-01,5.234808124155758691e-01,-1.294389367103576660e-01,2.546175718307495117e-01,9.154897329502117032e+01,2.576882600784301536e-01
8.258839999999999515e-01,3.702896258504248615e-03,1.897234692077601897e-02,9.364466071128845215e-01,2.306284247421669722e-02,-1.614644215302440955e-02,7.385580960310777175e-03,-2.246457418449463242e-02,1.225971966351193654e-01,-8.573416620492935181e-02,1.810605924893127772e-01,-1.490068972596532149e-01,-1.241256366790068934e-02,1.584365141700958268e-01,1.008306145668029785e-01,-1.796060434643783621e-01,2.130080938339233287e-01,2.008306145668029841e-01,-2.012539386749267467e-01,5.206398704999607441e-01,-2.864880561828613281e-01,3.720718622207641602e-01,9.594657693175554414e+01,2.576882600784301536e-01
8.496029999999999971e-01,3.762167015524508183e-03,1.991182685807263431e-02,9.358654618263244629e-01,2.468291977489616915e-02,-1.785546828048678591e-02,7.551220908282903731e-03,-1.858870823537588785e-02,1.171438403700198888e-01,-8.225306868553161621e-02,1.819126974006131103e-01,-1.676313934354600188e-01,2.253306416956086383e-02,1.438701738619923010e-01,9.942921400070189875e-02,-1.819314612873398906e-01,2.125114202499389648e-01,1.994292140007019043e-01,-2.041157484054565430e-01,5.189371832982893062e-01,-3.740076422691345215e-01,-3.552199602127075195e-01,1.262074705023085670e+02,2.576882600784301536e-01
8.757709999999999662e-01,3.774739780192935476e-03,2.273219947722750212e-02,9.343842267990112305e-01,3.055605636300517611e-02,-2.244803699421793475e-02,8.563686244070540729e-03,-1.479925594122591045e-02,1.223217126321227838e-01,-8.531216531991958618e-02,1.797416498828619535e-01,-1.240150512317888670e-01,3.253512850715008925e-02,1.047094821929931419e-01,-9.553970098495484509e-02,-1.482329323503623619e-01,2.047094821929931474e-01,4.460299015045165669e-03,-1.737065076828002985e-01,5.163427495062392625e-01,-5.392380356788635254e-01,-3.049024343490600586e-01,9.224804315657196696e+01,2.576882600784301536e-01
8.981639999999999624e-01,3.755865710542524282e-03,2.568453484450016616e-02,9.330882430076599121e-01,3.686177704299662544e-02,-2.632453567890546964e-02,1.059923886570335490e-02,-2.777033097764095015e-02,1.042846978899556604e-01,-7.407303899526596069e-02,1.883313939967477535e-01,-1.500948042898820334e-01,9.808369817261702872e-02,-1.027675032615661677e-01,-2.877862453460693359e-01,4.740486896388271254e-02,-2.767503261566162109e-03,-1.877862453460693304e-01,1.570286750793456823e-02,5.165249260101961726e-01,-4.967926144599914551e-01,-2.654806375503540039e-01,9.845555813090051345e+01,2.576882600784301536e-01
9.249979999999999869e-01,3.817417176125839640e-03,2.780071545178994935e-02,9.322991967201232910e-01,4.120858636667645153e-02,-2.798133421017001687e-02,1.198306790078462573e-02,-2.681605549730046653e-02,1.165190243548946680e-01,-6.798746436834335327e-02,2.099378594372430240e-01,-5.160428990654112452e-02,4.057855867378356435e-02,-2.672661840915679932e-01,-2.941896080970763938e-01,2.450559551043515472e-01,-1.672661840915679876e-01,-1.941896080970764160e-01,2.091204464435577337e-01,5.126243876628701068e-01,-6.919215321540832520e-01,7.560435533523559570e-01,-2.973465652330752107e+00,2.576882600784301536e-01
9.503650000000000153e-01,3.886219223379524731e-03,3.088043280915690400e-02,9.309751391410827637e-01,4.624186948652114770e-02,-2.784992986326795261e-02,1.315032300025772635e-02,-2.668167326290914187e-02,1.005011506708150260e-01,-7.427868247032165527e-02,1.222694326154731004e-01,4.837126252668772636e-02,-2.914072726224879034e-03,-3.188079595565795898e-01,-5.183986425399780829e-02,2.611630383417973822e-01,-2.188079595565795843e-01,4.816013574600219727e-02,2.218380868434906006e-01,5.133837619047660894e-01,-6.881394982337951660e-01,-2.307635545730590820e-01,9.406431340028342447e+01,2.576882600784301536e-01
9.744460000000000344e-01,4.002201224532289832e-03,3.292561438576719485e-02,9.299983978271484375e-01,4.713317528970872167e-02,-2.470802990431808510e-02,1.277792267481335682e-02,-2.438335900080480789e-02,1.056892138832613987e-01,-8.018612116575241089e-02,1.445237758247816355e-02,2.044324635347384844e-01,-4.340279922365397614e-02,-3.192695856094360241e-01,-3.417551517486586143e-03,2.441317021079328076e-01,-2.192695856094360185e-01,9.658244848251341941e-02,2.060572743415832464e-01,5.193389678287461120e-01,-4.036233425140380859e-01,-1.932865381240844727e-01,1.114028647215766767e+02,2.576882600784301536e-01
9.991449999999999498e-01,4.074493875459702340e-03,3.603174918209714472e-02,9.281640052795410156e-01,4.437137010789828778e-02,-1.719854780426222085e-02,1.005927216707936007e-02,-1.848729422287775578e-02,1.081204467694343863e-01,-1.012722179293632507e-01,-1.335032324755255073e-01,2.458605229706652961e-01,-1.193281318615963121e-01,-3.210233032703399547e-01,-1.346478819847106989e-01,2.141002090884257247e-01,-2.210233032703399492e-01,-3.464788198471069336e-02,1.843995094299316351e-01,5.204626493788305774e-01,-4.423217177391052246e-01,-1.098912954330444336e-01,9.971003848518924428e+01,2.576882600784301536e-01
1.023916000000000048e+00,3.906175733690879764e-03,3.801557521578186744e-02,9.269355535507202148e-01,4.023890524558240006e-02,-1.279232631115223562e-02,7.805220055341381517e-03,-2.888751689774923803e-02,1.050867760757473734e-01,-9.956555068492889404e-02,-2.338573082115875112e-01,1.806928230919093992e-01,-1.131158742436577658e-01,-3.221030533313751221e-01,-7.235824511547916948e-02,1.734087488527861209e-01,-2.221030533313751165e-01,2.751735448837280135e-02,1.503600776195526123e-01,5.181090746845513628e-01,-5.759075880050659180e-01,2.425786256790161133e-01,8.758265512323808366e+01,2.576882600784301536e-01
1.050511999999999890e+00,3.437270231659490284e-03,4.105119999737081443e-02,9.249354004859924316e-01,3.263161254497203706e-02,-9.044395193965604207e-03,4.380700977071579419e-03,-2.076393345095992049e-02,1.093712713327023162e-01,-1.080750972032546997e-01,-2.569332242554793755e-01,9.054873809643869398e-02,-1.199117805885067528e-01,-3.215785562992096169e-01,7.302793179095048992e-02,9.819732882913445593e-02,-2.215785562992095836e-01,1.416505694389343095e-01,8.521074056625366211e-02,5.190792700070607779e-01,-5.745640397071838379e-01,1.107066869735717773e-01,9.194871694638533199e+01,2.576882600784301536e-01
1.076948999999999934e+00,3.054813413803443740e-03,4.305491498649368504e-02,9.236561059951782227e-01,2.693265395434999918e-02,-7.027105104958630832e-03,2.123024268961292305e-03,-4.018218807695764921e-02,1.070119102863295452e-01,-1.065022870898246765e-01,-2.864439376380841229e-01,8.942819876789531719e-02,-1.095886958962501989e-01,-2.907565079738564373e-01,1.188202370783721928e-01,3.437358374008066264e-02,-2.188303291797637773e-01,1.909844219684600775e-01,2.776293754577636649e-02,5.184751978171217024e-01,-6.151767373085021973e-01,-8.827269077301025391e-02,9.281628074457118771e+01,2.576882600784301536e-01
1.100346000000000046e+00,2.211682496087957143e-03,4.608809604330384863e-02,9.216221570968627930e-01,1.821224561354261445e-02,-4.096972664568765410e-03,-8.250776777035197284e-04,-2.835738512362530328e-02,1.065132100080684735e-01,-1.033812612295150757e-01,-2.819742856824908883e-01,9.350102809477710275e-02,-7.265577420161281608e-02,-2.058340763860126155e-01,1.646937076285714951e-01,-4.184816137714042483e-02,-1.928051412105560303e-01,2.069852292537689153e-01,-3.985118865966796875e-02,5.171265086999532468e-01,-6.924902796745300293e-01,5.584013462066650391e-02,1.862882050079502392e+02,2.576882600784301536e-01
1.125523999999999969e+00,1.252334723109220201e-03,4.813898082283261243e-02,9.203400015830993652e-01,1.235345487082827737e-02,-3.037704488167980443e-03,-2.405700464665211022e-03,-3.483475520862402280e-02,1.138589339697464731e-01,-1.082152053713798523e-01,-2.918229637962903578e-01,3.985826487438887122e-02,-6.875717060336247743e-02,1.040863615099294759e-01,1.704435898012006956e-01,-2.060611851590543053e-01,7.180151939392089011e-02,2.132689654827117920e-01,-1.995981216430663951e-01,5.172040830486487328e-01,-7.222905158996582031e-01,9.364497661590576172e-02,8.930861660574362304e+01,2.576882600784301536e-01
1.150595000000000034e+00,-2.989399380290270309e-04,5.134693770673359053e-02,9.184791445732116699e-01,4.138739078061604709e-03,-3.596439430791686931e-03,-3.272284893634282328e-03,-4.249409371679222641e-02,1.079718868663113729e-01,-1.052835136651992798e-01,-2.733981733774002998e-01,-7.225893624491649958e-02,-9.029688516782030921e-04,2.743882494007650608e-01,1.062757499373502557e-01,-2.308473369344570536e-01,1.918345570564269909e-01,1.587861835956573542e-01,-2.219214677810668890e-01,5.171207368978885111e-01,-7.317954897880554199e-01,-2.245999574661254883e-01,8.262044072895378122e+01,2.576882600784301536e-01
1.172976999999999936e+00,-1.468438734139607257e-03,5.355757556417231613e-02,9.172943830490112305e-01,-7.553164187122327631e-04,-5.493389686721306120e-03,-3.030411844303984581e-03,-4.704784967095445442e-02,1.219768838629299579e-01,-1.008763164281845093e-01,-2.202301739762985988e-01,-1.077281449180936684e-01,1.186722850107882997e-02,3.106049418449401966e-01,-1.565942321006961735e-01,-2.328065918316015726e-01,2.106049418449401911e-01,-8.848940134048462192e-02,-2.245870828628540039e-01,5.172240609046736548e-01,-7.234286665916442871e-01,6.569441556930541992e-01,1.384065845109232100e+02,2.576882600784301536e-01
1.197394999999999987e+00,-3.392016063675512647e-03,5.696679944008683355e-02,9.157853722572326660e-01,-4.139117246266072088e-03,-1.082623243345826047e-02,-8.492987210776243266e-04,-5.173969109286057078e-02,1.115009838987649771e-01,-8.542092144489288330e-02,-3.840747707561224106e-02,-2.341480427038661605e-01,8.826929670336172706e-02,3.114044189453125111e-01,-2.923830151557922363e-01,-2.285585458316563567e-01,2.114044189453125056e-01,-1.923830151557922308e-01,-2.264956712722778209e-01,5.164280376793276561e-01,-7.192481756210327148e-01,-1.153315305709838867e-01,9.084786803709769742e+01,2.576882600784301536e-01
1.224382999999999999e+00,-5.218772485076386171e-03,5.948451264401623251e-02,9.149530529975891113e-01,-2.980170835634482918e-03,-1.460967679233204919e-02,1.053568346109774690e-03,-5.933373371690921910e-02,1.190084429877187738e-01,-8.150271326303482056e-02,1.209293502231078565e-01,-1.516628936709758513e-01,1.034887245486025981e-01,3.233522653579711803e-01,-3.584284782409669079e-02,-2.137593095081295747e-01,2.233522653579711748e-01,6.415715217590331476e-02,-2.171930193901061845e-01,5.164619401229170181e-01,-7.141755819320678711e-01,9.117972850799560547e-02,9.533422998209638877e+01,2.576882600784301536e-01
1.248707000000000011e+00,-7.855709951316292017e-03,6.328255770529425672e-02,9.138830304145812988e-01,2.546534452912159636e-03,-1.710870842731049279e-02,3.959350345465111748e-03,-5.494595544363278100e-02,1.176513965231675701e-01,-7.830682396888732910e-02,2.629984562026214667e-01,1.965041138111727967e-02,8.420352431144055572e-02,3.231122255325317161e-01,1.150044083595275768e-01,-9.606477403074218518e-03,2.231122255325317383e-01,2.150044083595275823e-01,-2.140774726867675573e-02,5.162688615612028853e-01,-7.243546843528747559e-01,5.361163616180419922e-02,9.876939849307342456e+01,2.576882600784301536e-01
1.273276999999999992e+00,-9.478488548153928689e-03,6.585597159063549810e-02,9.131891727447509766e-01,7.222741594021797433e-03,-1.541158537796194494e-02,6.134157935164137425e-03,-5.632540316164693500e-02,1.147598729750752417e-01,-7.633611559867858887e-02,2.456500264415956980e-01,1.270837136150442248e-01,1.433702179886588157e-01,1.744200169599993411e-01,1.211692154407500999e-01,2.403758479671474491e-01,9.515107870101928433e-02,2.211692154407501054e-01,2.223797321319579967e-01,5.184681215732586113e-01,-6.093484163284301758e-01,-2.634195089340209961e-01,1.043283118736283797e+02,2.170643091201782116e-01
1.299137999999999904e+00,-1.196801589414295958e-02,6.973320623738049617e-02,9.122447967529296875e-01,1.653809897953328889e-02,-1.128798217641913126e-02,8.382997393304936901e-03,-5.429104662856928248e-02,1.245951434186704926e-01,-7.524938136339187622e-02,3.683932308065493433e-01,1.264401510848345567e-01,6.591871156725020997e-02,2.079451701553678700e-01,1.218387305736541582e-01,2.459172860694570362e-01,1.783035278320312389e-01,2.218387305736541637e-01,2.215054392814636286e-01,5.176800755193086134e-01,-6.599562764167785645e-01,-3.345476388931274414e-01,7.780850415678810350e+01,2.338830709457397350e-01
1.323177000000000048e+00,-1.335425652626927133e-02,7.255576072124282627e-02,9.116544127464294434e-01,2.334023185666770500e-02,-1.056866654385313353e-02,8.230750695811039214e-03,-6.551495967395191966e-02,1.140613699379779827e-01,-7.406103610992431641e-02,3.210666583937150653e-01,-2.377434837052168001e-02,-1.481952895657725512e-02,1.997055952499509346e-01,1.031626343727111705e-01,-1.433897650252981548e-01,2.213601350784301647e-01,2.031626343727111761e-01,-1.675663590431213379e-01,5.165813151565243899e-01,-7.245280146598815918e-01,1.040446162223815918e+00,-4.488857525366678480e+00,2.338830709457397350e-01
1.347290000000000099e+00,-1.556216737359466563e-02,7.671854132064734322e-02,9.106382131576538086e-01,3.253548791313376487e-02,-1.224755691726464590e-02,5.837848715701061432e-03,-6.094360482881229502e-02,1.268211097712091950e-01,-8.798403292894363403e-02,2.958406691399415589e-01,-8.584479072345599371e-02,-1.068490129523449322e-01,1.545525580295262214e-01,-1.041595697402954157e-01,9.046651942467912044e-04,2.221882581710815374e-01,-4.159569740295410156e-03,-1.695338487625121932e-02,5.179864887760220471e-01,-7.176782488822937012e-01,-5.323613882064819336e-01,9.779893106485216947e+01,2.338830709457397350e-01
1.375788000000000011e+00,-1.793583472355937333e-02,8.091981041949485032e-02,9.096079468727111816e-01,4.040153409472636847e-02,-1.556165578110380032e-02,4.540991013960745185e-03,-7.205188334206988343e-02,1.134746784132655423e-01,-7.704918831586837769e-02,2.329799290052950445e-01,-1.208957655501774336e-01,1.128219348333255653e-03,1.159256935119628851e-01,-2.901964783668518066e-01,-1.285561689790659101e-01,2.159256935119628906e-01,-1.901964783668518011e-01,-1.433926820755004883e-01,5.171901010054102965e-01,-7.294640541076660156e-01,2.066951990127563477e-01,9.909078621427920552e+01,2.338830709457397350e-01
1.399134000000000100e+00,-1.955266071588055571e-02,8.365266436814403073e-02,9.088423848152160645e-01,4.496989260017940360e-02,-1.680673802542109740e-02,4.557947819349927009e-03,-7.462805589964227604e-02,1.231342717121287206e-01,-8.286359906196594238e-02,2.387425615730877915e-01,-2.314136227157915018e-02,-1.380103928575377977e-03,6.987788677215575617e-02,-2.291764378547668513e-01,1.508935023625225802e-01,1.698778867721557617e-01,-1.291764378547668457e-01,1.356510400772094616e-01,5.176416192656487780e-01,-7.406460046768188477e-01,-1.189354658126831055e-01,4.240698482064085795e+01,2.338830709457397350e-01
1.422881000000000062e+00,-2.108944877125366879e-02,8.634938369921080215e-02,9.079815745353698730e-01,4.862442817909352205e-02,-1.684246267127598173e-02,4.767924653686425075e-03,-6.528969327467548656e-02,1.160351539986094194e-01,-9.093726426362991333e-02,1.579160467019401770e-01,7.807706908009398768e-03,3.467374182443277997e-02,-3.177131712436676025e-01,-1.342382192611694391e-01,2.307329127249443945e-01,-2.177131712436675970e-01,-3.423821926116943359e-02,2.148896455764770508e-01,5.186253549933969031e-01,-7.317026257514953613e-01,7.039940357208251953e-02,4.646601256512310840e+01,2.338830709457397350e-01
1.447977000000000070e+00,-2.320734082965321063e-02,9.028365387534273423e-02,9.066838622093200684e-01,5.267299785287089808e-02,-1.266479336008985435e-02,5.486918556665399890e-03,-7.191384196113428939e-02,1.071619580227130691e-01,-8.978470414876937866e-02,1.144453493778172931e-01,1.891880652872977298e-01,6.859769054289207614e-03,-3.189197182655334473e-01,-6.490363478660585161e-02,2.326074421980174056e-01,-2.189197182655334417e-01,3.509636521339416088e-02,2.149321675300598089e-01,5.194734325037921874e-01,-6.957778334617614746e-01,-1.752728223800659180e-01,9.310071714236720197e+01,2.338830709457397350e-01
1.472639999999999949e+00,-2.453176506012494720e-02,9.280710537463537912e-02,9.056257009506225586e-01,5.398118326282101698e-02,-8.400995566736124687e-03,4.754094937213861581e-03,-5.614412497480382458e-02,1.089157015424323111e-01,-9.561664611101150513e-02,9.699564982007092759e-03,2.047128018364632596e-01,-6.304934965360199650e-02,-3.207983374595642090e-01,1.787151694297789417e-02,2.229076291913561492e-01,-2.207983374595642034e-01,1.178715169429778997e-01,2.078699469566345215e-01,5.249495330618059175e-01,-4.360797405242919922e-01,-2.002528905868530273e-01,8.478532382790268684e+01,2.338830709457397350e-01
1.497748000000000079e+00,-2.648369096050764634e-02,9.649067012294514079e-02,9.037353992462158203e-01,5.202482316071899149e-02,-1.933790797248535753e-03,2.054454698074867271e-03,-7.208628703007560756e-02,1.059085775415858910e-01,-1.055819839239120483e-01,-1.236578879551779309e-01,1.870159431344001477e-01,-9.474796595516972453e-02,-3.227914869785308838e-01,-1.796997640340206037e-02,1.969928219271709080e-01,-2.227914869785308782e-01,6.118749976158141535e-02,1.899757325649261419e-01,5.219244428482097131e-01,-6.574550867080688477e-01,-1.392103433609008789e-01,8.594860749639340725e+01,2.338830709457397350e-01
1.524737999999999927e+00,-2.770532704331592211e-02,9.921506578774758056e-02,9.023430347442626953e-01,4.817870227157047824e-02,1.430157072136228891e-03,-1.478043069369948327e-04,-6.637563115757806609e-02,1.038428688455885207e-01,-1.045942902565002441e-01,-2.399232413144826159e-01,1.502675009898947478e-01,-9.743071871742509105e-02,-3.234944939613342285e-01,4.772048162572943564e-02,1.926074931347583619e-01,-2.234944939613342230e-01,9.991064071655272882e-02,1.922304868698120062e-01,5.211490542149774807e-01,-7.110049128532409668e-01,1.751149892807006836e-01,1.026117419012316105e+02,2.338830709457397350e-01
1.549698999999999938e+00,-2.952493989341534175e-02,1.037133555430542614e-01,9.003624916076660156e-01,4.016758690062540577e-02,4.584986928147349872e-03,-3.573771752947802090e-03,-6.334124231472583466e-02,1.105721172441446881e-01,-1.084308475255966187e-01,-2.908093907079523088e-01,9.734373332297971415e-02,-1.126187757998350913e-01,-3.233656227588653786e-01,8.028992768406989500e-02,1.947102587499358883e-01,-2.233656227588653453e-01,1.123529791831970187e-01,2.042805075645446611e-01,5.214536883968101666e-01,-7.284837365150451660e-01,8.671847581863403320e-01,-8.230056930974374296e+00,2.338830709457397350e-01
1.574734000000000078e+00,-3.074677484263360627e-02,1.066102208163111492e-01,8.989748954772949219e-01,3.384524900097590772e-02,5.783951642856166586e-03,-5.861817077023881266e-03,-6.970554113681945441e-02,1.014884682955434630e-01,-1.070111393928527832e-01,-3.441623234679911936e-01,2.365108379637574990e-02,-1.035085585240294592e-01,-2.945851271162107654e-01,1.023291252449304023e-01,1.883442682369209920e-01,-2.213858127593994196e-01,1.331633806228637584e-01,2.043866872787475641e-01,5.217493960952184207e-01,-7.225845456123352051e-01,7.670134305953979492e-01,5.010205693959022710e+01,2.338830709457397350e-01
1.598767000000000049e+00,-3.257298882466443113e-02,1.109434541392603918e-01,8.968727588653564453e-01,2.356903325957660986e-02,6.097954189949961190e-03,-9.167548873498371914e-03,-6.435511333573916415e-02,1.113747126905251655e-01,-1.051919609308242798e-01,-3.339712685430007988e-01,-1.787817305428888656e-02,-1.112427468103456135e-01,-1.634224543279148845e-01,1.384685927896353030e-01,1.800541957320366815e-01,-1.687175273895263616e-01,1.642034053802490234e-01,2.054637372493743896e-01,5.217284007173683680e-01,-7.359669208526611328e-01,5.393565893173217773e-01,8.685612107103466428e+01,2.338830709457397350e-01
1.625007000000000090e+00,-3.390881775068593784e-02,1.138114655321455226e-01,8.954029083251953125e-01,1.636914548809733153e-02,5.285638652352542266e-03,-1.135427376829662577e-02,-6.455324791680691621e-02,1.077042754005021197e-01,-1.110746860504150391e-01,-3.494476230435855646e-01,-8.010246301170410865e-02,-1.046881875721425575e-01,1.268130360673212220e-01,-2.392716863815841019e-02,-1.672214282123150875e-01,7.688841819763182761e-02,9.159493446350096962e-03,-1.357113361358642523e-01,5.225497050493721485e-01,-7.312679886817932129e-01,-3.240716457366943359e-02,9.641389847476780517e+01,2.338830709457397350e-01
1.650198999999999971e+00,-3.610162080765613041e-02,1.181096426309026226e-01,8.932980895042419434e-01,6.534012903741654929e-03,2.632531952125871655e-03,-1.487698560533576471e-02,-6.475728287151462370e-02,1.076899052624912811e-01,-1.064954176545143127e-01,-2.872726842799294134e-01,-9.518754982319395375e-02,-1.200120549622307325e-01,3.057594060897826926e-01,-2.153806685948821964e-01,-2.609662944073729562e-01,2.057594060897827148e-01,-1.629567146301269531e-01,-2.196563243865966852e-01,5.228725772006770356e-01,-7.149844169616699219e-01,2.780474424362182617e-01,9.638086767994163040e+01,2.338830709457397350e-01
1.675386000000000042e+00,-3.761356090532790714e-02,1.210075251412003616e-01,8.919513225555419922e-01,1.483335140214878892e-03,2.835264721978703051e-04,-1.606387391291813974e-02,-5.989011774596339488e-02,1.162719732303687803e-01,-9.778718650341033936e-02,-2.344567287383378384e-01,-1.050622773977148705e-01,-3.772601858087352295e-02,3.153194069862365612e-01,-2.527608919920631969e-01,-2.688536752212488112e-01,2.153194069862365556e-01,-1.873207211494445634e-01,-2.242561697959899736e-01,5.225323820561855737e-01,-7.152208089828491211e-01,-4.693627357482910156e-03,6.128626289414891204e+01,2.338830709457397350e-01
1.700639000000000012e+00,-3.985628037217782416e-02,1.252892975007083853e-01,8.901817202568054199e-01,-1.246304714208525382e-03,-2.227204908638702463e-03,-1.549732384751223609e-02,-7.017306810259721361e-02,1.115915073671296803e-01,-9.009966999292373657e-02,-1.940672874160347464e-02,-3.685402162210936472e-02,2.562595520557616260e-02,3.182108640670776589e-01,-2.897609282942540387e-01,-2.702932305240408617e-01,2.182108640670776256e-01,-1.980157613754272294e-01,-2.273817300796508734e-01,5.220693185071098030e-01,-7.271236181259155273e-01,5.106803178787231445e-01,-1.408019250226575103e+01,2.338830709457397350e-01
1.728054999999999897e+00,-4.128479791854702818e-02,1.281010210756139134e-01,8.891618847846984863e-01,7.471304429586759349e-05,-2.026894476870433337e-03,-1.387102378990448352e-02,-6.786604764271585155e-02,1.135330063290360264e-01,-8.497057855129241943e-02,9.409120653727547079e-02,8.370240045151132458e-02,1.180886752482542684e-01,2.280004501342773326e-01,1.231331889871704194e-01,1.789221150768938173e-01,1.280004501342773271e-01,2.115173220634460338e-01,2.172591984272003174e-01,5.237269502585470971e-01,-6.311566233634948730e-01,-4.097115993499755859e-02,9.877756739932075902e+01,2.338830709457397350e-01
1.752737999999999907e+00,-4.273174182503479412e-02,1.306150341321348218e-01,8.883339762687683105e-01,3.704898420542590207e-03,-2.743125593074324797e-05,-1.214868022775727682e-02,-5.620569720551063519e-02,1.174143127139928439e-01,-7.434057444334030151e-02,2.231054606435006749e-01,1.209339377564016410e-01,7.439862675334989184e-02,2.976298809051513561e-01,1.522189754605494383e-01,1.875829964177393172e-01,1.976298809051513505e-01,2.203038275241851751e-01,2.211495995521545466e-01,5.224481730279687541e-01,-6.712186336517333984e-01,-1.703761816024780273e-01,9.498616354199253919e+01,2.338830709457397350e-01
1.777253999999999889e+00,-4.466394374752577501e-02,1.343533082182982452e-01,8.872094154357910156e-01,1.117524171218372935e-02,6.004805259099077475e-03,-9.561330260752587754e-03,-4.676653100097405424e-02,1.054828984103729911e-01,-5.941745266318321228e-02,2.707007887185679529e-01,1.691142769337509733e-01,2.004592400367774876e-02,2.757373727929562923e-01,1.930554111400910045e-01,1.903071104153040982e-01,1.766408443450927790e-01,2.176959514617919922e-01,2.168849229812621904e-01,5.214983407511269986e-01,-6.761066913604736328e-01,4.507807493209838867e-01,-3.973707582691392126e+00,2.338830709457397350e-01
1.802027999999999963e+00,-4.645121305795964911e-02,1.380305428605599349e-01,8.862664103507995605e-01,1.964975232054403526e-02,1.047813461862090456e-02,-1.092480129945207733e-02,-5.015537510957523981e-02,1.152885646212108706e-01,-5.948565900325775146e-02,2.873400807681978364e-01,8.895751807585232374e-02,-6.007316253824655089e-02,2.589656716626338451e-01,2.210089514568084890e-01,1.911562059750478160e-01,2.032054781913757158e-01,2.222123622894286998e-01,2.217421174049377386e-01,5.228912300580672579e-01,-6.144773364067077637e-01,3.759766817092895508e-01,8.976336377049391047e+01,2.338830709457397350e-01
1.825310999999999906e+00,-4.765202160125587422e-02,1.404303985259020005e-01,8.856882452964782715e-01,2.578251910693692486e-02,1.036127955705312687e-02,-1.272415967722508034e-02,-5.021537964448659352e-02,1.099950818347748271e-01,-5.133492127060890198e-02,3.126833508232297887e-01,-6.983590111290290114e-02,-1.021285154215701846e-01,2.373103110887144207e-01,2.184981161443925457e-01,4.413891694044699832e-04,2.244368791580200195e-01,2.215395033359527643e-01,3.604525923728942732e-02,5.234694535765107570e-01,-5.612812638282775879e-01,6.059397459030151367e-01,-1.285235330083465399e+01,2.338830709457397350e-01
1.847609000000000057e+00,-4.990020588214481162e-02,1.440224783341251535e-01,8.848170042037963867e-01,3.511630227845582986e-02,7.175451712678970750e-03,-1.615634739450142257e-02,-5.729852043079804169e-02,1.106720511928955680e-01,-5.117002874612808228e-02,3.134558267773048246e-01,-1.117914905452414148e-01,-1.167743928909744655e-01,1.795584289175557458e-01,1.852298929557277818e-01,-9.576329631177568635e-02,2.235135197639465388e-01,2.168281316757202093e-01,-5.094072818756103377e-02,5.218392917626909489e-01,-6.612436771392822266e-01,-2.180722951889038086e-01,8.634363831723025839e+01,2.338830709457397350e-01
1.876165000000000083e+00,-5.143718821097527372e-02,1.463271806607443215e-01,8.842576146125793457e-01,4.125132777190362171e-02,3.482039020600735668e-03,-1.825202060516932512e-02,-4.726439905244034234e-02,1.079611939250281344e-01,-4.733533412218093872e-02,2.615241389843066533e-01,-2.107679135128052161e-01,-8.549428861573898919e-02,1.400752526387437080e-01,1.659595457263489393e-01,-2.365985866229006196e-01,2.237417578697204479e-01,2.148069798946380671e-01,-1.862042427062988170e-01,5.214592735946003144e-01,-6.767857670783996582e-01,-3.079868555068969727e-01,-3.443584328562874219e+01,2.338830709457397350e-01
1.899151999999999951e+00,-5.376161059878876297e-02,1.497415442863909985e-01,8.834734559059143066e-01,4.976043718473895788e-02,-2.364775354396497775e-03,-1.935398665687218175e-02,-6.656239876236194619e-02,1.021455111414168587e-01,-3.965062648057937622e-02,2.711561028896864456e-01,-2.115245160976045591e-01,-1.901983683142931258e-02,1.195527553558349554e-01,-7.347629666328431286e-02,-2.522193481242029911e-01,2.195527553558349609e-01,2.652370333671569616e-02,-1.997703552246093694e-01,5.206881830319788351e-01,-6.995215415954589844e-01,-9.649813175201416016e-02,8.775227604108617641e+01,2.338830709457397350e-01
1.924291999999999891e+00,-5.532447871537862077e-02,1.519285474333882668e-01,8.829132914543151855e-01,5.424468178498319942e-02,-6.290948963921572101e-03,-1.883498960526747493e-02,-6.021831831218203701e-02,9.873044391819206511e-02,-3.667825460433959961e-02,1.925592896165024270e-01,-2.111054350410982161e-01,5.232294007819490722e-02,5.835568904876708984e-02,-2.069227576255798229e-01,-2.357914430303566788e-01,1.583556890487670954e-01,-1.069227576255798312e-01,-1.852422595024108831e-01,5.207635635146210529e-01,-6.934134364128112793e-01,-7.243072986602783203e-02,8.591177228619952189e+01,2.338830709457397350e-01
1.950228999999999990e+00,-5.757888026097469913e-02,1.553023179988363145e-01,8.821965456008911133e-01,5.970611188639222272e-02,-1.137464829477963235e-02,-1.651194847111658523e-02,-5.960945876620446504e-02,9.561421415669905943e-02,-3.330159932374954224e-02,1.625960767841361787e-01,-1.617440609701548404e-01,1.110704992002517627e-01,-2.193586230278015137e-01,-2.923604846000671387e-01,-1.682424785203510964e-01,-1.193586230278015081e-01,-1.923604846000671331e-01,-1.250119328498840165e-01,5.207992665277991762e-01,-6.886889934539794922e-01,1.524742841720581055e-01,-1.227762703312393029e+02,2.220781564712524525e-01
1.975897000000000014e+00,-5.904146523282309544e-02,1.574354651425748097e-01,8.816986083984375000e-01,6.225598144634673231e-02,-1.294279527492281368e-02,-1.456144354259485650e-02,-6.244387842477947675e-02,8.606259230278458239e-02,-3.853625059127807617e-02,1.193851506699679099e-01,-4.324189459091711679e-02,9.893072170235672758e-02,-3.204158723354339489e-01,-3.063501358032226785e-01,1.850523263775941674e-01,-2.204158723354339433e-01,-2.063501358032226451e-01,2.225028276443481445e-01,5.206899315130228967e-01,-7.248085141181945801e-01,4.050635099411010742e-01,9.898788258424379194e+01,2.220781564712524525e-01
1.998323999999999989e+00,-6.107515060527238943e-02,1.603646405103535399e-01,8.809193968772888184e-01,6.471832492106543988e-02,-1.127222415215056728e-02,-1.156474380257064422e-02,-4.328296526061641697e-02,7.895196256885082808e-02,-4.039307683706283569e-02,6.229746505395000050e-02,1.169423831302759259e-01,9.537425353112445603e-02,-3.219814419746399037e-01,5.998271703720081671e-03,1.868036840225919537e-01,-2.219814419746398981e-01,1.059982717037200872e-01,2.162723422050475963e-01,5.215003063920284898e-01,-6.988083720207214355e-01,-4.193842411041259766e-02,9.051434306973681032e+01,2.220781564712524525e-01
2.024687000000000126e+00,-6.224506087236944540e-02,1.621931103610953218e-01,8.802838921546936035e-01,6.394215412014085664e-02,-6.898550876535347598e-03,-1.062662753043069896e-02,-5.401788271906995953e-02,7.017623639540672420e-02,-3.990323841571807861e-02,-5.691699324262736864e-02,2.612752078704280723e-01,2.217745600079001553e-02,-3.176841855049133412e-01,3.642019033432006281e-02,1.728468512789526901e-01,-2.176841855049133356e-01,1.364201903343200684e-01,2.000608384609222357e-01,5.249224830559672261e-01,-5.219656825065612793e-01,-1.915928125381469727e-01,9.211813978874749864e+01,2.220781564712524525e-01
2.050829999999999931e+00,-6.360484283155261320e-02,1.652027662893328086e-01,8.791351318359375000e-01,5.825272727227845393e-02,1.644593493226986780e-03,-1.182578757655031870e-02,-3.559033088775439418e-02,7.800791306853779861e-02,-5.318271741271018982e-02,-2.055409062603961445e-01,2.950340474260325641e-01,-8.284462117159399619e-02,-3.194176971912384144e-01,6.676019487982376432e-02,1.641291338279031453e-01,-2.194176971912384089e-01,1.275869786739349254e-01,1.961245179176330511e-01,5.259717881266402495e-01,-5.308557152748107910e-01,2.343475818634033203e-02,6.631175899109338445e+01,2.220781564712524525e-01
2.075009000000000103e+00,-6.447002741133581183e-02,1.672675203677658207e-01,8.782572150230407715e-01,5.233496760536957698e-02,5.663620878689323845e-03,-1.321687617657796646e-02,-5.099341306352409009e-02,6.762940807050719927e-02,-4.692540317773818970e-02,-3.131969246691188591e-01,1.371515574964073669e-01,-6.060545025047934381e-02,-3.188911616802215798e-01,-1.781884909139719309e-02,1.691988363874061818e-01,-2.188911616802215465e-01,3.209601044654845914e-02,2.053667306900024414e-01,5.225421277196149461e-01,-7.041987180709838867e-01,-1.871788501739501953e-02,1.020214223116457504e+02,2.220781564712524525e-01
2.099959000000000131e+00,-6.585968897151563139e-02,1.701349159550282208e-01,8.769336342811584473e-01,4.253887420835912592e-02,7.756864291606602180e-03,-1.559016121041247732e-02,-3.636795369397437944e-02,6.877800993198097956e-02,-5.049353465437889099e-02,-3.342272402384803276e-01,3.978934128022019318e-02,-8.556379080916094726e-02,-3.143660748295138974e-01,9.069376883426443631e-03,1.569435743342082745e-01,-2.188339591026306208e-01,3.365346193313598772e-02,2.002411007881164384e-01,5.230792551301777227e-01,-7.030534744262695312e-01,-4.377750158309936523e-01,3.436343645023743676e+01,2.220781564712524525e-01
2.123565999999999843e+00,-6.680431472459180675e-02,1.719917225287294904e-01,8.760487437248229980e-01,3.595170173844876998e-02,7.355225717780022876e-03,-1.719948031028163335e-02,-5.362583556867586004e-02,6.533476330054605041e-02,-4.191501438617706299e-02,-3.048115034095572051e-01,-3.003736649725712027e-02,-8.471163608907865405e-02,-2.702480553704073030e-01,-4.519050428373392464e-02,1.533545806348308449e-01,-2.165453553199767900e-01,-1.809632778167724523e-03,2.009345412254333330e-01,5.222696942200478754e-01,-7.253143787384033203e-01,-1.643337011337280273e-01,9.241377086659316831e+01,2.220781564712524525e-01
2.150926999999999811e+00,-6.800062391197091161e-02,1.747170616243156338e-01,8.746883273124694824e-01,2.597634420624845425e-02,6.780267700917885776e-03,-2.008285728805042289e-02,-3.744536433650755280e-02,6.191761852892799928e-02,-4.511092230677604675e-02,-3.326960354897939842e-01,1.986502954828363657e-02,-8.886356423386680692e-02,-8.949021928164500872e-02,1.006047000712529116e-01,9.281752877869239859e-02,-1.006492853164672879e-01,1.343983054161071722e-01,1.486758828163146917e-01,5.227199769669719220e-01,-7.269710302352905273e-01,-2.437642812728881836e-01,4.016562409355532282e+01,2.220781564712524525e-01
2.175386000000000042e+00,-6.871390094309569319e-02,1.765630280590653467e-01,8.738316297531127930e-01,1.937526943824334491e-02,6.567454121897409181e-03,-2.214249241267668075e-02,-3.878821975920978410e-02,6.695594836006062145e-02,-4.579588770866394043e-02,-3.334699459550024003e-01,2.799787187398313296e-02,-1.104988300791406725e-01,2.397783596156499164e-01,1.520041284766130429e-01,-8.310382693557746836e-02,1.799322366714477539e-01,1.913879334926605058e-01,-2.149482965469360143e-02,5.228910629710276092e-01,-7.330276966094970703e-01,-2.320188283920288086e-01,9.644337074103641783e+01,2.220781564712524525e-01
2.199548000000000059e+00,-6.933302052164498630e-02,1.783785502304087167e-01,8.729027509689331055e-01,1.319102453629554528e-02,6.625529520445594400e-03,-2.389853022187451992e-02,-3.605400276970588402e-02,6.607096008786184083e-02,-4.171743616461753845e-02,-3.037497632244359758e-01,-1.949412167128773340e-02,-7.897903433199282563e-02,3.167187690734863392e-01,1.851397630380944848e-01,-2.784243224281355289e-01,2.167187690734863337e-01,2.227448165416717474e-01,-2.118316411972045732e-01,5.230515156378261477e-01,-7.203250527381896973e-01,1.332244038581848145e+00,4.085340023731351522e+01,2.737811326980590931e-01
2.223514999999999908e+00,-7.029346423735925720e-02,1.811454015131864492e-01,8.716007471084594727e-01,5.852308541515587222e-03,6.415157983972630262e-03,-2.573573537271177727e-02,-4.522734789707447134e-02,6.775756806822409717e-02,-3.794545307755470276e-02,-1.811233346667985300e-01,-8.288665268447513099e-03,-2.930862631486423273e-02,3.206212043762207142e-01,1.769952727183299324e-01,-2.907634377312428020e-01,2.206212043762207087e-01,2.242971718311309870e-01,-2.190477132797241100e-01,5.229593585315273074e-01,-7.245037555694580078e-01,9.529459476470947266e-02,1.128505369765392317e+02,3.112445116043091042e-01
2.248981999999999815e+00,-7.144941995258813350e-02,1.834774998674196245e-01,8.706895709037780762e-01,4.727282034786121218e-03,2.288483210929559419e-03,-2.473485009979872751e-02,-3.913600501185587888e-02,6.242144640781532861e-02,-2.111844718456268311e-02,5.376723519970099535e-02,-2.001384137493372462e-01,8.189648258828448324e-02,3.183596372604370339e-01,1.181470037958615854e-01,-2.892875020828256094e-01,2.183596372604370006e-01,1.874832272529602106e-01,-2.205217838287353571e-01,5.221300309341766477e-01,-7.137415409088134766e-01,-3.635808229446411133e-01,1.012278294621711439e+02,3.112445116043091042e-01
2.273643999999999998e+00,-7.234414009759948527e-02,1.848309980239804529e-01,8.703739047050476074e-01,7.849387977758522789e-03,-1.821218696568260853e-03,-2.274877129742789578e-02,-5.089041166857481702e-02,6.162240283138748637e-02,-1.518958248198032379e-03,2.401285248629663471e-01,-2.099980520605126411e-01,9.788623032763074661e-02,3.219958543777465820e-01,1.100648880004882757e-01,-2.797615219035930467e-01,2.219958543777465765e-01,2.100648880004882812e-01,-2.169108867645263561e-01,5.220548808630963711e-01,-6.487877368927001953e-01,4.779802560806274414e-01,-1.891865923671505634e+00,3.112445116043091042e-01
2.299141999999999797e+00,-7.325855599607949964e-02,1.861624909223476287e-01,8.702185750007629395e-01,1.268811855626783905e-02,-6.371580692109635180e-03,-2.037781092037111233e-02,-4.716387840812279186e-02,6.305776448327873873e-02,-2.847887342795729637e-03,2.082244048416138082e-01,-2.494515343582956179e-01,1.306289321543631921e-01,3.195141315460204856e-01,1.048887610435485784e-01,-2.744902831094712670e-01,2.195141315460205078e-01,2.048887610435485840e-01,-2.186354398727416992e-01,5.221813652892401958e-01,-6.545330286026000977e-01,-3.623138666152954102e-01,9.574562593618459516e+01,3.112445116043091042e-01
2.325115999999999961e+00,-7.461351313654583650e-02,1.881497291612873046e-01,8.702730536460876465e-01,2.205205130097061608e-02,-1.228261792583329459e-02,-1.648083247412750890e-02,-5.029529344120856060e-02,5.810023274271164384e-02,1.261493843048810959e-02,3.419064560976872724e-01,-2.149048574151932733e-01,1.447403386974078776e-01,2.690337539474225159e-01,9.173186421394347034e-02,-2.565523427946944102e-01,2.192876815795898326e-01,1.917318642139434759e-01,-2.123438358306884710e-01,5.239448722462957120e-01,-5.035473108291625977e-01,-2.042752504348754883e-01,1.277561749154739488e+02,3.112445116043091042e-01
2.347840999999999845e+00,-7.552219864217334100e-02,1.894742199349362111e-01,8.703910112380981445e-01,2.852822015099806818e-02,-1.515647786741314285e-02,-1.391705264518359846e-02,-4.871975381166127744e-02,5.822956957679716050e-02,1.368861645460128784e-02,3.410300873190194038e-01,-1.452724954608692609e-01,1.133173861202312754e-01,2.274915758597977899e-01,-8.119433522224427102e-02,-2.462756412021805397e-01,2.172398686408996415e-01,1.880566477775573800e-02,-2.097279310226440319e-01,5.227341176815288870e-01,-5.704583525657653809e-01,-1.869190931320190430e-01,6.003012963408103531e+01,3.112445116043091042e-01
2.374077000000000215e+00,-7.679893156651798614e-02,1.909895482666456590e-01,8.706256151199340820e-01,3.816860945411058859e-02,-1.870087633368155977e-02,-9.791954689090134195e-03,-4.143446551153490143e-02,5.570725155121773048e-02,1.712963357567787170e-02,2.975494150987149644e-01,-1.567067219104162912e-01,1.456162089968240092e-01,1.602728357590594566e-01,-2.431953430175781139e-01,-2.248569296716641519e-01,2.124845981597900391e-01,-1.431953430175781083e-01,-2.005308151245117076e-01,5.208911032431458032e-01,-6.610680818557739258e-01,-1.884075403213500977e-01,1.006562519116677947e+02,3.112445116043091042e-01
2.402047000000000043e+00,-7.813537871350388631e-02,1.923816048822754865e-01,8.709086179733276367e-01,4.689069202284654875e-02,-2.105857402859134808e-02,-5.687686040272330566e-03,-5.474948868534584845e-02,6.066679428329712492e-02,8.232885971665382385e-03,2.249119231249363804e-01,-2.695311186277794466e-02,1.531247591656655083e-01,-3.101253271102905051e-01,-2.156164407730102595e-01,8.400651387162251515e-02,-2.101253271102905273e-01,-1.156164407730102539e-01,9.595516920089720847e-02,5.213811244210324602e-01,-6.756541132926940918e-01,1.976488828659057617e-01,1.026731316414916932e+02,3.112445116043091042e-01
2.425698999999999828e+00,-7.909321175319064534e-02,1.932408194091557452e-01,8.710561394691467285e-01,5.206206972689308293e-02,-2.121637468744541621e-02,-2.887988036754317658e-03,-4.737281193427087672e-02,4.909550362709667881e-02,7.379955146461725235e-03,2.443907187248019475e-01,4.888279914607384508e-02,1.465096769604113669e-01,-3.191718816757201926e-01,-2.332939863204956110e-01,2.047729991153046936e-01,-2.191718816757202148e-01,-1.332939863204956055e-01,2.087850987911224199e-01,5.211882758294898998e-01,-6.939467191696166992e-01,2.243551015853881836e-01,9.427753824579288278e+01,3.112445116043091042e-01
