timestamp,x,y,z,roll,pitch,yaw,vx,vy,vz,p,q,r,psp,qsp,rsp,pres,qres,rres,thrust_sp, thrust_res
0.000000000000000000e+00,4.726885728388845881e-02,-4.179595419433545372e-02,9.903333783149719238e-01,1.431372347629457191e-02,-1.334344121798691774e-02,-2.708969969250237669e-03,-4.100838822555713525e-02,3.089985511976831717e-02,8.542010327801108360e-04,3.501705354246481550e-02,-3.729979530732885351e-02,1.381873222741066519e-02,-1.199253798729579684e-01,-2.245575951894267508e-01,-1.134201234370970784e-01,-2.565112709999084473e-02,-1.343213796615600475e-01,-1.061095476150512723e-01,5.163841870535370582e-01,2.017594575881958008e-01,-9.323352575302124023e-01,9.443302067205905814e+01,5.367367267608642856e-02
2.228600000000000025e-02,4.669666702082356236e-02,-4.106741032002322184e-02,9.903724193572998047e-01,1.463352011567547149e-02,-1.309102849851728756e-02,-2.790595991959595942e-03,-4.733346131558336528e-02,3.584042934900449895e-02,-3.425840288400650024e-03,3.845171769998021599e-02,2.962869283396650510e-02,3.846908759146088451e-03,-2.968269694594471431e-01,-5.289148420700287567e-03,1.675054375753221858e-01,-2.003544867038726807e-01,8.273661732673644187e-02,1.750455737113952581e-01,5.130641671576229301e-01,6.658554077148437500e-03,-1.061018824577331543e+00,7.020567715767433015e+01,5.367367267608642856e-02
4.843599999999999989e-02,4.493951362747258121e-02,-3.882900584855560749e-02,9.905743598937988281e-01,1.615074836561873617e-02,-1.280838851213950136e-02,-3.114227112817575388e-03,-4.056717143203159015e-02,3.675553658741045199e-02,1.162195019423961639e-02,8.099174957759056048e-02,-1.974938986848067540e-03,-3.465001844147776872e-02,-2.337200999259948786e-01,8.488589251386485790e-02,9.074278317856153409e-02,-1.337200999259948730e-01,1.657992303371429443e-01,9.918091893196105679e-02,5.091238944167310043e-01,-1.427371501922607422e-01,-8.161674737930297852e-01,1.492227354767719874e+02,5.367367267608642856e-02
7.474500000000000588e-02,4.317065414443039401e-02,-3.651644161206122480e-02,9.906964898109436035e-01,1.652888132603887519e-02,-1.186641592518489219e-02,-2.935456553205569377e-03,-5.633461402049835115e-02,3.693465433364467171e-02,-4.577481187880039215e-03,-3.027202788257043684e-02,9.597453791913870824e-02,9.859574918194084422e-03,-2.987923324108123779e-01,-6.198825132558830747e-02,1.733013266438554467e-01,-1.987923324108123724e-01,2.765012383460998396e-02,1.811970055103301891e-01,5.158662620022455014e-01,1.526924371719360352e-01,-1.120091676712036133e-01,1.149679297701890306e+02,5.367367267608642856e-02
1.008270000000000000e-01,4.037762675000828444e-02,-3.339155190366413506e-02,9.906641244888305664e-01,1.553831645916639755e-02,-1.132091415903180298e-02,-4.540323845573707162e-03,-5.557241108062922069e-02,3.588452392332042162e-02,3.288912586867809296e-03,-9.094447487479073722e-02,3.829990337734969896e-03,-7.961472973670576103e-02,-3.055189606031638583e-01,-2.309421542023757934e-01,6.916770962066162709e-02,-2.071230411529541016e-01,-1.459153175354003795e-01,8.158864974975585382e-02,5.131940451066026032e-01,4.035615921020507812e-02,-1.161317467689514160e+00,1.007392318798942767e+02,5.367367267608642856e-02
1.224780000000000035e-01,3.855599981852553954e-02,-3.121802699631190392e-02,9.904839992523193359e-01,1.319006793225358312e-02,-1.101958215027321053e-02,-5.639541386495730904e-03,-3.753972317535542169e-02,5.965190240314643955e-02,-1.015343330800533295e-02,-1.080638925629486269e-01,-8.071989759685046541e-04,-8.195848860750060139e-02,-2.454124675784455090e-01,-2.283376713851482942e-01,1.389432373104582119e-02,-1.830454587936401201e-01,-1.584403038024902177e-01,2.943250536918640137e-02,5.176121053390156934e-01,2.221865653991699219e-01,-1.139300227165222168e+00,2.710339273990451758e+01,5.367367267608642856e-02
1.495229999999999893e-01,3.581769565661449550e-02,-2.796680904784558733e-02,9.899257421493530273e-01,7.446166934004141980e-03,-1.098926572375558131e-02,-7.748322426799196007e-03,-5.471352822343689831e-02,5.800814913895271235e-02,-3.840328752994537354e-02,-2.622063423775157776e-01,2.285048897329215040e-02,-6.894713666291153731e-02,-1.874427583456308721e-01,-2.430926652861587489e-01,-7.390095752978367849e-02,-1.595370948314666637e-01,-1.552755117416381725e-01,-5.240610837936401228e-02,5.184230512633002386e-01,1.495604515075683594e-01,-6.282750368118286133e-01,1.205920304761825861e+02,5.367367267608642856e-02
1.717029999999999945e-01,3.398663827241465984e-02,-2.571697858223607677e-02,9.893569946289062500e-01,2.549964006433560332e-03,-1.051352259100957198e-02,-9.047943206126335750e-03,-4.249565034787253226e-02,6.353263865828881474e-02,-4.255509376525878906e-02,-3.227832022943584178e-01,7.140060745230969452e-02,-7.184945636347203624e-02,-7.574479133206737935e-02,-1.675182560893681560e-01,-1.382676512633523591e-01,-8.589184284210205078e-02,-9.386497735977172852e-02,-1.130389809608459417e-01,5.179276470311685587e-01,1.015896797180175781e-01,-9.212440252304077148e-01,9.558791686824899614e+01,5.367367267608642856e-02
1.979980000000000073e-01,3.081091879721442606e-02,-2.128062071327217752e-02,9.881889820098876953e-01,-5.878242318105281368e-03,-7.946311573361786174e-03,-1.028438966735843729e-02,-5.309720535888896170e-02,7.716226837693600238e-02,-4.835166409611701965e-02,-2.786732448503442261e-01,1.250139245040724212e-01,-6.765046254876350140e-02,2.069007232406054886e-01,8.906465576956566765e-02,-1.935856901263746932e-01,1.291507244110107477e-01,1.582966446876525879e-01,-1.647926330566406306e-01,5.141120830541264786e-01,-1.337864398956298828e-01,-8.236566781997680664e-01,1.015565254857888249e+02,5.367367267608642856e-02
2.248209999999999931e-01,2.745850250659978564e-02,-1.635951805457524014e-02,9.868609905242919922e-01,-1.397889891268687748e-02,-3.726201885408064740e-03,-1.069835266231183163e-02,-5.536829285410298923e-02,8.529898040098232714e-02,-5.521076172590255737e-02,-2.951946904729682020e-01,2.067074582270217176e-01,2.135397871784577850e-02,3.022347688674926758e-01,1.506547378333096265e-01,-2.198764516703947958e-01,2.022347688674926702e-01,1.948142409324646052e-01,-1.898577332496642900e-01,5.122634775273998686e-01,-2.684183120727539062e-01,-9.010235071182250977e-01,1.509578903939003851e+02,5.367367267608642856e-02
2.467399999999999871e-01,2.527269833831511173e-02,-1.298021081948322331e-02,9.859220981597900391e-01,-1.864041717469135453e-02,-2.621474436257376084e-04,-1.054397953095519147e-02,-4.807683701229630013e-02,8.620303295451685333e-02,-5.714708194136619568e-02,-2.837106595242045448e-01,2.688016677626070550e-01,1.728618224870854397e-02,3.043878316879272683e-01,1.862262280427760541e-01,-2.248194655304344980e-01,2.043878316879272350e-01,2.031158924102783037e-01,-1.952568054199218806e-01,5.098339291846297749e-01,-4.126575589179992676e-01,-7.011512517929077148e-01,1.024648791736979945e+02,5.367367267608642856e-02
2.730810000000000182e-01,2.208229175329428848e-02,-7.955781789390941813e-03,9.847683906555175781e-01,-2.216446950629520282e-02,3.792345895344384488e-03,-9.275621510033736986e-03,-5.598124851121338147e-02,9.849224374182621866e-02,-4.658780619502067566e-02,-5.435494859967773124e-02,8.188263077076374241e-02,7.512054190551364918e-02,2.901873588562011719e-01,2.091369482439378868e-01,-1.956460395560853660e-01,1.901873588562011663e-01,2.091741800308227484e-01,-1.696753621101379228e-01,5.088563740471306884e-01,-4.308837056159973145e-01,-7.397762537002563477e-01,7.714907671318005100e+01,5.367367267608642856e-02
3.004510000000000236e-01,1.868396208556124746e-02,-2.801465996923764405e-03,9.837661385536193848e-01,-2.081800990602463916e-02,4.463729168480146114e-03,-7.212599429482953635e-03,-6.523101768350082763e-02,9.650011552894326161e-02,-3.310169652104377747e-02,1.311537681655768894e-01,-5.051989509460989153e-02,5.980685221040023952e-02,2.502489805221557728e-01,6.235147167640546495e-02,-1.857187889479274545e-01,1.502489805221557673e-01,6.656607985496520996e-02,-1.655142545700073187e-01,5.174461069467201080e-01,7.450973987579345703e-02,-8.974109888076782227e-01,9.816666161957648740e+01,5.367367267608642856e-02
3.219520000000000159e-01,1.646081215644762744e-02,4.765526346099005321e-04,9.833295941352844238e-01,-1.720460834673947711e-02,2.995526092894218451e-03,-5.210018790149268351e-03,-5.788169079479107276e-02,1.138133626651009755e-01,-4.075694456696510315e-02,2.963128239368846284e-01,-1.214635360148656751e-01,1.184117263144003201e-01,2.509467840194702370e-01,1.502085875770202590e-02,-1.652415131818839034e-01,1.509467840194702037e-01,2.310408353805542062e-02,-1.506450176239013672e-01,5.177760541165701280e-01,5.699241161346435547e-02,-1.598515391349792480e+00,5.718666382599678144e+01,5.367367267608642856e-02
3.494039999999999924e-01,1.302967322990979289e-02,5.681830981373437936e-03,9.826507568359375000e-01,-9.543401248319417080e-03,-1.026206304713950246e-03,-2.406860695327561403e-03,-6.572377713597434001e-02,1.106565098758567345e-01,-3.389077261090278625e-02,2.891622954641251964e-01,-1.374951488068019145e-01,8.847202696512562747e-02,2.264248847961425892e-01,-1.425515869912921396e-01,-1.573210360667935126e-01,1.264248847961425837e-01,-9.874534606933593750e-02,-1.506044983863830400e-01,5.196203235772156592e-01,1.780842542648315430e-01,-9.336150884628295898e-01,9.504136513086457683e+01,-5.787777900695800955e-03
3.712340000000000084e-01,1.087848305800285034e-02,8.920020548839455513e-03,9.821966886520385742e-01,-3.765207728229689240e-03,-4.524846009009486636e-03,-3.554286519544267234e-04,-7.539997591779649955e-02,1.111999364532896550e-01,-3.537096455693244934e-02,3.464872272472292458e-01,-2.252549238787782959e-01,1.228444246653733335e-01,2.463605642318725530e-01,-2.018718441689613119e-01,-1.685214198652519035e-01,1.463605642318725475e-01,-1.273131608963012640e-01,-1.676657438278198187e-01,5.179905910727575780e-01,7.976961135864257812e-02,-7.900348901748657227e-01,1.057690378262050217e+02,-5.787777900695800955e-03
3.982060000000000044e-01,7.591736635087389766e-03,1.418623764000008503e-02,9.813485741615295410e-01,4.596557693220667748e-03,-8.469517175703211720e-03,2.352038986838452840e-03,-6.335831270439362672e-02,1.128130961744939764e-01,-4.936583712697029114e-02,2.682073777307947271e-01,-1.155379651032935190e-01,1.116046491499886467e-01,1.367553699653987209e-01,-2.042955348467260235e-01,-1.310356723127528988e-01,8.101190328598022183e-02,-1.131765604019164956e-01,-1.379703998565673662e-01,5.207776116849544001e-01,1.679377555847167969e-01,-8.178364038467407227e-01,1.158404591159014814e+02,-5.787777900695800955e-03
4.251249999999999751e-01,4.054291508281861710e-03,1.987158116883036563e-02,9.803312420845031738e-01,1.243505191797479072e-02,-1.118227993866471870e-02,5.027229879757543970e-03,-6.276863957957434792e-02,1.309928673413347233e-01,-5.203781649470329285e-02,3.519399690706944694e-01,-1.105842400314682450e-01,8.664419240731116578e-02,1.026576533318619422e-01,-1.966611623764037975e-01,-9.664178304474538295e-02,7.969608306884765070e-02,-9.666116237640380582e-02,-1.114048004150390569e-01,5.205567380230213814e-01,1.370621919631958008e-01,-1.135444045066833496e+00,1.062176719716481443e+02,-5.787777900695800955e-03
4.463559999999999750e-01,1.833861433924776317e-03,2.372669668382803090e-02,9.795827865600585938e-01,1.676219372873968133e-02,-1.117869948307892436e-02,6.780454177257476053e-03,-6.135436758278361991e-02,1.404081174086807549e-01,-6.812716275453567505e-02,2.680949286388735753e-01,5.281738011593101190e-02,9.189844528326357453e-02,-4.638794345200332458e-02,-1.040057539939880371e-01,5.401159752241527917e-02,-4.860552549362182756e-02,-4.005753993988036762e-03,3.420590758323669572e-02,5.229270944232891072e-01,1.939793825149536133e-01,-1.199356675148010254e+00,9.973100716594117898e+01,-5.787777900695800955e-03
4.731199999999999850e-01,-1.336957161926300439e-03,2.928174688499626116e-02,9.783173799514770508e-01,2.351477743038334414e-02,-8.834045782747157460e-03,9.232366196446817677e-03,-6.329958118443969328e-02,1.296894577369971657e-01,-6.271693110466003418e-02,2.231469160367856308e-01,1.817163361434349089e-01,7.004278698841601147e-02,-1.919331836332607844e-01,-6.112361550331116278e-02,1.356229448269660742e-01,-1.445832610130310114e-01,3.887638449668884277e-02,1.089082360267639160e-01,5.215223648680594737e-01,1.302952766418457031e-01,-1.099672198295593262e+00,1.126932923614671864e+02,-5.787777900695800955e-03
5.002440000000000220e-01,-4.387117344945381560e-03,3.483995247037291465e-02,9.768398404121398926e-01,2.970931859466488870e-02,-4.390822642128755504e-03,1.169927671919814526e-02,-6.093252904540736453e-02,1.202036553608261255e-01,-7.441902905702590942e-02,2.056683230409606655e-01,1.341028387428792046e-01,1.011259198567423800e-01,-2.603079852067016753e-01,-5.011415156658987485e-02,1.238417254087456620e-01,-1.705060601234436035e-01,2.100450396537780623e-02,9.038043022155761719e-02,5.229095739199401960e-01,1.485385894775390625e-01,-6.450351476669311523e-01,2.235972732358769832e+01,-5.787777900695800955e-03
5.224480000000000235e-01,-6.323324973301164449e-03,3.824310267659958990e-02,9.758372902870178223e-01,3.304644980396710674e-02,-6.184073556043667708e-04,1.306123301400461192e-02,-4.139675208337431633e-02,1.360128488119507484e-01,-8.559150248765945435e-02,1.611220241393163666e-01,2.219482877047300184e-01,8.794581747707584662e-02,-2.682737287854432551e-01,1.611477286999915548e-02,2.239117638997075443e-01,-1.728971779346465953e-01,4.854723215103149553e-02,1.869733750820159746e-01,5.198403036204564120e-01,-7.151883840560913086e-02,-1.388614535331726074e+00,9.318397031816047615e+01,5.232627391815185269e-02
5.496799999999999464e-01,-9.184915039954425278e-03,4.344607113683442851e-02,9.743648171424865723e-01,3.699461276508683033e-02,4.509398832370115073e-03,1.357021583427621761e-02,-4.217210785634230991e-02,1.392100892697156755e-01,-7.486525177955627441e-02,1.192322137710674634e-01,2.147137109183364090e-01,-5.991775986698350681e-02,-3.038533031940460205e-01,1.599428011232874314e-01,2.507811843466764001e-01,-2.038533031940460150e-01,1.642576932907104381e-01,2.127236187458038386e-01,5.097162353193654960e-01,-5.821973681449890137e-01,-1.093388915061950684e+00,1.074362460214701116e+02,5.232627391815185269e-02
5.715160000000000240e-01,-1.099828727161269830e-02,4.690492086114752407e-02,9.732115864753723145e-01,3.809181185167261063e-02,7.175515662874332179e-03,1.325385629454302501e-02,-5.355443620189512949e-02,1.332762956865704562e-01,-7.845155149698257446e-02,7.064499368806012591e-02,7.179212432045070647e-02,-1.952724608508498924e-02,-3.049254894256591686e-01,9.103526447166471192e-02,2.376765518316416859e-01,-2.049254894256591630e-01,8.819162249565123957e-02,2.005923628807067816e-01,5.153598211036528598e-01,-3.051615953445434570e-01,-1.154657721519470215e+00,1.097196875440320980e+02,5.232627391815185269e-02
5.973150000000000404e-01,-1.362060635199056728e-02,5.197001868469684066e-02,9.712349772453308105e-01,3.644173343702345608e-02,1.089418814226128518e-02,1.207692569955045800e-02,-4.454059148743109986e-02,1.264011635582385218e-01,-8.051913976669311523e-02,-1.656157161712991099e-01,1.706684322400165710e-01,-2.820984458855156640e-02,-2.529861032962799072e-01,2.091792088630962110e-01,1.779745891833856286e-01,-1.529861032962799017e-01,1.754309535026550293e-01,1.445514500141143743e-01,5.145971205587939190e-01,-3.672657012939453125e-01,-8.651691675186157227e-01,1.781310057048523845e+02,5.232627391815185269e-02
6.239479999999999471e-01,-1.604157258604258993e-02,5.687747222434458988e-02,9.694690704345703125e-01,3.172513159820119361e-02,1.286504282856615333e-02,9.730504673839667287e-03,-4.710929615151751571e-02,1.200473020428522858e-01,-7.930975407361984253e-02,-2.052198424379536590e-01,4.485161626281437136e-02,-1.061552737755701442e-01,-2.929474041863662226e-01,6.032759116036942593e-02,1.387994957476321178e-01,-2.067048668861388994e-01,1.916447281837463379e-02,1.119937062263488686e-01,5.177671400591886686e-01,-2.049827575683593750e-01,-1.695616424083709717e+00,1.271323464178200027e+02,5.232627391815185269e-02
6.500679999999999792e-01,-1.840457136423571602e-02,6.214743955892345489e-02,9.674010872840881348e-01,2.488837799748125010e-02,1.265740912764323767e-02,6.760821168487816772e-03,-3.178103213522763537e-02,1.345184675486674475e-01,-8.901495486497879028e-02,-2.444842012971197853e-01,-8.710723550736625131e-02,-1.058955427481600986e-01,-2.404991833983153027e-01,-7.812710585796964202e-02,1.926512620030848832e-01,-2.142446458339690996e-01,-1.284134387969970703e-01,1.742122292518615556e-01,5.191751824802989246e-01,-1.824758648872375488e-01,-1.479808688163757324e+00,9.067944240235435416e+01,5.232627391815185269e-02
6.720819999999999572e-01,-1.977878579143212828e-02,6.534667317019353383e-02,9.660926461219787598e-01,1.958225914169100038e-02,1.168416022069118654e-02,4.511619825532694854e-03,-3.729665863070508874e-02,1.343224948238948557e-01,-1.013857275247573853e-01,-3.030806568103797116e-01,-7.362261884701726267e-02,-1.034830777560119680e-01,-1.996144603043611687e-01,-6.369996543044517678e-02,1.541880923762411482e-01,-2.077423810958862194e-01,-9.991207122802733820e-02,1.418684005737304576e-01,5.192721017653669779e-01,-2.381803989410400391e-01,-9.440275430679321289e-01,-1.931185785930705734e+01,5.232627391815185269e-02
6.974630000000000551e-01,-2.191098703605602604e-02,7.047942233310430793e-02,9.637215137481689453e-01,1.160442714042073629e-02,8.987296864499505489e-03,1.135059181526380410e-03,-3.960573486217371098e-02,1.286499033235666556e-01,-9.839321672916412354e-02,-2.922713984674783494e-01,-1.106756457453961784e-01,-1.406602252842351908e-01,-9.140420953237328450e-02,-9.605483744340091723e-02,1.301624656896500573e-02,-1.506010472774505504e-01,-1.117685794830322182e-01,9.946990013122557900e-03,5.169083425778103758e-01,-3.696252107620239258e-01,-1.272437930107116699e+00,3.855207386440984862e+01,5.232627391815185269e-02
7.231480000000000130e-01,-2.390419328681852792e-02,7.539849912384610775e-02,9.612409472465515137e-01,3.448453870219617048e-03,5.053172636365621528e-03,-1.406740751173200755e-03,-4.040855749052825463e-02,1.378145762302327437e-01,-1.062813997268676758e-01,-2.617006952879458170e-01,-2.121631028771791549e-01,-9.830939562701512813e-02,1.394656658172607477e-01,-1.315482638569472340e-01,-1.769927035168620544e-01,3.946566581726074219e-02,-1.197786927223205566e-01,-1.731189250946044977e-01,5.177820030435490439e-01,-3.716163635253906250e-01,-3.980839252471923828e-02,2.299873864874766412e+02,5.232627391815185269e-02
7.485819999999999697e-01,-2.657741257767644999e-02,8.093825426170986326e-02,9.587842822074890137e-01,-4.760566720697734927e-03,2.266451301739413893e-03,-4.331574964969127535e-03,-2.890174021204383256e-02,1.512622987011969233e-01,-1.190085634589195251e-01,-2.736369885547834113e-01,-5.162256693954211245e-02,-9.161204587185919901e-02,3.066256523132324108e-01,1.531870427062146101e-01,-2.213805780304924642e-01,2.066256523132324052e-01,1.760234892368316706e-01,-2.093472719192504827e-01,5.201173116573358790e-01,-3.145464062690734863e-01,-1.117225289344787598e+00,1.154908627134235388e+02,5.232627391815185269e-02
7.714879999999999516e-01,-2.816933901685231625e-02,8.469848560305524854e-02,9.570338129997253418e-01,-1.006674115615176050e-02,1.678692786893920541e-03,-6.576322394863106519e-03,-3.439597961357779982e-02,1.481252497862526052e-01,-1.129958033561706543e-01,-3.228606161965469346e-01,6.278837534311249025e-02,-1.242576433120906459e-01,3.160160660743713268e-01,1.744127173435944811e-01,-2.293516692007668556e-01,2.160160660743713212e-01,2.083537459373474010e-01,-2.110398173332214411e-01,5.188470858994443935e-01,-3.740219473838806152e-01,-1.622234106063842773e+00,1.159964059950312105e+02,5.232627391815185269e-02
7.969770000000000465e-01,-3.053498486637787682e-02,9.031700936954642489e-02,9.544485211372375488e-01,-1.668745849046490010e-02,1.652911370400467206e-03,-8.592057614051545889e-03,-3.777350966654624553e-02,1.531092890290565445e-01,-1.054152548313140869e-01,-1.854196418023424942e-01,-4.691440219991147714e-02,-4.673069524221294679e-02,3.185301542282104603e-01,1.516255858508593068e-01,-2.455733903070567714e-01,2.185301542282104548e-01,1.894629120826721025e-01,-2.215865135192870983e-01,5.187494138372821251e-01,-3.677724003791809082e-01,-1.152041554450988770e+00,1.241691508086800013e+02,5.232627391815185269e-02
8.239260000000000472e-01,-3.279859023927352013e-02,9.623874991846291527e-02,9.517411589622497559e-01,-2.067195822251003887e-02,2.598149338914890194e-03,-8.669617163351834785e-03,-1.435424378487215255e-02,1.631436452734118525e-01,-1.133039370179176331e-01,-9.180078068733772689e-02,3.188462548614182795e-02,4.552838903421042860e-02,3.229340553283691628e-01,2.065878061691163448e-01,-2.453249986490015633e-01,2.229340553283691295e-01,2.211291432380676214e-01,-2.210695981979370062e-01,5.170146552773362547e-01,-5.115467309951782227e-01,-1.220687747001647949e+00,1.171557076632358161e+02,5.232627391815185269e-02
8.496000000000000218e-01,-3.503395395080770303e-02,1.016498789317037410e-01,9.496683478355407715e-01,-1.929620594077394516e-02,2.385128132817548874e-03,-7.443733488797639637e-03,-2.043258255705857063e-02,1.797985544470143693e-01,-1.076236739754676819e-01,1.871329827279150371e-01,-7.409228995368201398e-02,6.114401479253686600e-02,2.976948261260986550e-01,-4.581690903736070769e-02,-1.801658834671165388e-01,1.976948261260986217e-01,-2.037112712860107352e-02,-1.593786478042602539e-01,5.235629854410834838e-01,-1.531883478164672852e-01,-8.916579484939575195e-01,6.787139853711994419e+01,5.232627391815185269e-02
8.731339999999999657e-01,-3.659232685040816196e-02,1.053231942555365175e-01,9.484990239143371582e-01,-1.581716140531696027e-02,8.584572577423621453e-04,-6.181031666997102540e-03,-4.601603063832324092e-02,1.580276785827508801e-01,-8.657785505056381226e-02,2.120828257552047347e-01,-9.502684086524888774e-02,6.549975344641320585e-02,3.040340304374694602e-01,-1.483765568370676857e-01,-1.927344735285244637e-01,2.040340304374694824e-01,-9.283275604248046597e-02,-1.755636334419250488e-01,5.212205750162031137e-01,-2.075746059417724609e-01,-1.436165928840637207e+00,7.878500947223565731e+01,5.232627391815185269e-02
9.005990000000000384e-01,-3.802436844486698636e-02,1.087195981394699223e-01,9.475256800651550293e-01,-1.016874814780781983e-02,-1.771342261009500874e-03,-4.574206418646863635e-03,-2.942616341989116868e-02,1.709594641908991630e-01,-7.556940615177154541e-02,3.668123593747813493e-01,-1.788322976649370510e-01,8.085599841558856193e-02,3.052205324172973522e-01,-1.627591032740944299e-01,-1.652664686592742738e-01,2.052205324172973466e-01,-1.055458545684814370e-01,-1.526990175247192327e-01,5.214444386698620093e-01,-1.631999611854553223e-01,-1.293852448463439941e+00,9.867386463715246236e+01,5.232627391815185269e-02
9.234449999999999603e-01,-3.951734983257620265e-02,1.124041304023680882e-01,9.465938806533813477e-01,-4.275686740413195061e-03,-4.425537818894653697e-03,-2.649071255839618826e-03,-4.142004157726329044e-02,1.798098303376310658e-01,-8.609075099229812622e-02,3.276297954336958584e-01,-1.418157850754024896e-01,1.317271279019816832e-01,2.912783741950988881e-01,-2.065301895732390425e-01,-1.462271731326762747e-01,1.912783741950988825e-01,-1.196025252342224066e-01,-1.393088936805725042e-01,5.242271542806351547e-01,-6.562900543212890625e-02,-1.149753689765930176e+00,1.222066188940818989e+02,5.232627391815185269e-02
9.523660000000000458e-01,-4.190413523248980032e-02,1.179759047191206583e-01,9.453079700469970703e-01,5.871042461670633074e-03,-9.459292267719243696e-03,1.832379595548192495e-04,-3.953503471590568558e-02,1.724222620965309705e-01,-7.116094976663589478e-02,3.593630599196598330e-01,-2.076816178134646695e-01,6.753439564220102553e-02,3.127746343612670676e-01,-2.439510822296142578e-01,-1.739224722569865933e-01,2.127746343612670898e-01,-1.439510822296142523e-01,-1.753644347190856934e-01,5.188719095637941425e-01,-3.073599934577941895e-01,-1.252510428428649902e+00,1.026747572265141457e+02,5.232627391815185269e-02
9.746700000000000363e-01,-4.380243384387182831e-02,1.219149977020941439e-01,9.444499015808105469e-01,1.233627998974027619e-02,-1.220712956217884226e-02,1.919788911590058610e-03,-3.403705220107524493e-02,1.791096263553495216e-01,-8.096831291913986206e-02,3.874162041614825358e-01,-1.638351543756014217e-01,9.927135768919174985e-02,2.858651399612426869e-01,-2.294709801673889271e-01,-6.632675482268675371e-02,1.858651399612426813e-01,-1.294709801673889216e-01,-7.297435998916625144e-02,5.238414450990088733e-01,-8.844405412673950195e-02,-9.776960611343383789e-01,9.331139432731623629e+01,5.232627391815185269e-02
9.964849999999999541e-01,-4.557461884031207416e-02,1.258942634904503255e-01,9.435474276542663574e-01,1.788143302322361614e-02,-1.315932856424906205e-02,3.470951144711567279e-03,-3.787232506609917310e-02,1.909402129300633300e-01,-8.587889373302459717e-02,2.596173086863912682e-01,3.762913521480390489e-02,7.829457716476015405e-02,1.938159108161926492e-01,-1.005801439285278348e-01,3.201052114337645665e-02,9.381591081619262973e-02,-5.801439285278319662e-04,2.068791389465331892e-02,5.279367923090959591e-01,1.031558513641357422e-01,-8.565629720687866211e-01,7.645031421014189732e+01,5.232627391815185269e-02
1.028002000000000082e+00,-4.809688189698459182e-02,1.316545595773747912e-01,9.422466754913330078e-01,2.623801514561234852e-02,-1.253411685898453420e-02,5.877494417426931163e-03,-3.925554778041528969e-02,1.867241492016841198e-01,-7.866007834672927856e-02,2.993124846855968468e-01,8.575437790943998828e-02,7.825261086175223924e-02,1.181736800487302452e-01,-9.297695755958557129e-02,5.720030846582267042e-02,6.873443126678466242e-02,7.023042440414428191e-03,3.890630006790161272e-02,5.278148543715114327e-01,1.130201816558837891e-01,1.932257413864135742e-01,1.024771052123123241e+02,5.232627391815185269e-02
1.047191999999999901e+00,-4.892470873513405510e-02,1.337290932249853015e-01,9.417302012443542480e-01,2.889874568019676696e-02,-1.175786221472785442e-02,6.739693084699845821e-03,-1.878936078590816988e-02,1.906707649402703819e-01,-8.779429644346237183e-02,3.151015492265093476e-01,8.787476419155718088e-02,1.115494109259143329e-01,8.346005977803336306e-02,-9.698390960693359375e-02,6.403193962326424182e-02,4.590146541595458568e-02,3.016090393066406163e-03,4.349870681762695035e-02,5.289173342960054036e-01,1.276166439056396484e-01,-9.388505220413208008e-01,1.068061200894014178e+02,5.232627391815185269e-02
1.075479000000000074e+00,-5.175268038039606416e-02,1.411808832362186905e-01,9.400294423103332520e-01,4.000605490078720794e-02,-7.032576194772044431e-03,9.601941350549000539e-03,-2.829138085562736202e-02,1.707606123959966027e-01,-7.959117740392684937e-02,3.904482722051290100e-01,1.482328255100236747e-01,7.053810945488221684e-02,-5.740001043204280562e-02,-1.475866794586181696e-01,1.430911183575365175e-01,-1.279853582382202079e-02,-4.758667945861816406e-02,1.145915150642394936e-01,5.275174500238174469e-01,7.058680057525634766e-02,-9.920026063919067383e-01,-8.553473218363647845e+01,5.232627391815185269e-02
1.100961000000000078e+00,-5.285994829259724886e-02,1.451981376643201316e-01,9.391548633575439453e-01,4.616329041918135201e-02,-3.781645316554005376e-03,1.100949957368861643e-02,-3.215377666388510858e-02,1.776174648546925972e-01,-7.036690413951873779e-02,3.737414816492610758e-01,1.865373644521130525e-01,4.727901853224705797e-02,-1.708829884503775542e-01,-1.544064478803569562e-01,1.861300719032341067e-01,-9.833534359931946078e-02,-7.188842296600340964e-02,1.538403511047363170e-01,5.218289931737174481e-01,-2.132167220115661621e-01,-1.092050194740295410e+00,9.895741311035637011e+01,5.232627391815185269e-02
1.121833999999999998e+00,-5.389708787497433928e-02,1.490392979579393817e-01,9.383155703544616699e-01,5.247484744319660943e-02,5.337042037445449694e-05,1.201305657014030762e-02,-3.043939284429983405e-02,1.597933020865080211e-01,-8.337943255901336670e-02,3.484112448952652041e-01,2.422519456608036303e-01,7.602838896408165015e-02,-2.367102265357971247e-01,-1.381776546544777329e-01,2.069145248764639455e-01,-1.367102265357971191e-01,-8.196655511856078269e-02,1.722194552421569824e-01,5.215144270510784219e-01,-2.910379171371459961e-01,-1.266939043998718262e+00,8.953734598066901640e+01,5.232627391815185269e-02
1.149982000000000060e+00,-5.572106850761087554e-02,1.562590532039714875e-01,9.365687370300292969e-01,6.366495221980475461e-02,6.751415394418591731e-03,1.223536087908815191e-02,-2.109248754629772932e-02,1.463109763969239474e-01,-7.059703022241592407e-02,2.991751454196688309e-01,1.109430167821385538e-01,-2.477531986141554010e-02,-3.096393823623657116e-01,1.980037922022765025e-03,2.518460201164051115e-01,-2.096393823623657060e-01,8.948904275894163998e-03,2.174179315567016657e-01,5.132548268654125723e-01,-6.976420283317565918e-01,-7.130249738693237305e-01,1.162366374085189022e+02,5.232627391815185269e-02
1.175454999999999917e+00,-5.704022808602896705e-02,1.615312820893106405e-01,9.353798031806945801e-01,6.942309273068361652e-02,1.105206852615703284e-02,1.195505102809215313e-02,-1.516489957409204552e-02,1.423274761396478849e-01,-8.409855514764785767e-02,1.577940627028927845e-01,1.686858304342060411e-01,-4.328931512306850860e-03,-3.024483263492584451e-01,-6.250041907009637465e-02,2.419987296377158204e-01,-2.024483263492584117e-01,-8.591930866241455356e-02,2.090171098709106279e-01,5.146366003356714902e-01,-6.894294023513793945e-01,-8.186286687850952148e-01,-4.253520113174033668e+01,5.232627391815185269e-02
1.199030000000000040e+00,-5.797401357082964529e-02,1.652921974135650729e-01,9.345750212669372559e-01,7.234695936639511105e-02,1.368005310633746419e-02,1.124593446556565110e-02,-1.917007853273646270e-02,1.412280193001318185e-01,-7.794746756553649902e-02,1.170617496587177120e-01,1.833464554787159473e-01,-6.792163956262924074e-02,-3.085787296295166016e-01,2.336474697149189608e-02,2.478220466987267057e-01,-2.085787296295165960e-01,-1.222490072250366142e-02,2.171218693256378174e-01,5.139982218144588666e-01,-7.100325226783752441e-01,-7.256103754043579102e-01,-1.604349964333465195e+01,5.232627391815185269e-02
1.225193999999999894e+00,-5.949299563574563660e-02,1.720759815093170220e-01,9.332187175750732422e-01,7.480875961467874091e-02,1.896316778632844979e-02,9.180570482220601000e-03,-3.733956139643352518e-03,1.303306837929218698e-01,-7.420153915882110596e-02,3.418564223179221956e-02,1.230925178624486249e-01,-5.399498120335918805e-02,-3.064059615135192871e-01,2.046823512612200302e-01,2.383917148311295586e-01,-2.064059615135192816e-01,1.239982724189758190e-01,2.145431756973266435e-01,5.147029250417310964e-01,-6.693979501724243164e-01,-6.748646497726440430e-01,9.767327607469144368e+01,5.232627391815185269e-02
1.246382000000000101e+00,-6.006344813473907251e-02,1.753376308290233720e-01,9.323902130126953125e-01,7.356527218689652703e-02,2.213872739504951781e-02,7.590519981381153858e-03,5.828607699603506175e-04,1.182303739697481010e-01,-8.648136258125305176e-02,-1.299477557116465731e-01,1.734900266948646297e-01,-5.834496169507741997e-02,-2.763763964176177979e-01,2.721635580062866100e-01,1.923526106500730304e-01,-1.763763964176177923e-01,1.721635580062866044e-01,1.734008789062500000e-01,5.203315585205378069e-01,-4.258596897125244141e-01,-7.813867330551147461e-01,8.427871503678449017e+01,5.232627391815185269e-02
1.277139000000000024e+00,-6.064981800142186380e-02,1.800144928631950969e-01,9.308642148971557617e-01,6.924576112717448217e-02,2.646832735059168051e-02,4.664336141693170915e-03,6.879215301875636623e-03,1.029261208338554251e-01,-8.734759688377380371e-02,-2.205360122884797991e-01,1.481033231492463464e-01,-1.090619927937081235e-01,-2.897283971309662087e-01,2.225027084350585938e-01,1.832017478881101114e-01,-1.897283971309661754e-01,1.225027084350585882e-01,1.730055212974548340e-01,5.209777603428223935e-01,-4.075891971588134766e-01,-7.844611406326293945e-01,1.722087945623444512e+02,5.232627391815185269e-02
1.298507000000000078e+00,-6.201595294049516011e-02,1.855244767308824871e-01,9.293467998504638672e-01,6.270610599270069752e-02,2.928838500363206698e-02,9.666698995937482051e-04,1.655259412584835638e-02,1.071656073334372600e-01,-9.003409743309020996e-02,-2.170153882418280056e-01,5.291843865010478765e-02,-1.649949695395817872e-01,-2.984213829040527344e-01,1.286621570587158092e-01,1.526935793229514393e-01,-1.984213829040527288e-01,2.866215705871581754e-02,1.531841397285461370e-01,5.234024927887056533e-01,-3.017700910568237305e-01,-7.564915418624877930e-01,9.755777757582652043e+01,5.232627391815185269e-02
1.326831000000000094e+00,-6.306475733439324827e-02,1.907211442969748705e-01,9.275922775268554688e-01,5.464544374581518232e-02,3.125389317991889016e-02,-2.806410983164405425e-03,1.927428392941663363e-02,1.060624278286000505e-01,-1.087000295519828796e-01,-2.561930179112215655e-01,4.605080984505788289e-02,-1.227230826620565318e-01,-2.858093500137329213e-01,1.904509186744690052e-01,1.434366136216966292e-01,-1.858093500137329157e-01,9.045091867446898581e-02,1.544616222381591797e-01,5.260333569101398599e-01,-2.487580180168151855e-01,-8.446103334426879883e-01,9.943194733313217171e+01,5.232627391815185269e-02
1.352743999999999946e+00,-6.357293542237311967e-02,1.940432572267362932e-01,9.262045621871948242e-01,4.855709040234407192e-02,3.170690927941932635e-02,-5.462852269742536279e-03,2.186504573003769658e-02,9.776415002396941778e-02,-1.082275882363319397e-01,-3.473675208633972833e-01,5.939210768067538365e-02,-1.303459955361356559e-01,-2.711075544357299805e-01,2.652930080890655296e-01,1.300273788937675590e-01,-1.711075544357299749e-01,1.652930080890655518e-01,1.483167529106139970e-01,5.266211234582722778e-01,-2.291392087936401367e-01,-1.197017550468444824e+00,1.198624433294201594e+02,5.232627391815185269e-02
1.372727999999999948e+00,-6.402696536503869884e-02,1.971863397108594151e-01,9.247701168060302734e-01,4.258670009853577493e-02,3.041452399700839138e-02,-8.188878683694970559e-03,3.060177908079224005e-02,9.127907277414477882e-02,-1.055798903107643127e-01,-3.199301714474580560e-01,-8.852145082401255416e-02,-1.424333284762072660e-01,-2.804337622973832600e-01,3.959053754806519249e-02,1.624193760818826715e-01,-2.129282534122466930e-01,-6.040946245193481307e-02,1.880701482295989990e-01,5.279773545959906000e-01,-1.592532992362976074e-01,-7.314079999923706055e-01,1.025702553322129518e+02,5.232627391815185269e-02
1.401658000000000071e+00,-6.475457201736974089e-02,2.034099019974637268e-01,9.217991828918457031e-01,3.098415755597110077e-02,2.439010503143546060e-02,-1.355013341322057821e-02,3.428596631782514226e-02,8.731896989571684420e-02,-1.127978712320327759e-01,-3.116219093271353491e-01,-2.455749308408042841e-01,-1.111752765077391319e-01,-2.009060503026408873e-01,-3.541861772537230335e-02,1.470904345061727903e-01,-2.105418741703033447e-01,-1.354186177253723089e-01,1.868151962757110540e-01,5.258095768552294436e-01,-3.273969888687133789e-01,-1.242805600166320801e+00,1.008079913942687966e+02,5.232627391815185269e-02
1.425910999999999929e+00,-6.513145034049204474e-02,2.083218626012868779e-01,9.193702340126037598e-01,2.168118468157105225e-02,1.827019359317549885e-02,-1.738315864657149698e-02,3.954087771559160885e-02,8.853961729638923361e-02,-1.169652119278907776e-01,-3.998383356588390836e-01,-1.608217303213350380e-01,-1.184665930553936847e-01,5.207939630625768590e-02,6.573960245674059788e-02,-1.186335567118849271e-01,-2.294148802757263114e-02,-2.623132467269897322e-02,-6.885055303573607566e-02,5.296693433613904878e-01,-1.531562805175781250e-01,-6.819771528244018555e-01,6.009418314811741624e+01,5.232627391815185269e-02
1.452679999999999971e+00,-6.520570837955692867e-02,2.114585537997137055e-01,9.177548885345458984e-01,1.552165106471266841e-02,1.413307410407060871e-02,-1.983738431060154753e-02,4.341364094601050244e-02,9.224084043467234428e-02,-1.086989119648933411e-01,-3.488271839850621836e-01,-2.383530204591869373e-01,-1.446067149608470936e-01,1.740769267082214466e-01,2.050988425987675806e-02,-2.377518907356267752e-01,7.407692670822142722e-02,-4.626052379608153881e-02,-1.814693927764892412e-01,5.266245946817434964e-01,-3.032121062278747559e-01,-5.266739130020141602e-01,-9.109807835696277323e+01,5.232627391815185269e-02
1.473543000000000047e+00,-6.520773777254987302e-02,2.144274759884344517e-01,9.162914752960205078e-01,9.171575216330345517e-03,1.029255938486839383e-02,-2.223747823280807986e-02,4.555886074426298421e-02,9.214254184484059473e-02,-1.178218126296997070e-01,-3.254413558870667966e-01,-2.504538746420564288e-01,-1.392331163867452370e-01,2.754370331764220969e-01,4.741548417257181181e-02,-2.692530121807391597e-01,1.754370331764221191e-01,4.804909229278564453e-03,-2.065645694732665960e-01,5.270618799737478710e-01,-3.314494490623474121e-01,-9.996217489242553711e-01,8.179092791463406797e+01,5.232627391815185269e-02
1.500461000000000045e+00,-6.512131481662332411e-02,2.208307707572911283e-01,9.129812717437744141e-01,-3.079888596284723230e-03,2.558009525512217053e-03,-2.705387529977611172e-02,4.231219369206028896e-02,9.470903465591848369e-02,-1.105468720197677612e-01,-3.388593837543441567e-01,-1.905051636267968973e-01,-1.768746355136611437e-01,3.173624634742736594e-01,3.159590159286778527e-04,-2.972152582058709136e-01,2.173624634742736816e-01,1.132922172546386649e-02,-2.215187072753906083e-01,5.280673198883898412e-01,-2.715288400650024414e-01,-1.318448424339294434e+00,-1.097153093927741168e+02,5.232627391815185269e-02
1.521814999999999918e+00,-6.495045477000535583e-02,2.240996596130543916e-01,9.113945960998535156e-01,-8.691437077947224837e-03,-7.313225323215544194e-04,-2.954121182262556614e-02,5.320241804725817092e-02,1.135770625858833621e-01,-1.091225519776344299e-01,-3.017512861755944908e-01,-1.824316024512706857e-01,-1.718182035024877763e-01,3.212852478027343750e-01,-8.183270914983543920e-02,-3.066307898064173920e-01,2.212852478027343694e-01,-5.763151645660399836e-02,-2.240442037582397461e-01,5.276123797852154684e-01,-3.086151480674743652e-01,-5.188041925430297852e-01,-8.147831015632259266e+01,5.232627391815185269e-02
1.547711000000000059e+00,-6.449561437015929877e-02,2.306397062700933365e-01,9.083949327468872070e-01,-1.968821441205101386e-02,-5.068967588857109519e-03,-3.341707873468712647e-02,6.057460908913826769e-02,1.236337930090398302e-01,-1.120703369379043579e-01,-3.233063907216311428e-01,-1.176280562278677472e-02,-5.125960891504279665e-02,3.258704304695129172e-01,1.630567965629896865e-01,-3.193551749651480920e-01,2.258704304695129395e-01,2.115286588668823242e-01,-2.259756803512573131e-01,5.373787960662159691e-01,1.933323144912719727e-01,-1.053012967109680176e+00,7.147465971111829575e+00,5.232627391815185269e-02
1.570190999999999892e+00,-6.421786271855974004e-02,2.339927635812451834e-01,9.070721268653869629e-01,-2.293511341738748918e-02,-7.447808186023641142e-03,-3.402216888612934892e-02,4.390780981883647682e-02,1.177115495798545797e-01,-8.736278861761093140e-02,-1.465772830762317180e-01,-1.905448789375014385e-01,-3.747259022871506778e-02,3.232573509216308816e-01,-2.416167260757710045e-01,-3.217610295508822604e-01,2.232573509216308483e-01,-1.641541242599487138e-01,-2.267565965652465765e-01,5.218331568612947224e-01,-5.738416910171508789e-01,-3.599141836166381836e-01,9.658771995895546070e+01,4.545166492462158342e-02
1.598751000000000033e+00,-6.341938429291314738e-02,2.384644025020760949e-01,9.054124951362609863e-01,-2.410791079913018192e-02,-1.036298103731736475e-02,-3.329694122426624103e-02,4.396904852985527440e-02,1.260290926857290383e-01,-8.433488756418228149e-02,4.603164262120108471e-03,-1.169615775446837536e-01,2.131016324059722272e-02,3.180285096168518066e-01,-2.996892725148213588e-01,-3.171079873109542424e-01,2.180285096168518011e-01,-2.059512734413146973e-01,-2.242014527320861650e-01,5.233376206921543927e-01,-4.971514940261840820e-01,-1.183773159980773926e+00,9.739336126212597833e+01,4.545166492462158342e-02
1.621861999999999915e+00,-6.264367093134171061e-02,2.413338539098124347e-01,9.045657515525817871e-01,-2.245693095927852462e-02,-1.243028627105347006e-02,-3.218376563717210287e-02,4.172679548897430257e-02,1.417464244187782163e-01,-6.610263139009475708e-02,1.276405109571725205e-01,-1.031477716213910212e-01,5.439718875065024939e-02,3.046277999877929910e-01,-2.492724418640136774e-01,-2.901437415698239208e-01,2.046277999877929576e-01,-1.492724418640136719e-01,-2.004963040351867565e-01,5.286929336370036481e-01,-1.467932462692260742e-01,-1.002999901771545410e+00,9.205178450096082088e+01,4.545166492462158342e-02
1.648830000000000018e+00,-6.118850136245479465e-02,2.471451153187364247e-01,9.033437371253967285e-01,-1.482946718382994328e-02,-1.533633251317056967e-02,-2.922828260673127412e-02,4.668623126459497258e-02,1.469513836741779822e-01,-4.630324617028236389e-02,2.689883936238131046e-01,-6.293106602894760204e-02,5.968804272852420989e-02,2.814234018325805775e-01,-2.215225934982299749e-01,-2.074419681509009350e-01,1.814234018325805720e-01,-1.215225934982299694e-01,-1.263585090637207031e-01,5.308579061310518821e-01,3.709256649017333984e-02,-9.624706506729125977e-01,8.333980991271786820e+01,4.545166492462158342e-02
1.671359000000000039e+00,-6.047967385042135602e-02,2.501549343376816559e-01,9.029558300971984863e-01,-9.923928299457592667e-03,-1.591576664318972156e-02,-2.711940674997914344e-02,3.782627110186356084e-02,1.429872692410243118e-01,-3.890189155936241150e-02,3.022766480640411979e-01,-6.119792582944601905e-02,1.324958327804277303e-01,2.609311103820800559e-01,-2.187521934509277233e-01,-2.207526927920188953e-01,1.609311103820800781e-01,-1.187521934509277316e-01,-1.457791686058044489e-01,5.311156599388791033e-01,7.212781906127929688e-02,-8.278065919876098633e-01,9.138043154706193150e+01,4.545166492462158342e-02
1.700587999999999989e+00,-5.944157079511921959e-02,2.545163875442875145e-01,9.027311205863952637e-01,-1.113573853037385817e-03,-1.706474046150452395e-02,-2.397662426677565212e-02,3.791011936762903739e-02,1.490785252013249462e-01,-1.942095533013343811e-02,3.373476271374595825e-01,-2.481769341512005123e-02,1.163186855849927953e-01,2.496326446533203014e-01,-1.789523243904113659e-01,-1.749937651568859720e-01,1.496326446533202958e-01,-7.895232439041137418e-02,-1.091664791107177651e-01,5.307875233729143494e-01,1.231253147125244141e-01,-9.045189619064331055e-01,1.053901945537010931e+02,4.545166492462158342e-02
1.723127999999999993e+00,-5.834705782632150506e-02,2.587756145455703538e-01,9.027359485626220703e-01,7.409968025342964990e-03,-1.553882399256600877e-02,-2.058678254492779525e-02,3.914012286105702371e-02,1.603252532221054460e-01,-3.487195074558258057e-02,2.559013992013836059e-01,1.620536351595825986e-01,1.256377663876264150e-01,2.653694868087768666e-01,-1.000879406929017224e-02,-7.795483601496869253e-02,1.653694868087768610e-01,8.999120593070983332e-02,-2.177860736846923620e-02,5.323677250405074446e-01,1.407498121261596680e-01,1.463321447372436523e-01,-9.147002143085769532e+00,4.545166492462158342e-02
1.750871999999999984e+00,-5.706276686214580701e-02,2.631010098994860935e-01,9.027489423751831055e-01,1.603201509368876870e-02,-1.090580306572630498e-02,-1.691407853505239728e-02,4.312186243438844574e-02,1.590695679382781447e-01,-1.807937957346439362e-02,3.342700508997397124e-01,2.089199157635226456e-01,1.302289150807623419e-01,2.600976586341857688e-01,-1.544462677941157991e-02,-6.437958832000550968e-02,1.600976586341857910e-01,7.720556259155272882e-02,-1.826083660125732422e-02,5.313667235023885604e-01,1.461672782897949219e-01,-1.038828492164611816e+00,5.801162431923467722e+01,4.545166492462158342e-02
1.773781000000000052e+00,-5.608402324640202052e-02,2.659000355234153457e-01,9.028988480567932129e-01,2.153505216181667362e-02,-6.686027901136259999e-03,-1.453220755424579694e-02,5.026779771151440590e-02,1.444013196014540257e-01,-2.040002495050430298e-02,3.039982234143374651e-01,2.211786090742661748e-01,1.500829189596651070e-01,2.592634916305541770e-01,1.618697988502196261e-02,-6.713991719556577920e-02,1.592634916305541992e-01,7.530139088630675992e-02,-2.728575468063354492e-02,5.317259952922575028e-01,1.525684595108032227e-01,-1.167089581489562988e+00,1.005501654134791494e+02,4.545166492462158342e-02
1.800923000000000052e+00,-5.408643866423202412e-02,2.714593105248001015e-01,9.032378196716308594e-01,3.312414193207272733e-02,2.046945671541289258e-03,-1.038337046341066168e-02,4.533889192867494172e-02,1.447489647099891030e-01,-9.304491803050041199e-03,3.649582148197320075e-01,1.942082987033020292e-01,1.017328182313229495e-01,2.303682470548225059e-01,6.568643150345360171e-02,-4.506731670621669239e-02,1.345141410827636608e-01,7.084919214248656949e-02,-1.605530977249145300e-02,5.310353382974282166e-01,1.535220146179199219e-01,-1.211868643760681152e+00,9.600270742635470356e+01,3.864514827728271484e-02
1.823117000000000099e+00,-5.310437278343187184e-02,2.740813633032276320e-01,9.036819338798522949e-01,3.883083266583745030e-02,6.402555255461184203e-03,-8.316390218517885971e-03,4.723178339616249805e-02,1.445369931355546811e-01,-1.175131369382143021e-02,3.037435603058518674e-01,2.650546504888980914e-01,1.557803673207394102e-01,2.109961913103087783e-01,8.929265617993986659e-02,-5.124879383016053142e-02,1.496861100196838212e-01,6.292530298233031671e-02,-2.744314670562744002e-02,5.296808935304002652e-01,6.566119194030761719e-02,-5.285533666610717773e-01,1.235904698614398427e+02,3.864514827728271484e-02
1.849712000000000023e+00,-5.133169624602993558e-02,2.782463613879509468e-01,9.044182896614074707e-01,4.724857663897133464e-02,1.214008136108746250e-02,-6.019741129094913906e-03,6.569337504475374068e-02,1.363584948722129653e-01,1.230097375810146332e-02,3.428142627928162378e-01,1.459854324711254980e-01,6.680041819703995409e-02,9.905341502539599663e-02,1.782349120622201410e-01,2.817429302842745092e-02,9.315347671508789062e-02,9.895259141921997070e-02,4.667930603027343334e-02,5.271755613305699750e-01,2.280509471893310547e-02,-9.990578889846801758e-01,1.390532668215400065e+02,3.864514827728271484e-02
1.871369999999999978e+00,-5.024419583571042291e-02,2.806221981061489124e-01,9.049931764602661133e-01,5.266653658116691311e-02,1.485272173441276600e-02,-4.998013659436046502e-03,5.206505837056816383e-02,1.260234717270760363e-01,1.174587383866310120e-02,3.102950418094921892e-01,1.013789259688494121e-01,5.281879031402306190e-02,-8.784062102291997909e-02,2.514952964828539583e-01,1.344974811359540001e-01,-5.439423322677611888e-02,1.667629301548003984e-01,1.503381907939910778e-01,5.190613139359463446e-01,-4.205335378646850586e-01,-1.153905987739562988e+00,-1.687945844868355749e+01,3.864514827728271484e-02
1.898835000000000051e+00,-4.790102843668951615e-02,2.855548957909113117e-01,9.063680768013000488e-01,6.368814083506027512e-02,1.648072091279684237e-02,-3.015349057329005326e-03,5.339281980880303258e-02,1.107761197209023857e-01,3.265069052577018738e-02,3.495575813957896849e-01,-4.958739938678340120e-02,2.524229321256762915e-02,-2.832361638545989879e-01,2.799287855625152699e-01,1.941469485771133707e-01,-1.832361638545989824e-01,1.799287855625152643e-01,2.049881458282470648e-01,5.147929949212215472e-01,-5.640627741813659668e-01,-1.022550463676452637e+00,9.520640299177959776e+01,3.864514827728271484e-02
1.921089999999999964e+00,-4.672326871483119953e-02,2.881176358350313049e-01,9.072626233100891113e-01,6.898872677230340200e-02,1.640845857656492157e-02,-2.256806013742001116e-03,7.439985138942746545e-02,1.021199698967807240e-01,2.117164433002471924e-02,2.481449086986599883e-01,1.003564575865488646e-02,7.371704156350494808e-02,-3.066498816013336071e-01,2.868811249732970969e-01,2.079340760741491545e-01,-2.066498816013336015e-01,1.868811249732971191e-01,2.171698093414306530e-01,5.136615531460949624e-01,-6.697118282318115234e-01,-6.472476720809936523e-01,1.026657686975664063e+00,3.864514827728271484e-02
1.947437000000000085e+00,-4.496947040416248570e-02,2.915441129760695249e-01,9.086720943450927734e-01,7.739454335410289598e-02,1.532035490075478457e-02,-1.614058373476608826e-03,6.766997879822166106e-02,8.610991320164135265e-02,4.450362548232078552e-02,2.980264610368899558e-01,-2.603577669326627431e-02,-2.487922582975015187e-02,-3.167718231678008922e-01,2.786676287651062012e-01,2.167658032331067075e-01,-2.167718231678008867e-01,1.786676287651061956e-01,2.240195631980896052e-01,5.111354445259048696e-01,-7.081156373023986816e-01,-9.105259180068969727e-01,1.146811301269401895e+02,3.864514827728271484e-02
1.977594000000000074e+00,-4.300761025478838651e-02,2.946522192012295260e-01,9.100225567817687988e-01,8.481790188254927088e-02,1.337551550231741437e-02,-8.447786478743636628e-04,6.014023814060743406e-02,7.243073429961489895e-02,3.133732452988624573e-02,2.709250580680940823e-01,-1.170523933071433154e-01,2.627416239127451300e-02,-3.172961950302123912e-01,2.388532366325597511e-01,2.208682805900074597e-01,-2.172961950302123857e-01,1.518557310104370062e-01,2.256628274917602539e-01,5.116848640999839271e-01,-7.277426719665527344e-01,-9.189168214797973633e-01,1.116437518332246981e+02,3.864514827728271484e-02
1.998731000000000035e+00,-4.172720070383453828e-02,2.963528098111878895e-01,9.108780026435852051e-01,8.855907223082248869e-02,1.153371995299612429e-02,-1.165133779173749664e-03,8.286517554793830509e-02,7.146089933449864540e-02,3.594864159822463989e-02,1.444474750805723740e-01,-3.327875516009483337e-02,-4.878367798801735294e-02,-3.195319950580596813e-01,1.912208293278191973e-01,2.205215454248703189e-01,-2.195319950580596757e-01,9.667475223541259488e-02,2.265130519866943304e-01,5.110596843156587354e-01,-7.426450848579406738e-01,-1.177443146705627441e+00,6.774805898108785129e+01,3.864514827728271484e-02
2.024744999999999795e+00,-3.845245487313501270e-02,3.000668964760859758e-01,9.123110771179199219e-01,9.112281095261032249e-02,5.373384060237240689e-03,-3.467600919416185049e-03,8.830387458901028941e-02,5.338013827541067402e-02,2.598416432738304138e-02,-3.898640856464263317e-03,-2.150457977429522938e-01,-9.501877815356234158e-02,-3.138283848762511985e-01,-7.580097350614520280e-02,1.811286888855273280e-01,-2.138283848762512207e-01,-1.326772928237915095e-01,1.925006568431854304e-01,5.136815307596666047e-01,-6.382841467857360840e-01,-6.668552160263061523e-01,-1.178121025028523832e+02,3.864514827728271484e-02
2.046454999999999913e+00,-3.677196705061948345e-02,3.016741589534423507e-01,9.127708673477172852e-01,8.932047683296363838e-02,1.300547054274847625e-03,-5.309946446609396450e-03,7.831178647937728221e-02,4.480885163429063761e-02,1.250567100942134857e-02,-1.474163655712479593e-01,-2.599110692154128488e-01,-8.734865453079306008e-02,-2.940695166587829479e-01,-1.602140689809823937e-01,1.733490306461174801e-01,-1.940695166587829423e-01,-1.826432347297668457e-01,1.888762056827545111e-01,5.159437313830054217e-01,-5.719971060752868652e-01,-7.272206544876098633e-01,1.000124656012590663e+02,3.864514827728271484e-02
2.072360000000000202e+00,-3.433030511024637299e-02,3.037812213840540565e-01,9.131957292556762695e-01,8.330003687812904956e-02,-5.518634823186596705e-03,-8.612884546412782547e-03,7.273935663529984552e-02,2.905016630011767256e-02,3.650618251413106918e-03,-2.971837084263841966e-01,-2.374435960543450075e-01,-1.399852013854065991e-01,-2.945032477378844993e-01,-1.900683237258206926e-01,1.658328293749796734e-01,-1.945032477378845215e-01,-1.659077882766723522e-01,1.893274962902068981e-01,5.186687979788062730e-01,-4.619628190994262695e-01,-9.270406961441040039e-01,1.262528092980191161e+02,3.864514827728271484e-02
2.098736999999999853e+00,-3.190282437793483250e-02,3.054863938628316067e-01,9.132527709007263184e-01,7.511927507242389945e-02,-1.353337224145456652e-02,-1.203984284192443667e-02,7.145571241533893447e-02,1.962441404759004623e-02,-2.881345804780721664e-03,-2.804379308866888354e-01,-3.315172566905179585e-01,-1.538114694593681053e-01,-2.925002992153167836e-01,-2.579178769463363885e-01,1.477773305234191259e-01,-1.925002992153167780e-01,-1.821287512779235784e-01,1.796275377273559570e-01,5.193281003091857473e-01,-4.561440944671630859e-01,-6.061052083969116211e-01,9.911126312141090011e+01,2.926642894744873116e-02
2.120807999999999804e+00,-3.022383456497159185e-02,3.065142009049541261e-01,9.130883216857910156e-01,6.901749715041088917e-02,-1.887209681494916858e-02,-1.436992049656420078e-02,7.963677698473160815e-02,2.403685102805775547e-02,-1.050575543195009232e-02,-3.017472533375681332e-01,-2.944940489860589095e-01,-1.568983606118282415e-01,-2.864066064357757568e-01,-2.831247806549072044e-01,1.289859981317443838e-01,-1.864066064357757513e-01,-1.831247806549072266e-01,1.667871057987213024e-01,5.203895886489530165e-01,-4.353249073028564453e-01,-6.553736925125122070e-01,7.907884421032959210e+01,2.926642894744873116e-02
2.147454000000000196e+00,-2.792238010744476848e-02,3.077044249267993914e-01,9.125037193298339844e-01,5.947580278760829231e-02,-2.610153996660424802e-02,-1.819480677731903293e-02,6.633633525739654480e-02,8.784633686216763993e-03,-3.156375139951705933e-02,-3.826452602884543586e-01,-2.153370132162594486e-01,-1.226818439988945492e-01,-2.515133917331695557e-01,-2.783159732818603627e-01,-1.310022870707064080e-01,-1.515133917331695501e-01,-1.783159732818603571e-01,-8.347424268722533625e-02,5.253495093243309988e-01,-2.566481828689575195e-01,-6.471408605575561523e-01,-1.090587779493741607e+02,2.926642894744873116e-02
2.174027000000000154e+00,-2.547274650887024552e-02,3.086205301493913922e-01,9.114273190498352051e-01,4.945374899178902467e-02,-3.016681938370768812e-02,-2.144208592629606724e-02,8.272778337830218043e-02,-5.438806576406865836e-03,-3.983983770012855530e-02,-4.031762817906082152e-01,-6.094156734895543603e-02,-8.604798636235476417e-02,-9.168222053927738147e-02,-2.495318293571472112e-01,-1.860774220958873182e-01,-2.510721087455749373e-02,-1.495318293571472057e-01,-1.292783975601196345e-01,5.328317287141431935e-01,1.098119020462036133e-01,-9.374059438705444336e-01,9.405244253150594602e+01,2.926642894744873116e-02
2.195596999999999799e+00,-2.395459233904508045e-02,3.091158709634252988e-01,9.105181097984313965e-01,4.289903729822893558e-02,-3.058363463761493151e-02,-2.360424875887111654e-02,7.840492940790266818e-02,-5.183577269787504813e-03,-4.401526227593421936e-02,-3.713922345297498429e-01,3.152506126295946676e-02,-1.528038160316326499e-01,-6.229312193476382875e-02,-2.307649135589599498e-01,-1.338069635737567653e-01,-4.148912429809570312e-02,-1.307649135589599443e-01,-7.086263895034790317e-02,5.345781551239916496e-01,1.788793802261352539e-01,-7.254544496536254883e-01,-7.030492151386191324e+00,2.926642894744873116e-02
2.226339999999999986e+00,-2.032082768533038583e-02,3.095756473201565218e-01,9.082443714141845703e-01,3.035819841103784208e-02,-2.734468765118158728e-02,-2.762611480150604579e-02,7.203314932884080646e-02,-6.198855448927339390e-03,-5.873259156942367554e-02,-2.729428851609371764e-01,1.423574939103974257e-01,-1.083367724916211999e-01,1.245470804275441018e-01,-1.157575130462646512e-01,-1.323540596508296086e-01,6.435245275497436523e-02,-1.575751304626464913e-02,-5.738099813461303156e-02,5.342782364415700203e-01,8.773815631866455078e-02,-7.016166448593139648e-01,8.098852412113014054e+01,2.926642894744873116e-02
2.250361999999999973e+00,-1.846232396625134900e-02,3.095883450417076799e-01,9.071303009986877441e-01,2.476394789738496291e-02,-2.406759948917458480e-02,-2.947173425769321689e-02,7.603266880598728850e-02,-7.521375992370840299e-03,-6.370849162340164185e-02,-2.808748984425543105e-01,2.285217814449415907e-01,-6.559360699571138709e-02,2.386672990518989845e-01,3.524216413497924250e-02,-1.328890909526277420e-01,1.423431873321533148e-01,1.352421641349792480e-01,-5.218963623046874584e-02,5.326022500283184025e-01,-3.642553091049194336e-02,-1.608236432075500488e+00,1.016486647376923003e+02,2.926642894744873116e-02
2.276308000000000220e+00,-1.581298525006304134e-02,3.096270684302748211e-01,9.053883552551269531e-01,1.661106141408264653e-02,-1.777756359716264889e-02,-3.161702219681895853e-02,7.765636352243758533e-02,-1.007172981663964281e-02,-5.817886814475059509e-02,-3.043292656342144742e-01,2.875057146718403844e-01,-5.056186672277669658e-02,2.862874984741211049e-01,7.183832259708110290e-02,-1.706167417981260259e-01,1.862874984741210993e-01,1.637447834014892634e-01,-8.315083980560301902e-02,5.313882931205726745e-01,-9.571981430053710938e-02,-7.056297063827514648e-01,9.417712080461535606e+01,2.926642894744873116e-02
2.301077999999999957e+00,-1.321818217508877701e-02,3.096920120392201992e-01,9.035897254943847656e-01,9.129946388407843977e-03,-1.039399134273044645e-02,-3.132477677322950682e-02,7.272417549019276339e-02,-1.518056053881258879e-03,-5.741087347269058228e-02,-2.394920512590184292e-01,2.996962879027850746e-01,2.865979099619353487e-02,2.993837237358093484e-01,1.452803545971987909e-01,-2.072944605804131202e-01,1.993837237358093151e-01,1.912655889987945612e-01,-1.200327873229980469e-01,5.310226664761834581e-01,-1.284053325653076172e-01,-8.148094415664672852e-01,9.048155816172074140e+01,2.926642894744873116e-02
2.323625999999999969e+00,-1.145889542353513424e-02,3.094968270500297325e-01,9.025702476501464844e-01,5.088628985719647821e-03,-5.717539775273117186e-03,-3.091350175234153577e-02,5.818955043794277193e-02,-1.841763002749241540e-02,-4.608628526329994202e-02,-2.168175429092895345e-01,2.661658983121085176e-01,-4.185192529893291477e-03,3.036390662193298451e-01,1.751239258071886906e-01,-2.205319737304173855e-01,2.036390662193298395e-01,1.992492377758026123e-01,-1.341635584831237793e-01,5.288907207029136526e-01,-2.100292444229125977e-01,-6.204952001571655273e-01,9.511892192889007447e+01,2.926642894744873116e-02
2.347310999999999925e+00,-8.527535753919669032e-03,3.087517098935306237e-01,9.012233018875122070e-01,2.147445115468443397e-03,7.750049306727291309e-04,-2.992975191341319674e-02,7.106653013793753915e-02,-9.241959576043630442e-03,-3.793593496084213257e-02,-1.349199465958318515e-02,1.848410969731546782e-01,5.998387368654983093e-02,3.049796700477599987e-01,2.329749111499276326e-01,-1.095115302746776237e-01,2.049796700477599931e-01,2.010698318481445312e-01,-2.538127899169921944e-02,5.299474023557034785e-01,-1.334752440452575684e-01,-9.659267663955688477e-01,8.296415633855633587e+01,2.926642894744873116e-02
2.373336999999999808e+00,-6.770121963927152112e-03,3.082826238017795650e-01,9.006686210632324219e-01,1.613178709849015123e-03,4.554760905410404348e-03,-2.955061502470791163e-02,6.402554282032485444e-02,-1.055106293769690097e-02,-1.726705208420753479e-02,-4.198235202893558365e-02,2.424760088029061511e-01,2.014174279548059179e-02,3.068676233291626199e-01,2.601465615104279760e-01,-8.513183916279495889e-02,2.068676233291625866e-01,2.093609869480133057e-01,-1.899218559265136632e-03,5.251795185821771517e-01,-3.197745084762573242e-01,-8.188227415084838867e-01,9.577141673049055726e+01,2.926642894744873116e-02
2.396973000000000020e+00,-3.981754230894530601e-03,3.074192043662268836e-01,9.001079797744750977e-01,3.758701563462536321e-03,7.278219631305926640e-03,-2.826674166828229209e-02,5.415318939297775885e-02,-1.910179224074116250e-02,-6.503192707896232605e-03,1.229014294929032941e-01,6.771046420885489837e-03,4.957810553957019140e-02,2.482540249824523870e-01,1.795999833429065551e-01,-1.394166144086977366e-01,1.482540249824523815e-01,1.154982447624206543e-01,-5.964292287826537808e-02,5.324539516952048190e-01,1.135057210922241211e-01,-5.559194087982177734e-02,-1.394693892665338719e+00,2.926642894744873116e-02
2.422771000000000008e+00,-7.312921830805628942e-04,3.059527750462979201e-01,9.001054167747497559e-01,1.177828694318053607e-02,6.889222244194304068e-03,-2.626579423628672139e-02,5.883669925261446332e-02,-1.075052532285233897e-02,2.565012499690055847e-02,2.900506467579128111e-01,-7.008129241440848312e-02,4.055284746476728319e-02,2.657334089279174694e-01,1.857475424809508779e-01,-1.300260029833111286e-01,1.657334089279174638e-01,1.169756412506103432e-01,-5.566556453704833707e-02,5.298581613554212977e-01,9.336268901824951172e-02,-1.126001477241516113e+00,1.548947294692256946e+02,2.926642894744873116e-02
