timestamp,x,y,z,roll,pitch,yaw,vx,vy,vz,p,q,r,psp,qsp,rsp,pres,qres,rres,thrust_sp, thrust_res
0.000000000000000000e+00,2.129074825881770855e-02,-2.576003478237894051e-02,9.858641028404235840e-01,4.272244591513527090e-03,-9.627979792218299693e-03,1.194852326156126132e-02,-1.865109893465695390e-02,-4.668887001016813060e-02,2.660581609234213829e-03,4.654498803702482139e-03,3.787432490976198191e-02,1.906196528498338080e-02,-3.186543020212003752e-01,-2.736628423231564078e-01,-1.903165266207152984e-01,-2.265492975440687728e-01,-2.047393576195694620e-01,-2.236892663627513267e-01,5.266892802473923663e-01,7.474511861801147461e-01
2.319500000000000034e-02,2.131365936266593764e-02,-2.705460822372165314e-02,9.854810237884521484e-01,3.851957291311256838e-03,-9.896159372443591451e-03,1.224794930772965529e-02,-1.117875860139871252e-02,-4.702436795435619571e-02,9.438509005121886730e-04,-1.898841714186894070e-02,-3.293434225612908856e-02,1.733770583030072934e-02,1.531543787180380256e-01,1.669736161026866006e-01,-1.955410890355596121e-01,2.267576898937486984e-01,2.229524980643946830e-01,-2.297918400425355001e-01,5.268926420381386810e-01,7.502703666687011719e-01
4.849099999999999938e-02,2.143225033504102262e-02,-2.883500590516348619e-02,9.849291443824768066e-01,2.719373312628370863e-03,-9.548081545667885806e-03,1.295048391521502751e-02,-1.850426272986126219e-02,-4.169908039316550658e-02,-5.069525912404060364e-03,-7.165158028950788238e-02,1.223705663034138809e-02,5.831425135909752006e-02,1.407945473207259934e-01,-2.729865542654239530e-01,-1.928971680932529409e-01,2.025000287913217567e-01,-2.090828608867221217e-01,-2.291028798852875192e-01,5.273146440085849651e-01,7.468459606170654297e-01
7.298499999999999432e-02,2.142016402164110406e-02,-2.996126941916037525e-02,9.845207929611206055e-01,2.390291378608407329e-03,-9.871991742050889584e-03,1.423420281525356046e-02,-2.206456229359119586e-02,-3.854437427249315928e-02,-2.287653042003512383e-03,1.550002738410342570e-02,-2.215129445958721049e-02,6.536091981201955226e-02,1.672792262930523077e-01,1.351878694008348258e-01,-1.909312454852595820e-01,2.263999413694716967e-01,2.022131764899008921e-01,-2.307248946007972035e-01,5.272695038143246915e-01,7.534832954406738281e-01
9.882699999999999818e-02,2.127146755398535288e-02,-3.163530401324913394e-02,9.838825464248657227e-01,3.786831364394627805e-03,-1.143773681629345340e-02,1.746845761316495604e-02,-2.536988925485167759e-02,-4.414024367900550722e-02,-1.341301482170820236e-03,7.057328261085327181e-02,-2.169547279657858124e-02,1.439012659728429455e-01,1.112938285314636622e-01,1.236502073649675265e-01,-1.819578751699242603e-01,1.875947655405652281e-01,2.032134934011136373e-01,-2.307983596576030638e-01,5.272204940488879332e-01,7.515243291854858398e-01
1.241960000000000008e-01,2.131422537590842506e-02,-3.297839780208836058e-02,9.834434390068054199e-01,5.730389714092849751e-03,-1.140306797191947830e-02,1.963873471273602789e-02,-2.430172581615489685e-02,-4.365697144316902506e-02,-5.046040751039981842e-03,9.746511668107125936e-02,3.213795390338928387e-02,1.021796684419409296e-01,-2.095929659951780710e-01,1.311000027781856203e-01,-1.711730911682930734e-01,-1.222449028923172365e-01,2.081036148589949508e-01,-2.261286692457359637e-01,5.274351567271743368e-01,7.463448047637939453e-01
1.503730000000000067e-01,2.151594612479961963e-02,-3.531443360729191738e-02,9.827102422714233398e-01,1.019119584273670519e-02,-1.173398438025352597e-02,2.351473844975981997e-02,-1.552771689310629769e-02,-4.630440728681108065e-02,-1.000433508306741714e-02,1.533222744730983744e-01,-6.151574804146506953e-02,1.379758311294316808e-01,-2.514198959764827324e-01,1.581642856557636534e-01,-1.593325092274139876e-01,-1.304568836348451444e-01,2.286473322504883887e-01,-2.251999317885887697e-01,5.279259999630072642e-01,7.498257160186767578e-01
1.737339999999999995e-01,2.156547552459514572e-02,-3.684388585694803320e-02,9.821366667747497559e-01,1.304631352348574469e-02,-1.223203726888777432e-02,2.629325619999001162e-02,-3.065347118915069669e-02,-4.609805945285119777e-02,-7.085661869496107101e-03,1.348714206963097517e-01,-5.365628005324788591e-02,1.149427233392983777e-01,-2.776965272604473012e-01,1.362551327384016187e-01,-1.516809168415732822e-01,-1.385683379514476843e-01,2.286325184303990565e-01,-2.253936392443398329e-01,5.277332477675175104e-01,7.481195926666259766e-01
1.985449999999999993e-01,2.149758861558481379e-02,-3.893307368567174021e-02,9.810233116149902344e-01,1.356481438794329697e-02,-1.443610139644824208e-02,3.052466173255141690e-02,-2.448207508943225572e-02,-3.050000516684443080e-02,-2.570983581244945526e-02,-6.256768371008650242e-02,-9.596267392154450571e-02,1.327206686829219273e-01,9.990952452343448975e-02,9.484214753600155035e-02,-1.478228411940750164e-01,2.281437027095948311e-01,1.894603687276223136e-01,-2.334405572349402824e-01,5.292256909014758648e-01,7.505217790603637695e-01
2.234540000000000137e-01,2.144666681703733327e-02,-4.024498227757811186e-02,9.801274538040161133e-01,1.113823084043509201e-02,-1.655366174796313317e-02,3.352182940957293411e-02,-3.315617103807763644e-02,-3.244205722565759314e-02,-2.588259615004062653e-02,-1.573360913160912755e-01,-1.671100469911828423e-01,1.486159171441971960e-01,1.075645020822835057e-01,9.174057900894032336e-02,-1.389637850871812408e-01,2.284598634557228336e-01,2.116356619792856275e-01,-2.329175069792739639e-01,5.292793452129224141e-01,7.481014728546142578e-01
2.496909999999999963e-01,2.133147542237652169e-02,-4.219025531592918848e-02,9.786329269409179688e-01,4.996197335964596385e-03,-2.032745749370334920e-02,3.770916297135218365e-02,-3.385256609137435313e-02,-3.115031909413304087e-02,-3.516937419772148132e-02,-1.885846587883903691e-01,-1.394946868963774789e-01,1.299634719041959097e-01,1.481608180537165032e-01,6.727101994433429266e-02,-1.272444890815476459e-01,2.286348074207720793e-01,2.096997522737509556e-01,-2.327551548851150287e-01,5.300095779157814047e-01,7.440484762191772461e-01
2.732820000000000249e-01,2.113516514321721329e-02,-4.348508341152152595e-02,9.776641726493835449e-01,2.252375029982670029e-03,-2.378010191219570579e-02,4.049649132001564844e-02,-2.740877501750931325e-02,-4.031763015606734668e-02,-2.889952063560485840e-02,-9.716876488218244290e-02,-1.901967911749672946e-01,1.300148631222841356e-01,1.564837761737092048e-01,5.941666480799001615e-02,-1.197298277273398937e-01,2.303632600992420176e-01,2.181965191466450349e-01,-2.328845056124149437e-01,5.291771029126208781e-01,7.183463573455810547e-01
2.984720000000000151e-01,2.073116556940842944e-02,-4.557682854009933310e-02,9.763698577880859375e-01,1.778315479107635873e-03,-2.852391480527383116e-02,4.463602295159962985e-02,-4.825352116215704534e-02,-4.469509027386312644e-02,-1.978438161313533783e-02,5.025123400218826919e-02,-1.383871868099436908e-01,1.602955930097452464e-01,1.582015578638307496e-01,3.584257061172047010e-03,-1.106505808233283761e-01,2.312287001365445904e-01,2.173772839504565790e-01,-2.352747425197447562e-01,5.288090243728374995e-01,7.282705307006835938e-01
3.232149999999999745e-01,2.033135597370894915e-02,-4.694027140205201537e-02,9.756084084510803223e-01,3.574925576761874869e-03,-3.076531060443299381e-02,4.715918522019157955e-02,-3.669001992719039817e-02,-4.663268092186002856e-02,-2.664180658757686615e-02,1.078433412109665313e-01,-1.167762835675041078e-01,1.036244270591192285e-01,1.431126397126508409e-01,7.255501540884723433e-03,-1.043499356725320071e-01,2.299652908994291867e-01,2.165355980186990381e-01,-2.361127794904783472e-01,5.295301255135381746e-01,7.364630699157714844e-01
3.489490000000000092e-01,1.929609734746298016e-02,-4.877380946526659738e-02,9.743331074714660645e-01,6.944985011052883309e-03,-3.372023097636156486e-02,5.138428436872422012e-02,-5.402250271262020592e-02,-3.904381547988117901e-02,-3.135849907994270325e-02,1.247221100734607763e-01,-6.147893112092024659e-02,1.711558183367023478e-01,1.243662071524496704e-01,-3.613280458635870218e-02,-9.310831116051590528e-02,2.253278061618073091e-01,2.144860584110734325e-01,-2.368875718231781835e-01,5.279307422964572005e-01,6.240680217742919922e-01
3.741120000000000001e-01,1.848517381582549454e-02,-4.998313651112252370e-02,9.733999967575073242e-01,9.651226356104483303e-03,-3.493664788973394053e-02,5.376811391377356308e-02,-5.468697858672409706e-02,-5.043519915818128058e-02,-4.074723273515701294e-02,1.511803709857939271e-01,-8.342937135268807536e-02,1.129585210236232484e-01,7.749076840512769682e-02,-3.957285516093236866e-02,-8.669603837472483754e-02,2.114457048983769127e-01,2.143354547875707394e-01,-2.371668109891712506e-01,5.295996844106731771e-01,6.725134849548339844e-01
3.987729999999999886e-01,1.707289956420535160e-02,-5.177819503044508997e-02,9.720010161399841309e-01,1.346862522884225040e-02,-3.622916073255333380e-02,5.764388988379387513e-02,-4.872851939389954978e-02,-4.603862394850227052e-02,-4.636126011610031128e-02,9.108669196505349286e-02,-4.245350059306276375e-02,1.464707804373514277e-01,4.906526666495467093e-02,-4.413806776691520106e-02,-7.626786201024329803e-02,2.008365906610508067e-01,2.122944615155342718e-01,-2.378572312134845934e-01,5.288646586447502962e-01,6.031723022460937500e-01
4.229970000000000119e-01,1.605604914551662585e-02,-5.296759044097758967e-02,9.709498882293701172e-01,1.634819316524516522e-02,-3.660249851659758136e-02,6.008724235834628224e-02,-6.610436642468776880e-02,-4.372168991838742969e-02,-4.008945077657699585e-02,1.719741888603696367e-01,-1.964489734006777399e-02,9.537196705398587326e-02,-2.967318325497001474e-01,-4.883968896008261673e-02,-5.093824044624609138e-02,-1.269321395165750321e-01,2.303268491516973770e-01,-2.195602562165075711e-01,5.287207232795435585e-01,6.144403219223022461e-01
4.479190000000000116e-01,1.415855674011908677e-02,-5.393391711032569091e-02,9.693179726600646973e-01,1.978667056127027604e-02,-3.618147024246831656e-02,6.336016094036578394e-02,-6.553087368775596666e-02,-5.289564633402218247e-02,-5.281251296401023865e-02,1.076440165072196919e-01,3.014673744790501153e-02,1.175340306709334592e-01,-4.161340437739381448e-01,-4.149035473507420302e-02,-4.227842776966256322e-02,-2.130582208199444383e-01,2.295106553203998534e-01,-2.201535293700963569e-01,5.317994927909612812e-01,7.240527868270874023e-01
4.735550000000000037e-01,1.275613183682387797e-02,-5.454135550298268992e-02,9.681588411331176758e-01,2.101189552614235803e-02,-3.494846150237984617e-02,6.511735780083549585e-02,-6.769568595954594814e-02,-4.503211619434138030e-02,-6.294212490320205688e-02,2.741668344362657717e-02,7.313087130197389041e-02,6.367134073984535847e-02,-4.161255724171425419e-01,-3.376759276709709323e-02,-1.959462357799612864e-02,-2.162212501702974743e-01,2.318396537204115704e-01,-2.025463610050665664e-01,5.322960390980778778e-01,7.047592401504516602e-01
4.982840000000000047e-01,1.055501719019173550e-02,-5.537324605391876625e-02,9.662837982177734375e-01,1.797226862441878709e-02,-3.261956123646814198e-02,6.782609633809522087e-02,-8.060142316310278665e-02,-3.803438448430040975e-02,-7.517824321985244751e-02,-1.684829639889348640e-01,4.324310321350688380e-02,6.620869074661665798e-02,-3.299760339954830313e-01,-3.401576720486277350e-01,-2.942818714423253712e-02,-1.544694113851053097e-01,-7.605800569211108864e-02,-2.198262772825922695e-01,5.330599503613052681e-01,6.882488727569580078e-01
5.244459999999999678e-01,8.986736306390479337e-03,-5.577941654403303223e-02,9.648349881172180176e-01,1.221227424225566557e-02,-3.076847183683129039e-02,6.954759241953745175e-02,-8.649143688673423258e-02,-3.057741637319229613e-02,-8.140251040458679199e-02,-3.390089154800434157e-01,9.927670605184175934e-02,9.476000557284494641e-02,-1.315194817036980934e-01,-4.351418047233784336e-01,-3.018348573721169048e-02,1.577827062294730968e-03,-1.804868101452051787e-01,-2.251116264754846608e-01,5.332530176721544946e-01,6.660593748092651367e-01
5.487009999999999943e-01,6.158220830606919022e-03,-5.482921599515246797e-02,9.625726342201232910e-01,4.044666784792138648e-04,-2.836090427594184504e-02,7.186851010116868110e-02,-8.715760393115487559e-02,-1.806299149389937325e-02,-8.654732257127761841e-02,-4.155470991049778351e-01,1.058177287839868058e-01,6.958019356685854473e-02,1.438719521258992051e-01,-4.608008341320678491e-01,-3.213436961965346339e-02,1.895863086949129417e-01,-2.208358027644783117e-01,-2.330266513825669239e-01,5.338639446835893310e-01,6.679327487945556641e-01
5.736809999999999965e-01,4.236465521764345293e-03,-5.416379884897622871e-02,9.609980583190917969e-01,-7.837963201045705999e-03,-2.533066683466445035e-02,7.322343192921842991e-02,-8.743549130672505221e-02,-2.801452998341139033e-02,-8.520523458719253540e-02,-4.341528146889537254e-01,1.332378742112593772e-01,7.730962071955974069e-02,1.934797410364391124e-01,-4.559164295458697502e-01,-3.064917505466158154e-02,1.993619448727978749e-01,-2.326301809169300516e-01,-2.348643024937744905e-01,5.341041339657449649e-01,6.774144172668457031e-01
5.984390000000000542e-01,1.465476371494178580e-03,-5.323964010317393941e-02,9.585809707641601562e-01,-1.670665206407557016e-02,-1.761653553762854152e-02,7.531058009529845165e-02,-8.446401181112635215e-02,-2.284228635202591173e-02,-7.577610015869140625e-02,-1.965648947856312445e-01,3.271043507199086209e-01,7.450812302909712304e-02,2.632869834738702508e-01,-4.117164519043520210e-01,-2.531798889714914624e-02,2.016588471257752813e-01,-2.392364521253944887e-01,-2.352874293322949062e-01,5.318497101312573694e-01,5.792384147644042969e-01
6.243870000000000253e-01,-3.836645876389062630e-04,-5.267251985409513587e-02,9.571204781532287598e-01,-1.873066305746871885e-02,-1.057383318330651356e-02,7.652979078018051773e-02,-8.423978746199126122e-02,-2.502808102101557186e-02,-7.640533149242401123e-02,-7.123746389442159321e-02,3.548076352818486101e-01,6.564038034040406422e-02,2.766853157363271531e-01,-3.646089314217851873e-01,-2.075540392504926501e-02,2.047608020120261219e-01,-2.353264431986951122e-01,-2.342941760626525705e-01,5.326489161381366966e-01,6.123089790344238281e-01
6.499559999999999782e-01,-2.482886172389185079e-03,-5.294325671371050146e-02,9.552450776100158691e-01,-1.595880220647172970e-02,2.012952009824431343e-03,7.817330831640800781e-02,-7.288814677937049957e-02,-1.860684114675200534e-02,-6.899803131818771362e-02,1.632180261612941885e-01,4.597604720415606194e-01,5.459143148708215515e-02,2.766463351372834278e-01,-1.231812515351932147e-01,-8.510976169066847286e-03,2.150135558787132917e-01,-8.614433309005821437e-02,-2.272084223945072534e-01,5.332577615640514690e-01,6.658909320831298828e-01
6.734449999999999603e-01,-3.830318280613662606e-03,-5.307896615174590577e-02,9.541046619415283203e-01,-1.166952275280040696e-02,1.088456730593723165e-02,7.920436105325667775e-02,-7.578576250732324548e-02,-2.654189275785864485e-02,-6.950013339519500732e-02,2.071471531597458560e-01,4.154290073503409397e-01,6.388535837834863340e-02,2.273316580733635850e-01,1.724764955444640924e-02,-2.631818112184103331e-03,2.024618701197310466e-01,4.730194118381415846e-03,-2.244465791343154826e-01,5.344020643295325224e-01,7.196586132049560547e-01
6.976590000000000291e-01,-5.730809802509114620e-03,-5.325301212172956627e-02,9.526994824409484863e-01,-3.310779779606068309e-03,2.357243662288133201e-02,8.094675860065114747e-02,-6.772952003214689765e-02,-1.860049881959530832e-02,-6.068621203303337097e-02,2.717761681875869861e-01,4.259796170412423755e-01,6.708441187812756723e-02,7.622215407526869435e-02,-1.299176308614660713e-03,5.880233944776380728e-04,9.412344075412953925e-02,-1.055476081047294623e-01,-2.262589267174641428e-01,5.342742123831739631e-01,7.403354644775390625e-01
7.235019999999999785e-01,-6.975762101112101266e-03,-5.335244770615070464e-02,9.519060850143432617e-01,2.512251529373825659e-03,2.966875175621241922e-02,8.200234373351467099e-02,-6.142839345073084628e-02,-1.832024932357841779e-02,-6.134707480669021606e-02,2.704443652160145040e-01,2.426598560562221174e-01,4.614821671220368376e-02,-2.078610452445707191e-01,2.205960245331168856e-01,-3.038073988899520073e-03,-1.500253600222111461e-01,7.368974501268572841e-02,-2.327501523898308500e-01,5.344870773411195541e-01,7.440838813781738281e-01
7.481790000000000385e-01,-9.281733288058782033e-03,-5.369402168222696392e-02,9.510330557823181152e-01,1.048123091177346512e-02,3.443805620878492846e-02,8.395369585480727537e-02,-6.810946695317393607e-02,-1.012309677812392623e-02,-5.896391347050666809e-02,2.327937100029007778e-01,1.388105456089435141e-01,6.714541848612717856e-02,-2.837766095946365752e-01,3.093634459214142929e-01,-1.139496036698633974e-03,-1.833652303694834340e-01,1.405462166568026416e-01,-2.359842160553483892e-01,5.344854364980424766e-01,7.477743625640869141e-01
7.734729999999999661e-01,-1.088615700586171610e-02,-5.397922834650198398e-02,9.504517316818237305e-01,1.381976813858264846e-02,3.498391206013184984e-02,8.496201324222774076e-02,-5.959858154249946666e-02,-1.597659952147689744e-02,-6.067518144845962524e-02,1.347822252771402052e-01,-1.718950608128537449e-02,5.259354780719575212e-02,3.084858258034528511e-02,3.904497077472205424e-01,1.251764614219516569e-02,1.624844136754101109e-01,2.084466016267643440e-01,-2.250616679665715381e-01,5.347754998751848010e-01,7.524685859680175781e-01
8.002479999999999594e-01,-1.314884066943743102e-02,-5.419079676561376624e-02,9.496635198593139648e-01,1.430330653754808244e-02,3.271516294038945283e-02,8.658143469015300298e-02,-5.077007230941672777e-02,5.838771191001784246e-03,-6.522323936223983765e-02,-4.612572538972976866e-02,-1.161314500142959644e-01,7.281739098033694624e-02,1.222549313380292130e-01,1.481665019874622014e-01,2.242161004312798189e-02,2.337111041057751137e-01,-2.510515401645278463e-02,-2.195547213401105591e-01,5.350720522620885378e-01,7.457305192947387695e-01
8.228330000000000366e-01,-1.460053161886801058e-02,-5.421689090213839546e-02,9.491438269615173340e-01,1.241776684914968482e-02,2.833504233347694523e-02,8.734886391549623319e-02,-5.163885264088156207e-02,-6.354605723171410925e-03,-6.367345899343490601e-02,-8.279757098074864985e-02,-3.082704908570009783e-01,3.907492464187334313e-02,1.320786806842070282e-01,3.397516432019199173e-01,2.244860666708084485e-02,2.515000694761650446e-01,2.015570183050225395e-01,-2.219113392268217411e-01,5.348606778843750797e-01,7.354863882064819336e-01
8.495230000000000281e-01,-1.737269221366259317e-02,-5.414118138226794302e-02,9.487081766128540039e-01,1.033788934958617019e-02,1.914340326216401600e-02,8.853571478745858592e-02,-4.381082386515394722e-02,-1.419926529781371074e-03,-5.629225075244903564e-02,-2.054027712914446510e-02,-3.106874581273291192e-01,4.292095409645362708e-02,1.517303004760316154e-01,2.888256022720083194e-01,2.319370096358627786e-02,2.499211266569880685e-01,2.036997445775505511e-01,-2.245823533320337739e-01,5.343548078476620944e-01,7.333668470382690430e-01
8.744849999999999568e-01,-1.925699914135559424e-02,-5.408421813367633030e-02,9.484806656837463379e-01,1.021612291615119940e-02,1.203515229741158876e-02,8.913968069363709112e-02,-4.001933022330149414e-02,-6.050064069009188084e-03,-5.365768447518348694e-02,6.605498183998091688e-02,-3.835871584381601584e-01,2.299031516572826173e-02,1.441183576427524371e-01,2.429753960712749683e-01,2.283556384963678076e-02,2.488163180445517042e-01,2.047772641751864908e-01,-2.266983579892297429e-01,5.344067045526164073e-01,7.435898780822753906e-01
8.994569999999999510e-01,-2.198912016631226346e-02,-5.406979226887194401e-02,9.485263824462890625e-01,1.264306010106831281e-02,1.932062363442010877e-03,9.028795379695764289e-02,-4.124904250862550942e-02,-1.076496113736119704e-02,-4.454869404435157776e-02,1.096581628815789661e-01,-3.383368806926771444e-01,4.514041264776096074e-02,1.166879490675126751e-01,1.726961679764882907e-01,2.328343873123242536e-02,2.412916383912196427e-01,2.045253290744199481e-01,-2.295400931362488184e-01,5.337704863401621092e-01,7.429238557815551758e-01
9.226769999999999694e-01,-2.364343811856112892e-02,-5.414483395388550169e-02,9.485166072845458984e-01,1.498282920280677270e-02,-4.997029720578138878e-03,9.091504301344310868e-02,-3.646972948626329286e-02,-1.034914715593058220e-02,-4.861918091773986816e-02,1.686620155581801395e-01,-3.242702496445512006e-01,3.158631149560813672e-02,9.209505418692542911e-02,1.323263729129800226e-01,2.349741400035759709e-02,2.310394667531937285e-01,2.045792207675022067e-01,-2.311725426505757408e-01,5.341276390157847498e-01,7.444621324539184570e-01
9.481669999999999821e-01,-2.627599724469500270e-02,-5.389505689994161797e-02,9.486870765686035156e-01,1.885742120895388466e-02,-1.444706351967384172e-02,9.203255017426115181e-02,-3.255043918976453787e-02,-1.074063079172335976e-02,-4.842673987150192261e-02,1.452848790470878115e-01,-3.116901162752638288e-01,5.147961997687582059e-02,2.478006921054501377e-02,7.440300869695312680e-02,3.017340087613476496e-02,1.905940033429757152e-01,2.070936672304838078e-01,-2.278363017002178748e-01,5.340489212702433930e-01,7.395753860473632812e-01
9.733389999999999542e-01,-2.797202020825716520e-02,-5.366292964923072978e-02,9.487556815147399902e-01,2.154435007481012368e-02,-1.972680709647867126e-02,9.274481163648462534e-02,-4.341833723856181743e-02,-9.420178216589001480e-03,-4.257445037364959717e-02,1.619374496653718520e-01,-2.379360559466792147e-01,2.176166489286904607e-02,-8.149773780894431496e-03,2.757992518411464533e-02,2.674842780249267471e-02,1.733348824811281885e-01,2.076163207580222769e-01,-2.334873923765685977e-01,5.335241782913819897e-01,7.321414947509765625e-01
9.982410000000000450e-01,-3.047709216732423856e-02,-5.344078029104513267e-02,9.488584995269775391e-01,2.492829388656002745e-02,-2.603749563137625067e-02,9.349558417629433293e-02,-3.069771212692275902e-02,-1.993575833937054689e-02,-5.035064741969108582e-02,1.066941961869096595e-01,-1.841744223962089033e-01,3.012875669615453292e-02,-2.277971615035851993e-01,1.855966692530316986e-02,6.271399813217828911e-02,-1.152969327742085597e-02,2.248652677646941211e-01,-1.997714634436114911e-01,5.341386450885201587e-01,7.334635257720947266e-01
1.024253000000000080e+00,-3.214530782933558428e-02,-5.334100365279947215e-02,9.490035176277160645e-01,2.695041452884760005e-02,-2.864084552048784538e-02,9.400947474804977055e-02,-4.599835200351767156e-02,-1.347436855700584989e-02,-5.099036917090415955e-02,1.209228475114395990e-01,-6.629836482800463560e-02,2.556779133273721569e-02,-4.105916727693292856e-01,-3.771652459508473276e-03,5.542746764424019701e-02,-1.926223502282003175e-01,2.394132568171866426e-01,-2.088179173502160146e-01,5.332738761235975566e-01,6.816370487213134766e-01
1.050489000000000006e+00,-3.447085599190864019e-02,-5.297134194720160699e-02,9.490312933921813965e-01,2.792249381031360056e-02,-3.107615599839208542e-02,9.417604074167251760e-02,-4.026706788474768151e-02,-1.838992932081340639e-02,-6.203212589025497437e-02,-4.138752780756070788e-03,-5.501300053732431639e-02,-1.383512480099573574e-02,-4.157940504414936456e-01,-3.686944898137256565e-03,4.471067736878044929e-01,-1.834939145352071366e-01,2.459048629308737410e-01,1.823801146960915831e-01,5.113352779757539546e-01,-5.519880652427673340e-01
1.072378999999999971e+00,-3.605072851015698326e-02,-5.257945912494940699e-02,9.491148591041564941e-01,2.629288522589068658e-02,-3.118624575570994040e-02,9.422130764294411875e-02,-4.752805045713573429e-02,-1.670116236016653752e-02,-5.604881048202514648e-02,-1.263678157095392274e-01,-5.632137092736514382e-03,-5.899273582517616625e-03,-2.258444392861998495e-01,-1.529800129888377880e-01,3.884758102296814730e-02,-8.420579185877680520e-03,1.077196565144711154e-01,-2.259970210752395015e-01,5.341556378408029992e-01,7.060072422027587891e-01
1.098060000000000036e+00,-3.845661203844964043e-02,-5.193278201146787898e-02,9.487715959548950195e-01,1.858888222331170001e-02,-3.085638118262479246e-02,9.375781455190801417e-02,-5.638338979198383172e-02,-5.980514933193958015e-03,-7.117476314306259155e-02,-3.141686252409733315e-01,-2.173975253617825825e-03,-4.784861290595682909e-02,-5.048002196938421171e-02,-2.281103517791212565e-01,3.408334038881122297e-02,1.057481898771060608e-01,3.829626049089162459e-02,-2.291464603081633244e-01,5.350022421935004546e-01,6.886394023895263672e-01
1.123270999999999908e+00,-4.007831819014709418e-02,-5.152023876499436245e-02,9.483619928359985352e-01,1.153837022412252701e-02,-3.068540713095813111e-02,9.343298600619442951e-02,-5.412945693733536151e-02,-4.434823834690995205e-03,-7.971071451902389526e-02,-3.559942474662741718e-01,-2.929482990858013614e-02,-5.392064312459084879e-03,7.987135822814458996e-02,-2.494189221293524050e-01,3.043928867112635772e-02,1.926343251002175516e-01,1.253540968400901519e-02,-2.314559555240194022e-01,5.355838495883861183e-01,6.825878620147705078e-01
1.149591000000000030e+00,-4.184307065761830313e-02,-5.111037024484460511e-02,9.479679465293884277e-01,4.936846733774561020e-03,-2.966433086550290810e-02,9.333249110267716198e-02,-6.238246123835317070e-02,-1.417042264264386370e-02,-7.524612545967102051e-02,-2.913533995584441372e-01,3.570937343270499248e-02,-1.664944388812461193e-02,1.160356131619951353e-01,-3.259821200271745267e-01,2.920158238719630650e-02,1.951305496208926016e-01,-5.879483058806195955e-02,-2.319562370574988763e-01,5.350846497533243706e-01,6.682112216949462891e-01
1.174824000000000090e+00,-4.343314035842440329e-02,-5.162914849906179854e-02,9.473778605461120605e-01,-2.004664961594878995e-03,-2.691470018304076284e-02,9.350335575228374552e-02,-6.083571423278631013e-02,-1.364814363623286474e-02,-7.130883634090423584e-02,-2.139620422981130254e-01,1.333793491291888622e-01,1.591768615143694665e-02,1.574418589925442868e-01,-4.860287444879299312e-01,2.808296367529863891e-02,1.877762630705928082e-01,-2.393794733330582014e-01,-2.332298719158277522e-01,5.341170987125466452e-01,6.258931159973144531e-01
1.199308999999999958e+00,-4.454636334477398568e-02,-5.205301164171712014e-02,9.470693469047546387e-01,-3.175324660284292288e-03,-2.328952702513253925e-02,9.346929368469347743e-02,-5.877642969009072571e-02,-1.551242261866941224e-02,-6.373897194862365723e-02,-1.510487424354149677e-02,2.062083806650584217e-01,-1.534202131194174930e-02,6.935117260887774249e-02,-3.425997953200519697e-01,3.715909215417864675e-02,9.410794072889708262e-02,-1.197532752060053857e-01,-2.240340074419127359e-01,5.285803185353898925e-01,3.486738204956054688e-01
1.223348000000000102e+00,-4.614199386773916445e-02,-5.279486385827138195e-02,9.466565251350402832e-01,-2.105046387953746125e-03,-1.546722706765502053e-02,9.347582193014947194e-02,-5.378212438028365239e-02,-2.335549554141974973e-02,-6.641393899917602539e-02,3.734881607556468641e-02,3.035682731800984913e-01,9.247872493504959851e-03,6.086047418491363076e-02,-2.620195075478264912e-01,3.809079735247883347e-02,9.944157927589267199e-02,-9.276337072744696155e-02,-2.232427882807915820e-01,5.320544076017622581e-01,5.242147445678710938e-01
1.250197999999999920e+00,-4.747371368459717828e-02,-5.396461115403095726e-02,9.463255405426025391e-01,1.427669663823242152e-03,-3.549587704697598767e-03,9.354980873660379004e-02,-5.128093048849508701e-02,-1.920509548942603631e-02,-6.223684549331665039e-02,7.006490074032618864e-02,4.691680785271103993e-01,2.385539385431502402e-02,-5.461032886872005387e-02,-2.736142937206119674e-01,3.582637758928727822e-02,-7.377419644712148979e-04,-1.824264081976312291e-01,-2.259769860911251260e-01,5.337185360907326093e-01,6.288366317749023438e-01
1.273603999999999958e+00,-4.812776566463981831e-02,-5.524072394213246778e-02,9.461120963096618652e-01,3.843084066484134687e-03,4.528226138471591611e-03,9.340110383122324222e-02,-4.498358673860853446e-02,-2.479548904649203633e-02,-5.722976848483085632e-02,7.918345002180990355e-02,3.647884329625767919e-01,4.314412671880843604e-03,-2.026603908168711499e-01,-2.340993449291965123e-01,3.415604570729066647e-02,-1.257990023309545624e-01,-1.999403726943629334e-01,-2.273099044451573902e-01,5.345587662261214179e-01,6.919260025024414062e-01
1.300918000000000019e+00,-4.908818099201984336e-02,-5.709860626479434931e-02,9.457315206527709961e-01,6.417060225834704708e-03,1.594685677308782523e-02,9.380434033689177831e-02,-4.229494501078788493e-02,-1.561820687748793034e-02,-6.423244625329971313e-02,3.430950526401721490e-02,3.603872300520565286e-01,1.920730410373819308e-02,-2.419555183487996919e-01,-1.725758595716211097e-01,3.334329797074170321e-02,-1.598999750266266728e-01,-2.135119413945705258e-01,-2.292777255570457307e-01,5.353158612611262912e-01,7.021424770355224609e-01
1.325453999999999910e+00,-4.966541441345769664e-02,-5.817897120751744366e-02,9.455536007881164551e-01,7.044380848342184955e-03,2.253112735317031046e-02,9.393291801023839760e-02,-4.217657309354552742e-02,-1.287118381077893316e-02,-6.648813933134078979e-02,-2.715497753283168531e-02,2.861335393389236037e-01,-1.435867921974604260e-03,-2.732694990111246836e-01,-1.302141704405091471e-01,3.189822123822882993e-02,-1.868538747260572175e-01,-2.126489027559270162e-01,-2.310693063232950317e-01,5.359745442028982509e-01,7.263419628143310547e-01
1.349644999999999984e+00,-5.062477890563890637e-02,-5.985429821361547276e-02,9.451104402542114258e-01,4.912372447482332358e-03,3.122229412722754560e-02,9.437308462379756513e-02,-3.337362773532918242e-02,-9.080625233528552553e-03,-6.521806865930557251e-02,-1.483036693435740572e-01,2.578233359383106382e-01,3.584127904453072305e-02,-1.869594303265122159e-02,-8.706622654099424596e-02,3.887204044728681529e-02,5.159267409763466927e-02,-2.338256237956166661e-01,-2.253753613293402180e-01,5.361617990106989362e-01,7.378089427947998047e-01
1.373791999999999902e+00,-5.147607835881839317e-02,-6.101658667140896775e-02,9.448339343070983887e-01,1.806090367734059779e-03,3.610945173361890248e-02,9.442159948646078327e-02,-2.650419995322605277e-02,1.098619146537229731e-03,-7.503690570592880249e-02,-1.871100620836129158e-01,2.002947974749166304e-01,6.259541465956090962e-03,1.593871850673719559e-01,-6.465325626377108059e-02,4.428658930903917046e-02,2.009961724726556653e-01,-2.465530739851005959e-01,-2.201749070974513001e-01,5.366886061663135310e-01,7.243604660034179688e-01
1.398493999999999904e+00,-5.246257589329875182e-02,-6.261775751282110114e-02,9.443634748458862305e-01,-3.814408217320354889e-03,4.191947646275528960e-02,9.442312850561518367e-02,-1.660665996798471947e-02,-1.189739534437923331e-02,-6.329532712697982788e-02,-2.040639662597216464e-01,1.223492286091749232e-01,7.054294292469006494e-04,1.893135169860534761e-01,-2.267407374240057449e-02,4.469922794461181348e-02,2.118446030511310640e-01,-2.468563509513982124e-01,-2.201981940368805957e-01,5.360872091510029414e-01,7.333765029907226562e-01
1.422903999999999947e+00,-5.287128270687643794e-02,-6.362573160041645748e-02,9.441370964050292969e-01,-6.483812842701941470e-03,4.457890950893483861e-02,9.454290152548150417e-02,-1.104021736475289429e-02,-1.552064631511935111e-03,-5.621114373207092285e-02,-9.016776833124014179e-02,1.421371519728759358e-01,1.256291025986414067e-02,2.144881360808247039e-01,-8.597903040103993533e-04,4.458255271142225196e-02,2.052777531027178970e-01,-2.446392970852735160e-01,-2.207183371998993615e-01,5.357548958317306376e-01,7.404074668884277344e-01
1.448890000000000011e+00,-5.322228048446939197e-02,-6.511251752654413638e-02,9.439714550971984863e-01,-6.819773486448096542e-03,4.688097550877690090e-02,9.472852604287784750e-02,1.487835904691327260e-02,-8.462191775697647592e-03,-5.431785061955451965e-02,2.829952690867994919e-02,8.793469810096982489e-03,3.678402590173352350e-03,-1.983426650308970501e-02,3.467498231439239964e-01,3.712209104720401442e-02,-1.819972590305499877e-02,6.536600102585102268e-02,-2.289392929000599042e-01,5.359779524661862915e-01,7.574633359909057617e-01
1.474191999999999947e+00,-5.398056179861445564e-02,-6.677157620831174201e-02,9.439273476600646973e-01,-4.791974606343698401e-03,4.758377391390955502e-02,9.494956777857588293e-02,8.297568650762959103e-03,-4.766978723661813473e-03,-4.416600614786148071e-02,1.454907913885118975e-01,4.271689440721192915e-02,6.183680427820826934e-03,-1.156130674267364794e-01,3.582529335326185005e-01,3.330512309738814514e-02,-1.070814100971899108e-01,8.806185360695684139e-02,-2.331629919914414706e-01,5.352826127873754336e-01,7.572225332260131836e-01
1.498950999999999922e+00,-5.481888365182938788e-02,-6.915938322775556923e-02,9.439197778701782227e-01,-4.781064512223204732e-04,4.640801049773046749e-02,9.546064841249557453e-02,3.004747737454214682e-02,-1.029047022408176998e-02,-4.396638274192810059e-02,1.387652642148702042e-01,-1.036559371532548846e-01,1.136224423798501068e-02,2.071591845052414560e-01,4.914553132333245311e-01,5.133942112611969422e-02,2.539817655007720609e-01,2.054559523961713152e-01,-2.164307538074873583e-01,5.353126662779550404e-01,7.576864957809448242e-01
1.523659000000000097e+00,-5.519592173803784113e-02,-7.057755824167784298e-02,9.440557360649108887e-01,1.923678146112092324e-03,4.340796357744891587e-02,9.580446444085954916e-02,2.451905210376562755e-02,1.417133586714128927e-05,-3.794459253549575806e-02,1.155782987887088026e-01,-1.474973130093093221e-01,-6.331187083323587018e-04,2.062047597042728775e-01,4.588013236263249750e-01,5.098991433827240738e-02,2.567354329599340068e-01,2.047232064249221162e-01,-2.174520637849342852e-01,5.348819676948354251e-01,7.567021846771240234e-01
1.549517999999999951e+00,-5.551643360711697173e-02,-7.255673775160817462e-02,9.442171454429626465e-01,3.689110569447426932e-03,3.447976644325279061e-02,9.624664212784872497e-02,3.596903329643315328e-02,-4.157359725601971097e-03,-2.940307743847370148e-02,9.946079991268018394e-02,-3.667255284952815608e-01,6.069667880545129811e-03,1.819270634824090016e-01,4.130427248752346348e-01,5.005165641864225967e-02,2.553591711334558534e-01,2.042724929410878465e-01,-2.195939307346525260e-01,5.342359033927617240e-01,7.539285421371459961e-01
1.574707999999999997e+00,-5.586234926597893891e-02,-7.447304965660309084e-02,9.443944692611694336e-01,5.475165853902761587e-03,2.632322650378426943e-02,9.640800153289874608e-02,3.402066570487749519e-02,-5.346851934074324519e-03,-3.391677513718605042e-02,1.597972786672975654e-01,-4.106417213891157547e-01,1.762351264817263105e-02,1.668293151158404819e-01,3.536214954681277667e-01,4.795657201141009796e-02,2.534029525550741124e-01,2.039582804011523809e-01,-2.220414674045690651e-01,5.346159945625043042e-01,7.557632923126220703e-01
1.598562999999999956e+00,-5.615551338064960624e-02,-7.726088467457134512e-02,9.447045922279357910e-01,9.866664809065631148e-03,1.242386666614092583e-02,9.671165423771643788e-02,4.320222690787276637e-02,-1.407392458184468162e-02,-3.165545687079429626e-02,2.047731293692017507e-01,-4.590075393478271204e-01,-7.997778626930365786e-03,1.761542944174593339e-02,2.821178518900330223e-01,4.429075781773095244e-02,1.454942033402056578e-01,2.132798905684127055e-01,-2.264810730016721396e-01,5.344536788637064273e-01,7.550997734069824219e-01
1.623869000000000007e+00,-5.620215856427347723e-02,-7.909547293599392126e-02,9.448312520980834961e-01,1.294712767736083507e-02,2.574418862762550830e-03,9.695022714400947095e-02,4.233103376175940957e-02,-5.914331990484596353e-03,-3.188227117061614990e-02,1.989077161918638148e-01,-4.651479393040057198e-01,1.461293252141117847e-02,-7.930986774990293753e-02,2.224464071798225306e-01,4.435036117406121470e-02,5.953754352574726350e-02,2.206416219300753045e-01,-2.270852673922938436e-01,5.344497152370332183e-01,7.529876232147216797e-01
1.652433999999999958e+00,-5.621302529751238258e-02,-8.172315774087571261e-02,9.449232220649719238e-01,1.703668894940999282e-02,-1.054390201697574803e-02,9.739301566845592895e-02,4.827927451339761311e-02,-1.921209830932044810e-02,-3.995391353964805603e-02,1.348747694301306588e-01,-4.463897760740090370e-01,7.272152580474790240e-03,-3.706639483552511827e-01,1.667325575791240022e-01,1.557699972534540289e-01,-1.851534477465938966e-01,2.447358337477126000e-01,-1.169970357766176167e-01,5.348432142385423083e-01,7.405440807342529297e-01
1.675572999999999979e+00,-5.600472466215149908e-02,-8.333761490588134646e-02,9.447861909866333008e-01,1.853576106218814482e-02,-1.825121793483663879e-02,9.772996159872548994e-02,4.187205837891515986e-02,-1.036829137911824718e-02,-3.993668034672737122e-02,1.093019959016514747e-01,-3.005496218212101445e-01,2.555195842796915279e-02,-3.586186089804760391e-01,1.083651187597155230e-01,1.500280929129972629e-01,-1.754463359650314525e-01,2.437152486933247819e-01,-1.238442151140091430e-01,5.348889012015910494e-01,7.410103082656860352e-01
1.702795000000000059e+00,-5.567872100827755966e-02,-8.564207447747097801e-02,9.444655776023864746e-01,1.807625982096306219e-02,-2.746808411139278761e-02,9.729589252602743876e-02,4.854496574840195394e-02,-1.361011971848575565e-02,-5.887940526008605957e-02,-7.344312973830785518e-02,-2.934978620327363119e-01,-5.580602116757527736e-02,-3.145204804836019830e-01,5.759006315499612394e-02,4.262709073740494903e-01,-1.247571007438427887e-01,2.443012193059937442e-01,1.535940283000525042e-01,5.305254835644427347e-01,4.220129251480102539e-01
1.726475999999999900e+00,-5.537771259746208929e-02,-8.700483773354254768e-02,9.440829157829284668e-01,1.498722686201085959e-02,-3.192821303310933168e-02,9.662846382306078397e-02,3.985087356466249231e-02,-8.035350245110046974e-03,-4.973330348730087280e-02,-1.657829588440923041e-01,-2.133870423416218409e-01,-5.703739611608555499e-02,4.792281372252030214e-02,-2.176050354043454482e-02,4.232075197170059866e-02,2.117383822445266239e-01,2.047862293144354917e-01,-2.284403689924059400e-01,5.344214597737440009e-01,6.689825057983398438e-01
1.748181999999999903e+00,-5.506519547420306304e-02,-8.889952807519896361e-02,9.433451890945434570e-01,6.777233408902253765e-03,-3.680856653989938998e-02,9.483552137252404535e-02,3.600758696696448186e-02,-7.745890503342916025e-03,-6.219416111707687378e-02,-2.967318796268142433e-01,-1.795758959160923540e-01,-7.334851228160575720e-02,8.633884610578597407e-02,-5.394882043023446760e-02,3.537650830039143490e-02,2.001587370921857623e-01,2.060645780074201738e-01,-2.299161340054143576e-01,5.356345232892897323e-01,6.809003353118896484e-01
1.774423000000000084e+00,-5.454434417981913336e-02,-8.965548929580718918e-02,9.428028464317321777e-01,6.001465728350525823e-04,-3.906202606890696316e-02,9.422147827857019209e-02,2.991650165594921321e-02,-2.559208022891384850e-03,-6.351713091135025024e-02,-3.039181095275245714e-01,-9.565582737336068841e-02,-1.730056155949375937e-02,1.578963917355550861e-01,-1.047046698834643019e-01,2.828280275427819124e-02,2.270426610462715211e-01,1.747915656176383392e-01,-2.349463522967683016e-01,5.359306702576043246e-01,6.875030994415283203e-01
1.798818000000000028e+00,-5.403450802973298189e-02,-9.081439728102372322e-02,9.419662356376647949e-01,-5.388758698238719017e-03,-4.177024257020733877e-02,9.384616444446702843e-02,2.118243670654034252e-02,-9.703951626619515547e-03,-6.887743622064590454e-02,-1.056811376720208362e-01,-9.098240395509986367e-02,-5.341368077529337968e-03,1.964585256582082606e-01,-9.760392113968588412e-02,2.578866900032758536e-02,2.362611493069078084e-01,2.071636329560659073e-01,-2.358523472964621781e-01,5.348974055440922637e-01,6.029298305511474609e-01
1.823407999999999918e+00,-5.373981165480568034e-02,-9.161404833362576938e-02,9.415571093559265137e-01,-6.422623629360249380e-03,-4.259935911694667787e-02,9.386524393612494244e-02,1.332182114735912422e-02,-1.402058329155985057e-02,-5.519382283091545105e-02,-3.888088674380905940e-02,-1.405741009447116288e-02,1.074564493827612384e-02,2.001591917349192229e-01,-1.131432341024343480e-01,2.523062645858112352e-02,2.355919887891070041e-01,2.019949542460736935e-01,-2.363311428734327369e-01,5.355464631642355977e-01,6.891624927520751953e-01
1.849984000000000073e+00,-5.355383281800363965e-02,-9.287134345538715363e-02,9.410763978958129883e-01,-3.954010338200215219e-03,-4.180902674750597292e-02,9.382188616658804214e-02,9.938286877882212406e-03,-1.717312402763329637e-02,-4.905025660991668701e-02,1.332208802760998789e-01,8.690951531347052006e-02,3.331443376035666485e-03,-2.376200988499986011e-01,-6.945336424451384327e-02,6.345790877333687408e-02,-1.837035562263034938e-01,2.409667470559935520e-01,-1.981400746905283283e-01,5.342587000229889194e-01,6.384332180023193359e-01
1.872719999999999940e+00,-5.318773339978073028e-02,-9.391096711154714449e-02,9.407417178153991699e-01,-8.123508023300190324e-04,-4.025246150088990227e-02,9.385200202581311935e-02,5.261151388558943202e-03,-2.458331766429085879e-02,-4.022006690502166748e-02,1.554461858554359033e-01,1.085116336066437870e-01,3.084040624575609679e-02,-2.754332831945751625e-01,-6.291944460951379159e-02,6.495170769060992777e-02,-1.943720607875193129e-01,2.408632985002855109e-01,-1.968905584956148758e-01,5.339938505566074189e-01,6.553701162338256836e-01
1.898188999999999904e+00,-5.252948652888304870e-02,-9.562670981953393101e-02,9.404141306877136230e-01,4.079571062810682588e-03,-3.602794053608948666e-02,9.338741196701905167e-02,3.508922403514507220e-03,-1.414977345357178520e-02,-4.947246238589286804e-02,9.494895186104648777e-02,1.663417570614235397e-01,-2.311170373438614298e-02,-2.637101937851607514e-01,-6.291190346464262118e-02,6.103991171354328227e-02,-1.634233129714709187e-01,2.115478354615641654e-01,-1.999895723806883741e-01,5.350848448134860602e-01,6.756002902984619141e-01
1.923829000000000011e+00,-5.220609955227453747e-02,-9.661190962611088118e-02,9.399691820144653320e-01,4.298722026757607027e-03,-3.308155766048148649e-02,9.322090232231139417e-02,-7.558648368185492137e-04,-1.276701495099456449e-02,-5.288833379745483398e-02,-5.522040092935122380e-02,1.248491686352793117e-01,4.580020190749579077e-03,-1.405220239932581383e-01,-4.696474594034734107e-01,3.670511713139892884e-02,-3.644023529157526531e-02,-2.106909025171475047e-01,-2.238748506798207416e-01,5.340829618881652863e-01,6.025969982147216797e-01
1.948919999999999986e+00,-5.193397046079505086e-02,-9.775248374052566969e-02,9.391844868659973145e-01,2.828627977377962005e-05,-2.896891294384773552e-02,9.264954108294976010e-02,-1.584182433805039064e-02,4.092157683753939556e-04,-5.380026996135711670e-02,-2.013456917734035567e-01,1.078499113691179651e-01,-1.561044214615870535e-02,1.319707706291191607e-01,-4.604147759409249474e-01,2.608277353850929625e-02,1.949850963347252997e-01,-2.151369502058207706e-01,-2.327998179589639283e-01,5.355069869983580810e-01,6.721576452255249023e-01
1.973330999999999946e+00,-5.177291578428695751e-02,-9.856077146269036360e-02,9.385735988616943359e-01,-4.547135603532578840e-03,-2.635994154630938446e-02,9.216352338218469775e-02,-6.449278897651772487e-03,4.487083656478778890e-04,-6.763776391744613647e-02,-2.598972843435135016e-01,1.181279961559448671e-01,-1.950455543775549833e-02,1.573043969132998932e-01,-4.464070719545528698e-01,2.347690877140959365e-02,1.963751800600107289e-01,-2.319831356289364654e-01,-2.338666487461859289e-01,5.366496542010196213e-01,6.753380298614501953e-01
1.998992000000000102e+00,-5.121776956238171391e-02,-9.995682809481867825e-02,9.377601146697998047e-01,-1.047111606514875524e-02,-1.934049676232030279e-02,9.163666125207781121e-02,-1.580626403225978555e-02,1.725551046003468477e-03,-5.781239271163940430e-02,-1.945426882788270917e-01,2.792081641453166840e-01,-1.731538509717501020e-02,1.982257486918915512e-01,-4.242959366830355572e-01,2.192618119954350964e-02,1.968534233972075720e-01,-2.423276036876984563e-01,-2.338287480418630715e-01,5.354344197452217680e-01,6.414451599121093750e-01
2.023902999999999786e+00,-5.085597155421840709e-02,-1.009053498364337886e-01,9.373201727867126465e-01,-1.142389068441595178e-02,-1.190431290565130418e-02,9.111380830142001841e-02,-7.006532413681704555e-03,-5.067022460567297210e-04,-5.337393283843994141e-02,-3.170193638402954428e-02,4.238536677879800041e-01,-3.178703416290622197e-02,1.970802818679131263e-01,-3.619113251159055133e-01,2.176922486885782271e-02,1.928715360429342218e-01,-2.400917045521235305e-01,-2.327591057466009972e-01,5.352882256765938429e-01,6.471004486083984375e-01
2.049151999999999862e+00,-5.015203124924838551e-02,-1.022839266016912080e-01,9.368452429771423340e-01,-9.471214397953432729e-03,1.162780932389306798e-03,9.039816709418224683e-02,-4.929702451945493615e-04,-7.696732205368925391e-03,-4.770366474986076355e-02,4.888219644304431233e-02,4.746138047318361752e-01,-6.566858612250299140e-03,1.448195745485627017e-01,-2.718901797334756787e-01,2.281220346930287746e-02,1.593222465163874335e-01,-2.384201654386094160e-01,-2.301460931022541179e-01,5.360249941162094078e-01,7.060544490814208984e-01
2.073862000000000094e+00,-4.992389033690924904e-02,-1.029504870175412812e-01,9.366407990455627441e-01,-6.025323740654787465e-03,1.069870764569968991e-02,8.996935070091915954e-02,-1.110249478898091540e-03,-8.030330021218577913e-04,-4.015487059950828552e-02,1.439103527104933222e-01,5.261440626400333276e-01,-3.842901214430564927e-02,1.083935287060822650e-01,-2.084822950664563523e-01,2.399926194415488712e-02,1.351383511229505285e-01,-2.351506638229588775e-01,-2.279986000235734445e-01,5.357687453299465608e-01,7.193017005920410156e-01
2.098183000000000131e+00,-4.981216645137582361e-02,-1.037129660568744671e-01,9.363096356391906738e-01,-5.593837853842621765e-04,2.388447462999199189e-02,8.962786194820759889e-02,1.000203259745761561e-02,3.788834298324457841e-04,-4.517942294478416443e-02,1.250592992719417873e-01,4.266219477904741320e-01,-1.958605917902447174e-02,-2.097106157380522473e-01,-9.007992457469675418e-02,1.937283832454550492e-02,-1.464948649236046119e-01,-2.143454622467609594e-01,-2.318644507037540548e-01,5.365582428012535265e-01,7.395257949829101562e-01
2.123667999999999889e+00,-4.967929676331391681e-02,-1.041070111572794249e-01,9.361273646354675293e-01,3.066779643375126992e-03,3.145939040104872575e-02,8.937206268486552752e-02,4.553716833797312631e-03,-2.574773702331312718e-03,-3.390160948038101196e-02,1.658153043340441779e-01,3.741632203128081313e-01,-1.741163515743400156e-02,-2.727408185987915124e-01,-4.682226851630896802e-02,1.713499609110719080e-02,-1.836443661963002294e-01,-2.110768492825527975e-01,-2.333592936938219675e-01,5.359585274759827156e-01,7.483457326889038086e-01
2.148629000000000122e+00,-4.939366899720127463e-02,-1.044631779976302743e-01,9.359493255615234375e-01,5.500307373293808477e-03,3.775378692758346588e-02,8.935830166715530432e-02,1.552120094086294026e-02,1.176491686422895949e-03,-3.464238718152046204e-02,6.366345300399246787e-02,2.984511174561044755e-01,7.567969608791179706e-03,-3.169295490343996824e-01,8.858819561925135311e-03,1.495397551838614780e-02,-2.163533419551386672e-01,-2.099211019934165423e-01,-2.354425967588873736e-01,5.360642441730421037e-01,7.488573789596557617e-01
2.173693999999999793e+00,-4.876037482510374443e-02,-1.046801120979628658e-01,9.356217384338378906e-01,5.973833714391530748e-03,4.499946473303406691e-02,8.898562763146289356e-02,2.706275615410306049e-02,1.607172271978013836e-02,-3.235061466693878174e-02,-4.221736293193503048e-02,2.153711413293965815e-01,-6.816304623085091795e-03,-1.870390544597745897e-01,5.489127446482572337e-02,1.767361395037744809e-02,-9.694306584347499312e-02,-2.199134109786859415e-01,-2.315782053321215062e-01,5.359362185352709584e-01,7.481012344360351562e-01
2.198850000000000193e+00,-4.836072193746886877e-02,-1.044801674011019699e-01,9.350612163543701172e-01,1.254048950290544834e-03,4.968887933503229881e-02,8.864079755547549233e-02,3.422104595833650592e-02,2.253071870058941106e-02,-4.029595106840133667e-02,-2.391092373709588770e-01,1.199691742323775318e-01,-5.214788193202267268e-03,1.580572427220099940e-01,6.126467103179683571e-02,3.133062635014988162e-02,2.159156124393005749e-01,-2.467866991674824151e-01,-2.172673480403461421e-01,5.363474370601605257e-01,7.349095344543457031e-01
2.224797999999999831e+00,-4.788110967782422539e-02,-1.041588458312838195e-01,9.346048235893249512e-01,-3.845643085431879604e-03,5.134878055251257400e-02,8.862819982867975455e-02,5.159303154438413253e-02,3.337662307544939089e-02,-4.370535910129547119e-02,-2.504606015195421365e-01,3.655500182400984316e-02,1.685116892994241444e-02,2.004167426207991709e-01,8.870676614197459120e-02,3.072385846129851994e-02,2.173608551759297625e-01,-2.451194071685777187e-01,-2.181544149715784753e-01,5.367465472438837093e-01,7.396229505538940430e-01
2.248318999999999956e+00,-4.682950925068780912e-02,-1.035251065431084389e-01,9.339122176170349121e-01,-1.091140287526847115e-02,5.151709265521287051e-02,8.831350681797500712e-02,5.000940660584293068e-02,2.540910434274112548e-02,-3.538146615028381348e-02,-1.899321824234526390e-01,-5.182115420834961655e-02,-1.826062478280259319e-02,2.352960520432144653e-01,8.820059613362826734e-02,2.916500570520702551e-02,2.174426938927878361e-01,-2.379446667748328637e-01,-2.194376778309044540e-01,5.362774176342317567e-01,7.417659759521484375e-01
2.274198000000000164e+00,-4.582855377237044642e-02,-1.031149804750924603e-01,9.335167407989501953e-01,-1.275989455195506404e-02,4.994095687678479223e-02,8.845716122309421614e-02,6.749766534242439275e-02,2.979544151447483316e-02,-2.156144380569458008e-02,-3.337400819459678675e-02,-5.968239590208176959e-02,1.213684582116505810e-02,2.924370850639304575e-01,5.417642167848143453e-01,3.665447101438557009e-02,2.568585380041779609e-01,2.069472647977141089e-01,-2.124536074322034285e-01,5.354257365640977540e-01,7.465279102325439453e-01
2.298626000000000058e+00,-4.486330235031106561e-02,-1.027016268204252319e-01,9.333260059356689453e-01,-1.077205883621991378e-02,4.661951221847249194e-02,8.827122382072905005e-02,8.291454206698953278e-02,3.142558488074310985e-02,-2.595023065805435181e-02,1.563674619142022548e-01,-1.072585507815036893e-01,-3.236913184429886930e-02,2.692381025730864463e-01,5.307981122563489862e-01,3.376015477510624363e-02,2.473876901906443271e-01,2.075240937044041944e-01,-2.146469826042716189e-01,5.360096676853699504e-01,7.586090564727783203e-01
2.324206000000000216e+00,-4.387909076186000124e-02,-1.024115463996755071e-01,9.333117604255676270e-01,-6.898008383490507323e-03,4.355826338344570559e-02,8.823563499676900790e-02,8.108833937408208015e-02,2.574602397447721749e-02,-1.403207890689373016e-02,2.393391853033436933e-01,-1.498098486715384592e-01,-7.729709974414999615e-03,2.362010291601420175e-01,5.027682297431287362e-01,3.179423385199431351e-02,2.457423356485534116e-01,2.059529194220546533e-01,-2.162257747740293778e-01,5.351863463015930078e-01,7.588357925415039062e-01
2.348594999999999988e+00,-4.228433962844783955e-02,-1.019835881500621017e-01,9.334973692893981934e-01,1.801133843238882266e-03,3.481365100345512609e-02,8.785603803898678343e-02,9.508663336199990601e-02,2.712636867086221440e-02,-8.480463875457644463e-04,3.393916333626046944e-01,-3.382556010444741634e-01,-2.725595220408609520e-02,1.503318325059298244e-01,4.663070530815138781e-01,2.511404003319389622e-02,2.151470048754028364e-01,2.091853476998191963e-01,-2.212154476667536618e-01,5.342473578671268486e-01,7.588360309600830078e-01
2.373822999999999794e+00,-4.110481819923331864e-02,-1.016231719812856205e-01,9.337378144264221191e-01,7.942393387970900914e-03,2.664695966209174038e-02,8.790082049085534699e-02,9.122717233232457978e-02,3.126842203847093882e-02,-2.386095235124230385e-03,3.444022957116054662e-01,-3.782231045125895585e-01,-5.856315269985395110e-03,1.061718471140009334e-02,4.142441135168423161e-01,1.927218950267689523e-02,1.119767531202082722e-01,2.172664837850239450e-01,-2.268178145300635551e-01,5.343337366369023123e-01,7.572505474090576172e-01
2.399753000000000025e+00,-3.986082919918342016e-02,-1.014295987659908777e-01,9.338908791542053223e-01,1.353468047703195766e-02,1.666368154599662255e-02,8.766428132209336255e-02,1.048003323954142668e-01,2.597868413517616035e-02,-4.147622268646955490e-03,2.900108664135853109e-01,-5.007026778117563692e-01,-1.179840003281646885e-02,-1.428360874945515668e-01,3.741060518772669763e-01,1.440778496785113938e-02,3.925552210497565246e-03,2.259517320716543098e-01,-2.308847161641577050e-01,5.344874089020880126e-01,7.575200796127319336e-01
2.423404000000000114e+00,-3.787715417728192840e-02,-1.010738377810804084e-01,9.340658783912658691e-01,1.975094967763022305e-02,1.681592405969878357e-03,8.763786592591382707e-02,9.472572886906803491e-02,2.953404561327476613e-02,-6.790480110794305801e-03,2.137113332700682211e-01,-4.671473674134538068e-01,3.066083265492267063e-02,-2.530402040095560690e-01,2.690842783226890522e-01,1.344701158613439973e-02,-7.058559382116440239e-02,2.308170152572352196e-01,-2.318206722504969342e-01,5.346395132308979781e-01,7.549684047698974609e-01
2.450788000000000189e+00,-3.576940847434482984e-02,-1.005470869562422737e-01,9.340772628784179688e-01,2.233629619640237554e-02,-1.250669242697322048e-02,8.726658749557203443e-02,1.025724586907637570e-01,3.950221168464719546e-02,-1.975551992654800415e-02,7.242907926145172870e-02,-4.388846459761573948e-01,-3.745490306570842254e-02,-3.036627574248924599e-01,1.933891258386192247e-01,1.886154039327650467e-02,-1.108817427612772827e-01,2.336634179794337129e-01,-2.255869073684080017e-01,5.354684455406519827e-01,7.474164962768554688e-01
2.473428999999999878e+00,-3.424373874583892113e-02,-1.001197183875384977e-01,9.340398907661437988e-01,2.153243793326875544e-02,-2.076750332580190594e-02,8.718098330552792596e-02,9.956936151225065368e-02,3.563688588728373269e-02,-8.898527361452579498e-03,-6.394211527189569422e-02,-3.858128539521801792e-01,4.148827337715212463e-03,-1.027353340085512823e-02,1.084459861719986734e-01,1.063585972862526874e-02,1.853146253712068814e-01,2.076982142233110007e-01,-2.337202067240272407e-01,5.345314888337999726e-01,7.372345924377441406e-01
2.499328000000000216e+00,-3.113958034398892072e-02,-9.973129619195338080e-02,9.337992668151855469e-01,1.641103822009102112e-02,-3.063383113659257084e-02,8.688609789093093561e-02,1.009352116265897492e-01,3.801819882760879704e-02,-1.974203437566757202e-02,-1.941307873954370711e-01,-2.847378997077763541e-01,2.555161724833174825e-05,7.594222168329203826e-02,4.481447348032149836e-02,5.992177216317035038e-03,2.356836392186494045e-01,2.041931614283604979e-01,-2.375448118368952144e-01,5.350786737776501711e-01,7.215827703475952148e-01
2.524582000000000104e+00,-2.889503183477542050e-02,-9.949509952172060079e-02,9.336214065551757812e-01,1.144594256459459218e-02,-3.564334106087163612e-02,8.664048965396409230e-02,1.091607210685749813e-01,3.385232743075609202e-02,-2.680618129670619965e-02,-2.255864745166152319e-01,-2.883521490660737041e-01,-3.005918250896382968e-02,1.003712058819134223e-01,2.171650448490961005e-02,5.460966441337866684e-03,2.339206957662807451e-01,2.054581514134409259e-01,-2.371982566664596059e-01,5.352171229702435973e-01,6.982498168945312500e-01
2.548364999999999991e+00,-2.661698966532351565e-02,-9.932462010484470472e-02,9.333775639533996582e-01,7.285096161046968749e-03,-4.000059069513461907e-02,8.671989658945422619e-02,9.427984943181061395e-02,3.856853713692672686e-02,-2.401174604892730713e-02,-1.536367409949407625e-01,-2.052944432299317334e-01,3.236764543304395877e-03,1.370686064951586736e-01,-2.229129721920536378e-02,3.952940480807021206e-03,2.368231127669064850e-01,2.061007410591303435e-01,-2.388014443209384163e-01,5.343433164974571437e-01,6.588331460952758789e-01
2.574911999999999868e+00,-2.346710005081414571e-02,-9.914692722787363244e-02,9.332656860351562500e-01,4.394482727387881600e-03,-4.493111878528233127e-02,8.673065422045045381e-02,9.819327296967451935e-02,2.309275870036617620e-02,-2.192610688507556915e-02,-2.600565643622068657e-02,-1.794308799206945637e-01,-7.521817222782320456e-03,1.201754789246000932e-01,-4.252462792917036105e-02,1.077775431045882581e-02,2.196309841181247058e-01,2.081776212633678347e-01,-2.316935954484609372e-01,5.204236332341618532e-01,-9.488475322723388672e-02
2.598723000000000116e+00,-2.061611151657740185e-02,-9.804348421128372681e-02,9.331678748130798340e-01,5.094883479357973158e-03,-4.776168843720896007e-02,8.682400749678720331e-02,7.719325521436126714e-02,2.033600045319943622e-02,-1.338845305144786835e-02,7.367801908909221709e-02,-5.694574609542046861e-02,1.885352000466603006e-02,-3.109746393238294049e-02,-6.858886367021638231e-02,1.216641253853870119e-02,6.862852671712192654e-02,2.206700768905077714e-01,-2.305975581046964817e-01,5.341409489509725272e-01,6.855568885803222656e-01
2.624636000000000191e+00,-1.896206110695238672e-02,-9.701128251122848045e-02,9.331141114234924316e-01,6.859083940398658444e-03,-4.800865555424604914e-02,8.658065145052029621e-02,8.306022849573946321e-02,2.372037590544843685e-02,-2.458526566624641418e-02,9.795628776249362679e-02,-2.073362548830977661e-02,-3.106348161383973988e-02,-3.200236388160946355e-01,-3.393500363571799738e-02,5.415039733957044410e-02,-2.128849933770706471e-01,2.420072291905008277e-01,-1.880855355001426754e-01,5.305786073817556625e-01,4.431487321853637695e-01
2.648166999999999938e+00,-1.734432958358332263e-02,-9.604518850980631184e-02,9.329746961593627930e-01,8.672831643661969847e-03,-4.750383521158707545e-02,8.668048394738381290e-02,7.268656217028988953e-02,2.839971977576237483e-02,-2.282328158617019653e-02,9.814329061219281836e-02,7.078279610006607547e-02,3.407149269615031978e-02,-3.170554239519521311e-01,-4.707983479167762719e-02,4.505959863465180959e-02,-2.029016691104394421e-01,2.364494700523951665e-01,-1.976070160742116055e-01,5.350500565886397997e-01,6.939001083374023438e-01
2.672705000000000108e+00,-1.519236637532500774e-02,-9.446749468884732548e-02,9.327491521835327148e-01,9.527587474959162833e-03,-4.504156383559521082e-02,8.610472135810609551e-02,5.863563634042495004e-02,2.850135094049574200e-02,-3.245624899864196777e-02,-3.491832545808894878e-02,8.955131459783562120e-02,-3.381594129931832921e-02,-1.719539743279476229e-01,-4.571855999719743879e-01,2.101241034409714881e-02,-5.262035454761638392e-02,-1.807616809328082552e-01,-2.200981407005941082e-01,5.348775349129333279e-01,6.432294845581054688e-01
2.699530000000000207e+00,-1.305479534699469958e-02,-9.215149933000295335e-02,9.321792125701904297e-01,5.160826937536160119e-03,-4.216108515237615428e-02,8.554953272115750629e-02,6.203887460104057922e-02,4.302872342985925025e-02,-4.735882207751274109e-02,-2.375180199158410665e-01,5.864238968192683754e-02,-1.491606944573474827e-02,1.228597077704231683e-01,-4.125421435105929291e-01,4.899678295502196690e-03,1.982239108454965371e-01,-1.650400972271106048e-01,-2.345490762846884625e-01,5.366718742553872046e-01,6.786203384399414062e-01
2.722738999999999798e+00,-1.167691585554211930e-02,-9.033372689279095535e-02,9.317117929458618164e-01,2.284895532968831235e-04,-3.945668518681277881e-02,8.527135668831919979e-02,4.255983555112393540e-02,4.513291160693243265e-02,-4.524247720837593079e-02,-2.810879023316384950e-01,1.717352000810838664e-01,-3.572715642994598456e-02,1.493578084299037045e-01,-4.673147807082468352e-01,3.664857928765224981e-03,1.930507941785663817e-01,-2.170473294084619420e-01,-2.347393244655116840e-01,5.362832488892225191e-01,6.615568399429321289e-01
2.751654999999999962e+00,-9.685970352654477145e-03,-8.763669165695631147e-02,9.308231472969055176e-01,-6.480385986035027031e-03,-3.212685600801301611e-02,8.467049660833958491e-02,5.123026449505747870e-02,4.128040670671111190e-02,-4.503819346427917480e-02,-1.673200431422087742e-01,2.787413974887202328e-01,-1.456414473638105271e-02,1.925518808852080543e-01,-4.306557890234888886e-01,7.417838301491397335e-04,1.958446356696544044e-01,-2.437931844164664130e-01,-2.357802472797097260e-01,5.353414549579585957e-01,6.043684482574462891e-01
2.773293999999999926e+00,-8.349979432447331845e-03,-8.591336646248184938e-02,9.303743243217468262e-01,-8.010359913607366725e-03,-2.507985847297256043e-02,8.432933195023362138e-02,4.554308535827752968e-02,4.003194500092474573e-02,-3.457833081483840942e-02,-7.382100323149537457e-02,4.058055074451419886e-01,-2.083404080839713207e-02,2.052791903684249575e-01,-3.922279154567664960e-01,7.727736639574489530e-04,1.962249510747580139e-01,-2.432514159931655484e-01,-2.348691728807289492e-01,5.363755983166919039e-01,6.993298530578613281e-01
