timestamp,x,y,z,roll,pitch,yaw,vx,vy,vz,p,q,r,psp,qsp,rsp,pres,qres,rres,thrust_sp, thrust_res
0.000000000000000000e+00,-2.348030791576394272e-02,2.327830830373246534e-04,1.000461220741271973e+00,1.076725509813876089e-02,-1.629414612919211081e-03,-1.261307371426624233e-02,-1.552175461467814304e-03,2.062595232940127657e-02,-1.323938928544521332e-02,-4.898684730327006881e-02,5.779250545692807273e-02,5.840313441785019346e-04,-2.667801128360290375e-01,1.752649084127543000e-01,-1.311564224212898866e-01,-2.134816646575927734e-01,2.022185146808624101e-01,-9.591715335845947543e-02,4.998100100702767001e-01,-6.924664378166198730e-01,-1.282679915428161621e+00,1.288869127325695558e+02,0.000000000000000000e+00
2.333299999999999957e-02,-2.414167181182088825e-02,1.160766150498777211e-03,1.000276565551757812e+00,1.095524036687393031e-02,-1.702217755874979588e-03,-1.249824378514315451e-02,-8.329019803838681388e-03,2.909233255659447737e-02,-1.048107631504535675e-02,3.410100844737569414e-02,-2.647957297008611197e-02,1.322871906217790855e-02,-2.635637595982892600e-01,1.667443194857240463e-01,-9.648158623483504837e-02,-2.134726166725158525e-01,1.999794602394104059e-01,-6.158809661865233959e-02,4.995418022148744308e-01,-6.969222426414489746e-01,-9.168125391006469727e-01,1.053533115321830280e+02,0.000000000000000000e+00
4.906400000000000344e-02,-2.509340644654040400e-02,2.471714397403268568e-03,1.000008225440979004e+00,1.108619595133093425e-02,-1.848531703816380656e-03,-1.249635681910027385e-02,-8.971786600828228139e-03,2.489025758697751070e-02,-1.265275990590453148e-03,9.542315374885829843e-03,-3.394685109647883198e-02,-2.452590719141516107e-02,-2.657205351355996781e-01,1.638420013674682374e-01,-8.927592904619405245e-02,-2.111051917076110784e-01,1.982749879360198864e-01,-5.438826084136962752e-02,4.986477175589701938e-01,-7.083436846733093262e-01,-1.012749314308166504e+00,1.037686256824700308e+02,0.000000000000000000e+00
7.575400000000000189e-02,-2.569624173922248692e-02,3.302056874595231568e-03,9.998500347137451172e-01,1.084175561414253523e-02,-1.829071080186706055e-03,-1.230845773487085348e-02,7.706622408325596203e-03,2.908131562753302896e-02,-1.944770291447639465e-02,-3.833833200455674661e-02,3.523156829786042166e-02,2.510812388088239089e-02,-2.624854051899669916e-01,1.841465948587180379e-01,-1.374951408381932250e-01,-2.141342997550964300e-01,2.053411245346069280e-01,-1.030962109565734808e-01,5.007923879044066107e-01,-6.695245504379272461e-01,-1.259465575218200684e+00,1.243933722587531889e+02,0.000000000000000000e+00
1.003470000000000056e-01,-2.656411365035014557e-02,4.661623313070631207e-03,9.993957877159118652e-01,8.544941466019858461e-03,-2.300928868819385187e-03,-1.147218618879515886e-02,-2.052607814707545220e-02,2.874787239515634932e-02,-3.588477522134780884e-02,-1.520457371711059491e-01,1.919839307516120475e-02,5.025134961683089263e-02,-2.455725446218314789e-01,1.499163752264723315e-01,-3.142680145905295264e-02,-2.119322061538696234e-01,1.998154520988464355e-01,5.670368671417235894e-04,5.027922441031132950e-01,-6.333500742912292480e-01,-1.123051524162292480e+00,1.021337242819790987e+02,0.000000000000000000e+00
1.241170000000000051e-01,-2.733167976717375963e-02,5.888439094173347592e-03,9.988097548484802246e-01,5.614495476845906240e-03,-4.050656762729420990e-03,-1.075504414149643269e-02,-9.571682110290479634e-04,3.613517016177584390e-02,-3.276759758591651917e-02,-1.323266929683489523e-01,-1.375461126685251223e-01,3.844701151819809176e-02,-2.099224353307407032e-01,1.555677133806947499e-01,-3.091518249797189227e-02,-2.024237751960754339e-01,1.976299703121185136e-01,-8.921384811401366320e-04,5.034695828201339873e-01,-5.893011689186096191e-01,-4.974766969680786133e-01,-1.036317691820704852e+02,0.000000000000000000e+00
1.485080000000000011e-01,-2.849045267684529800e-02,7.836638317726003430e-03,9.974969029426574707e-01,-1.117607418657029679e-03,-7.525624842305900231e-03,-9.491691148780755094e-03,-2.675903530693992532e-02,3.089270754156865986e-02,-4.940843954682350159e-02,-2.516055982660084234e-01,-1.390072576323806430e-01,1.368356210639811235e-02,-1.446573933119810196e-01,1.060161348206463405e-02,7.732859228058260037e-02,-1.767603635787963756e-01,9.936386346817016602e-02,1.038531124591827309e-01,5.174801305746061786e-01,8.203947544097900391e-02,-8.968619108200073242e-01,8.080199848508627269e+01,0.000000000000000000e+00
1.761000000000000065e-01,-2.968415556655372087e-02,9.852980751706688980e-03,9.955152869224548340e-01,-9.126787414917377286e-03,-1.231100493253944883e-02,-8.581275824244640610e-03,-5.617564878538206831e-03,4.910409171503137687e-02,-8.436454832553863525e-02,-2.989581500744460940e-01,-1.332272405073111343e-01,3.130248180039368194e-02,2.944499611854553001e-01,-3.079730958500752069e-01,1.916959719802273365e-01,1.944499611854553223e-01,-2.080251216888427679e-01,2.157824099063873347e-01,5.324279846352858447e-01,7.440742254257202148e-01,-1.231576561927795410e+00,9.901012168018135640e+01,0.000000000000000000e+00
1.976009999999999989e-01,-3.046186132212589173e-02,1.127153985544268426e-02,9.938333630561828613e-01,-1.437230075923567885e-02,-1.602235625724945933e-02,-8.523995957191167830e-03,-2.674719549289819934e-02,4.030568495205753832e-02,-7.848689705133438110e-02,-2.460905524590152882e-01,-2.618565874900003476e-01,-3.076602925610476963e-02,3.079876422882080189e-01,-3.160517573356628196e-01,1.886572432503412222e-01,2.079876422882080134e-01,-2.160517573356628418e-01,2.128132760524749645e-01,5.322345956546413737e-01,7.456634044647216797e-01,-1.167222619056701660e+00,1.004189096681990208e+02,0.000000000000000000e+00
2.233549999999999980e-01,-3.117136678226189658e-02,1.271257906571659699e-02,9.919602274894714355e-01,-1.901277802974358014e-02,-1.831533616020775135e-02,-9.301037644661854994e-03,-1.132679023778046870e-02,5.169780951606475078e-02,-9.821780771017074585e-02,-2.564410687674086864e-01,-3.910383319630145876e-02,-7.985280794891892742e-02,3.115142107009887806e-01,-3.204907059669494518e-01,1.886451068854126667e-01,2.115142107009887751e-01,-2.204907059669494462e-01,2.150673329830169733e-01,5.339102366482472162e-01,7.471960783004760742e-01,-1.111035466194152832e+00,5.612413910814208862e+01,0.000000000000000000e+00
2.474830000000000085e-01,-3.202672266955551572e-02,1.484833978051441385e-02,9.889876246452331543e-01,-2.170339491211082175e-02,-1.888993021011864393e-02,-1.200766664704873074e-02,-1.542219594889616095e-02,4.246657103736625749e-02,-9.683056175708770752e-02,1.506550789134180647e-02,5.387484665716721355e-02,-8.026145585251401315e-02,3.121290445327759011e-01,-3.211713433265686035e-01,1.795890692001311240e-01,2.121290445327758678e-01,-2.211713433265685980e-01,2.137423753738403320e-01,5.341183279334964507e-01,7.470561265945434570e-01,-8.546894788742065430e-01,8.401360807433961497e+01,0.000000000000000000e+00
2.753209999999999824e-01,-3.263484236048450060e-02,1.688893590524645841e-02,9.859139919281005859e-01,-1.811816364068511570e-02,-1.410263664995858868e-02,-1.575019701437821093e-02,8.068434608203807826e-03,5.278758917220680719e-02,-9.857827425003051758e-02,2.397799904513738256e-01,1.805731640142057837e-01,-1.417368853552420926e-01,3.127420902252197044e-01,-3.187983751296997181e-01,1.746840875884393685e-01,2.127420902252197266e-01,-2.187983751296997126e-01,2.190263807773590032e-01,5.345365677152170703e-01,7.454046010971069336e-01,-1.131375670433044434e+00,1.010077061255999666e+02,0.000000000000000000e+00
2.981019999999999781e-01,-3.298228642390059473e-02,1.824238001467859763e-02,9.838806390762329102e-01,-1.304191191424888298e-02,-8.680507804479153933e-03,-1.862566400402315692e-02,-5.141910137396002965e-03,4.409479355819977131e-02,-1.007359549403190613e-01,2.892336055896114755e-01,2.756698929620097216e-01,-1.407218007841160856e-01,3.116240024566650502e-01,-2.970410269913737467e-01,1.707626645239639085e-01,2.116240024566650446e-01,-2.134124279022216741e-01,2.230369806289672907e-01,5.349511376068133428e-01,7.458814382553100586e-01,-1.442081809043884277e+00,1.024600707205223102e+02,0.000000000000000000e+00
3.256890000000000063e-01,-3.278794901310578408e-02,2.037588740575408883e-02,9.809052348136901855e-01,-3.622399260226813727e-03,1.536400215177424755e-03,-2.275318183420630899e-02,9.793664893568828841e-03,5.478933668052806544e-02,-1.055791601538658142e-01,2.952416625072828982e-01,4.117694766616082913e-01,-1.303871697367563753e-01,2.323524173750936006e-01,-3.083689799996940789e-02,1.562548097985567708e-01,1.577619552612304632e-01,-2.674648761749267439e-02,2.199601829051971436e-01,5.352233353950086592e-01,7.236781120300292969e-01,-1.425433993339538574e+00,1.377695600877927973e+02,0.000000000000000000e+00
3.489789999999999837e-01,-3.245035756405185989e-02,2.182719422190786129e-02,9.789509177207946777e-01,3.270680759453118217e-03,8.386495178458464039e-03,-2.564581971073000982e-02,1.360411658515426302e-02,5.402658938248487697e-02,-1.000368371605873108e-01,3.707043254358443618e-01,3.191230232936523303e-01,-1.632901955306085839e-01,-1.227307475735254921e-01,2.479121580445062811e-01,3.913953327223398948e-02,-1.512984037399291992e-01,2.068225264549255205e-01,1.110456526279449407e-01,5.242545588434169845e-01,1.314810514450073242e-01,-4.618810415267944336e-01,1.401243497664247286e+02,0.000000000000000000e+00
3.716369999999999951e-01,-3.204643493433343565e-02,2.331367081826565477e-02,9.769892692565917969e-01,9.893090845044444359e-03,1.558932047227412632e-02,-2.830062949650354737e-02,-6.596452604978082432e-03,5.024427987638515475e-02,-1.017552539706230164e-01,3.099724102599557551e-01,3.482530667919286338e-01,-9.833660286657094907e-02,-2.204059223671790690e-01,2.907002362865266365e-01,-4.551598141650180923e-02,-2.034798145294189342e-01,2.193563282489776611e-01,3.399084806442260326e-02,5.126893232784821564e-01,-5.118941664695739746e-01,-1.205016732215881348e+00,1.040124361150828065e+02,0.000000000000000000e+00
4.006210000000000049e-01,-3.141256612192063619e-02,2.547826613150028577e-02,9.741748571395874023e-01,1.952298239793362478e-02,2.312385886344858754e-02,-3.212014884434927220e-02,1.447709049688142985e-02,6.113005187444310595e-02,-9.683701395988464355e-02,3.176697075516353719e-01,2.096528118514970895e-01,-1.104374888363983953e-01,-2.799466946420556823e-01,3.194234371185302734e-01,-2.107624322875339129e-01,-2.111108243465423528e-01,2.194234371185302679e-01,-1.199696302413940374e-01,5.100437301411193669e-01,-6.506915092468261719e-01,-1.165357232093811035e+00,9.544961919793458094e+01,0.000000000000000000e+00
4.226159999999999917e-01,-3.114470449963944662e-02,2.714180217132885001e-02,9.723176956176757812e-01,2.368303908116972320e-02,2.485559629408462534e-02,-3.389949437257098325e-02,7.271800389292230535e-03,5.494880351602347140e-02,-9.111519157886505127e-02,1.456001460781196355e-01,1.742766694417223830e-02,-8.033540550394782653e-02,-3.131288826465606911e-01,3.191929817199706809e-01,-2.543409134743845890e-01,-2.131288826465606578e-01,2.191929817199707031e-01,-1.584497809410095048e-01,5.097595085255514080e-01,-6.563920974731445312e-01,-1.298051476478576660e+00,1.653660856555830705e+01,0.000000000000000000e+00
4.480290000000000106e-01,-3.096953297990655968e-02,2.994844395238950574e-02,9.694441556930541992e-01,2.509773531675351527e-02,2.305250210368026131e-02,-3.471169301074669700e-02,5.227432056999727945e-05,6.425074969395974667e-02,-9.280743449926376343e-02,-3.982563964076941271e-03,-1.171325009696608105e-01,-7.247919911390960333e-03,-3.138930082321166881e-01,3.197322130203247292e-01,-2.295869830962336267e-01,-2.138930082321166826e-01,2.197322130203246959e-01,-1.314546704292297308e-01,5.106152818504222646e-01,-6.354027986526489258e-01,-2.372366189956665039e-01,-3.311272977546513374e+01,0.000000000000000000e+00
4.754329999999999945e-01,-3.082848394355942531e-02,3.289266895000972357e-02,9.663528800010681152e-01,2.030417089522285404e-02,1.696203245958072259e-02,-3.378442752123562987e-02,-1.343963580716196369e-03,7.253167185536182893e-02,-1.101628318428993225e-01,-2.516436216127969638e-01,-1.725205747053266403e-01,2.776808135560065657e-02,-2.731017366015175418e-01,3.054087681325697301e-01,-1.221905898551411684e-01,-2.110629200935363603e-01,2.199669778347015381e-01,-2.701667547225952010e-02,5.168190600427839954e-01,-3.920258283615112305e-01,-1.265278458595275879e+00,1.154413711626976351e+02,0.000000000000000000e+00
5.005429999999999602e-01,-3.073808653840491914e-02,3.487866703066648533e-02,9.642816185951232910e-01,1.494505155106613976e-02,1.117611288271058712e-02,-3.220380678706053629e-02,7.937134572685732373e-03,8.067193544350383105e-02,-1.178352981805801392e-01,-2.927749530933246858e-01,-3.124377855129326087e-01,1.170408259123440625e-01,-2.171774538476882177e-01,2.647672223379750611e-01,3.969964148602084242e-02,-1.970461428165435624e-01,2.092867612838744951e-01,1.301964998245239147e-01,5.344116548537716227e-01,5.186865329742431641e-01,-1.238159060478210449e+00,9.814042003278530046e+01,0.000000000000000000e+00
5.248089999999999700e-01,-3.070882296606879461e-02,3.590064563345442272e-02,9.632230401039123535e-01,1.185539141669715753e-02,7.996381789435513809e-03,-3.153750007548988821e-02,7.419192487493765642e-03,6.899504879650755762e-02,-1.187614202499389648e-01,-3.298523619210529390e-01,-2.917387887895341314e-01,9.380673301212076598e-02,-1.951202258699293590e-01,1.964478894476667237e-01,8.618776604871059011e-02,-1.858937859535217119e-01,1.629747569561004472e-01,1.746576011180877575e-01,5.372117820160283719e-01,6.579784154891967773e-01,3.941622972488403320e-01,1.068623598670273083e+02,0.000000000000000000e+00
5.501920000000000144e-01,-3.091667487850983248e-02,3.815066854210505398e-02,9.609927535057067871e-01,4.969906148412062651e-03,1.081599118865295139e-03,-3.024951694248576364e-02,-1.887214713669687922e-03,7.819461164363682160e-02,-1.237335428595542908e-01,-3.397739490606354051e-01,-3.590094759199052299e-01,4.279870427891887402e-02,2.003669188762381981e-01,-2.149081284340798315e-01,1.360878571940976056e-01,1.543000817298889049e-01,-1.962429285049438477e-01,2.207213938236236572e-01,5.394001264615281288e-01,7.422740459442138672e-01,-1.047091603279113770e+00,9.502358614845503837e+01,0.000000000000000000e+00
5.742779999999999552e-01,-3.140660042347475506e-02,4.061620429281482397e-02,9.586885571479797363e-01,-2.071657955989384629e-03,-6.293407567893982701e-03,-2.992981367731469347e-02,1.557133370329808961e-02,7.552955471347044814e-02,-1.240187361836433411e-01,-3.390739187349943173e-01,-3.320636911609250452e-01,2.628995631475759993e-03,2.961726085512104145e-01,-2.726971810144703801e-01,1.390235151711031458e-01,2.052363395690917913e-01,-2.209399938583374023e-01,2.227190852165222001e-01,5.398598898045549044e-01,7.494642734527587891e-01,-1.511491417884826660e+00,-7.637012095909677001e+00,0.000000000000000000e+00
6.019069999999999698e-01,-3.203963008488618092e-02,4.428836444136749484e-02,9.551951289176940918e-01,-1.187538970815867762e-02,-1.721198962262504573e-02,-3.089735325022843412e-02,4.685734749911763431e-04,7.726301745816485655e-02,-1.235651224851608276e-01,-3.446842671801868541e-01,-3.196604385368457812e-01,-6.917387686366578692e-02,3.133298873901367299e-01,-3.254079818725585938e-01,1.281522826661374292e-01,2.133298873901367243e-01,-2.254079818725585882e-01,2.146420061588287242e-01,5.402741495809912919e-01,7.518025636672973633e-01,-9.282499551773071289e-01,9.369415812840375679e+01,0.000000000000000000e+00
6.278700000000000392e-01,-3.244257966247878627e-02,4.674421471189623561e-02,9.529760479927062988e-01,-1.720253907020164938e-02,-2.327243977534965147e-02,-3.222392747036573191e-02,1.572292009433903792e-02,8.123695658135186848e-02,-1.243063285946846008e-01,-2.384951157205369154e-01,-2.554919206006889265e-01,-7.652274587883714507e-02,3.163576364517212136e-01,-3.264063000679016113e-01,1.078860183033383546e-01,2.163576364517211803e-01,-2.264063000679016058e-01,1.982430160045623724e-01,5.406371334425372766e-01,7.516514062881469727e-01,-3.170472383499145508e-01,1.151567571799832024e+02,0.000000000000000000e+00
6.502909999999999524e-01,-3.274852253302475147e-02,4.917921707782177410e-02,9.508067965507507324e-01,-2.068172859289654081e-02,-2.711037257224457875e-02,-3.442549431262448972e-02,1.061404163824828176e-02,8.360888568720961644e-02,-1.172029599547386169e-01,-1.137824380961291043e-01,-1.374227450734469835e-01,-1.358105276328103184e-01,3.153280973434448020e-01,-3.266206979751586914e-01,8.061841433966951409e-02,2.153280973434448242e-01,-2.266206979751586859e-01,1.772873818874358964e-01,5.404382247063037603e-01,7.516014575958251953e-01,3.915083408355712891e-02,-2.909851831722192195e+00,0.000000000000000000e+00
6.746600000000000374e-01,-3.410212989172836662e-02,5.302115105767801762e-02,9.478880763053894043e-01,-2.099539263853728369e-02,-2.731421716512971720e-02,-3.799212900778495272e-02,1.929821939010264997e-02,7.936230493962689869e-02,-1.095231920480728149e-01,5.726521239687945575e-02,1.084735346532724048e-01,-1.211459615430032499e-01,3.134790539741516002e-01,-3.265805006027221458e-01,6.986742615699767511e-02,2.134790539741515947e-01,-2.265805006027221680e-01,1.698674261569976807e-01,5.402341617251877892e-01,7.510528564453125000e-01,-6.362327337265014648e-01,9.946717061868193355e+01,0.000000000000000000e+00
6.985689999999999955e-01,-3.534077847111523341e-02,5.680321024512941658e-02,9.453106522560119629e-01,-1.543311222024817790e-02,-2.213220774844915084e-02,-4.189737290230065303e-02,2.635242807272510437e-03,7.991732464014672521e-02,-1.109326407313346863e-01,2.033728043596804702e-01,2.848622977915437615e-01,-9.960466424533895302e-02,3.124783754348754994e-01,-3.262959718704223633e-01,9.666821956634519264e-02,2.124783754348754938e-01,-2.262959718704223577e-01,1.966682195663451982e-01,5.406908377316764769e-01,7.521530389785766602e-01,-7.311874628067016602e-01,4.322037155833016442e+01,0.000000000000000000e+00
7.246949999999999781e-01,-3.650973284242876871e-02,6.057424757731909998e-02,9.432846307754516602e-01,-6.271770183248452299e-03,-1.380077466384044271e-02,-4.576885744739739303e-02,1.799022727131408331e-02,9.292323949040984243e-02,-9.202649444341659546e-02,3.711775807451236364e-01,2.813369194502409187e-01,-9.211021200368087192e-02,2.991829156875610574e-01,-3.242750167846679688e-01,9.479351639747618519e-02,1.991829156875610241e-01,-2.242750167846679632e-01,1.947935163974761907e-01,5.395941162345029296e-01,7.499964237213134766e-01,-8.118435144424438477e-01,9.205746721835028268e+01,0.000000000000000000e+00
7.513400000000000079e-01,-3.695167113027891109e-02,6.325350942461532844e-02,9.415965080261230469e-01,3.343212359035585036e-03,-3.952765582714956594e-03,-4.931684787180919127e-02,1.505771794401413941e-03,8.584593130938014682e-02,-8.101465553045272827e-02,3.314436717921321884e-01,2.736758515961447702e-01,-1.319228956396890640e-01,2.535328351236356137e-01,-2.735804942326131584e-01,1.094404160976409912e-01,1.756163477897643987e-01,-2.170258998870849554e-01,2.094404160976409968e-01,5.390240521980036448e-01,7.483158111572265625e-01,-1.045746922492980957e+00,9.439055055579991915e+01,0.000000000000000000e+00
7.762670000000000403e-01,-3.703627867147345903e-02,6.532265983362071926e-02,9.402308464050292969e-01,1.376564775169768391e-02,6.515720694658222456e-03,-5.299315487183498680e-02,2.509502340297533468e-02,8.962029955712622065e-02,-6.180507317185401917e-02,3.879258162486331485e-01,2.565815205407483979e-01,-1.001781781398814880e-01,-1.636028802288243822e-01,2.272460301531053217e-01,-6.223224401473999995e-02,-1.798646807670593317e-01,1.966026663780212347e-01,3.776775598526000560e-02,5.342038315838723017e-01,5.461144447326660156e-01,-1.012127995491027832e+00,8.726185650584822540e+00,0.000000000000000000e+00
8.009699999999999598e-01,-3.693155205706073058e-02,6.734933157198567943e-02,9.391642808914184570e-01,2.350833908208409262e-02,1.723824777270532849e-02,-5.669816969432784487e-02,5.144134894118857805e-03,8.086253256289878399e-02,-6.181772798299789429e-02,3.200902588470531107e-01,2.899809335622608453e-01,-1.507947099688607684e-01,-2.633302941511070361e-01,3.002705194194853489e-01,-1.347476243972778320e-01,-2.088575899600982611e-01,2.197293162345886064e-01,-3.474762439727783342e-02,5.158235799623258622e-01,-4.631489515304565430e-01,-1.142992138862609863e+00,9.412476057443804223e+01,0.000000000000000000e+00
8.247489999999999544e-01,-3.677198650265770669e-02,6.862644437908821393e-02,9.386234879493713379e-01,2.958624932690288520e-02,2.403386923820138854e-02,-5.902824672074372114e-02,3.152384365751299822e-02,8.037179129421964663e-02,-5.736349895596504211e-02,2.798080201640258946e-01,3.356317772519544773e-01,-1.113763622272542914e-01,-3.069376329398831316e-01,3.204367756843566895e-01,-2.154500365257263073e-01,-2.155984282493591253e-01,2.204367756843566839e-01,-1.154500365257263156e-01,5.123605494163261387e-01,-6.387626528739929199e-01,-8.287550210952758789e-01,4.650102069971401164e+01,0.000000000000000000e+00
8.491720000000000379e-01,-3.662048871038987852e-02,7.067862362795154785e-02,9.380285143852233887e-01,3.576254783317505542e-02,3.051345425079121654e-02,-6.077940532245098421e-02,1.139806198095148944e-02,8.421130425971036504e-02,-5.111743509769439697e-02,1.357657486662732227e-01,1.423764480980364844e-01,-1.813977723522304519e-02,-3.138323903083801159e-01,3.200547575950622448e-01,-2.345063090324401855e-01,-2.138323903083801103e-01,2.200547575950622392e-01,-1.345063090324401800e-01,5.110152834542539546e-01,-6.940881609916687012e-01,-1.084155201911926270e+00,5.627915708154470309e+01,0.000000000000000000e+00
8.742240000000000011e-01,-3.663958092223484203e-02,7.214439584259736693e-02,9.377445578575134277e-01,3.683741521536219865e-02,3.112561459679930032e-02,-6.108982326005968355e-02,8.710291222045430867e-03,8.208527838812441912e-02,-5.729592964053153992e-02,1.208836556151298043e-02,-5.207674668824376074e-02,-6.513999201894033093e-03,-3.145706415176391380e-01,3.200748562812805176e-01,-2.396115899085998480e-01,-2.145706415176391602e-01,2.200748562812805120e-01,-1.396115899085998424e-01,5.116882323768880969e-01,-6.897102594375610352e-01,-1.170009970664978027e+00,9.688522933882288157e+01,0.000000000000000000e+00
8.987309999999999466e-01,-3.664469638802974466e-02,7.438648969531393151e-02,9.373205900192260742e-01,3.333097465105287760e-02,2.738249982039042685e-02,-6.006371254882052202e-02,2.338799992542051065e-02,8.707247467215105396e-02,-5.794750154018402100e-02,-1.964198690646825063e-01,-2.090671121911566177e-01,5.450384437832548473e-02,-3.156631946563720481e-01,3.204253673553466575e-01,-2.342925548553466686e-01,-2.156631946563720703e-01,2.204253673553466797e-01,-1.342925548553466630e-01,5.124123865106154918e-01,-6.616020798683166504e-01,-1.364896178245544434e+00,1.000514386606631660e+02,0.000000000000000000e+00
9.223320000000000407e-01,-3.662893557319606141e-02,7.587806669492030975e-02,9.371110796928405762e-01,2.852860657957769983e-02,2.222947724576584960e-02,-5.896077309779957504e-02,1.241555406117786191e-02,7.961678057492285743e-02,-4.905998334288597107e-02,-2.516726175799339216e-01,-2.632600452886594278e-01,4.505937383620407105e-02,-2.952611174548632755e-01,3.205414891242980846e-01,-1.763677120208740345e-01,-2.152159631252288652e-01,2.205414891242980790e-01,-7.636771202087401511e-02,5.125585432061552371e-01,-6.249513626098632812e-01,-1.130529761314392090e+00,1.022417642142703613e+02,0.000000000000000000e+00
9.467020000000000435e-01,-3.730591809657944624e-02,7.926935110987720634e-02,9.366904497146606445e-01,1.863957028636903726e-02,1.250205785030655825e-02,-5.692766496900666939e-02,1.692234150848162880e-02,8.397117894791111814e-02,-6.394187361001968384e-02,-3.923121675755769089e-01,-2.747131597199744535e-01,3.123257736283759772e-02,-1.981190919480727841e-01,2.749516488634168865e-01,-1.141343474388122614e-01,-1.900514602661132757e-01,2.150595366954803356e-01,-1.413434743881225586e-02,5.294642027263778417e-01,2.213420867919921875e-01,-1.149495720863342285e+00,9.072298485831318260e+01,0.000000000000000000e+00
9.722680000000000211e-01,-3.796636314699802783e-02,8.186605071852962046e-02,9.363585114479064941e-01,1.112198881413295135e-02,5.195753831991334337e-03,-5.528766525978854457e-02,1.483999256417838780e-02,8.623516878807274688e-02,-7.307428866624832153e-02,-3.897403587131176295e-01,-3.275951971608559998e-01,8.944720707440916019e-02,1.462536183201558482e-03,6.258443929074751499e-02,8.014733195304868385e-02,-4.282509684562683244e-02,5.221045017242431641e-02,1.801473319530486894e-01,5.392352830526927487e-01,7.153618335723876953e-01,-7.755867242813110352e-01,9.561216403980255052e+01,0.000000000000000000e+00
9.993929999999999758e-01,-3.887262218941951730e-02,8.573333573896303739e-02,9.356840848922729492e-01,-1.884423841030176579e-04,-5.925887647986849416e-03,-5.346443272040397876e-02,1.504606933731660393e-02,8.773338605865271811e-02,-7.046790421009063721e-02,-3.761947797647815506e-01,-3.484946877306511204e-01,4.792969324391019303e-02,2.910671949386596791e-01,-2.792647946928288882e-01,9.511745572090146705e-02,1.910671949386596735e-01,-2.180762171745300182e-01,1.951174557209014726e-01,5.398156807890855946e-01,7.482800483703613281e-01,-1.176135182380676270e+00,1.033474762182470386e+02,0.000000000000000000e+00
1.022551999999999905e+00,-3.940193694242968836e-02,8.826321664775932385e-02,9.352455139160156250e-01,-6.860515094006961259e-03,-1.329378505941902766e-02,-5.306843602205753990e-02,2.110445340074262530e-02,8.331304351176145595e-02,-6.265448033809661865e-02,-3.243400794375734808e-01,-3.374087502090852286e-01,-2.476095514292692493e-02,2.907829523086548074e-01,-3.238431811332702637e-01,4.597228765487670898e-02,1.907829523086547741e-01,-2.238431811332702581e-01,1.459722876548767145e-01,5.393813660022375167e-01,7.470295429229736328e-01,-9.316896200180053711e-01,1.212445867494856060e+02,0.000000000000000000e+00
1.048234000000000110e+00,-3.983269921198367980e-02,9.072723414771775852e-02,9.347693324089050293e-01,-1.214923701288977108e-02,-1.953074024561574085e-02,-5.357969189083695849e-02,6.022483724858769712e-03,8.609733067241959192e-02,-7.115954905748367310e-02,-2.464556175275858241e-01,-2.308460840156004723e-01,-4.763354159432961477e-02,2.994670867919921875e-01,-3.255504608154297097e-01,2.318398952484129749e-02,1.994670867919921819e-01,-2.255504608154296764e-01,1.231839895248413030e-01,5.401706509657308031e-01,7.482080459594726562e-01,-7.654532194137573242e-01,1.119378461185070961e+02,0.000000000000000000e+00
1.079377000000000031e+00,-3.964432863034703797e-02,9.475783413412157408e-02,9.343600273132324219e-01,-1.435691468310086767e-02,-2.414282172617476796e-02,-5.565268761818652904e-02,3.381895115571284527e-02,7.728266094855663904e-02,-5.864010006189346313e-02,4.539913959681391581e-02,-5.810149463280441656e-02,-4.627208227693165032e-02,2.965189814567565918e-01,-3.261317133903502974e-01,-1.133459210395813821e-02,1.965189814567565862e-01,-2.261317133903503196e-01,8.866540789604186734e-02,5.394015818467591261e-01,7.474797964096069336e-01,-7.826138734817504883e-01,1.116020466981525914e+02,0.000000000000000000e+00
1.102521000000000084e+00,-3.939616653874559310e-02,9.738314350624559246e-02,9.342280030250549316e-01,-1.257628882931458719e-02,-2.284529266495427535e-02,-5.747969260059987429e-02,2.509542551939307128e-02,7.974259232533301156e-02,-4.406792297959327698e-02,1.376764103440393794e-01,9.767050683528907817e-02,-1.278474131477580489e-01,2.904858350753783958e-01,-3.256347179412841797e-01,-5.146850347518921315e-02,1.904858350753784180e-01,-2.256347179412841741e-01,4.853149652481079240e-02,5.384482006758340988e-01,7.458081245422363281e-01,-9.572962522506713867e-01,1.066612244563487764e+02,0.000000000000000000e+00
1.126497999999999999e+00,-3.908379335092303231e-02,9.992688438637387094e-02,9.341708421707153320e-01,-8.862613338332256396e-03,-1.862334656910391573e-02,-5.865958647548179944e-02,2.950396439625039766e-02,8.268723440410562231e-02,-5.434738844633102417e-02,2.057911772319898080e-01,2.866142559398153211e-01,-2.600808301698964362e-02,2.880391955375671276e-01,-3.252679347991943581e-01,1.897156238555894325e-03,1.880391955375671220e-01,-2.252679347991943248e-01,1.018971562385558999e-01,5.393153541805383311e-01,7.468719482421875000e-01,-5.689235925674438477e-01,1.257225407316160073e+02,0.000000000000000000e+00
1.149991999999999903e+00,-3.872184303615129608e-02,1.024971674579825270e-01,9.342698454856872559e-01,-3.563529862924116887e-03,-1.352528208067682591e-02,-6.017069539422929131e-02,2.832205802571301917e-02,8.476465027269544650e-02,-2.722692489624023438e-02,3.230130739829373820e-01,2.175089270166974120e-01,-9.334346079738792268e-02,2.698909044265747070e-01,-3.198658943176269642e-01,-8.417543172836304544e-02,1.698909044265747015e-01,-2.198658943176269587e-01,1.582456827163696358e-02,5.373604058947966111e-01,7.411677837371826172e-01,-1.107856631278991699e+00,9.903853526712860855e+01,0.000000000000000000e+00
1.173802000000000012e+00,-3.792878527263189581e-02,1.049634483929907797e-01,9.345010519027709961e-01,2.353278272026061713e-03,-6.951966838962819750e-03,-6.132760399338117729e-02,4.305625128306700411e-02,8.710931582758742187e-02,-3.973778337240219116e-02,3.114306260607659360e-01,3.458075226977038730e-01,-3.173385034081686873e-02,2.562830209732055442e-01,-2.464211431739737890e-01,-2.129034399986268200e-02,1.562830209732055664e-01,-1.968808650970458873e-01,7.870965600013732355e-02,5.383091229792732468e-01,7.397584915161132812e-01,-8.407257795333862305e-01,8.404140694426156699e+01,0.000000000000000000e+00
1.202553999999999901e+00,-3.605203334950682348e-02,1.085689832354155143e-01,9.352228045463562012e-01,1.222837197835525275e-02,3.638471022414879741e-03,-6.279878002084141042e-02,2.802347395867323121e-02,7.983313736971651975e-02,-1.791499927639961243e-02,3.165501957218755380e-01,3.679175846389630689e-01,-5.726710672982734951e-02,-7.093074678406002809e-02,2.032475916994126441e-01,-2.161736249923706110e-01,-1.257053554058074896e-01,1.975587308406829834e-01,-1.161736249923706055e-01,5.299730599670785525e-01,3.656184673309326172e-01,-9.321776628494262695e-01,7.779200924994252375e+01,0.000000000000000000e+00
1.223468999999999918e+00,-3.478612788576846554e-02,1.109130154591956297e-01,9.358446002006530762e-01,1.904443155980753422e-02,1.060661735483781065e-02,-6.350250244783085807e-02,5.312401112548703619e-02,9.073011612062353848e-02,-2.153895795345306396e-02,3.707127819921203216e-01,2.929913826095404406e-01,-1.884366494370259826e-02,-1.615353966651290329e-01,2.891153723583577140e-01,-2.657587289810180442e-01,-1.840138256549835039e-01,2.168943107128143144e-01,-1.657587289810180664e-01,5.245626515325466643e-01,5.371367931365966797e-02,-1.043227553367614746e+00,1.908658114500711065e+02,0.000000000000000000e+00
1.248086000000000029e+00,-3.277839760366597910e-02,1.143508816388804639e-01,9.368652105331420898e-01,2.794066582027648557e-02,2.100427493425027770e-02,-6.415619695858619520e-02,3.866017075898295352e-02,7.709573099986995193e-02,-1.429104339331388474e-02,2.997256246984783545e-01,2.786570740795142331e-01,-2.146429076495602259e-02,-2.580261929799957388e-01,3.179462730884551891e-01,-2.700653195381164662e-01,-2.118690133094787431e-01,2.179462730884551835e-01,-1.700653195381164606e-01,5.107338050833544196e-01,-6.603070497512817383e-01,-2.529193162918090820e-01,1.152655620934615115e+02,0.000000000000000000e+00
1.273452000000000028e+00,-3.123074831592506997e-02,1.175978590200218166e-01,9.381337761878967285e-01,3.629144073476051752e-02,2.855980868094443181e-02,-6.380201640867846913e-02,4.743332020134768956e-02,7.769861888689771900e-02,-4.946214146912097931e-03,2.803978153987697342e-01,1.327361844733229712e-01,7.067652711353869521e-02,-3.069805923630812283e-01,3.211264967918395774e-01,-2.676075220108032338e-01,-2.117701113224029486e-01,2.211264967918395996e-01,-1.676075220108032282e-01,5.088410940186797182e-01,-7.226064801216125488e-01,-8.328472375869750977e-01,-1.524081717811258727e+02,0.000000000000000000e+00
1.297276000000000096e+00,-2.995001861627592452e-02,1.208069593591614144e-01,9.396215677261352539e-01,4.097492959666611950e-02,3.068109646500216670e-02,-6.178945541101974609e-02,3.315479646783012907e-02,7.818253635897196019e-02,3.519728314131498337e-03,1.047409313048295737e-01,-5.088670458181766137e-02,8.761980410678056608e-02,-3.123293697834014782e-01,3.218973994255066029e-01,-2.645550251007079967e-01,-2.123293697834014726e-01,2.218973994255065973e-01,-1.645550251007079912e-01,5.080073244339735616e-01,-7.305122017860412598e-01,-1.071387171745300293e+00,8.576270340756398980e+01,0.000000000000000000e+00
1.322136999999999896e+00,-2.869025434522481585e-02,1.239031539698650097e-01,9.410009384155273438e-01,4.056085320133945293e-02,2.676458682725790794e-02,-5.878041792105184044e-02,4.444429549549992753e-02,8.164594844033687404e-02,-6.008577765896916389e-04,-7.984712771260664421e-02,-2.223047359554761182e-01,1.198751905926174199e-01,-3.135935842990875133e-01,3.214964807033539040e-01,-2.777869343757629617e-01,-2.135935842990875078e-01,2.214964807033538707e-01,-1.777869343757629284e-01,5.087153750368410554e-01,-7.071318030357360840e-01,-6.892658472061157227e-01,-1.008390004531006525e+02,0.000000000000000000e+00
1.350211999999999968e+00,-2.738252343603929037e-02,1.269213131653110782e-01,9.420551061630249023e-01,3.492298073788338564e-02,1.882639341059788585e-02,-5.549205612953762856e-02,4.256819919629080406e-02,7.250860985455288843e-02,-5.480818799696862698e-04,-2.364377183367952773e-01,-3.292662357181150301e-01,1.131519781423107746e-01,-2.972871853110994889e-01,3.195614993572234996e-01,-2.866934418678283580e-01,-2.151499986648559570e-01,2.195614993572234941e-01,-1.866934418678283525e-01,5.098222316848088909e-01,-6.465933322906494141e-01,-8.778234720230102539e-01,7.784350204609523871e+01,0.000000000000000000e+00
1.373008999999999924e+00,-2.608246257243597779e-02,1.286563178043141353e-01,9.425416588783264160e-01,2.938743442287710533e-02,1.213782108214078725e-02,-5.320906155989293951e-02,5.501423582864035239e-02,7.209344208157347778e-02,-6.670900620520114899e-03,-3.163930609663268556e-01,-3.322456517000667020e-01,1.176457186731934695e-01,-2.555032834718459767e-01,3.086707124017114001e-01,-2.975682258605957253e-01,-2.128643274307250866e-01,2.208274841308593694e-01,-1.975682258605956920e-01,5.142364184273581218e-01,-4.369837045669555664e-01,-9.258383512496948242e-01,1.073631493369726400e+02,0.000000000000000000e+00
1.398968999999999907e+00,-2.412941467970278198e-02,1.311799243621162570e-01,9.429010152816772461e-01,1.928025074447629883e-02,1.107410634189287535e-03,-4.926549994914710545e-02,3.407812033786700168e-02,6.989438306511491783e-02,-1.742965728044509888e-02,-4.113354118795308212e-01,-3.435749979376523378e-01,1.012399422863727722e-01,-1.561711852793375432e-01,2.126508068444034061e-01,-2.701484322547912376e-01,-1.795519888401031494e-01,2.120812475681304876e-01,-1.701484322547912598e-01,5.334067718152818438e-01,5.583481788635253906e-01,-1.039245486259460449e+00,9.635678443292816553e+01,0.000000000000000000e+00
1.421087999999999907e+00,-2.285818693861799145e-02,1.328042411986370686e-01,9.429019689559936523e-01,1.220697711026217172e-02,-6.753003270115298662e-03,-4.602557971817537036e-02,4.593865935460922367e-02,7.815811511932446720e-02,-2.950359322130680084e-02,-3.803916861183623266e-01,-3.690851773099380062e-01,1.932354251275088253e-01,-3.472709970419315950e-02,-8.987529457615972550e-02,-2.463198661804199274e-01,-1.130954861640930120e-01,-5.304619073867797990e-02,-1.463198661804199219e-01,5.373016415998981277e-01,7.206801176071166992e-01,-1.245693087577819824e+00,7.075451700843071023e+01,0.000000000000000000e+00
1.448137000000000008e+00,-2.102308560268983939e-02,1.352196367727774018e-01,9.426591396331787109e-01,1.872549803771615499e-03,-1.836012010467924505e-02,-4.117938070364970254e-02,3.922878263066743171e-02,6.884770932450215430e-02,-2.823408879339694977e-02,-3.306150544832803240e-01,-3.895728337378643880e-01,1.525218847368083608e-01,6.592593193054199774e-02,-3.217357158660888450e-01,-1.052931427955627469e-01,-3.407406806945800781e-02,-2.217357158660888672e-01,-5.293142795562743967e-03,5.377298765329376895e-01,7.446061372756958008e-01,-7.484010457992553711e-01,1.021061439781105946e+02,0.000000000000000000e+00
1.474463999999999997e+00,-1.920800302253813235e-02,1.364815254773857345e-01,9.424449205398559570e-01,-3.845775761805137263e-03,-2.537631528625539090e-02,-3.836294930498560657e-02,5.274523643815970386e-02,6.323983634360839934e-02,-1.774699613451957703e-02,-2.603753319222494866e-01,-3.251816052531436019e-01,1.044409952476622883e-01,1.490139722824096735e-01,-3.240033984184265137e-01,-1.151580214500427246e-01,4.901397228240966797e-02,-2.240033984184265081e-01,-1.515802145004272426e-02,5.370633305498637711e-01,7.445423603057861328e-01,-6.228350400924682617e-01,8.364153351930318081e+01,0.000000000000000000e+00
1.499066000000000010e+00,-1.642461751245723189e-02,1.383566009783315509e-01,9.421200752258300781e-01,-1.045513927713826764e-02,-3.128765741543548806e-02,-3.469141019651086899e-02,5.017320682999130282e-02,6.583825931890517624e-02,-1.844929903745651245e-02,-2.188854061530279838e-01,-8.833304328591033705e-02,9.270951769641119777e-02,2.493044853210449330e-01,-3.252909660339355358e-01,-1.442072027752590579e-01,1.493044853210449274e-01,-2.252909660339355302e-01,-4.761536121368407926e-02,5.372142687760885771e-01,7.447342872619628906e-01,-1.085672736167907715e+00,9.825796075821205022e+01,0.000000000000000000e+00
1.522378000000000009e+00,-1.451967731330875908e-02,1.395755003007326245e-01,9.419099092483520508e-01,-1.280264961467819131e-02,-3.090610515872427300e-02,-3.314404064778483233e-02,4.957890335239640428e-02,7.062638012633602747e-02,-2.318356558680534363e-02,-6.288373208859271424e-02,5.285720693097354511e-02,7.277364237742180164e-02,2.742703437805175670e-01,-3.252408266067504661e-01,-1.349420690432917014e-01,1.742703437805175615e-01,-2.252408266067504883e-01,-4.260706901550292969e-02,5.376386080640742637e-01,7.442991733551025391e-01,-1.056330323219299316e+00,1.003605935130654530e+02,0.000000000000000000e+00
1.547050000000000036e+00,-1.166407834380794005e-02,1.414314804726030106e-01,9.416604638099670410e-01,-1.304354151378970053e-02,-2.601510284908870041e-02,-3.113725583591728241e-02,5.294439045884143796e-02,6.334834263227234752e-02,-1.382418349385261536e-02,8.734628443688137456e-02,1.725849614562314782e-01,6.614721889996431903e-02,2.806380510330200306e-01,-3.226154804229736106e-01,-1.496520979695273312e-01,1.806380510330200251e-01,-2.226154804229736328e-01,-6.281315088272095004e-02,5.369452555399942817e-01,7.385582923889160156e-01,-9.603613615036010742e-01,8.530415182744602021e+01,0.000000000000000000e+00
1.572478999999999960e+00,-9.299036372477254009e-03,1.424775574301497816e-01,9.416375756263732910e-01,-1.045616225158783712e-02,-2.106523843540042407e-02,-2.984681079498160625e-02,5.033899367034318922e-02,6.258630184826097231e-02,1.016084663569927216e-02,1.972442125457820883e-01,2.621597520473449294e-01,3.378820991232138471e-02,2.941101789474487305e-01,-3.093608617782592773e-01,-2.051808659129796264e-01,1.941101789474487249e-01,-2.093608617782592718e-01,-1.219532489776611328e-01,5.348792325888734878e-01,7.165571451187133789e-01,-1.115384697914123535e+00,9.035877185101142572e+01,0.000000000000000000e+00
1.600179000000000018e+00,-5.925862316628695975e-03,1.440116105424026072e-01,9.417971968650817871e-01,-3.377966934535481594e-03,-1.234038807986115316e-02,-2.794625124886420883e-02,4.436761187116985278e-02,5.309831288683714012e-02,1.809901744127273560e-02,3.055693208580362863e-01,2.641640090065703328e-01,3.968925872531686716e-02,2.775375604629516380e-01,-7.042222797698595438e-03,-1.908330641061680710e-01,1.775375604629516602e-01,5.507948398590088029e-02,-1.128431081771850558e-01,5.320910688241681230e-01,5.934859514236450195e-01,-1.431235432624816895e+00,-2.162139753468765946e+01,0.000000000000000000e+00
1.623993999999999938e+00,-3.688016827281016818e-03,1.450476841861580990e-01,9.419928789138793945e-01,2.286956473536543456e-03,-5.419171070741635177e-03,-2.611475388104453343e-02,5.448878093725841032e-02,6.640513856976612561e-02,3.398501314222812653e-03,2.506387244387058288e-01,4.100159037015300156e-01,1.209646483069161116e-01,2.009298086166381725e-01,2.017953285544296926e-01,-2.371012526360918027e-01,1.009298086166381808e-01,2.089501440525054765e-01,-1.640101790428161455e-01,5.339252338570580347e-01,6.333410739898681641e-01,-9.407593011856079102e-01,1.023809907903118983e+02,0.000000000000000000e+00
1.649753999999999943e+00,-4.191741862234233144e-04,1.465395679818164432e-01,9.425007104873657227e-01,1.209425973465352161e-02,4.223940530200032129e-03,-2.301301309755725277e-02,4.334735621786043464e-02,5.004646395171787748e-02,1.847429946064949036e-02,3.383217401728475515e-01,2.875840606277778044e-01,1.355669850673192345e-01,-1.084955966338984334e-01,2.652765702276277393e-01,-2.561446957913153799e-01,-1.815669000148773249e-01,2.173879981040954534e-01,-1.913296937942504938e-01,5.190912127726815539e-01,-1.141219139099121094e-01,-1.000784993171691895e+00,1.035484886855205247e+02,0.000000000000000000e+00
1.676814999999999944e+00,1.578173387240473400e-03,1.476054427088198395e-01,9.430149793624877930e-01,1.933035837754443209e-02,8.925690926141038872e-03,-2.075941235674024984e-02,5.439685093449310449e-02,7.003720060477995613e-02,3.834630921483039856e-02,3.892167683925817356e-01,1.622957956271506574e-01,8.287905112731550061e-02,-1.599703559244106399e-01,3.089025752847858741e-01,-2.705618079220587502e-01,-2.062264859676360973e-01,2.188596010208129772e-01,-2.115307331085204967e-01,5.100824444651640421e-01,-5.181242227554321289e-01,-9.788907766342163086e-01,9.928393030362883565e+01,0.000000000000000000e+00
1.696998000000000006e+00,3.346035507310147258e-03,1.486345840517885597e-01,9.436891674995422363e-01,2.627843994175941070e-02,1.101814429818959162e-02,-1.809073307627063684e-02,4.628243703172963547e-02,5.036942379839003114e-02,3.618822619318962097e-02,3.567517522794211304e-01,4.783399811430730925e-02,1.383935027329036282e-01,-2.278233457194163147e-01,3.169154311060153884e-01,-2.642685697883382367e-01,-2.116233944892883245e-01,2.195125937461852861e-01,-2.125498294830322210e-01,5.088752766576559727e-01,-5.878096818923950195e-01,-1.187215209007263184e+00,8.412472842194655698e+01,0.000000000000000000e+00
1.722081999999999891e+00,5.813387731464578732e-03,1.501849893509397682e-01,9.447566866874694824e-01,3.358726897841764203e-02,1.004063339201333172e-02,-1.375335852462391227e-02,4.074316189908772090e-02,5.856364746285314116e-02,3.188167884945869446e-02,1.603586978691775855e-01,-3.596012091673290306e-02,1.309940571828064615e-01,-2.691908214043991499e-01,3.110673964726996532e-01,-2.498947769694352394e-01,-2.162913143634796198e-01,2.211355447769164928e-01,-2.102279663085937500e-01,5.090923120356728448e-01,-5.909826755523681641e-01,-1.002233624458312988e+00,9.414189751906559422e+01,0.000000000000000000e+00
1.752377999999999991e+00,8.128589897368599868e-03,1.517651383830093681e-01,9.455217719078063965e-01,3.564584098066947426e-02,4.779909231636736422e-03,-8.706206628826906532e-03,4.271145949151751442e-02,5.523585735749512310e-02,2.651293389499187469e-02,-8.109826694796594057e-03,-2.052272488818170648e-01,1.734668424648944385e-01,-2.848691527305793336e-01,2.825483672038323624e-01,-2.364499917006019081e-01,-2.163505911827087458e-01,2.220054030418396052e-01,-2.112715601921081598e-01,5.111056672954130686e-01,-5.034487247467041016e-01,-1.239974379539489746e+00,7.850680903715186787e+01,0.000000000000000000e+00
1.778726000000000029e+00,8.860558349107885978e-03,1.523029150147618416e-01,9.457299709320068359e-01,3.510469300034273904e-02,2.306532480327305734e-03,-6.989786348300526010e-03,3.325148699124637341e-02,5.263328519934320354e-02,3.296804800629615784e-02,-6.159237059247284901e-02,-2.688460172431354489e-01,1.464882382016977902e-01,-2.800265415316853801e-01,2.586255151274746700e-01,-2.257071993051777969e-01,-2.146742105484008845e-01,2.209335207939147894e-01,-2.056403160095214844e-01,5.108006878820139374e-01,-4.943116307258605957e-01,-7.375689744949340820e-01,1.623627490246909133e+02,0.000000000000000000e+00
1.799687000000000037e+00,1.010403485115368358e-02,1.539064255187385100e-01,9.458919167518615723e-01,3.231154584032987914e-02,-3.017143489064455508e-03,-3.213848396337710533e-03,4.174678809394086199e-02,5.889404085317354737e-02,6.202751770615577698e-03,-2.156507748741986752e-01,-2.060204153763726953e-01,2.093088497268801584e-01,-2.546140459293401714e-01,2.351047496874013043e-01,-2.155462931115179892e-01,-2.134213864803314042e-01,2.225368022918701172e-01,-2.063864707946777288e-01,5.297774991187753635e-01,4.218356609344482422e-01,-7.298139333724975586e-01,9.593659119518898137e+01,0.000000000000000000e+00
1.824087999999999932e+00,1.185314482829017205e-02,1.562525061398341020e-01,9.457819461822509766e-01,2.593013689994089904e-02,-1.310949839038233478e-02,2.088233198811289583e-03,3.540815275969960707e-02,5.460748413536115758e-02,2.818504115566611290e-03,-2.194091250042838337e-01,-3.652865873292927557e-01,1.975760660556143966e-01,-2.192500653823505063e-01,-6.078324909436760848e-02,-2.034844992677525277e-01,-2.171123206615447887e-01,-3.720116615295409983e-03,-2.099668979644775391e-01,5.347458550180484993e-01,6.786217689514160156e-01,-9.026683568954467773e-01,8.640242575541655867e+01,0.000000000000000000e+00
1.849274000000000084e+00,1.345893631234307102e-02,1.585297321745516019e-01,9.450586438179016113e-01,1.729637835115004074e-02,-2.303280607603741537e-02,7.397575830320037536e-03,3.905380592403519258e-02,6.188430095091339983e-02,-1.073760539293289185e-02,-2.808409807893204047e-01,-3.351726005110052253e-01,1.536916540368723216e-01,-1.581207402676495510e-01,-3.226132988929748535e-01,-1.479350681321843775e-01,-2.196341156959533691e-01,-2.226132988929748480e-01,-1.697540760040283092e-01,5.370511431305244887e-01,7.455875873565673828e-01,-4.100335836410522461e-01,-1.524504199162369744e+01,0.000000000000000000e+00
1.874915000000000109e+00,1.498809614070106475e-02,1.610070585825048306e-01,9.439624547958374023e-01,7.935452659252224816e-03,-3.276095094148301357e-02,1.271303763743723315e-02,2.417997673156800642e-02,4.780918293972019617e-02,-1.801803335547447205e-02,-3.012025440208155325e-01,-3.602009620879360052e-01,1.354019171462776394e-01,-1.092803061008453258e-01,-3.263417124748230203e-01,-5.905790747193734314e-02,-2.092803061008453314e-01,-2.263417124748229869e-01,-9.601271152496337891e-02,5.377588990728865426e-01,7.488293647766113281e-01,-8.215645551681518555e-01,9.747375941884619976e+01,0.000000000000000000e+00
1.905200999999999922e+00,1.608072030004134220e-02,1.630171502773840597e-01,9.430376291275024414e-01,1.131446900427767214e-03,-3.707113606411427398e-02,1.647321973346940055e-02,3.394209049966364494e-02,6.112879364945941058e-02,-2.664678730070590973e-02,-3.452084350863085516e-01,-1.402970402716054166e-01,1.965995890902343113e-01,-5.656983852386474054e-02,-3.268457889556884988e-01,-5.838312700622130813e-02,-1.565698385238647461e-01,-2.268457889556884655e-01,-1.057778835296630804e-01,5.385687421339357961e-01,7.506153583526611328e-01,-8.422456979751586914e-01,9.254469876279313212e+01,0.000000000000000000e+00
1.925559000000000021e+00,1.714976033675918998e-02,1.650184951349422391e-01,9.420745372772216797e-01,-4.727789332832882385e-03,-3.928122976719894410e-02,1.935970125639350364e-02,3.399463610638064903e-02,5.030622485915495212e-02,-1.402228325605392456e-02,-2.359487806399628296e-01,-1.133753738936532640e-01,9.945711248119352976e-02,9.644641280174255649e-02,-3.266365051269530806e-01,-3.182556796526191112e-02,-3.553587198257446029e-03,-2.266365051269531028e-01,-8.705062866210937222e-02,5.377894720747086188e-01,7.505226135253906250e-01,-9.520035982131958008e-01,7.154407321610584347e+01,0.000000000000000000e+00
1.950933000000000028e+00,1.880696849447044058e-02,1.679520042520128986e-01,9.406942725181579590e-01,-1.234737164064498086e-02,-3.639473433400097768e-02,2.284271739850660815e-02,4.038687922197525815e-02,6.318849789691161067e-02,-1.466044783592224121e-02,-2.067730353173180824e-01,1.753342349367051356e-01,9.090518061712589415e-02,2.435380220413208008e-01,-3.257223367691040039e-01,-4.150917400441823946e-02,1.435380220413207952e-01,-2.257223367691039984e-01,-1.061373710632324135e-01,5.379485711264593295e-01,7.464916706085205078e-01,-9.164034128189086914e-01,1.158002156413117660e+02,0.000000000000000000e+00
1.972280999999999951e+00,1.986343748175417590e-02,1.699305644499256862e-01,9.397885799407958984e-01,-1.597760664708418668e-02,-3.147334454360817269e-02,2.474005854846881083e-02,2.463415372676138609e-02,5.569017310184345981e-02,-2.314813807606697083e-02,-1.980579493795429358e-01,3.058987574028039780e-01,1.079323334692417757e-01,2.805545449256897084e-01,-3.250024318695068359e-01,-1.096769324471703888e-02,1.805545449256897028e-01,-2.250024318695068304e-01,-8.066890239715575339e-02,5.386166655894624178e-01,7.428774833679199219e-01,-6.572984457015991211e-01,8.420221008789118855e+01,0.000000000000000000e+00
2.000538000000000149e+00,2.229443279388182778e-02,1.743842926413159966e-01,9.382578134536743164e-01,-1.815041010618617320e-02,-1.995273020330290414e-02,2.778403346215904679e-02,2.832937003760842287e-02,6.774155524142817797e-02,-8.116440731100738049e-04,3.520883854228534782e-02,3.165114158508668396e-01,9.456482411002919974e-02,3.074150800704956166e-01,-2.699707713556718236e-01,-7.097861811470029814e-02,2.074150800704956110e-01,-1.759082794189452958e-01,-1.490082621574401744e-01,5.365723110939624174e-01,7.075096368789672852e-01,-1.155028462409973145e+00,9.085297701859687436e+01,0.000000000000000000e+00
2.024598999999999815e+00,2.349315198748980899e-02,1.766542285559335457e-01,9.376888871192932129e-01,-1.642281488694166680e-02,-1.408729249501861069e-02,2.904196853984945814e-02,1.718668251714000617e-02,6.283642891897145422e-02,4.393031354993581772e-03,1.161511465663595949e-01,2.488850449126405184e-01,6.400746617888541934e-02,3.053051471710205300e-01,1.203548037385891722e-02,-3.430098901240347109e-02,2.053051471710204967e-01,7.614417672157287875e-02,-1.157993674278259277e-01,5.339688599005132374e-01,5.796439647674560547e-01,-7.454935312271118164e-01,8.276738541875744204e+01,0.000000000000000000e+00
2.050784000000000162e+00,2.517858131598352603e-02,1.799787548664852355e-01,9.371035099029541016e-01,-9.791140967047128399e-03,-5.140473930228317556e-03,3.069411673508623539e-02,3.258531367788882610e-02,7.360020594264152227e-02,1.796862669289112091e-02,3.274566283688855606e-01,2.652141173250132100e-01,6.421783262059151121e-02,3.002921700477599876e-01,2.189908645358211725e-01,-2.630886862007032756e-02,2.002921700477600098e-01,2.092376768589019609e-01,-1.122211575508117593e-01,5.140266480823993955e-01,-4.547835588455200195e-01,-1.206241011619567871e+00,1.126101826196464799e+02,0.000000000000000000e+00
2.073752999999999957e+00,2.627701330270635835e-02,1.822239190769632533e-01,9.368715882301330566e-01,-4.405051222108094175e-03,1.053018013509099404e-03,3.186450440618722457e-02,1.735284292718296262e-02,5.811021601871833170e-02,2.323441766202449799e-02,2.564689007267053622e-01,3.003664501434063494e-01,6.661997347855923290e-02,2.573940277099609486e-01,2.448464145740743281e-01,-1.332109145474236200e-02,1.573940277099609431e-01,2.079833149909973145e-01,-1.023602485656738281e-01,5.109398559603547385e-01,-6.004055142402648926e-01,-1.048550486564636230e+00,9.326115145578162924e+01,0.000000000000000000e+00
2.098453999999999819e+00,2.803319203891840861e-02,1.850173553997392084e-01,9.367921948432922363e-01,6.009620368718595826e-03,7.092568398101795069e-03,3.386202268500110996e-02,3.054824000289018196e-02,7.414592435628550304e-02,2.308018505573272705e-02,3.405724918236751608e-01,1.870405915386101625e-01,7.832691204944462748e-02,-5.206143856048583984e-02,3.087527754285644965e-01,-7.292003649780814944e-02,-1.520614385604858454e-01,2.176439523696899470e-01,-1.670164346694946178e-01,5.139164028351683733e-01,-4.462530612945556641e-01,-9.937230348587036133e-01,9.269060526384295429e+01,0.000000000000000000e+00
2.124855000000000160e+00,2.906148800629249421e-02,1.868188774568096400e-01,9.367682337760925293e-01,1.377849983108525578e-02,7.516828550826470945e-03,3.520971176687789916e-02,1.914998861213808648e-02,6.376851039665382137e-02,3.404792025685310364e-02,4.343049032411082089e-01,-7.195507616273251472e-02,7.314589886901337601e-02,-9.322326183319090687e-02,3.033126334009548231e-01,-8.374518524933530217e-02,-1.932232618331909124e-01,2.190017044544219915e-01,-1.815564751625060869e-01,5.132580476429241534e-01,-4.387911558151245117e-01,-1.062957644462585449e+00,9.726078046014686151e+01,0.000000000000000000e+00
2.150100999999999818e+00,3.045420591401127447e-02,1.894318235260555316e-01,9.366922378540039062e-01,2.442842495247967566e-02,4.042218779642503534e-03,3.714325936134531964e-02,1.617409382106890781e-02,7.351203527501019852e-02,2.363304421305656433e-02,3.174501303882706349e-01,-1.450497968350817624e-01,5.265911113805988447e-02,-1.589185875815578852e-01,2.861497453014188452e-01,-9.748893976211547852e-02,-2.107819139957427812e-01,2.229664206504821666e-01,-1.974889397621154841e-01,5.199897663281669580e-01,-1.218928098678588867e-01,-9.895983934402465820e-01,9.709072241019188709e+01,0.000000000000000000e+00
2.175346999999999920e+00,3.128560447241781478e-02,1.912007847657991588e-01,9.364934563636779785e-01,2.891075545126376919e-02,1.988764905889173207e-04,3.879832140761708958e-02,2.563696852499521353e-02,7.137582403410303034e-02,5.042600911110639572e-03,1.417863999446449530e-01,-1.701752016384565358e-01,1.124956908899765046e-01,-1.925173264455095901e-01,2.706771294622357660e-01,-1.049057483673095648e-01,-2.127717912197112926e-01,2.235825955867767334e-01,-2.049057483673095703e-01,5.273443542263412942e-01,1.999171972274780273e-01,-1.110359311103820801e+00,1.009486728006035463e+02,0.000000000000000000e+00
2.204479000000000077e+00,3.215419224707872364e-02,1.939557882569204750e-01,9.357343316078186035e-01,3.154297515409881791e-02,-7.338645900466733707e-03,4.166001674872493732e-02,1.115170914127959273e-03,7.023810286031405281e-02,-1.617968315258622169e-03,3.448302349957274582e-02,-2.908239293308664819e-01,1.267795696949971240e-01,-2.038107918432715826e-01,1.945187418077701791e-01,-1.063986301422119030e-01,-2.086796343326568492e-01,2.154386222362518200e-01,-2.063986301422119085e-01,5.334093406018530770e-01,4.996509552001953125e-01,-9.914027452468872070e-01,1.080922720308714986e+02,0.000000000000000000e+00
2.224680999999999909e+00,3.235697508310660803e-02,1.949076694761814055e-01,9.353711009025573730e-01,3.108058268443233269e-02,-9.784813403531433806e-03,4.270835460491666929e-02,9.374421158537014215e-03,7.029273509010794396e-02,-1.360126864165067673e-02,-8.053100501884685736e-02,-2.144921265769270391e-01,1.283278209150782445e-01,-2.078222144099330371e-01,1.338845861619243349e-01,-1.116842269897460882e-01,-2.162545502185821422e-01,1.603825807571410966e-01,-2.116842269897460938e-01,5.367822393063040876e-01,6.328027248382568359e-01,-5.168033838272094727e-01,1.118664160001671064e+02,0.000000000000000000e+00
2.248486000000000207e+00,3.271977806097003255e-02,1.967837330686885433e-01,9.345326423645019531e-01,2.935061077214159639e-02,-1.579717570492134016e-02,4.475497464472971698e-02,1.087741459956771510e-02,7.900343980617076378e-02,-6.936444900929927826e-03,-6.498784348461780769e-02,-3.225839008256169982e-01,8.526783567030266076e-02,-1.910451931276569981e-01,-1.843994278215949356e-01,-1.086536884307861273e-01,-2.192935824394225963e-01,-1.198747873306274386e-01,-2.086536884307861328e-01,5.377696511464812312e-01,7.059936523437500000e-01,-9.482697248458862305e-01,9.974448312917361648e+01,0.000000000000000000e+00
2.274951000000000167e+00,3.304646315735366296e-02,1.985998623380532679e-01,9.335629940032958984e-01,2.586278679493876631e-02,-2.162334360634865504e-02,4.694176556193478678e-02,6.444681458141037975e-03,7.298811583561710947e-02,-1.748694293200969696e-02,-1.947324668624170196e-01,-2.747315970300528987e-01,1.296771660922988179e-01,-1.762723635173845116e-01,-3.214361667633056641e-01,-9.285748004913330078e-02,-2.223656952381133922e-01,-2.214361667633056585e-01,-1.928574800491333063e-01,5.393565444758211536e-01,7.447102069854736328e-01,-1.513606905937194824e+00,1.091561149752360080e+02,0.000000000000000000e+00
2.297752000000000017e+00,3.330711123439066002e-02,2.003693713894838524e-01,9.325031042098999023e-01,2.181546958342699821e-02,-2.726489551434352343e-02,4.907137478986615953e-02,-4.995858754686958482e-03,6.960576147215752352e-02,-1.489964686334133148e-02,-1.730331480627540774e-01,-3.100965318737886056e-01,8.939353050000163614e-02,-1.499533732994768609e-01,-3.259114503860473522e-01,-6.252627372741698109e-02,-2.223999738693237249e-01,-2.259114503860473466e-01,-1.625262737274169866e-01,5.393469665001575652e-01,7.461440563201904297e-01,-1.209712147712707520e+00,1.102986690195957351e+02,0.000000000000000000e+00
2.328317000000000192e+00,3.341045441908253172e-02,2.032332808240350230e-01,9.308285713195800781e-01,1.476684721657233954e-02,-3.323625972081445390e-02,5.228311924259846505e-02,1.760568712121075852e-02,7.732392304279771256e-02,-2.170892804861068726e-02,-2.278874421043488308e-01,-1.775632689101995232e-01,8.207392532988407041e-02,-1.215659677982330322e-01,-3.266500234603881836e-01,-6.154594421386716530e-02,-2.215659677982330378e-01,-2.266500234603881780e-01,-1.615459442138671708e-01,5.401324604502620863e-01,7.506308555603027344e-01,3.126502037048339844e-03,-2.502070413742755051e+01,0.000000000000000000e+00
2.350496999999999836e+00,3.339113722306032844e-02,2.052447559334521776e-01,9.295574426651000977e-01,9.125548916161329779e-03,-3.421168548062936132e-02,5.459382827250632009e-02,-5.961831971469886207e-03,6.112382616443148842e-02,-2.785526774823665619e-02,-3.054672556608215017e-01,-1.235716115887672967e-02,1.468496416067075483e-01,-1.097164869308471513e-01,-3.268571615219115767e-01,-3.501174449920652076e-02,-2.097164869308471569e-01,-2.268571615219115989e-01,-1.350117444992065263e-01,5.407319372613527131e-01,7.511035203933715820e-01,-1.441439032554626465e+00,1.233819851672143812e+02,0.000000000000000000e+00
2.375700999999999841e+00,3.340268686032508288e-02,2.082249107216793405e-01,9.277246594429016113e-01,1.264230756429981454e-03,-3.095400348137955504e-02,5.758723464283476562e-02,1.396624302370349201e-02,8.373116919950970849e-02,-2.381740510463714600e-02,-2.282872171201170142e-01,1.575967371579352627e-01,1.059433915244864938e-01,2.566118240356446423e-02,-3.253721117973327193e-01,-4.099510908126829944e-02,-7.433881759643554132e-02,-2.253721117973327415e-01,-1.409951090812683050e-01,5.406525595135630580e-01,7.481801509857177734e-01,-3.158861398696899414e-01,1.095328408890972298e+02,0.000000000000000000e+00
2.400307999999999886e+00,3.342569654044463129e-02,2.111555043404453047e-01,9.260515570640563965e-01,-5.254396264337660855e-03,-2.318919962394705436e-02,5.996066341440324521e-02,-1.482926023461241709e-03,6.815054808024861854e-02,-2.455858513712882996e-03,-1.826236987203443407e-01,2.376950219206079573e-01,5.697081515372995342e-02,2.437313199043273926e-01,-3.155731439590453991e-01,-3.149304389953611061e-02,1.437313199043273870e-01,-2.155731439590453935e-01,-1.314930438995361162e-01,5.389020234512731378e-01,7.262852191925048828e-01,-8.291653394699096680e-01,8.709006871048593723e+01,0.000000000000000000e+00
2.425698000000000132e+00,3.439489189171625327e-02,2.127598080484526255e-01,9.247733354568481445e-01,-9.645405264583175806e-03,-1.275765098388381702e-02,6.204961204432953015e-02,1.083930993035175060e-02,8.224089572644281698e-02,-6.515257991850376129e-03,-1.050539853852326400e-01,3.199589449400364050e-01,7.233353546506501863e-02,3.003447413444518821e-01,1.390270039776016209e-02,-1.091395616531370960e-02,2.003447413444519043e-01,5.418124794960021973e-02,-1.109139561653137152e-01,5.385631388879521531e-01,6.806762218475341797e-01,-6.711336374282836914e-01,6.701858794754132020e+01,0.000000000000000000e+00
