timestamp,x,y,z,roll,pitch,yaw,vx,vy,vz,p,q,r,psp,qsp,rsp,pres,qres,rres,thrust_sp, thrust_res
0.000000000000000000e+00,1.254594072333843971e-02,-2.636380966367690357e-02,9.822624921798706055e-01,9.386555213528246719e-03,-8.294492513716500426e-03,2.088084171786987533e-02,-1.983295747243280990e-02,5.473577817288844544e-02,2.353332471102476120e-03,3.894989515887849196e-02,1.794679076290356390e-02,-9.933403708238988661e-03,-2.502630300056398194e-01,9.331766021121781773e-02,2.599942626332386597e-01,-2.168032050132751298e-01,1.546456754207611028e-01,2.013474762439727839e-01,5.013249365148260139e-01,-6.235955357551574707e-01,-1.277966141700744629e+00,1.008209072819892924e+02,9.900844097137451172e-02
2.349100000000000146e-02,1.197682056486561175e-02,-2.530715970595684775e-02,9.815223813056945801e-01,9.418456730878262823e-03,-7.896512744671069228e-03,2.054528147481346143e-02,-1.188991830598881000e-02,5.504923244969484042e-02,1.918583177030086517e-03,2.956123283851756767e-02,2.228610777693980360e-02,-1.152454262195378581e-02,-2.564511488788968618e-01,1.400166940827067830e-01,2.730954069538635287e-01,-2.156334221363067627e-01,1.899404168128967230e-01,2.154333472251891979e-01,5.011142678436585340e-01,-6.400259137153625488e-01,-1.175808787345886230e+00,8.220472126512095201e+01,9.900844097137451172e-02
4.760099999999999748e-02,1.126418214417854689e-02,-2.351746108835358132e-02,9.803779721260070801e-01,8.807735661456846457e-03,-7.319265806107200234e-03,2.023691036026894693e-02,-1.598693791794811650e-02,6.101305961804059236e-02,-2.986193867400288582e-03,1.898828510863101796e-02,2.425958401844116943e-02,-1.366332884018896764e-02,-2.412205284461639010e-01,1.504925994052184746e-01,2.711253574158484225e-01,-2.104396104812621959e-01,2.015134334564208929e-01,2.143200337886810303e-01,5.018609904039833536e-01,-6.259425282478332520e-01,-1.079408526420593262e+00,6.987806030394550305e+01,9.900844097137451172e-02
7.196600000000000219e-02,1.079126738440020286e-02,-2.232425800791581691e-02,9.795995354652404785e-01,7.782336925747083967e-03,-7.229401850912031691e-03,1.951278691792528164e-02,-1.908114796682145592e-02,5.513736626642598559e-02,-6.840884219855070114e-03,1.014155251261939124e-02,2.348870231749439902e-02,-1.486369677134236761e-02,-2.141904268650225429e-01,1.458462006446548109e-01,2.609769757980386906e-01,-1.853690922260284313e-01,1.986110329627990556e-01,2.062144517898559515e-01,5.031249762623573041e-01,-5.791548490524291992e-01,-1.524551749229431152e+00,9.628784050344606271e+01,9.900844097137451172e-02
9.673400000000000054e-02,1.008311234628210540e-02,-2.047236771133032970e-02,9.781370759010314941e-01,4.174871164639670958e-03,-8.424621504648843739e-03,1.721377841025775388e-02,-1.588447972066082611e-02,6.194692404608050096e-02,-2.412107028067111969e-02,-3.003134623441738957e-03,1.693026200223767680e-02,-1.882780567029791741e-02,3.381644483284707015e-03,1.004899635977057198e-01,2.643245787205380504e-01,1.303339004516601432e-03,1.585053741931915228e-01,2.160173714160919245e-01,5.057200790910606480e-01,-5.188189744949340820e-01,-7.658278942108154297e-02,-5.481666502363052196e+00,9.900844097137451172e-02
1.254369999999999929e-01,9.244750071769844771e-03,-1.833823810609448365e-02,9.760789275169372559e-01,-2.234534548048585940e-03,-1.171224874650156345e-02,1.418096758404166838e-02,-2.822190528704047324e-02,7.285969607285863736e-02,-5.927613750100135803e-02,-2.043264610674959403e-02,4.820586776209629526e-03,-2.525614835208678591e-02,2.508405447019833034e-01,-1.898679137029562480e-01,2.547820858452583548e-01,1.981002330780029241e-01,-9.958384037017821433e-02,2.150045514106750377e-01,5.080418419257868301e-01,-5.473419427871704102e-01,-5.695096254348754883e-01,-2.874914048079742912e+01,9.900844097137451172e-02
1.499590000000000090e-01,8.560713540939773186e-03,-1.664565257708780152e-02,9.742261767387390137e-01,-7.126388693208689229e-03,-1.511435584391396247e-02,1.191944130923109496e-02,-3.094398862966022540e-02,6.129740174681157228e-02,-6.681713461875915527e-02,-4.030164986082942352e-02,-8.403856133995716779e-03,-3.296300382070677798e-02,2.878998935384359803e-01,-2.976681470870971569e-01,2.582426549777545599e-01,2.129962921142578014e-01,-1.976681470870971513e-01,2.249353229999542236e-01,5.082587110683178810e-01,-5.774532556533813477e-01,-1.168284773826599121e+00,6.066975635928522337e+01,9.900844097137451172e-02
1.743000000000000105e-01,7.421155370219670484e-03,-1.415024473986046909e-02,9.708977937698364258e-01,-1.212062603805045755e-02,-2.017089317846010310e-02,8.893743329598757102e-03,-1.421975681137275897e-02,6.878001535908018216e-02,-9.377105534076690674e-02,-5.917214253836744486e-02,-2.369524509268164728e-02,-4.177067228021286854e-02,3.188989400863647683e-01,-3.170756101608276367e-01,2.510997091795242886e-01,2.188989400863647350e-01,-2.170756101608276312e-01,2.263802647590636985e-01,5.107686962769960592e-01,-5.700047016143798828e-01,-1.328387856483459473e+00,7.489519624934587227e+01,9.900844097137451172e-02
1.983229999999999993e-01,6.703581565622512492e-03,-1.254341088016341747e-02,9.682509303092956543e-01,-1.262774085168961655e-02,-2.210990804799384257e-02,6.662943139642234572e-03,-1.944071722169087024e-02,7.374964247359626357e-02,-1.109523028135299683e-01,-7.100713778829063905e-02,-3.623911948853901499e-02,-4.832554389592384758e-02,3.193173646926880105e-01,-3.175692439079284557e-01,2.451469343665121092e-01,2.193173646926879772e-01,-2.175692439079284501e-01,2.266973197460174505e-01,5.121156907450771234e-01,-5.838065743446350098e-01,-1.308572173118591309e+00,7.404842354699354701e+01,9.900844097137451172e-02
2.222159999999999969e-01,6.036325028821478561e-03,-1.093358766845514696e-02,9.653918743133544922e-01,-1.062147264908605039e-02,-2.149298034217084208e-02,4.063095805289904279e-03,-2.957945684102167641e-02,5.902654049236517875e-02,-1.260200291872024536e-01,-7.420837232199126166e-02,-4.335488480228560926e-02,-5.454031758794750800e-02,3.171278564346047268e-01,-3.148729085922241100e-01,2.377902564240316208e-01,2.177817106246948131e-01,-2.148729085922241044e-01,2.266148507595062145e-01,5.128493734166580387e-01,-6.233831048011779785e-01,-2.861980199813842773e-01,-2.746039989763191613e+01,9.900844097137451172e-02
2.494989999999999986e-01,5.304124604368429773e-03,-9.296834090132623934e-03,9.605128169059753418e-01,-3.940330917664265457e-03,-1.669102280493173218e-02,3.103472480584596664e-04,-1.128632837155147360e-02,6.597901795861023377e-02,-1.389195472002029419e-01,-7.422657791424140672e-02,-4.591219574258209590e-02,-6.552196698849062362e-02,2.754595039929150779e-01,-3.022225379943847545e-01,2.225027436569372574e-01,2.109520196914672907e-01,-2.022225379943847490e-01,2.215852260589599443e-01,5.146394202537567519e-01,-6.069290041923522949e-01,-1.489263772964477539e-01,-1.078316542102586162e+01,9.900844097137451172e-02
2.721700000000000230e-01,4.899673886973589416e-03,-8.270686803133016005e-03,9.569969773292541504e-01,2.299013039439550942e-03,-1.137852567094355116e-02,-2.380847352227088379e-03,-1.294471055859086096e-02,5.802955650030440504e-02,-1.548103541135787964e-01,-6.179186322462473097e-02,-4.059177379060022184e-02,-7.562912406990007774e-02,1.944754668930668007e-01,-2.402884451757549555e-01,2.041680802798969130e-01,1.769818782806396318e-01,-1.603510379791259766e-01,2.107089936733245739e-01,5.173778885921530568e-01,-5.465292334556579590e-01,9.492337703704833984e-02,-1.017761365581722544e+01,9.900844097137451172e-02
3.000590000000000201e-01,4.355449140664814818e-03,-6.629638598475563575e-03,9.511868953704833984e-01,1.239551349251887327e-02,-1.507190721741880068e-03,-6.677071549679101416e-03,-1.536497889034352943e-02,5.232115873995568656e-02,-1.777295321226119995e-01,-3.574568282454794466e-02,-2.196227483301127839e-02,-8.662348959439145069e-02,9.282662495040186479e-03,1.935204624010964172e-02,1.347648033117488098e-01,5.980968475341796875e-02,3.727512359619140209e-02,1.533952116966247614e-01,5.247307826518179397e-01,-2.740163803100585938e-01,-7.441841363906860352e-01,-9.504160418748553241e+01,9.900844097137451172e-02
3.246439999999999881e-01,4.027376476556538201e-03,-5.618093311697114518e-03,9.470031261444091797e-01,1.904321592787255879e-02,5.631247755422341683e-03,-9.137748241626268697e-03,-9.244729427095386975e-03,6.082495558112157447e-02,-1.980330497026443481e-01,-4.553842203922913931e-03,4.004659367726990174e-03,-9.800368896345894310e-02,-1.184095640411727962e-01,1.830621977562995606e-01,6.657929794840954096e-02,-3.248394727706908902e-02,1.500033974647521917e-01,9.234280586242675504e-02,5.292827737742896721e-01,-1.352632641792297363e-01,-1.320320487022399902e+00,6.240213821961057761e+01,9.900844097137451172e-02
3.504729999999999790e-01,3.880618807469318580e-03,-4.327806769727028657e-03,9.403547048568725586e-01,2.797452713908529440e-02,1.577226682001064972e-02,-1.256715494690507050e-02,-7.627892958570725232e-03,6.011703320734383682e-02,-2.141781449317932129e-01,3.275775411140211674e-02,3.735176784770351255e-02,-1.061226155895237805e-01,-3.144227802753448708e-01,3.240266703255870184e-01,1.734762026203610363e-01,-2.144227802753448375e-01,2.251015663146972434e-01,2.093815326690673662e-01,5.376476764462616575e-01,2.213628292083740234e-01,-1.283856630325317383e-01,-6.938180010319353386e+00,9.900844097137451172e-02
3.750709999999999877e-01,3.834514703498367004e-03,-3.538073378660220453e-03,9.356489777565002441e-01,3.210542387978981838e-02,2.030831583892189762e-02,-1.455909067785594348e-02,-5.324720877644141190e-03,5.312962456262122074e-02,-2.172176539897918701e-01,7.265733615028154013e-02,7.406983179822132501e-02,-1.119660283139007478e-01,-3.258538365364074263e-01,3.279174923896789329e-01,1.828336993908249719e-01,-2.258538365364074485e-01,2.279174923896789551e-01,2.246342360973358210e-01,5.463742100541991720e-01,6.630060672760009766e-01,-1.219392895698547363e+00,2.615599086051038924e+01,9.900844097137451172e-02
3.998689999999999745e-01,3.731862928846267982e-03,-2.383586687229829072e-03,9.283269047737121582e-01,3.407688120044687768e-02,2.293027834950911448e-02,-1.631693052082086245e-02,-1.535117012664888314e-02,5.631692302270643186e-02,-2.308220714330673218e-01,1.097732573090177272e-01,1.057673305119457563e-01,-1.135050267045293604e-01,-3.268481492996215820e-01,3.281925618648529053e-01,1.793062077752243522e-01,-2.268481492996215765e-01,2.281925618648528997e-01,2.261762559413909857e-01,5.493869978649289498e-01,7.344362735748291016e-01,-9.850009679794311523e-01,1.289972612688002869e+02,9.900844097137451172e-02
4.241150000000000198e-01,3.653242984444215503e-03,-1.553272273837615850e-03,9.233833551406860352e-01,3.190555929419171266e-02,2.100294241940714457e-02,-1.819927483624188269e-02,-1.422274673175098585e-02,5.339485799700826457e-02,-2.397929728031158447e-01,1.409932937541075182e-01,1.321930213686906830e-01,-1.108237958351530050e-01,-3.256312131881713423e-01,3.279610157012939342e-01,1.703691308875834864e-01,-2.256312131881713645e-01,2.279610157012939287e-01,2.223520874977111816e-01,5.502621848919092562e-01,7.130099534988403320e-01,-1.302161812782287598e+00,-1.073343259386751924e+02,9.900844097137451172e-02
4.495709999999999984e-01,3.565957728665743003e-03,-7.068091923652023009e-05,9.159098863601684570e-01,2.420896839784172916e-02,1.369227600176459170e-02,-2.097924904220464098e-02,-1.041443498723437604e-02,5.878824319021909439e-02,-2.453658282756805420e-01,1.535918119243201707e-01,1.412876866971025935e-01,-1.084447236519372887e-01,-3.201136589050292969e-01,3.092113574752060057e-01,1.511367213216427974e-01,-2.201136589050292913e-01,2.259601235389709362e-01,2.104225337505340465e-01,5.476721816738618909e-01,4.991545677185058594e-01,-1.695532798767089844e+00,7.073173149735954723e+01,9.900844097137451172e-02
4.727029999999999843e-01,3.568489951338765787e-03,1.012532443368348127e-03,9.109551906585693359e-01,1.698017333835863743e-02,7.266678024152595228e-03,-2.284620005464606252e-02,-1.282368040212503689e-02,5.555135517782155280e-02,-2.428712248802185059e-01,1.485867584999369106e-01,1.369034588596704238e-01,-1.044893614825492534e-01,-2.799004280384531085e-01,2.579448457708706233e-01,1.138291616315207644e-01,-2.064444780349731501e-01,2.186401247978210505e-01,1.779918015003204290e-01,5.376276804529893649e-01,-8.732074499130249023e-02,-1.504588246345520020e+00,1.231353880174202402e+02,9.900844097137451172e-02
4.976689999999999725e-01,3.574428005084673288e-03,2.647389576928433838e-03,9.037300944328308105e-01,5.671615390559475896e-03,-4.364780844771321000e-03,-2.592490865243958151e-02,2.306609536721170375e-03,5.868866458043615897e-02,-2.413986474275588989e-01,1.150922646013886608e-01,1.095082767006672758e-01,-1.012683017616686776e-01,-8.749236247530806088e-02,1.229245909453788657e-02,-4.259834436219078757e-02,-9.199141860008239191e-02,3.681887984275817455e-02,2.992880344390869141e-02,5.366853379334429741e-01,-1.791298389434814453e-01,-1.813639521598815918e+00,9.726614898883448745e+01,9.900844097137451172e-02
5.216809999999999503e-01,3.579765878906455371e-03,3.735885947066792598e-03,8.990959525108337402e-01,-1.906390710088918866e-03,-1.202272607416121630e-02,-2.762916659915599579e-02,-8.307154133066124713e-03,6.168075924284550926e-02,-2.417239099740982056e-01,6.579903000795313261e-02,6.851011584474472893e-02,-9.899494444923417902e-02,1.261333527623155204e-01,-2.207024277936770473e-01,-9.514581462239782295e-03,6.972044706344604492e-02,-1.366306900978088434e-01,6.775892972946166715e-02,5.406921413846427216e-01,6.286144256591796875e-03,-6.950300931930541992e-01,-4.519364565294540448e+00,9.900844097137451172e-02
5.481620000000000381e-01,3.520011112208435659e-03,5.434021309437287242e-03,8.923642635345458984e-01,-1.190558549906342925e-02,-2.302116437253798331e-02,-2.937136246369630166e-02,1.165344270777816417e-03,5.944880350599863333e-02,-2.312018424272537231e-01,1.874382623822146241e-03,1.165097745380841952e-02,-9.492479625939205523e-02,3.151062250137329213e-01,-3.151986002922058105e-01,1.352975907461674010e-01,2.151062250137329157e-01,-2.151986002922058050e-01,2.176984369754791093e-01,5.331931039923676341e-01,-4.104499816894531250e-01,-3.262647390365600586e-01,-3.631463025081331786e+00,9.900844097137451172e-02
5.725900000000000434e-01,3.489994133184787586e-03,6.620131693499341739e-03,8.880994319915771484e-01,-1.700738324259554179e-02,-2.820396388538437549e-02,-2.979645353811317607e-02,-5.948155110292474915e-03,6.499509596102784337e-02,-2.289327234029769897e-01,-6.296279379795799436e-02,-5.021565183417061456e-02,-8.920887334598251450e-02,3.223054885864257701e-01,-3.214655637741088978e-01,1.442573762355280342e-01,2.223054885864257646e-01,-2.214655637741088923e-01,2.280639410018920898e-01,5.291558966515268470e-01,-6.569147706031799316e-01,-1.662187695503234863e+00,1.346361151834010741e+02,9.703385829925537109e-02
5.973460000000000436e-01,3.530187373955331713e-03,8.397928979261462534e-03,8.818525671958923340e-01,-2.020668249348950979e-02,-3.044363593929833023e-02,-3.104556780409451974e-02,-3.058489437798637793e-04,5.234553801299605263e-02,-2.205031216144561768e-01,-1.207232854412886303e-01,-1.063719260057772731e-01,-8.328370272401308672e-02,3.231714844703674205e-01,-3.214879512786865123e-01,1.402288347535712854e-01,2.231714844703674150e-01,-2.214879512786865068e-01,2.277415752410888450e-01,5.306348420227919860e-01,-5.840832591056823730e-01,2.543483972549438477e-01,9.232197312414818668e+01,9.703385829925537109e-02
6.249200000000000310e-01,3.759859229572996408e-03,1.007544491938220516e-02,8.759884238243103027e-01,-1.714646602600339645e-02,-2.623269724454369012e-02,-3.376422236146121164e-02,9.604247276943349981e-03,6.080726350740375818e-02,-2.233436256647109985e-01,-1.604647371639980613e-01,-1.452654590522318157e-01,-7.691716082559815759e-02,3.210427045822143444e-01,-3.179465770721435769e-01,1.313895078957382778e-01,2.210427045822143388e-01,-2.179465770721435436e-01,2.262574017047881969e-01,5.314991478291163363e-01,-5.886346101760864258e-01,-1.598938703536987305e+00,9.989457653618464406e+01,9.703385829925537109e-02
6.475649999999999462e-01,4.043940597178777990e-03,1.114102574024560845e-02,8.721211552619934082e-01,-1.222011050918152437e-02,-2.106402551536668000e-02,-3.568347743765327290e-02,3.922349491365004562e-03,5.974262874296450143e-02,-2.141658067703247070e-01,-1.801138688802856325e-01,-1.644276570614588984e-01,-7.348831481668152699e-02,3.160180330276489147e-01,-3.108076095581054910e-01,1.223358690738677867e-01,2.160180330276489091e-01,-2.108076095581054576e-01,2.223358690738677923e-01,5.309863254498338181e-01,-6.128519177436828613e-01,-6.707454919815063477e-01,-9.405391614481937168e+00,9.703385829925537109e-02
6.727950000000000319e-01,4.391680674284264077e-03,1.217766871053079826e-02,8.684252500534057617e-01,-6.360772211675446916e-03,-1.470981673602067552e-02,-3.772874525102731802e-02,1.008356704179518264e-03,6.180795615458865161e-02,-2.209146916866302490e-01,-1.796861735180868558e-01,-1.634963603976585522e-01,-7.305802978974280937e-02,3.018298334967991492e-01,-2.893400654882316569e-01,1.095646023750305176e-01,2.101574420928954967e-01,-1.947898864746093750e-01,2.095646023750305231e-01,5.328356334615255152e-01,-5.702459812164306641e-01,-1.276469588279724121e+00,3.320845487668286466e+01,9.703385829925537109e-02
6.966219999999999635e-01,4.950196742388947649e-03,1.378343207535340925e-02,8.625229597091674805e-01,3.228904069715605573e-03,-4.193867931714390096e-03,-4.039226829699577026e-02,2.628672519733099306e-03,6.518538818302389848e-02,-2.265789061784744263e-01,-1.509510572109780402e-01,-1.326514627238634669e-01,-7.439227490780860041e-02,2.202604988424211041e-01,-5.525655147692476454e-02,8.233106136322013158e-03,1.881805658340454102e-01,-3.024709224700927734e-02,1.082331061363220187e-01,5.386475028036463719e-01,-3.133127689361572266e-01,-1.306286692619323730e+00,3.136175955531359349e+01,9.703385829925537109e-02
7.227740000000000276e-01,5.323236953261448363e-03,1.490694556601469475e-02,8.585665225982666016e-01,9.764786480777040700e-03,2.724584293497533949e-03,-4.196944807475323780e-02,9.679383793094286162e-03,5.880883710749132409e-02,-2.277882844209671021e-01,-1.061573281098825705e-01,-8.729658357061761964e-02,-7.623007706303983055e-02,1.490024813218316924e-01,7.043497906037557432e-02,3.642537593841552179e-02,1.639672279357910212e-01,4.559551477432250560e-02,1.364253759384155273e-01,5.413157792024805293e-01,-2.038545608520507812e-01,-1.577092289924621582e+00,6.559011535433569406e+01,9.703385829925537109e-02
7.473060000000000258e-01,5.710485267492982145e-03,1.676180278436720586e-02,8.524268269538879395e-01,1.897095947566455193e-02,1.226334156999286940e-02,-4.361954799444370257e-02,6.146607329216702623e-03,6.021270479897226219e-02,-2.344118356704711914e-01,-4.414704711957794653e-02,-2.740296059752264646e-02,-7.472348513052842756e-02,6.976317858058432575e-02,2.359942099033876528e-01,3.975428342819212202e-02,1.422471284866332897e-01,1.532000362873077448e-01,1.397542834281921276e-01,5.435845548616859979e-01,-1.469316482543945312e-01,-1.459641814231872559e+00,7.831130170234941090e+01,9.703385829925537109e-02
7.750099999999999767e-01,5.691655283333298988e-03,1.906630755109108358e-02,8.462770581245422363e-01,2.695397518177014909e-02,1.865481433210125495e-02,-4.438103546685435302e-02,-5.938469554838053362e-04,5.668279046321441500e-02,-2.410444766283035278e-01,2.210774004401684992e-02,3.358787698202383293e-02,-7.093972660127444152e-02,-3.166729927062988392e-01,3.267790019512176736e-01,1.201769769191741721e-01,-2.166729927062988337e-01,2.267790019512176403e-01,2.201769769191741777e-01,5.543228269345839010e-01,3.872182369232177734e-01,-1.419201970100402832e+00,9.919628531619922285e+01,9.703385829925537109e-02
7.986710000000000198e-01,5.669352106324139495e-03,2.053914039597776187e-02,8.421550393104553223e-01,3.115618763672624650e-02,2.012494336130377093e-02,-4.502913326408527345e-02,7.584223325809017965e-03,5.512843146488476120e-02,-2.338426113128662109e-01,8.887556730630527535e-02,9.092431553520471943e-02,-6.634983134880992339e-02,-3.252746939659118541e-01,3.278007805347442627e-01,1.192394196987152100e-01,-2.252746939659118486e-01,2.278007805347442571e-01,2.192394196987152155e-01,5.563755720659911974e-01,4.963576793670654297e-01,-4.261094331741333008e-01,-4.918171285459310837e+01,9.703385829925537109e-02
8.224040000000000239e-01,5.644137389588286570e-03,2.194361948560029710e-02,8.383070230484008789e-01,3.411634554821162818e-02,1.909201078648714578e-02,-4.548132269087160062e-02,8.359601470222115943e-03,6.171968983970821387e-02,-2.374631315469741821e-01,1.489175522979964694e-01,1.387920392424801530e-01,-6.246611590509167783e-02,-3.250892102718353494e-01,3.276830315589904785e-01,1.143413662910461315e-01,-2.250892102718353160e-01,2.276830315589904730e-01,2.143413662910461370e-01,5.551859316209144524e-01,3.791468143463134766e-01,-9.399379491806030273e-01,-1.388054129169385931e+02,9.703385829925537109e-02
8.470490000000000519e-01,5.591844300170470405e-03,2.414374798752950621e-02,8.325551152229309082e-01,3.358253881883316305e-02,1.351348557525300365e-02,-4.732874518550601178e-02,5.040550765910606183e-03,5.582765298227481549e-02,-2.236325293779373169e-01,1.880216210217969530e-01,1.622380958649975446e-01,-6.108161727274002972e-02,-3.230457067489623801e-01,3.157569177287724016e-01,9.661927819252014160e-02,-2.230457067489624023e-01,2.266959965229034257e-01,1.966192781925201472e-01,5.493794785257504198e-01,6.326484680175781250e-02,-8.398038148880004883e-01,8.382329168330637970e+01,9.703385829925537109e-02
8.722130000000000161e-01,5.508128878867700993e-03,2.571674417353347897e-02,8.290907144546508789e-01,2.971517871903556901e-02,7.820455298730877303e-03,-4.861881349753074955e-02,1.253606172882497545e-02,6.620630989845896486e-02,-2.294827699661254883e-01,2.010463646145222716e-01,1.602575210590372334e-01,-6.095929473838026386e-02,-3.187595367431640403e-01,2.820993729732660382e-01,8.497287631034849964e-02,-2.187595367431640625e-01,2.243951618671417292e-01,1.849728763103485052e-01,5.449824050690276200e-01,-2.406569719314575195e-01,2.554432153701782227e-01,-1.989960246757582496e+01,9.703385829925537109e-02
8.992790000000000505e-01,5.452849633397961748e-03,2.806622682132402929e-02,8.239529728889465332e-01,2.127215834881033066e-02,-1.911281546943977006e-03,-5.063329670247658509e-02,1.065910054409596394e-02,6.170397596685927438e-02,-2.113189101219177246e-01,1.863340865858973960e-01,1.349519682929237185e-01,-6.133644897603245105e-02,-2.868795637989534075e-01,2.057182028920760686e-01,-2.262152433395386852e-02,-2.081675648689269853e-01,2.130391359329223688e-01,7.737847566604613703e-02,5.418238651100542036e-01,-3.848256468772888184e-01,-1.362230181694030762e+00,7.774516098242540352e+01,9.703385829925537109e-02
9.226769999999999694e-01,5.485811703415158745e-03,2.960499997065009145e-02,8.208019733428955078e-01,1.470343854540777373e-02,-8.554838783979112904e-03,-5.185806959345794220e-02,1.199939326400680829e-02,6.110305085737014613e-02,-2.140009850263595581e-01,1.515955341161656089e-01,9.378139242250280172e-02,-6.091899589910644564e-02,-2.295628132939141475e-01,7.746059072907338083e-02,-1.353590250015258845e-01,-1.952787816524505504e-01,1.263533234596252441e-01,-3.535902500152587891e-02,5.423735367675407426e-01,-3.969352245330810547e-01,-1.537748456001281738e+00,-4.102101649464020738e+01,9.703385829925537109e-02
9.497740000000000071e-01,5.469642496168070425e-03,3.190724860431765758e-02,8.165371417999267578e-01,4.744626601032064447e-03,-1.811277789847687281e-02,-5.317923704641177446e-02,6.243367812522941825e-03,6.187092188147667177e-02,-2.011647224426269531e-01,9.607594061907835659e-02,3.749340501877591186e-02,-5.794985045032086113e-02,-9.181567118765751601e-02,-2.501857519149780495e-01,-8.595160841941834606e-02,-1.250922381877899170e-01,-1.501857519149780162e-01,1.404839158058166469e-02,5.462636673052366776e-01,-1.648765206336975098e-01,-2.701662778854370117e-01,4.294444557623999259e+01,9.703385829925537109e-02
9.748559999999999448e-01,5.479676964028973134e-03,3.334753556702024779e-02,8.139285445213317871e-01,-1.842568565229271531e-03,-2.386197008464985281e-02,-5.326907005692376601e-02,7.416521638768648790e-03,6.533455670585482100e-02,-2.078909128904342651e-01,3.401263171654438089e-02,-2.279896130694824413e-02,-5.331563478786066623e-02,2.249228427271953157e-01,-3.073900461196899525e-01,1.244074642658233587e-01,1.449967503547668346e-01,-2.073900461196899470e-01,2.244074642658233643e-01,5.399346713236153894e-01,-5.747619271278381348e-01,-5.874990224838256836e-01,-3.719532167258393685e+01,9.703385829925537109e-02
9.995039999999999480e-01,5.436238113568640090e-03,3.564769780647704389e-02,8.104821443557739258e-01,-1.118122926318577785e-02,-2.953415633699019160e-02,-5.231484743149015376e-02,2.142312271870899440e-03,6.718325472199603021e-02,-1.897507458925247192e-01,-3.097240617600966958e-02,-8.060972794840971789e-02,-4.773223966788974620e-02,3.156826496124267578e-01,-3.197010278701782338e-01,1.263139784336090032e-01,2.156826496124267523e-01,-2.197010278701782282e-01,2.263139784336090088e-01,5.371218186785772231e-01,-6.916987299919128418e-01,6.382387876510620117e-01,-7.911611313753577512e+00,1.276477575302124023e-01
1.027260000000000062e+00,5.478382715805490792e-03,3.718132516686617484e-02,8.083662390708923340e-01,-1.646254860939960762e-02,-3.031351111288582700e-02,-5.206252676655228478e-02,1.365397121002721176e-02,7.120914775075436187e-02,-1.952552199363708496e-01,-9.360567412890200001e-02,-1.283959246429429712e-01,-4.260194589072223426e-02,3.162635803222656472e-01,-3.133574962615967019e-01,8.768793344497680109e-02,2.162635803222656139e-01,-2.133574962615966686e-01,1.876879334449768066e-01,5.420868765984516724e-01,-4.656113386154174805e-01,-1.154050230979919434e+00,1.299299782414788922e+02,1.276477575302124023e-01
1.049447999999999936e+00,5.606689133733910001e-03,3.872105934562125595e-02,8.064892888069152832e-01,-1.924120149707645930e-02,-2.844163626260920452e-02,-5.286380361147394180e-02,1.127618792200332093e-02,6.578695243068986842e-02,-1.745019555091857910e-01,-1.489925000799199872e-01,-1.613612617218213308e-01,-3.877181472601594348e-02,3.166952729225158691e-01,-3.096682786941528098e-01,3.872479796409605823e-02,2.166952729225158636e-01,-2.096682786941528320e-01,1.387247979640960638e-01,5.427824372397455077e-01,-3.705502748489379883e-01,-3.147095441818237305e-01,-5.547289081606513150e+01,1.276477575302124023e-01
1.077898999999999941e+00,5.968034351348744902e-03,4.063614030022272977e-02,8.038909435272216797e-01,-1.761370198142519702e-02,-2.121516232958464698e-02,-5.477197538861769410e-02,9.972555473668091863e-03,6.017593728043788698e-02,-1.735559701919555664e-01,-1.879885006508589529e-01,-1.706545127895077729e-01,-3.680037712735466371e-02,3.134489774703979603e-01,-2.993827581405639759e-01,4.114134311676023725e-02,2.134489774703979548e-01,-1.993827581405639704e-01,1.411413431167602428e-01,5.421965743940743154e-01,-4.281625747680664062e-01,-1.468330025672912598e+00,5.082383718013132778e+01,1.276477575302124023e-01
1.109880999999999895e+00,6.288184193268312426e-03,4.175532981384620645e-02,8.023974895477294922e-01,-1.339804171400004774e-02,-1.525166610341521789e-02,-5.611389408775700749e-02,1.141381561736603753e-02,6.356834507860460726e-02,-1.642056852579116821e-01,-2.039929209349284345e-01,-1.557255486352359664e-01,-3.599638376187561106e-02,3.140876293182373047e-01,-2.858843405781261726e-01,5.912153124809263471e-02,2.140876293182372991e-01,-1.953351259231567438e-01,1.591215312480926403e-01,5.416194482003232613e-01,-4.475131034851074219e-01,-1.056513667106628418e+00,-1.317054449350886713e+01,1.276477575302124023e-01
1.135142000000000095e+00,6.429729944367402333e-03,4.237055764858508461e-02,8.016195297241210938e-01,-1.106453147766166961e-02,-1.179452021728932820e-02,-5.637065064527060215e-02,1.417962978238600236e-02,7.202628052413598270e-02,-1.732016354799270630e-01,-2.037489932950239113e-01,-1.267607770234016329e-01,-3.500482561973815299e-02,3.160750389099121205e-01,-2.557244593401337696e-01,2.451617121696471335e-02,2.160750389099121149e-01,-1.890956640243530162e-01,1.245161712169647189e-01,5.430722000325886034e-01,-4.239407777786254883e-01,-1.509740948677062988e+00,7.087662030022302417e+01,1.276477575302124023e-01
1.156557999999999975e+00,6.594889761270693665e-03,4.298221226388102001e-02,8.008326292037963867e-01,-8.303953607576615090e-03,-8.504912933978259204e-03,-5.666827630743490746e-02,1.964096003948023056e-02,6.907906756470739984e-02,-1.665049195289611816e-01,-1.822657409304126452e-01,-8.217735483124032070e-02,-3.304136667816252176e-02,3.179287672042846458e-01,-2.196685850880529256e-01,-4.705047607421880551e-03,2.179287672042846680e-01,-1.780482530593872070e-01,9.529495239257812500e-02,5.443354985391742895e-01,-3.482527136802673340e-01,-1.415424466133117676e+00,6.765057169106425761e+01,1.276477575302124023e-01
1.176168000000000102e+00,6.731773103446822212e-03,4.355682594241879618e-02,8.002138733863830566e-01,-5.322924596864009317e-03,-4.938222837912453755e-03,-5.703288053910626765e-02,1.589176588504229853e-02,6.963399596305108741e-02,-1.733625829219818115e-01,-1.464859213781122271e-01,-2.931831860121478228e-02,-3.054904039173125807e-02,3.187724828720092662e-01,-1.760232188922560281e-01,-3.862247467041016180e-02,2.187724828720092607e-01,-1.539726376533508134e-01,6.137752532958984375e-02,5.472527330610147400e-01,-2.330310940742492676e-01,-1.267999053001403809e+00,6.146294622759880610e+01,1.276477575302124023e-01
1.200312000000000046e+00,7.023813839909384509e-03,4.477807374983754085e-02,7.989192008972167969e-01,9.446014599581426365e-04,2.021276496182444760e-03,-5.788623813992491152e-02,1.142430292822933097e-02,6.417116459071710299e-02,-1.557711660861968994e-01,-9.291912650371744742e-02,2.992405558119163450e-02,-2.859632787122131162e-02,2.768085948116713602e-01,1.128057282575109094e-01,1.739703416824339710e-02,2.091944932937621904e-01,9.251961708068846824e-02,1.173970341682434027e-01,5.460463585732400205e-01,-2.540565729141235352e-01,-1.216020703315734863e+00,5.243959356037871089e+01,1.276477575302124023e-01
1.225052000000000030e+00,7.682879126958004970e-03,4.647492774823584749e-02,7.968143820762634277e-01,9.871678279932660435e-03,1.256530579221015742e-02,-5.840211009422088123e-02,1.201820866664516513e-02,6.661908821128915970e-02,-1.660887002944946289e-01,-3.058467104371926856e-02,9.182794890455657499e-02,-2.748606040071650478e-02,1.531809547122394144e-01,2.950253627224198039e-01,1.954101324081419788e-02,1.408518075942992998e-01,2.057309925556182750e-01,1.195410132408142034e-01,5.423330750278672063e-01,-5.292811393737792969e-01,-1.600036382675170898e+00,7.800458522748081691e+01,1.276477575302124023e-01
1.250043000000000015e+00,8.502288751381268175e-03,4.802787686538018824e-02,7.948832511901855469e-01,1.916285151628669553e-02,2.191609709956865437e-02,-5.885848110028429198e-02,3.335200141398816237e-02,6.692214180950874225e-02,-1.543690413236618042e-01,3.357025755149935231e-02,1.492108233404219053e-01,-2.788187466973235384e-02,-1.705599122907190957e-01,3.258730590343474898e-01,1.101674735546112061e-01,-1.236884593963623047e-01,2.258730590343475120e-01,2.101674735546112116e-01,5.452965094669318669e-01,-3.432282209396362305e-01,-1.589814066886901855e+00,4.874489835150869510e+01,1.276477575302124023e-01
1.277786000000000088e+00,9.458960894024419364e-03,4.956105180661946052e-02,7.930116653442382812e-01,2.838588749923743812e-02,3.000687145284874902e-02,-5.847654734903245249e-02,3.007413887172177488e-02,5.995794866202219103e-02,-1.504481285810470581e-01,9.680746432707057481e-02,1.981993473227733893e-01,-2.907792806526042148e-02,-3.224938690662383922e-01,3.280060946941375510e-01,1.164678394794463889e-01,-2.224938690662383867e-01,2.280060946941375732e-01,2.164678394794463945e-01,5.608673731271309748e-01,5.286774635314941406e-01,-1.510524988174438477e+00,8.399016686510813656e+01,1.276477575302124023e-01
1.298478999999999939e+00,1.020883412944746486e-02,5.043715995177967815e-02,7.918337583541870117e-01,3.472075236853692376e-02,3.451519543030423520e-02,-5.775894927287031355e-02,3.318909422442260782e-02,5.274156750636833230e-02,-1.465139091014862061e-01,1.552429822456767861e-01,2.359205465295948212e-01,-2.851777965269262222e-02,-3.266250073909759410e-01,3.282738149166106734e-01,1.218868315219878984e-01,-2.266250073909759355e-01,2.282738149166106956e-01,2.218868315219879039e-01,5.619520177147372397e-01,5.840419530868530273e-01,-1.124300122261047363e+00,4.036099823966895173e+01,1.276477575302124023e-01
1.322942999999999980e+00,1.132652690192726026e-02,5.160928975849052996e-02,7.903539538383483887e-01,4.389072959338970875e-02,3.711971409469261296e-02,-5.753957974436901129e-02,3.344324740351231617e-02,5.136394707566009632e-02,-1.379416137933731079e-01,2.011451123211271952e-01,2.498517576046090927e-01,-2.632037623938211085e-02,-3.277867794036865012e-01,3.283830702304839644e-01,1.260830402374267523e-01,-2.277867794036865234e-01,2.283830702304839866e-01,2.260830402374267578e-01,5.625545274699692566e-01,6.291928291320800781e-01,-9.513171911239624023e-01,9.523149710679022917e+01,1.276477575302124023e-01
1.347649000000000097e+00,1.246705312633975514e-02,5.261155307999040853e-02,7.891408801078796387e-01,5.073938237625397890e-02,3.387439236382583374e-02,-5.748288845117312945e-02,4.014751720556732073e-02,3.970096227428346336e-02,-1.377596706151962280e-01,2.321905361412714142e-01,2.414566408321387192e-01,-2.133983906479497775e-02,-3.277244627475738303e-01,3.283543348312377708e-01,1.152611136436462180e-01,-2.277244627475738525e-01,2.283543348312377930e-01,2.152611136436462236e-01,5.602745007796363641e-01,4.772411584854125977e-01,-1.176883578300476074e+00,8.541062764641735328e+01,1.276477575302124023e-01
1.373340999999999923e+00,1.380269558903518545e-02,5.354268583610707205e-02,7.880173921585083008e-01,5.123742818251146580e-02,2.682245074025590981e-02,-5.868523519668926436e-02,4.658320212735726773e-02,4.331863355806866295e-02,-1.323564052581787109e-01,2.476965966772506356e-01,2.143632281070149137e-01,-1.824929002828927851e-02,-3.275579869747161643e-01,3.282678425312042236e-01,5.346246361732481800e-02,-2.275579869747161865e-01,2.282678425312042181e-01,1.534624636173248236e-01,5.506521741019793081e-01,-6.988316774368286133e-02,-7.431160211563110352e-01,6.126884591176538208e+01,1.276477575302124023e-01
1.399578999999999906e+00,1.518377632214874123e-02,5.479001476537801590e-02,7.870621681213378906e-01,4.535233535494762741e-02,1.793906217966134697e-02,-6.004918518207644912e-02,5.314405290599635845e-02,3.375215045730742963e-02,-1.204182952642440796e-01,2.407318319032088760e-01,1.717267258536572805e-01,-1.630507999957350740e-02,-3.262580096721648948e-01,3.276013135910034180e-01,-1.230251193046570657e-02,-2.262580096721649170e-01,2.276013135910034124e-01,8.769748806953429898e-02,5.402139588282102167e-01,-6.275576949119567871e-01,-1.132577538490295410e+00,1.051116935902938252e+02,1.276477575302124023e-01
1.423847000000000085e+00,1.644907804840248233e-02,5.659312912359368286e-02,7.862970232963562012e-01,3.638781105744737926e-02,7.919786318869803665e-03,-6.165418586494975095e-02,5.705898138607022607e-02,3.127764445875384075e-02,-1.033021733164787292e-01,2.113030001066148744e-01,1.186452030962210219e-01,-1.632375563098135626e-02,-3.236997187137603538e-01,3.160861840857291938e-01,6.776580810546872780e-02,-2.236997187137603760e-01,2.256426215171813965e-01,1.677658081054687333e-01,5.378503562058175591e-01,-7.100403904914855957e-01,-8.351045846939086914e-01,1.175086781791637378e+02,1.276477575302124023e-01
1.448565000000000103e+00,1.778128581762077748e-02,5.823817459561744098e-02,7.857734560966491699e-01,2.669424139721000150e-02,-2.283716831404491998e-03,-6.296214017701079468e-02,6.188934106841588456e-02,2.214227047514513713e-02,-8.534800261259078979e-02,1.600006461895108756e-01,5.958125981168756885e-02,-1.661558201178056637e-02,-3.196266233921051247e-01,2.479488885909104656e-01,3.336672782897948109e-02,-2.196266233921050914e-01,2.187527060508727972e-01,1.333667278289794866e-01,5.373472795665948931e-01,-6.839662790298461914e-01,-6.578849554061889648e-01,6.278714232274585783e+01,1.276477575302124023e-01
1.473402000000000100e+00,1.912387407451310653e-02,5.970469375284057079e-02,7.856677770614624023e-01,1.633229481207779804e-02,-1.272419707063665584e-02,-6.330146486692804497e-02,6.076665578778668586e-02,2.732153222326453440e-02,-8.068096637725830078e-02,9.609555406836475799e-02,-3.426083869315449393e-03,-1.755839913559744531e-02,-2.532364532172254878e-01,1.062970729884018112e-01,-8.656994700431824841e-02,-2.157654583454131914e-01,1.447905778884887584e-01,1.343005299568176235e-02,5.376518721217152796e-01,-6.640039086341857910e-01,-1.176667571067810059e+00,8.775677030556005320e+01,1.276477575302124023e-01
1.498898999999999981e+00,2.064673109566815198e-02,6.139733167520378121e-02,7.857283949851989746e-01,6.119383621588405688e-03,-2.278433089916820364e-02,-6.346232684267642810e-02,6.523451984316222529e-02,2.538259027915457447e-02,-7.187721878290176392e-02,2.823543154720695864e-02,-6.566596264385093917e-02,-1.814793682443719552e-02,8.006507371022605901e-02,-3.049046449383692736e-01,7.071319818496701881e-02,5.081727504730224748e-02,-2.065253019332885798e-01,1.707131981849670244e-01,5.379603323865344011e-01,-6.262975931167602539e-01,-1.005956053733825684e+00,8.587122145309716359e+01,1.276477575302124023e-01
1.523077000000000014e+00,2.226746859444185891e-02,6.322522272329099413e-02,7.858967781066894531e-01,-4.268341382713375029e-03,-3.214706051757998395e-02,-6.343371655000978881e-02,5.067789190879777583e-02,3.118596087784692231e-02,-6.203118711709976196e-02,-4.034042742326192366e-02,-1.249853626039159060e-01,-1.860907356378211502e-02,2.959501028060912975e-01,-3.062291145324707031e-01,-1.200622797012329129e-01,1.959501028060912919e-01,-2.062291145324706976e-01,-2.006227970123291085e-02,5.361457698335654332e-01,-7.008884549140930176e-01,-1.502474546432495117e+00,9.234414391819404955e+01,1.276477575302124023e-01
1.548094000000000081e+00,2.373655210433122179e-02,6.515117085226948546e-02,7.859252095222473145e-01,-1.373139616872205010e-02,-3.855558658700375396e-02,-6.274224824888016694e-02,5.647509909851379517e-02,3.235260745146861794e-02,-7.336703687906265259e-02,-1.068826943176209021e-01,-1.779772461439441400e-01,-1.880254304892406067e-02,3.165360927581787331e-01,-3.109059929847717285e-01,-2.738691926002502219e-01,2.165360927581786998e-01,-2.109059929847717230e-01,-1.738691926002502441e-01,5.370003311984455907e-01,-7.128844261169433594e-01,-7.487891912460327148e-01,1.057754035625114710e+02,1.276477575302124023e-01
1.571885999999999894e+00,2.477505367080717891e-02,6.641590583248582758e-02,7.858793735504150391e-01,-1.763735065911369720e-02,-3.952978922565875131e-02,-6.252265385926271402e-02,4.452515785128312309e-02,3.320491388400827887e-02,-6.486529111862182617e-02,-1.691355196190248156e-01,-2.173575021426225329e-01,-1.895402098868352245e-02,3.190986394882202037e-01,-3.147920131683349387e-01,-2.849502563476562500e-01,2.190986394882201982e-01,-2.147920131683349609e-01,-1.849502563476562444e-01,5.366899296574795253e-01,-7.104654312133789062e-01,-1.261324763298034668e+00,9.275039673983724242e+01,1.276477575302124023e-01
1.598641999999999896e+00,2.702402296273115345e-02,6.803347748946322882e-02,7.860085964202880859e-01,-1.728649616528136687e-02,-3.544674107806411456e-02,-6.049603748649273749e-02,5.232489699396151300e-02,3.835722260221935409e-02,-6.337261199951171875e-02,-2.164805629223850170e-01,-2.305825057088627117e-01,-1.708787508854274148e-02,3.184133529663085715e-01,-3.135533332824707031e-01,-2.361544370651245117e-01,2.184133529663085938e-01,-2.135533332824706976e-01,-1.361544370651245062e-01,5.370832821921828204e-01,-6.965313553810119629e-01,-1.333199858665466309e+00,8.602692927560593716e+01,1.276477575302124023e-01
1.624994999999999967e+00,2.913310768013404467e-02,6.961288987269188822e-02,7.861874103546142578e-01,-1.086010866801207647e-02,-2.672210431646870887e-02,-5.692341340795419730e-02,3.631271791187695025e-02,3.323877246868126717e-02,-4.983752220869064331e-02,-2.356655479062811087e-01,-2.145818114082863048e-01,-9.395765538536620179e-03,3.075548768043517844e-01,-3.002418875694274902e-01,-1.190750122070312611e-01,2.075548768043518066e-01,-2.002418875694274847e-01,-1.907501220703124861e-02,5.375160829762739567e-01,-6.312469840049743652e-01,-8.845666646957397461e-01,6.497537100827786105e+01,1.276477575302124023e-01
1.648261999999999894e+00,3.047957950458819384e-02,7.068713581952661140e-02,7.864362001419067383e-01,-4.623743910395175516e-03,-1.950821102921063144e-02,-5.430663606547680294e-02,4.370663175126172917e-02,3.890107847465109486e-02,-4.310777038335800171e-02,-2.263560229955586256e-01,-1.756151971236868947e-01,2.201971845802069925e-03,3.056747913360595703e-01,-2.788337341473136610e-01,-4.385930895805359442e-02,2.056747913360595648e-01,-1.971248388290405273e-01,5.614069104194641113e-02,5.390644524457898212e-01,-5.310860872268676758e-01,-7.809776067733764648e-01,1.124386355884524420e+02,1.276477575302124023e-01
1.673462999999999923e+00,3.177372005786428810e-02,7.176509059035127147e-02,7.866295576095581055e-01,2.264150702320485119e-03,-1.184569488929798631e-02,-5.168204491187977645e-02,4.796066671787341251e-02,4.317520723313055669e-02,-5.120461434125900269e-02,-1.889189629761431899e-01,-1.214600044228908438e-01,1.831405551773396950e-02,2.704012592404346216e-01,-1.909127413238529414e-01,-1.583424806594849188e-02,1.984085440635681152e-01,-1.615053176879882868e-01,8.416575193405151367e-02,5.423257958744877039e-01,-3.943505287170410156e-01,-9.755905866622924805e-01,1.010507841286952413e+02,1.276477575302124023e-01
1.696951000000000098e+00,3.452347112995807210e-02,7.292974992485799779e-02,7.869818806648254395e-01,1.234438006576110691e-02,-6.158702578435981678e-04,-4.889274446783969941e-02,3.671400321430854513e-02,3.285277762681393376e-02,-3.856462612748146057e-02,-1.292401917389559285e-01,-5.838461982660587968e-02,3.496524565306634302e-02,1.819057769041197981e-01,3.495694569366994409e-02,-1.506177186965942938e-02,1.834900617599487249e-01,-1.563656330108642535e-03,8.493822813034057617e-02,5.421289120295640362e-01,-3.661701679229736328e-01,-8.757706880569458008e-01,8.715820667764597829e+01,1.276477575302124023e-01
1.723807000000000089e+00,3.634468294500678431e-02,7.367490157859137023e-02,7.870922088623046875e-01,1.861731534210726846e-02,6.440223018217894335e-03,-4.728049799302182915e-02,4.657202591860907376e-02,3.620060128177124414e-02,-4.074672609567642212e-02,-6.183338211195039957e-02,7.685831017485394816e-03,5.084085497573985479e-02,9.312566210127826150e-02,2.675980601824312632e-01,-7.018578052520763055e-03,1.311606645584106334e-01,1.758185327053070068e-01,9.298142194747924250e-02,5.389321523769627920e-01,-5.651723146438598633e-01,-8.782097101211547852e-01,1.077218298910466956e+02,1.276477575302124023e-01
1.747962999999999933e+00,3.905235066171749980e-02,7.480350062816511214e-02,7.871935963630676270e-01,2.685135153186726104e-02,1.484677978817083854e-02,-4.566030716717284915e-02,4.969843368173290643e-02,4.044004818146416241e-02,-3.862901777029037476e-02,6.447470178109137966e-03,7.120082826343872295e-02,6.172622211726545849e-02,-2.912752003141333423e-01,3.252539157867431197e-01,-1.748591303825378640e-01,-2.028597056865692194e-01,2.252539157867431419e-01,-7.485913038253784457e-02,5.369369166414910133e-01,-6.797102093696594238e-01,-8.834906816482543945e-01,1.095550390038997790e+02,1.276477575302124023e-01
1.773924000000000056e+00,4.078055457333516765e-02,7.553724472385218991e-02,7.871298789978027344e-01,3.160360121018395557e-02,1.801480548336331644e-02,-4.423917898578028779e-02,5.094574568772843731e-02,3.851557057288185204e-02,-4.174318909645080566e-02,7.239629795935886847e-02,1.290325061425518782e-01,7.086020611908568079e-02,-3.182449460029602162e-01,3.260056316852569802e-01,-2.035666346549988015e-01,-2.182449460029602106e-01,2.260056316852569469e-01,-1.035666346549987821e-01,5.397042163011815941e-01,-5.516196489334106445e-01,-1.044572472572326660e+00,9.807403742424193638e+01,1.276477575302124023e-01
1.797447999999999935e+00,4.237522107500548557e-02,7.692567861165319765e-02,7.870443463325500488e-01,3.641364088391415427e-02,1.742904867028238769e-02,-4.205267952672933629e-02,3.437829415779360825e-02,3.775768282467670267e-02,-4.121203720569610596e-02,1.313021135551089569e-01,1.709228502730061605e-01,7.724691701552635625e-02,-3.229707479476928711e-01,3.266741454601287398e-01,-1.825674772262573242e-01,-2.229707479476928655e-01,2.266741454601287620e-01,-8.256747722625731867e-02,5.396429383248236844e-01,-5.657303929328918457e-01,-1.042719483375549316e+00,1.011921212331903064e+02,1.276477575302124023e-01
1.822829999999999950e+00,4.310488144278466077e-02,7.801904470849976847e-02,7.868655323982238770e-01,3.618252282204542647e-02,1.414324756106188907e-02,-3.935828713688038077e-02,4.209712366772880299e-02,4.373563465744002843e-02,-5.309573188424110413e-02,1.784987053575214644e-01,1.975169692087093143e-01,8.518477789206330142e-02,-3.233456313610076904e-01,3.265100300312042125e-01,-1.229966521263122642e-01,-2.233456313610076849e-01,2.265100300312042070e-01,-2.299665212631225517e-02,5.392708648295883034e-01,-6.477610468864440918e-01,-8.089951276779174805e-01,1.004337175183196109e+02,1.276477575302124023e-01
1.850468999999999919e+00,4.416769661927796159e-02,7.971757213669437847e-02,7.863698005676269531e-01,3.101798833620967796e-02,6.522378412068263742e-03,-3.534702166468251666e-02,3.089964718828124013e-02,3.642454787552874829e-02,-4.924676939845085144e-02,2.018766597095436877e-01,1.939594568430605126e-01,9.300471207262188400e-02,-3.219385266304016224e-01,3.112956420564220728e-01,-5.160458697215637713e-02,-2.219385266304016169e-01,2.251598954200744462e-01,4.819722175598144254e-02,5.386509578848066582e-01,-6.816555261611938477e-01,-7.419649362564086914e-01,8.879927573895743365e+01,1.276477575302124023e-01
1.872317999999999927e+00,4.488767313238016532e-02,8.083459732347002269e-02,7.859502434730529785e-01,2.491475585339575707e-02,1.085932501665443084e-04,-3.254428153995200801e-02,3.782308818715566373e-02,4.517726988898000673e-02,-5.515114217996597290e-02,1.957143477202694659e-01,1.668147409710512841e-01,9.924013665097519699e-02,-2.885068192970073331e-01,2.752664225816015553e-01,8.018979220731445312e-02,-2.210123062133788896e-01,2.234163522720336859e-01,1.717627286911010687e-01,5.392940731309072699e-01,-6.849291324615478516e-01,-9.909428358078002930e-01,8.448431056099104808e+01,4.718911647796630859e-02
1.899497999999999909e+00,4.558055233185766275e-02,8.321602885507670133e-02,7.852428555488586426e-01,1.525955928974885752e-02,-1.085531804237382936e-02,-2.902311908915289340e-02,4.294260854556798679e-02,3.360798542141733153e-02,-5.075839534401893616e-02,1.627857799177608311e-01,1.192533153083809444e-01,1.036025785613878397e-01,-2.245722738215022440e-01,1.961895932043772328e-01,1.167524271942347869e-01,-2.124559700489044023e-01,2.111999094486236572e-01,1.979284465312957653e-01,5.403700113506629821e-01,-6.236515641212463379e-01,-7.763091325759887695e-01,9.190108320711367185e+01,4.718911647796630859e-02
1.928754000000000079e+00,4.592857403138393690e-02,8.493395823289109914e-02,7.847012877464294434e-01,8.394760598329316023e-03,-1.812001115311412391e-02,-2.756766810389492742e-02,3.170487120489855898e-02,4.318982148041647373e-02,-4.920402914285659790e-02,1.122539131191246514e-01,6.075095463955648700e-02,1.034187872276052245e-01,-1.672427616854555155e-01,1.124399603080994126e-01,1.375519370735766300e-01,-2.094840466976165827e-01,1.828074038028716930e-01,2.143923997879028376e-01,5.422913048819143489e-01,-5.261285305023193359e-01,-7.806535959243774414e-01,1.188301421986427755e+02,4.439899921417236189e-02
1.948601000000000028e+00,4.625679711530687743e-02,8.662042464357386229e-02,7.841936349868774414e-01,1.845321801812564505e-03,-2.523403808249780056e-02,-2.696684355338749978e-02,3.796111327096490795e-02,3.527961447739012824e-02,-4.587277024984359741e-02,4.783526214676556143e-02,-5.309522116739984546e-03,9.993299413980150092e-02,-3.233363937671662747e-02,-2.535129785537719727e-01,1.428309856909494580e-01,-1.118914246559142983e-01,-1.535129785537719671e-01,2.179622769355773759e-01,5.486595786912185080e-01,-1.713584661483764648e-01,-6.199344396591186523e-01,3.303235723195430573e+00,4.439899921417236189e-02
1.973835999999999924e+00,4.675413117418203424e-02,8.917441022127188532e-02,7.834083437919616699e-01,-7.124270879539909909e-03,-3.469240906796211554e-02,-2.662969752720253241e-02,3.862434694326309648e-02,4.755235236757689860e-02,-4.906924441456794739e-02,-1.855369646723225088e-02,-7.336062525259162692e-02,9.295065906106129983e-02,2.997171401977539174e-01,-3.110096693038940652e-01,-2.691284357925141646e-01,1.997171401977539118e-01,-2.110096693038940319e-01,-1.948903799057006836e-01,5.396908574488538113e-01,-7.021945714950561523e-01,-1.362483859062194824e+00,1.061960612531142232e+02,4.439899921417236189e-02
1.998612999999999973e+00,4.774943974808402297e-02,9.133947289086494226e-02,7.826088666915893555e-01,-1.369151914688233711e-02,-4.062621190574899899e-02,-2.748784485142364079e-02,2.517312894312379729e-02,4.602605158774228378e-02,-3.800395131111145020e-02,-8.004287240932350667e-02,-1.339545973848803306e-01,8.533434750243965028e-02,3.137695550918578880e-01,-3.214352011680602916e-01,-2.872542020461562595e-01,2.137695550918579102e-01,-2.214352011680602861e-01,-2.103902935981750433e-01,5.384094487878033908e-01,-7.452449798583984375e-01,-1.343726277351379395e+00,1.698723507718231645e+02,4.439899921417236189e-02
2.022901000000000060e+00,4.858238207270994258e-02,9.266042166297472349e-02,7.820777893066406250e-01,-1.621737835540655592e-02,-4.138881425517015877e-02,-2.727281928328420188e-02,2.494483391981379070e-02,5.050611341922364717e-02,-3.682821616530418396e-02,-1.338422636384814512e-01,-1.837226032722726887e-01,7.799766482696376957e-02,3.178975820541382058e-01,-3.211090803146362527e-01,-2.880917002787436454e-01,2.178975820541381725e-01,-2.211090803146362194e-01,-2.117454528808593583e-01,5.386001867975328539e-01,-7.451341152191162109e-01,-1.495570063591003418e+00,1.225386617103929012e+02,4.439899921417236189e-02
2.050135000000000041e+00,4.974205924135098600e-02,9.472723243887960776e-02,7.814850807189941406e-01,-1.566233179604516190e-02,-3.736972399355553698e-02,-2.450421756220734146e-02,2.024800352824017088e-02,5.727568398359164648e-02,-2.262820117175579071e-02,-1.714543295018408908e-01,-2.071927516832245963e-01,7.381563532011763129e-02,3.146789312362671120e-01,-3.170037627220153587e-01,-2.746201962132022167e-01,2.146789312362670787e-01,-2.170037627220153809e-01,-2.060838460922241044e-01,5.378999404868765044e-01,-7.424972057342529297e-01,-7.937794923782348633e-01,1.045418304172721520e+02,4.439899921417236189e-02
2.075115999999999961e+00,5.042295965195421614e-02,9.610207344015528341e-02,7.811564803123474121e-01,-1.223315436529139738e-02,-3.258287328219400258e-02,-2.160903325369981087e-02,2.049636825837540532e-02,5.353448819139557807e-02,-1.902871392667293549e-02,-1.927070308529914844e-01,-2.098110695940439696e-01,7.119400077214882439e-02,3.055464744567871205e-01,-3.075919628143310436e-01,-2.559766867474442265e-01,2.055464744567871149e-01,-2.075919628143310380e-01,-1.956401109695434515e-01,5.380830388920804230e-01,-7.312395572662353516e-01,-6.275295019149780273e-01,1.092946858531172296e+02,4.439899921417236189e-02
2.099833999999999978e+00,5.146946185049908890e-02,9.799592033204392039e-02,7.808644771575927734e-01,-4.039830251465579593e-03,-2.330741081065035303e-02,-1.719386212052879948e-02,1.376137101948959711e-02,5.606058792095981042e-02,-1.588344387710094452e-02,-1.864337577497844900e-01,-1.812420531834930681e-01,7.138752636192029211e-02,2.252545118331909235e-01,-2.684088230133056530e-01,-1.505578594913872803e-01,1.252545118331909180e-01,-1.684088230133056474e-01,-1.027262091636657743e-01,5.393214645097208493e-01,-6.631547212600708008e-01,-1.209574103355407715e+00,1.120900363935933228e+02,5.389332771301269531e-03
2.124442000000000164e+00,5.236639277781095225e-02,9.897649554698262353e-02,7.807654142379760742e-01,2.626903076384266410e-03,-1.637952263557185262e-02,-1.413347690485583681e-02,2.228948522684683076e-02,6.169543804901667094e-02,-8.541595190763473511e-03,-1.609263458052569984e-01,-1.362948129899252403e-01,7.265441657069600379e-02,2.215417623519897461e-01,-1.481234997893674521e-01,1.461620122794590748e-03,1.215417623519897405e-01,-9.277482032775878629e-02,4.079003334045409879e-02,5.431563604424537450e-01,-4.329286813735961914e-01,-1.102068543434143066e+00,1.130209638567093862e+02,5.389332771301269531e-03
2.149509999999999810e+00,5.361218795504339024e-02,1.004856734258059575e-01,7.806204557418823242e-01,1.258485219741872080e-02,-6.110479229954668412e-03,-9.484341863325362887e-03,5.664453777837428865e-03,5.703309327037049681e-02,-1.440345891751348972e-03,-1.098214395673630939e-01,-7.715477767099328255e-02,7.549226515061063791e-02,1.384337655972426862e-01,1.333797605775620676e-01,1.591846487778108277e-01,1.053498387336730957e-01,1.338260829448700007e-01,1.857409894466399980e-01,5.425891059603289435e-01,-4.477280378341674805e-01,-8.417040109634399414e-01,6.733757144215925905e+01,5.389332771301269531e-03
2.176648000000000138e+00,5.442671465522955915e-02,1.015157589725515647e-01,7.804460525512695312e-01,1.844439679336465007e-02,5.934769535953510200e-04,-7.549372532691378361e-03,1.030254628445004608e-02,5.388167034841565006e-02,-7.626608479768037796e-03,-4.994412864269431179e-02,-1.302129265419590953e-02,7.836015054073999786e-02,-1.285878845691158512e-01,2.469372505062821521e-01,1.830638000201755822e-01,-1.226787686347961398e-01,1.975608944892883190e-01,2.045874774456024059e-01,5.398299009014598804e-01,-6.378644704818725586e-01,-9.965978860855102539e-01,1.126566142456242261e+02,5.389332771301269531e-03
2.199879999999999836e+00,5.524770505179189828e-02,1.025008770718423001e-01,7.802159190177917480e-01,2.372633875962497363e-02,6.246328661327904541e-03,-6.202746436785327826e-03,2.343352771877370982e-02,5.671315451875848929e-02,-1.329840067774057388e-02,1.385318691730524909e-02,5.210449971065191088e-02,8.220830619033503428e-02,-2.552411806482176582e-01,3.190946128357071698e-01,1.791869728344116508e-01,-2.182540297508239746e-01,2.234484672546386552e-01,1.974175572395324707e-01,5.395487201673523359e-01,-6.888574361801147461e-01,-1.084192395210266113e+00,9.513052642028992523e+01,5.389332771301269531e-03
2.225802999999999976e+00,5.582858676871740172e-02,1.040000259939253269e-01,7.799261808395385742e-01,2.779863260017003540e-02,9.900961070126834684e-03,-6.165471167142743715e-03,1.153032830503361583e-02,5.636793074655140762e-02,-1.836233027279376984e-02,7.544199784400322517e-02,1.137814343769769643e-01,8.645182737525584915e-02,-2.863900422310211580e-01,3.254876613616943248e-01,1.875285577368288048e-01,-2.233882963657378984e-01,2.254876613616943193e-01,2.058780670166015514e-01,5.403934247949219172e-01,-6.747989058494567871e-01,-1.132927298545837402e+00,1.070262024448375797e+02,5.389332771301269531e-03
2.248240000000000016e+00,5.639774562370054867e-02,1.054997692099056694e-01,7.795221805572509766e-01,3.036528880024172775e-02,1.083241504316001524e-02,-6.639588304280172326e-03,9.250762712205080548e-03,5.161625060654672498e-02,-9.111021645367145538e-03,1.288606406648190039e-01,1.647169658546347726e-01,9.089464593589773045e-02,-3.060805468629383408e-01,3.261431396007538064e-01,2.011444182487926446e-01,-2.245115697383880671e-01,2.261431396007537731e-01,2.209426760673522949e-01,5.398257980376830467e-01,-6.827756762504577637e-01,-1.250118136405944824e+00,1.110280512606830570e+02,5.389332771301269531e-03
2.274850999999999956e+00,5.708396517859929548e-02,1.077642734425178356e-01,7.787404060363769531e-01,2.986018378532415835e-02,7.500372579120062611e-03,-8.194351520073724429e-03,1.876685982903700950e-02,6.058940115213558991e-02,-2.030252292752265930e-02,1.656521892544108865e-01,1.961072439536628853e-01,9.026201431745914383e-02,-2.935435869896025340e-01,3.257406651973724365e-01,1.991602232698508890e-01,-2.238549470901489147e-01,2.257406651973724310e-01,2.231821417808532715e-01,5.406115444284728122e-01,-6.991495490074157715e-01,-1.025766491889953613e+00,1.143336032717807740e+02,5.389332771301269531e-03
2.299983000000000111e+00,5.767069417229125222e-02,1.100892430231327074e-01,7.776210904121398926e-01,2.411231952483813140e-02,1.100483972051868875e-04,-1.021110718455529344e-02,5.025652316461805789e-03,6.181381926012794598e-02,-2.960391901433467865e-02,1.773332545690108064e-01,1.971483395368318625e-01,8.293332390075294769e-02,-2.500283533711971096e-01,2.657643580584067577e-01,1.850405191423808715e-01,-2.189734876155853271e-01,2.229594111442565751e-01,2.140374541282653864e-01,5.426435923006197592e-01,-6.395839452743530273e-01,-1.054728627204895020e+00,1.141139580484515079e+02,5.389332771301269531e-03
2.328519000000000005e+00,5.743778115619414121e-02,1.126209995088066906e-01,7.762240767478942871e-01,1.497471102030785602e-02,-9.923194205070595686e-03,-1.246919657572713273e-02,2.976016457185326220e-03,6.375927676766862673e-02,-2.951191179454326630e-02,1.656038392876513776e-01,1.731798726813650602e-01,7.074127659699497306e-02,-1.762128080215477066e-01,1.623313727636147008e-01,1.435402104156899006e-01,-2.078755259513855036e-01,1.845512688159942627e-01,1.782925844192504716e-01,5.440592912713535512e-01,-5.785625576972961426e-01,-9.790550470352172852e-01,8.034057822551687877e+01,5.389332771301269531e-03
2.349959000000000131e+00,5.713744839564355305e-02,1.143472314776273757e-01,7.750520110130310059e-01,7.973016865097617978e-03,-1.734122028860451969e-02,-1.421556907449336368e-02,8.256700440731401525e-03,6.420156528479604996e-02,-3.616673126816749573e-02,1.302891544885891872e-01,1.277080477689092053e-01,5.211377673093085111e-02,-1.248203360492196740e-01,5.820061535378308337e-02,1.360238845194605695e-01,-2.035625338554382380e-01,1.247561573982238770e-01,1.754298090934753307e-01,5.451253173616996683e-01,-5.630884766578674316e-01,-1.248023152351379395e+00,1.608544656710336653e+02,5.389332771301269531e-03
2.377772000000000219e+00,5.673476603140428093e-02,1.169285736696902139e-01,7.731074690818786621e-01,-2.520443074510071105e-03,-2.870815811944060769e-02,-1.631431166749102227e-02,-9.454416002442405861e-04,7.888343585833398897e-02,-4.255795106291770935e-02,8.012186019491614186e-02,6.829774492777886119e-02,2.959074017238918011e-02,-2.169557809829711359e-02,-2.858322381973266713e-01,1.732860438801485103e-01,-1.216955780982971191e-01,-1.858322381973266657e-01,2.183493375778198242e-01,5.469038396232723809e-01,-5.104504227638244629e-01,-8.945475816726684570e-01,6.983187456477787691e+01,5.389332771301269531e-03
2.400018999999999902e+00,5.635233040884413819e-02,1.187096329132121819e-01,7.718062400817871094e-01,-8.824776596549158483e-03,-3.563245975717266312e-02,-1.789113513578524314e-02,-1.251351620831277212e-02,7.435324985535141096e-02,-4.002366214990615845e-02,1.768873582640580894e-02,2.549331642184771238e-03,5.782519830172844384e-03,-4.473384022712706409e-02,-3.006685733795165794e-01,1.693856062686582287e-01,-1.447338402271270696e-01,-2.006685733795166016e-01,2.189380109310150035e-01,5.503970339565142922e-01,-3.221213221549987793e-01,-9.604805707931518555e-01,1.242537631921181287e+02,5.389332771301269531e-03
2.424529999999999852e+00,5.572299094789864848e-02,1.207559613743842269e-01,7.696985006332397461e-01,-1.649261501636527238e-02,-4.335146299774805811e-02,-1.990653724483738146e-02,-1.249353283719136995e-02,7.434096632874678812e-02,-4.375794529914855957e-02,-4.405087289201817941e-02,-6.304553800696596766e-02,-1.655179091743735204e-02,3.145403146743774303e-01,-3.100287675857543723e-01,2.227635769290298162e-02,2.145403146743774248e-01,-2.100287675857543945e-01,7.772693037986755371e-02,5.447541155957335013e-01,-6.760178208351135254e-01,-8.044680356979370117e-01,8.634587861927802521e+01,5.367114543914795061e-02
