timestamp,x,y,z,roll,pitch,yaw,vx,vy,vz,p,q,r,psp,qsp,rsp,pres,qres,rres,thrust_sp, thrust_res
0.000000000000000000e+00,3.176707462509930063e-04,2.740154449509717149e-02,1.092318773269653320e+00,1.311664987205145641e-02,-5.517461816807012198e-03,-4.941007430373093451e-02,1.828011124342929011e-03,-2.994842067725524831e-02,-2.216077409684658051e-02,3.003742481985713711e-03,3.729718128652050740e-03,-4.344973114580701935e-03,1.204589359478158150e-01,1.876548171108613772e-01,-3.190140962600708230e-01,2.119989752769470270e-01,2.225476920604705644e-01,-2.190140962600707897e-01,5.236659467880780960e-01,-8.951765298843383789e-02,-1.000060439109802246e+00,-2.294427198823031233e+01,0.000000000000000000e+00
2.501199999999999951e-02,3.553748885773053124e-04,2.731324670315818381e-02,1.092022538185119629e+00,1.285430685321864615e-02,-5.533002954237753457e-03,-4.950652760732286023e-02,8.278884445505892836e-03,-2.319881288906739530e-02,-2.756119892001152039e-02,1.062904841743773574e-03,3.519198252431459707e-03,-6.647531322915128590e-03,1.319412833236061344e-01,1.896979806897712562e-01,8.406673669815062366e-02,2.121694564819335826e-01,2.202595174312591553e-01,1.840667366981506292e-01,5.334531917462758122e-01,4.134485721588134766e-01,-9.448477029800415039e-01,9.367667284412851814e+01,0.000000000000000000e+00
5.021199999999999969e-02,3.913735123937598899e-04,2.717813599511904529e-02,1.091547966003417969e+00,1.287662825798606414e-02,-5.780379004671987175e-03,-4.967997007332401738e-02,6.818336538001737272e-03,-1.773338164819287729e-02,-2.418179623782634735e-02,1.198374715790776791e-03,2.912182072930156410e-03,-8.425636820559415791e-03,8.310837656442737753e-02,1.842092354665157694e-01,7.320983409881590132e-02,1.603180646896362194e-01,2.185025990009307750e-01,1.732098340988159069e-01,5.348122229541106831e-01,4.906527996063232422e-01,-8.053535223007202148e-01,9.907709851518249877e+01,0.000000000000000000e+00
7.803999999999999826e-02,4.035037498129116188e-04,2.700600690299448034e-02,1.091154813766479492e+00,1.360527889162667890e-02,-6.292756264540066979e-03,-5.021080041825078111e-02,6.479788009423984377e-03,-2.165934792533989739e-02,-1.859726570546627045e-02,3.398006514775555806e-03,-8.004109238254389878e-04,-1.074629172236860053e-02,-1.195177625740401484e-01,1.491474362524128627e-01,-9.685273170471192516e-02,-3.371683359146118025e-02,1.867020249366760087e-01,3.147268295288086024e-03,5.359611523458918114e-01,5.656989812850952148e-01,-5.658894777297973633e-01,1.078104311049601023e+02,0.000000000000000000e+00
1.020650000000000029e-01,3.674715152190195398e-04,2.689908090805420357e-02,1.090957164764404297e+00,1.406380779673158804e-02,-6.552304998369784528e-03,-5.065235062510663189e-02,6.680556852879086620e-03,-2.064208215494097928e-02,-1.884653605520725250e-02,5.035937418893353910e-03,-2.457353258179100722e-03,-1.163950888864419622e-02,-1.424684886116722449e-01,1.260318832409978995e-01,-1.083690285682678278e-01,-5.501294732093810896e-02,1.651627063751220648e-01,-8.369028568267822266e-03,5.368041433364408865e-01,6.016267538070678711e-01,-3.783305883407592773e-01,-2.774343269155348679e+01,0.000000000000000000e+00
1.236509999999999970e-01,3.565169705456813385e-04,2.678426336091428370e-02,1.090715408325195312e+00,1.430434488133042886e-02,-6.896481933186038304e-03,-5.084708916295416214e-02,6.068672507075278250e-03,-1.617674910217023129e-02,-1.688534766435623169e-02,7.282726836257348742e-03,-4.220565482864532120e-03,-1.206925669156647639e-02,-1.436444501127525086e-01,1.034288460256245490e-01,-1.019225001335144071e-01,-5.790665745735168457e-02,1.454348087310790849e-01,-1.922500133514404123e-03,5.369906144453329144e-01,6.099172830581665039e-01,-1.033837437629699707e+00,1.026214680906097101e+02,0.000000000000000000e+00
1.502259999999999984e-01,2.893424246011686192e-04,2.663087276977342197e-02,1.090470790863037109e+00,1.441017077015071396e-02,-6.524906433719612764e-03,-5.109295816709373550e-02,-1.633141321583391056e-03,-1.530003031741854549e-02,-1.668023690581321716e-02,8.866488298747863747e-03,-5.258496971693970602e-03,-1.282758969305064847e-02,-1.426749829106031819e-01,8.204289971026865191e-02,-9.635745286941528598e-02,-5.597620010375976146e-02,1.275617659091949352e-01,3.642547130584716537e-03,5.370994942024620578e-01,6.069769859313964844e-01,-3.107455968856811523e-01,-1.280315544824305185e+01,0.000000000000000000e+00
1.737889999999999990e-01,2.434815004577992612e-04,2.651867529346305097e-02,1.090379953384399414e+00,1.452922314024979872e-02,-6.606747779326127556e-03,-5.146266896287941123e-02,8.233774162686832016e-03,-1.846011018083601116e-02,-1.168439537286758423e-02,8.498268308692852324e-03,-4.546243573951349280e-03,-1.268159333372497963e-02,-1.633885793982344792e-01,1.072790514869383649e-01,-1.147166013717651478e-01,-7.366880178451537531e-02,1.445208549499511774e-01,-1.471660137176513533e-02,5.368910466170573326e-01,6.062523126602172852e-01,-1.260174870491027832e+00,1.436597513034717224e+02,0.000000000000000000e+00
2.008340000000000125e-01,1.034371530105541840e-04,2.646938136643051456e-02,1.090281128883361816e+00,1.460606993742712828e-02,-6.201271011696762869e-03,-5.184235144709190002e-02,-4.870083001663087080e-03,-1.932357711176400580e-02,-1.092864945530891418e-02,8.384543844746079888e-03,-3.976558695919692361e-03,-1.235965075053887391e-02,-1.622318773275818748e-01,9.798363182952278538e-02,-1.057313799858093373e-01,-7.128430008888243796e-02,1.442244172096252275e-01,-5.731379985809325651e-03,5.368005061514156129e-01,5.953134298324584961e-01,-9.186621904373168945e-01,1.034197874309899703e+02,0.000000000000000000e+00
2.259089999999999987e-01,2.648075126840935710e-05,2.644101168024484347e-02,1.090189695358276367e+00,1.492368653288797531e-02,-5.780490559057938071e-03,-5.175157758611830666e-02,-1.674730154009571948e-03,-1.391996879803063768e-02,-1.026264019310474396e-02,7.787884254058778481e-03,-2.473653879650131952e-03,-1.234353586958392840e-02,-1.763355521207781440e-01,1.239265528785084836e-01,-1.168163418769836426e-01,-8.778584003448486328e-02,1.633591175079345537e-01,-1.681634187698364050e-02,5.370519243412733568e-01,6.029791831970214844e-01,-1.071397066116333008e-01,2.052515148988169642e+02,0.000000000000000000e+00
2.499000000000000110e-01,-1.236410216611467982e-04,2.640088948852519282e-02,1.090057611465454102e+00,1.558746572382405451e-02,-5.327169857566760314e-03,-5.194258756662080423e-02,1.685876374557942385e-03,-7.216929369353733761e-03,-5.982585716992616653e-03,8.015900352265238962e-03,-9.335286895133451668e-04,-1.262244858240358161e-02,-1.828352365861269924e-01,1.547436231214749935e-01,-1.235210776329040555e-01,-9.448660612106322965e-02,1.894024193286895641e-01,-2.352107763290405343e-02,5.363813731045278255e-01,5.739696025848388672e-01,3.767907619476318359e-02,3.030960647971356536e+01,0.000000000000000000e+00
2.749750000000000250e-01,-2.210795720058788085e-04,2.638906646834152103e-02,1.089953541755676270e+00,1.541301789198202751e-02,-4.998740778278776276e-03,-5.216574881911202610e-02,-8.872052078851340451e-03,-2.295268854709974632e-02,-4.078761208802461624e-03,9.220258516913427266e-03,-1.993409651128683654e-04,-1.232516758210941595e-02,-2.208038330078125056e-01,1.550298780742405680e-01,-1.451287388801574818e-01,-1.208038330078125000e-01,1.957410693168639970e-01,-4.512873888015746932e-02,5.356323991579730048e-01,5.315251350402832031e-01,-9.948998689651489258e-01,9.924225248931341525e+01,0.000000000000000000e+00
2.995030000000000192e-01,-5.210905461064080195e-04,2.641374578360514147e-02,1.089844942092895508e+00,1.531638263295285324e-02,-4.855868683986797052e-03,-5.191547799465372204e-02,1.737880825930777570e-03,-6.433382488564664929e-03,-1.435933262109756470e-02,9.127649649900810083e-03,1.552522938814617382e-03,-1.117565173473378422e-02,-2.203280113755444192e-01,1.787250681075554515e-01,-1.750774264335632213e-01,-1.356614828109741211e-01,2.095945358276367076e-01,-7.507742643356322965e-02,5.360358752737827137e-01,5.040075778961181641e-01,-8.975309133529663086e-01,5.735023831888212520e+00,0.000000000000000000e+00
3.278400000000000203e-01,-1.004080846463423085e-03,2.654301768746798046e-02,1.089762091636657715e+00,1.484924484726991151e-02,-5.398525935104148132e-03,-5.164226771108268443e-02,-6.565289437246278441e-03,-1.906653486314046839e-02,-1.549390610307455063e-03,8.616670051629455804e-03,2.301539773828818747e-03,-9.057367661421577426e-03,-2.052412959357651223e-01,1.665751790568721635e-01,-2.479123830795288141e-01,-1.113501191139221191e-01,2.086711406707763561e-01,-1.479123830795288086e-01,5.323900299105051026e-01,3.453707695007324219e-01,-4.232047796249389648e-01,8.969920097343080556e+01,0.000000000000000000e+00
3.499570000000000181e-01,-1.337084162216593125e-03,2.660048536294051802e-02,1.089755773544311523e+00,1.442031410059194454e-02,-5.707783161730928256e-03,-5.165116086754083929e-02,-1.123396086302834267e-02,-8.322430463071990928e-03,-1.900599803775548935e-03,6.487730925491451417e-03,2.644523062586724618e-03,-7.174136997123761392e-03,-1.151741654552330407e-01,1.633841948931334109e-01,-2.545051813125610574e-01,-3.416093587875366350e-02,2.105477929115295299e-01,-1.545051813125610241e-01,5.283337063455216809e-01,1.135956048965454102e-01,-1.080368876457214355e+00,1.066263358500683438e+02,0.000000000000000000e+00
3.751639999999999975e-01,-1.644735509105773198e-03,2.667802422551335262e-02,1.089796185493469238e+00,1.375787039170152729e-02,-5.966146803609406746e-03,-5.145154873863043432e-02,3.250719245848589321e-03,-7.230478449143343429e-03,-1.079847104847431183e-02,2.816184383148733882e-03,3.970867954571263500e-03,-4.973838098088291353e-03,1.379584999593421457e-01,1.858425387197430445e-01,-3.213906049728393333e-01,2.147678017616271862e-01,2.229446947574615367e-01,-2.213906049728393555e-01,5.216078137267883275e-01,-2.954632043838500977e-01,-7.710984945297241211e-01,7.818643901413241792e+01,0.000000000000000000e+00
4.018070000000000253e-01,-2.100109568768556301e-03,2.681352437821360457e-02,1.089761018753051758e+00,1.342911828966115127e-02,-5.828640713264388040e-03,-5.159505297663206230e-02,-1.217077307300864532e-02,-2.088159986740439900e-02,-3.042178461328148842e-03,2.267107944234373013e-04,3.448025819670119500e-03,-2.703811671075824659e-03,-2.182808994448813544e-01,1.733027274724401323e-01,-3.218079924583435170e-01,-1.324467658996582031e-01,2.233244240283966120e-01,-2.218079924583435114e-01,5.351382601744413270e-01,4.659365415573120117e-01,-1.387883424758911133e-01,-9.835371318018644615e+01,0.000000000000000000e+00
4.276220000000000021e-01,-2.614257919604614285e-03,2.700479659251652995e-02,1.089720487594604492e+00,1.417863892416868117e-02,-6.019549555381642492e-03,-5.112285912319803477e-02,4.246468393819162815e-03,-4.704217399459206285e-03,-3.070374717935919762e-03,-1.133339248769945967e-03,3.560756833999688311e-03,-1.150893464218308380e-03,-2.850139246417905392e-01,1.840847716992511374e-01,-3.130149602890014426e-01,-2.094940423965453991e-01,2.214375793933868464e-01,-2.130149602890014648e-01,5.394563013984996491e-01,6.964286565780639648e-01,-1.140460133552551270e+00,9.125249527371842362e+01,0.000000000000000000e+00
4.489020000000000232e-01,-2.964756225180222807e-03,2.711482271370497035e-02,1.089709401130676270e+00,1.479614999654755431e-02,-6.228349355221096673e-03,-5.077955086748610347e-02,-1.974867598230156760e-03,-1.460586127861398381e-02,8.808619342744350433e-03,-1.048228908996343915e-03,2.889844431451691134e-03,9.315269073530745231e-04,-3.050575261212628009e-01,1.698835052680044144e-01,-1.987205266952514759e-01,-2.154447734355926514e-01,2.155827641487121638e-01,-9.872052669525145652e-02,5.378817131948749886e-01,6.484674215316772461e-01,-9.099310636520385742e-01,6.794306771208088946e+01,0.000000000000000000e+00
4.745909999999999851e-01,-3.277031719277727784e-03,2.722133370444896130e-02,1.089686989784240723e+00,1.509205603487659766e-02,-5.877269120270200986e-03,-5.057083588278744879e-02,-1.853866699949782010e-02,-1.918263248109843347e-02,-1.925571472384035587e-03,8.386827005321265474e-04,7.672248862844288208e-04,2.991159054078165302e-03,-2.828353931574687508e-01,1.354552526035350535e-01,-2.958445310592651145e-01,-1.887279510498046931e-01,1.909515559673309326e-01,-1.958445310592651367e-01,5.363389123988987484e-01,5.124623775482177734e-01,-2.949622869491577148e-01,-3.997240145703024883e+00,0.000000000000000000e+00
5.009059999999999624e-01,-3.852147720874829224e-03,2.758971453949038768e-02,1.089621663093566895e+00,1.576381142652404435e-02,-5.942330456624178581e-03,-5.045228951849629884e-02,7.419868225886431558e-03,-4.035154759585256670e-03,-7.181477732956409454e-03,1.925528576281478835e-03,-6.803898295260190493e-04,4.487658456505365032e-03,-2.789157263800757791e-01,1.280629496948225421e-01,-1.322525978088378851e-01,-1.939105689525604248e-01,1.625224471092223955e-01,-3.225259780883788646e-02,5.401302621743541144e-01,6.931576728820800781e-01,-9.030684232711791992e-01,9.523272654084082944e+01,0.000000000000000000e+00
5.280660000000000354e-01,-4.592199721144424492e-03,2.842211612586739711e-02,1.089425086975097656e+00,1.569606017535757694e-02,-5.485705978933497207e-03,-5.027716355483507343e-02,-2.105033300278321903e-02,-1.312280274515820362e-02,2.755710855126380920e-03,2.859855251912131469e-03,-2.110947026702805936e-03,5.692372034228168273e-03,-2.459336715035248533e-01,3.679446603961075701e-02,-1.020006060600280873e-01,-1.517408609390258623e-01,9.406390786170959473e-02,-2.000606060028076085e-03,5.397724199462280437e-01,7.038280963897705078e-01,-6.672340631484985352e-01,9.290093410914431615e+01,0.000000000000000000e+00
5.496520000000000294e-01,-5.085271477699369359e-03,2.890330051302212114e-02,1.089248418807983398e+00,1.594657791803009289e-02,-5.394917941280219509e-03,-5.034968113541673368e-02,1.323804586803932742e-03,-7.265636742154492171e-03,-7.109712343662977219e-03,3.695521770891116355e-03,-3.114903819681887932e-03,6.147185219895587305e-03,-2.423170824373236942e-01,7.401285983805480639e-02,-9.205658435821534313e-02,-1.534325838088989313e-01,1.100051343441009466e-01,7.943415641784667622e-03,5.408802422171050672e-01,7.174050807952880859e-01,-9.369040727615356445e-01,1.273433582820383663e+02,0.000000000000000000e+00
5.754540000000000211e-01,-5.581329754220051322e-03,2.939498040759764078e-02,1.089064836502075195e+00,1.602877280040457264e-02,-5.303225739945682804e-03,-5.031740784808730327e-02,-1.608304789876973686e-04,-1.907374482320926780e-03,-1.117644831538200378e-02,4.079650403705134196e-03,-1.372298058753994602e-03,5.533597753880794071e-03,-2.804879343638205236e-01,1.097276231529356744e-01,-1.293050646781921387e-01,-1.945389032363891435e-01,1.498670160770416149e-01,-2.930506467819213659e-02,5.410019578169407151e-01,6.987531185150146484e-01,-9.718173742294311523e-01,8.913509564987944600e+01,0.000000000000000000e+00
6.008879999999999777e-01,-6.268825315037488723e-03,3.010635700777192572e-02,1.088698506355285645e+00,1.620551609508931803e-02,-4.824682058977680654e-03,-5.035119896453061489e-02,-1.624314271993344827e-02,-1.119050193201300870e-02,-2.019650535658001900e-03,6.090450498474788213e-03,-2.178353758463132638e-04,5.274543583021324387e-03,-2.901289742915684755e-01,1.039232237997261277e-01,-1.576168894767761286e-01,-1.951188147068023682e-01,1.533269047737121638e-01,-5.761688947677612305e-02,5.399573854886605684e-01,6.672246456146240234e-01,-9.805494546890258789e-01,9.008191013300495342e+01,0.000000000000000000e+00
6.253570000000000517e-01,-6.701645550088538086e-03,3.099505817060344004e-02,1.088433027267456055e+00,1.658296300986960778e-02,-4.632189063427327724e-03,-5.019064801734043207e-02,-4.921685408142858348e-03,1.466278100371419622e-03,-8.198660798370838165e-03,8.867480521801841820e-03,1.221794209015708175e-03,4.653794914868352242e-03,-2.900873653871467450e-01,1.477716494311803463e-01,-1.814873337745666615e-01,-2.046663522720336970e-01,1.857265233993530273e-01,-8.148733377456664206e-02,5.408835582098550088e-01,6.847364902496337891e-01,-1.067745089530944824e+00,1.134223604138526866e+02,0.000000000000000000e+00
6.507810000000000539e-01,-7.329441360849124794e-03,3.231369419334069459e-02,1.088063120841979980e+00,1.671516776180766162e-02,-4.686817463818160334e-03,-4.985262512246554922e-02,-1.167456073426688737e-02,-9.108350728268620189e-03,-8.562068454921245575e-03,1.059738509047316972e-02,3.485814644076217113e-03,4.726126473459596813e-03,-3.001375376704874531e-01,1.567041811435847531e-01,-2.536422967910766380e-01,-2.045413970947265458e-01,2.018583655357360784e-01,-1.536422967910766602e-01,5.410751579413309864e-01,6.840156316757202148e-01,-1.041230797767639160e+00,1.006201611920934482e+02,0.000000000000000000e+00
6.758119999999999683e-01,-7.760531879228324027e-03,3.319990952740146245e-02,1.087875247001647949e+00,1.643155900072111250e-02,-4.857215456226304795e-03,-4.972686681532199199e-02,-1.782105400650588201e-02,4.498410188388290206e-04,-4.791747312992811203e-03,1.214522525015830461e-02,3.247901409115819434e-03,5.165002446589571881e-03,-2.889029970785670365e-01,1.443815585429744364e-01,-2.228072285652160645e-01,-2.044626653194427379e-01,1.951074957847595270e-01,-1.228072285652160589e-01,5.410650508476633203e-01,6.891561746597290039e-01,-1.321969151496887207e+00,9.781793948131230820e+01,0.000000000000000000e+00
6.993390000000000439e-01,-8.385005160030489790e-03,3.445495288455124178e-02,1.087641596794128418e+00,1.587383107862463949e-02,-5.163813067173395055e-03,-4.910580101521204444e-02,-5.932185393196611096e-03,-4.281833125663866112e-03,-9.786717128008604050e-04,1.089428593331067882e-02,4.056490615836476701e-03,5.242832448701597800e-03,-2.886616974268589320e-01,1.613909240377199572e-01,-2.721320867538452037e-01,-2.041228830814361406e-01,2.043264627456664873e-01,-1.721320867538451982e-01,5.407573284368070166e-01,6.780982017517089844e-01,-1.480849146842956543e+00,8.037224981269822877e+01,0.000000000000000000e+00
7.249630000000000241e-01,-8.458019118908500014e-03,3.539666874580394557e-02,1.087538242340087891e+00,1.519560281375138648e-02,-5.206665632310647496e-03,-4.833240891169147263e-02,-1.481079340745693890e-02,3.311869359650746088e-03,-1.326607656665146351e-03,7.489394988613741130e-03,4.551595134977712460e-03,6.511247114758586703e-03,-2.810508960314127558e-01,1.625091596878529832e-01,-3.124640703201294056e-01,-2.077660202980041448e-01,2.145180523395538164e-01,-2.124640703201294001e-01,5.405438413440616374e-01,6.561393737792968750e-01,-7.273024320602416992e-01,-1.127483402710829097e+01,0.000000000000000000e+00
7.506019999999999914e-01,-8.535553148067609799e-03,3.679301282348933222e-02,1.087506890296936035e+00,1.435405170117529799e-02,-5.275883805138548155e-03,-4.790402126746497180e-02,-8.996371739031113618e-03,-4.281514745952811799e-05,-2.655643736943602562e-03,4.029761338243567463e-03,3.425842089367243763e-03,7.634267787310961353e-03,-2.772149666057621697e-01,1.648899239953495466e-01,-3.122674465179443581e-01,-2.069167971611022838e-01,2.115665674209594727e-01,-2.122674465179443248e-01,5.376274604876877250e-01,4.807561635971069336e-01,-1.109037041664123535e+00,9.743777798229857012e+01,0.000000000000000000e+00
7.751639999999999642e-01,-8.604128107208973419e-03,3.769968211899895477e-02,1.087508320808410645e+00,1.450949722490501095e-02,-5.211384240404459689e-03,-4.749823101287422439e-02,-1.192537054538239313e-02,2.180286201124925338e-03,4.107736982405185699e-03,1.207975662418297265e-04,3.655792148906143648e-03,9.120982837511695113e-03,-2.422608630284714404e-01,1.503825533511000678e-01,-3.157691955566406250e-01,-1.737031638622283936e-01,1.999268531799316406e-01,-2.157691955566406194e-01,5.249473442907093279e-01,-1.960776448249816895e-01,-9.436160326004028320e-01,7.612438441313805981e+01,0.000000000000000000e+00
8.007319999999999993e-01,-8.692078044586746405e-03,3.895366430059264001e-02,1.087510585784912109e+00,1.497363474639661594e-02,-5.195250101447390634e-03,-4.691972281150242480e-02,-7.763604319040574679e-03,-7.258995837384928833e-04,6.060359068214893341e-03,-1.190562222673053434e-03,2.461256518154915449e-03,1.115470829762002861e-02,-2.006442647133438451e-01,1.423746334219309351e-01,-2.754161119461059348e-01,-1.275320649147033691e-01,1.882639110088348278e-01,-1.754161119461059570e-01,5.349439090378788064e-01,3.511568307876586914e-01,-1.232707858085632324e+00,1.063006860908204771e+02,0.000000000000000000e+00
8.256630000000000358e-01,-8.663369040307056929e-03,3.971244219123898356e-02,1.087499380111694336e+00,1.485645829297677946e-02,-4.959964962035989799e-03,-4.621839450540193156e-02,-1.466107314473570275e-02,6.277442700945762635e-03,-1.543462160043418407e-03,-1.650596295281720567e-03,6.266928792655097761e-04,1.337807776948419028e-02,-2.206681267965300286e-01,1.385461168135948273e-01,-1.361704111099243109e-01,-1.544144868850707841e-01,1.890066862106323242e-01,-3.617041110992431224e-02,5.403312662529405896e-01,6.110510826110839844e-01,-1.386561751365661621e+00,1.026649080937309861e+02,0.000000000000000000e+00
8.515629999999999589e-01,-8.440212088017526315e-03,4.075149249009214769e-02,1.087585926055908203e+00,1.515985912657988322e-02,-4.743830872812937471e-03,-4.537427996960326226e-02,-2.601440880094679428e-03,4.268549154173099588e-03,8.535736706107854843e-04,-1.695035522696153405e-03,6.094627045106307825e-04,1.555311995797217448e-02,-2.295660496373704007e-01,1.557043621397367072e-01,-1.269748687744140792e-01,-1.599509060382842962e-01,1.943835139274597001e-01,-2.697486877441406319e-02,5.403507944445211653e-01,6.139414310455322266e-01,-9.729632139205932617e-01,7.078955758642016427e+00,0.000000000000000000e+00
1.605493600000000143e+01,-7.461892404413515180e-03,6.519577136014161230e-03,9.899736642837524414e-01,1.669812724613984126e-02,-3.317357175506296940e-03,-1.964145387493724648e-03,-7.227728495159791745e-03,-4.125330263955976490e-02,-3.093478444498032331e-04,-3.583857446317189558e-03,1.787680719342628691e-02,2.948697368226083863e-03,-3.241004049777984619e-01,1.882866337774207199e-01,1.276156383838296937e-01,-2.241004049777984564e-01,2.198254644870757946e-01,1.330306649208068681e-01,5.441134614068604547e-01,7.142919301986694336e-01,-9.238938093185424805e-01,9.605793633598342751e+01,0.000000000000000000e+00
1.608079700000000045e+01,-7.904004757350016966e-03,5.087546032010873201e-03,9.899590015411376953e-01,1.569334320138279781e-02,-3.613752582103613165e-03,-2.208514343653054761e-03,-1.750467415389257361e-02,-4.301847320381512602e-02,1.039129449054598808e-03,-1.281802620869350665e-02,1.649562008943798036e-02,-4.372545230583099740e-04,-3.216872572898864524e-01,1.798324731174388846e-01,1.256697757183948827e-01,-2.216872572898864746e-01,2.204676568508148193e-01,1.317488551139831543e-01,5.444535540192542156e-01,7.256189584732055664e-01,-1.230438113212585449e+00,1.027740067053436093e+02,0.000000000000000000e+00
1.610643800000000070e+01,-8.169162543934873483e-03,4.114532747819767654e-03,9.899223446846008301e-01,1.494014915312746362e-02,-4.100355376708275656e-03,-2.077626766382736304e-03,-1.301092280710356916e-02,-4.653722720803164098e-02,3.184256609529256821e-03,-2.029508894255328127e-02,1.190665674383886881e-02,9.820084204655978120e-04,-3.149869918823242076e-01,1.770644742335355792e-01,1.325209082974087293e-01,-2.149869918823242021e-01,2.162284076213836503e-01,1.382477402687072587e-01,5.441781763691043716e-01,7.057018280029296875e-01,-1.037594437599182129e+00,4.674289477369708834e+01,0.000000000000000000e+00
1.613092800000000082e+01,-8.338645948269848493e-03,3.085013228535078179e-03,9.899747371673583984e-01,1.400505255947941986e-02,-4.514849218263172759e-03,-2.439170128036885835e-03,-1.058578657613578299e-03,-3.803533731065388696e-02,1.357571571134030819e-03,-2.460886869245557801e-02,7.632575069385836436e-03,-3.495196068294948149e-04,-3.176355302333832009e-01,1.840657563645545225e-01,1.303646440046534460e-01,-2.176355302333831676e-01,2.175827085971832331e-01,1.371166348457336370e-01,5.444749743376460227e-01,7.024508714675903320e-01,-5.850406885147094727e-01,-8.911993946011119760e+01,0.000000000000000000e+00
1.615640700000000152e+01,-8.401556837670864225e-03,2.389092966447638276e-03,9.900676608085632324e-01,1.299834616122476014e-02,-4.506493703004155194e-03,-2.971421624344252645e-03,-5.857807207773460360e-03,-4.062451655986010907e-02,9.515921585261821747e-03,-2.857410052250175525e-02,4.038495312613711412e-03,-2.032594211524950314e-03,-2.991039514541625755e-01,1.782893725898076487e-01,-2.139555870942541349e-01,-1.991039514541625977e-01,2.171475470066070446e-01,-2.057124495506286455e-01,5.447929385933282243e-01,7.402524948120117188e-01,-8.035594224929809570e-01,4.351428996624144396e+00,0.000000000000000000e+00
1.617945200000000128e+01,-8.508920946253516193e-03,1.483740471671114594e-03,9.903321862220764160e-01,8.242347864568651608e-03,-6.295517069723421955e-03,-4.579576127587600340e-03,-2.091448188920042028e-02,-3.297251741187633145e-02,1.591904647648334503e-02,-3.599683411529717991e-02,-2.613556385348898142e-03,-5.422879288427343882e-03,3.967037806098933084e-02,1.538597356366626645e-01,-2.360827324421352902e-01,1.126407980918884277e-01,2.153112888336181641e-01,-2.233296632766723633e-01,5.447577497526389090e-01,7.524148225784301758e-01,-6.354984045028686523e-01,-1.249778178856528399e+02,0.000000000000000000e+00
1.620459200000000166e+01,-8.705042186323385181e-03,1.000675602438872575e-03,9.907593131065368652e-01,3.261308020952984228e-03,-8.946035254720374752e-03,-5.225778296041685457e-03,-1.910507620089786640e-02,-3.390587482913157147e-02,3.005500324070453644e-02,-4.705727859254803941e-02,-1.007959997601572642e-02,-8.523934264141150297e-03,1.052569784550246856e-01,1.395519435104371486e-01,-2.385946839636968186e-01,1.480537176132201982e-01,2.149627804756164551e-01,-2.239615917205810547e-01,5.439524281046613785e-01,7.534623146057128906e-01,-7.932115793228149414e-01,8.800107934198223347e+01,0.000000000000000000e+00
1.623169700000000049e+01,-9.357625348663009546e-03,7.422691591608770144e-04,9.919511675834655762e-01,-5.372796008379415213e-03,-1.379337956638315710e-02,-3.265541399385884450e-03,-2.263720813430141962e-02,-2.441942419505724327e-02,5.515241995453834534e-02,-6.497410289617690238e-02,-2.190669123077305241e-02,-7.624016839694564701e-03,1.527036076444288626e-01,9.961378574371337891e-02,-2.161886266316573602e-01,1.322988510131835882e-01,1.996137857437133845e-01,-2.068641901016235185e-01,5.421296517008544757e-01,7.454707622528076172e-01,-1.263086199760437012e+00,1.935148046970121811e+02,0.000000000000000000e+00
1.625356800000000135e+01,-9.874094566931140848e-03,6.066513488849993845e-04,9.932627081871032715e-01,-8.981022909708267013e-03,-1.754501597688284953e-02,-1.263135648647777717e-03,-1.857630483177986555e-02,-2.828253654005466466e-02,7.631358504295349121e-02,-8.148769583334898592e-02,-3.515255990705163508e-02,-4.483222057698934421e-03,2.007488691759592159e-01,4.622530937194821443e-03,-1.488811048077381960e-01,1.614472389221191240e-01,1.046225309371948270e-01,-1.450062274932861217e-01,5.405062510373958018e-01,7.348449230194091797e-01,-7.422703504562377930e-01,1.003761390236164033e+02,0.000000000000000000e+00
1.627919199999999833e+01,-1.076704524013307254e-02,3.036186223682591618e-04,9.961366653442382812e-01,-1.026938050868953303e-02,-2.285032885223059473e-02,2.141168769056176098e-03,-3.073281819320237626e-02,-2.489174601378910459e-02,1.072901338338851929e-01,-9.114099956812213299e-02,-4.818564374193767819e-02,3.316789295733270446e-03,1.953460651609197907e-01,-2.939817547798156960e-01,9.265604220726234019e-02,1.449317693710327204e-01,-1.939817547798156627e-01,8.714851140975951593e-02,5.371106177720914587e-01,6.728100776672363281e-01,-7.407850027084350586e-01,9.807982259446893636e+01,0.000000000000000000e+00
1.630493399999999937e+01,-1.140536761361353978e-02,1.299176682260300478e-04,9.985523223876953125e-01,-8.969713946200190066e-03,-2.573780966413230509e-02,4.052148979715755779e-03,-3.325835096423600951e-02,-2.384623861711266529e-02,1.236080154776573181e-01,-1.017915550741781694e-01,-6.690056807832185648e-02,1.229682921802693202e-02,1.364281519285738820e-01,-3.127088308334350364e-01,1.180800837920224777e-01,9.441225528717041293e-02,-2.127088308334350586e-01,1.072207331657409612e-01,5.357784931371060155e-01,6.667768955230712891e-01,-1.272865176200866699e+00,8.861071470654088955e+01,0.000000000000000000e+00
1.633092100000000002e+01,-1.191848668937828259e-02,-4.674046394361768453e-04,1.002807497978210449e+00,-5.265471374867414754e-03,-2.729226954874608424e-02,5.565691648437769840e-03,-2.224086198732123237e-02,-1.707176032909173483e-02,1.454730331897735596e-01,-9.871376089331007631e-02,-8.127404968955469211e-02,2.126912151071437204e-02,1.718827119459713504e-02,-3.164054870605468861e-01,-2.184739149029152339e-02,-5.332231521606445312e-03,-2.164054870605468806e-01,-3.712892532348632812e-02,5.340612764135956869e-01,6.702830791473388672e-01,-6.675835847854614258e-01,-1.905638487868648667e+01,0.000000000000000000e+00
1.635517700000000119e+01,-1.204507568575145619e-02,-9.824989172107162841e-04,1.005897164344787598e+00,-1.779552528570966727e-03,-2.523296385731255143e-02,4.992693172002440373e-03,-2.012326235135096855e-02,-1.591516800333438522e-02,1.493797004222869873e-01,-8.768899132523785833e-02,-8.797066117550292330e-02,2.684827153609827682e-02,-4.333575674399750555e-02,-3.127381563186645286e-01,-6.227966701692641549e-02,-4.277908802032470703e-02,-2.127381563186645508e-01,-7.611354589462279718e-02,5.334809846380296205e-01,6.612302064895629883e-01,-7.826339006423950195e-01,-6.702870345770210747e+01,0.000000000000000000e+00
1.638218499999999977e+01,-1.210316425994146204e-02,-1.651295169156463466e-03,1.010920524597167969e+00,3.654307119217846834e-03,-1.822415569107649347e-02,3.968049185859713439e-03,-1.696654405065450497e-02,-1.302382181874954872e-02,1.731301248073577881e-01,-7.076052520840628302e-02,-8.186741299551889006e-02,2.877895820876857219e-02,-5.679762167251177496e-02,-2.848124265670776145e-01,-5.596069023832568601e-02,-2.255778908729553014e-02,-1.848124265670776367e-01,-6.713161468505858542e-02,5.309499143242998320e-01,6.325790882110595703e-01,-9.272950887680053711e-01,-4.064786959990407667e+01,0.000000000000000000e+00
1.640497699999999881e+01,-1.216098497990464496e-02,-1.918081934068475427e-03,1.014475464820861816e+00,6.077178900878371821e-03,-1.118728868554796918e-02,3.892177168813496305e-03,-2.756083425608663040e-02,-1.192191390560240830e-02,1.823832988739013672e-01,-5.270042354972929999e-02,-6.486933041515638432e-02,2.961273622403663361e-02,-7.104612257550413368e-02,-2.470497131347656194e-01,-7.579370121334984278e-02,-2.133699059486389091e-02,-1.470497131347656139e-01,-8.678970336914061667e-02,5.305187172292123998e-01,6.567885875701904297e-01,-5.022691488265991211e-01,9.159083552444417364e+01,0.000000000000000000e+00
1.643054199999999909e+01,-1.195077757710735940e-02,-1.824660667687714663e-03,1.020026087760925293e+00,7.416725028055891691e-03,2.563824028569694491e-04,4.519115354659822108e-03,-1.688903604123762406e-02,-4.844873449249771473e-03,1.862220615148544312e-01,-3.381311401920630150e-02,-3.289838646513648657e-02,3.168972453405401180e-02,-7.219634466320626331e-02,-8.049346636224646509e-03,-4.179053422778863242e-02,-1.928490400314331055e-02,8.623605966567993511e-03,-5.446801185607910017e-02,5.302585646836477373e-01,6.775535345077514648e-01,-6.691511869430541992e-01,6.860849206178021120e+01,0.000000000000000000e+00
1.645726099999999903e+01,-1.171283207188960999e-02,-1.517840824064439851e-03,1.023890495300292969e+00,7.127864523791800980e-03,7.549508790987147222e-03,5.470851008349335645e-03,-1.266680870660772881e-02,3.040343011933011041e-03,2.058118432760238647e-01,-1.408700483278630712e-02,5.501654048445342275e-03,3.515851937953667905e-02,-1.037462266774027281e-01,2.470061420637104654e-01,-8.677416062880365100e-02,-5.820055603981017650e-02,2.144682526588439775e-01,-1.020416736602783175e-01,5.296886867699943657e-01,7.379996776580810547e-01,-7.445212602615356445e-01,1.878350686851342877e+00,0.000000000000000000e+00
1.648226899999999873e+01,-1.135762217047404411e-02,-1.000590215738810700e-03,1.029992103576660156e+00,6.235509843658332621e-03,1.671903281080799886e-02,6.442165965714357137e-03,-2.035951617278729253e-02,5.004245796637186820e-03,2.116171717643737793e-01,6.639493110744668428e-03,5.101462623724972723e-02,3.775696537038195771e-02,-2.565338279557287660e-01,3.086631284242083439e-01,-2.075702184104104564e-01,-2.176854014396667480e-01,2.232181370258331243e-01,-2.254885911941528209e-01,5.035585737899276326e-01,-6.179990172386169434e-01,-2.641993761062622070e-01,-8.654982806789460881e+01,0.000000000000000000e+00
1.650673600000000008e+01,-1.112493860840978524e-02,-6.675995408000023846e-04,1.034334897994995117e+00,5.368153076080522598e-03,2.078455114874189213e-02,7.118982311557926421e-03,-9.140064441640536469e-03,2.403065372469599670e-03,2.242204546928405762e-01,2.691766242081959984e-02,9.647391142020371457e-02,3.917494928018535466e-02,1.420492029235738141e-01,3.171734213829040527e-01,-1.390895162458979928e-01,1.774011611938476618e-01,2.171734213829040472e-01,-1.588833332061767578e-01,5.084487318482580065e-01,-2.922546863555908203e-01,-4.816290140151977539e-01,9.043915634735330400e+01,0.000000000000000000e+00
1.653115499999999827e+01,-1.106032270078717746e-02,-4.419669689604562132e-04,1.041209578514099121e+00,4.141420815683112024e-03,2.159424407040044791e-02,8.979693649354544491e-03,-2.215597751323759509e-02,1.195202979386617709e-02,2.243090569972991943e-01,4.145615404154538025e-02,1.328407074343816441e-01,3.656480992728645268e-02,1.995374129218850934e-01,3.175902724266052024e-01,1.791903648715145458e-01,2.185117721557617021e-01,2.175902724266052246e-01,1.541804730892181452e-01,5.215937090109911134e-01,4.397871494293212891e-01,-3.291991949081420898e-01,7.326375775476414276e+01,0.000000000000000000e+00
1.655383199999999988e+01,-1.109853170475992405e-02,-2.889383662506993960e-04,1.045826911926269531e+00,2.251979897601083178e-03,1.920197401047629704e-02,1.101300797894999225e-02,-2.474369987237735879e-02,1.031745699452672749e-02,2.426798343658447266e-01,4.782835411427385081e-02,1.596395029741913274e-01,3.355291119673144834e-02,2.146258478893946497e-01,3.198744465850520968e-01,2.455160462705988367e-01,2.238075613975524791e-01,2.208271622657775879e-01,2.147459506988525224e-01,5.220833936914970330e-01,5.590078830718994141e-01,-5.822325944900512695e-01,8.468981729273839676e+01,0.000000000000000000e+00
1.658213500000000096e+01,-1.115866470230687107e-02,-6.088552160060385876e-05,1.052912592887878418e+00,3.423379140460379813e-04,1.196808684940875445e-02,1.265279708705907384e-02,-1.115877743109707811e-02,1.329597703778253280e-02,2.350511401891708374e-01,4.208251730408565927e-02,1.662481668944784385e-01,3.162019112450364239e-02,2.300613841098806955e-01,2.857085473089767680e-01,2.485123879297538863e-01,2.241553544998168834e-01,2.224392235279083196e-01,2.131064414978027233e-01,5.230305275904517659e-01,6.101391315460205078e-01,-7.903920412063598633e-01,2.266972570435248002e+01,0.000000000000000000e+00
1.660493900000000167e+01,-1.110685422900180123e-02,1.944590943903463991e-05,1.057618856430053711e+00,8.205160875275010644e-04,5.468660977563821746e-03,1.202973041897808029e-02,-8.455239441835711925e-03,3.937779846208047836e-03,2.406329661607742310e-01,3.070774290172240129e-02,1.561623658634376244e-01,3.033191050822942741e-02,2.128323873040230130e-01,2.430141765877699145e-01,2.288476418463648854e-01,2.180951356887817216e-01,2.219551742076873724e-01,1.951682925224304255e-01,5.218317994456875830e-01,5.882997512817382812e-01,-1.008677124977111816e+00,7.275354262376419001e+01,0.000000000000000000e+00
1.663216399999999950e+01,-1.116482909543882289e-02,-2.339594306719557538e-04,1.064844489097595215e+00,5.351613556880513781e-03,-4.756950984433849783e-03,9.281946014487769611e-03,-2.756960954706942114e-03,3.954515778398678440e-03,2.529791295528411865e-01,1.910928296908197960e-02,1.242204477203279617e-01,2.835532474990489285e-02,3.772413015785483492e-02,1.465393855507851062e-01,-7.917873870604287545e-02,7.139654159545898160e-02,1.878017663955688366e-01,-1.052171945571899331e-01,5.221403647077642596e-01,6.857162714004516602e-01,-1.093562245368957520e+00,-1.655923527473126455e+01,0.000000000000000000e+00
1.665722699999999890e+01,-1.141668897078981088e-02,-8.443613365022608046e-04,1.069663763046264648e+00,9.630414334883301980e-03,-1.086709472560376533e-02,6.737626358957506979e-03,-8.118028284013721618e-04,-5.471158283378864048e-03,2.501860558986663818e-01,1.293583245694138704e-02,7.902847453640936271e-02,2.381953256065547087e-02,-1.473869906323287959e-01,7.130235014795231752e-02,-8.046886786352935861e-02,-7.775834798812865378e-02,1.517775535583495983e-01,-9.948223829269409180e-02,5.220860412613808066e-01,6.942647695541381836e-01,-4.186805486679077148e-01,6.865792214080359201e+01,0.000000000000000000e+00
1.668040099999999981e+01,-1.175050661278656712e-02,-1.683936494506261703e-03,1.076818704605102539e+00,1.578681828218059593e-02,-1.900413729698846588e-02,4.435087361260089435e-03,-1.028108782850444512e-02,7.118606631835721309e-03,2.446537017822265625e-01,1.706367042920279437e-02,2.049011956243958557e-02,1.630181032383054562e-02,-2.915907858080810655e-01,5.687117576599065583e-04,-1.701487673861088457e-01,-1.930922091007232499e-01,1.005687117576599121e-01,-1.830675601959228516e-01,5.224136687519482791e-01,7.219400405883789062e-01,-7.507914304733276367e-01,1.094025208797333875e+02,0.000000000000000000e+00
1.670693199999999834e+01,-1.207345288491977475e-02,-2.083917423878836345e-03,1.081478238105773926e+00,1.876045431598796775e-02,-2.275282022126989823e-02,4.120080527989004003e-03,-9.324533600819416221e-03,2.659878552446888651e-03,2.516411542892456055e-01,2.669763583971187376e-02,-3.973216808019878338e-02,8.285705979259786955e-03,-1.756507217884063776e-01,-3.257385373115539440e-01,-1.696738484111240744e-02,-7.565072178840637207e-02,-2.257385373115539384e-01,-2.915736436843871862e-02,5.198950296764295320e-01,6.360092163085937500e-01,-4.599176645278930664e-01,9.466021325442119405e+01,0.000000000000000000e+00
1.673080099999999959e+01,-1.242424892339986063e-02,-2.677253762652947837e-03,1.088389754295349121e+00,1.877230147822590151e-02,-2.591021561921857952e-02,5.349810313086457783e-03,-1.063814351560597379e-02,1.197914382337277733e-02,2.507259845733642578e-01,3.747406483446979325e-02,-9.477992967972581617e-02,2.911547570100208367e-03,-1.472052335739135742e-01,-3.267970800399779829e-01,-2.279595125331018712e-02,-4.720523357391357561e-02,-2.267970800399780051e-01,-3.856605291366577148e-02,5.190630178624252578e-01,6.192817687988281250e-01,-5.365360975265502930e-01,1.009170421945572116e+02,0.000000000000000000e+00
1.675599400000000117e+01,-1.254821790294451123e-02,-3.095377401591323414e-03,1.092949509620666504e+00,1.604444963694410045e-02,-2.632634533023670009e-02,6.542367665841423117e-03,-2.228030690775399322e-03,2.061567789587730182e-02,2.378015518188476562e-01,4.354769315063723722e-02,-1.403505724625965789e-01,-6.387867254992038099e-04,-1.087254764459573558e-01,-3.266888618469238059e-01,-1.023149206902521438e-02,-1.607061624526977608e-02,-2.266888618469238281e-01,-2.924820184707641393e-02,5.195656212157311327e-01,6.173862218856811523e-01,-4.462221860885620117e-01,8.894005276794057124e+01,0.000000000000000000e+00
1.677941399999999916e+01,-1.264722240259075030e-02,-3.659820626887451064e-03,1.099858760833740234e+00,1.015894815707550636e-02,-2.291123177314280390e-02,7.114901737834806138e-03,-9.788714371960287666e-03,1.281306635132119405e-02,2.474513202905654907e-01,3.918216492455202371e-02,-1.628514609474921992e-01,-2.941168175461557257e-03,-8.056346140530358524e-02,-3.261009573936461958e-01,-1.303207077424400895e-02,-1.824613809585571081e-02,-2.261009573936462180e-01,-3.334021568298339844e-02,5.183226599756636244e-01,6.206901073455810547e-01,-1.294347167015075684e+00,-5.143522107311751057e+01,0.000000000000000000e+00
1.680425999999999931e+01,-1.267507988613067980e-02,-4.039975191683668407e-03,1.104399681091308594e+00,6.213078400077869622e-03,-1.799853224415159936e-02,7.194788321181274857e-03,-1.376063362542457626e-02,1.374805461229534551e-02,2.384003400802612305e-01,2.951517533226943879e-02,-1.666272771588489243e-01,-6.239985988994189471e-03,-5.672315882157340228e-02,-3.244785785675048939e-01,-1.329478516889139733e-02,-2.183355689048767020e-02,-2.244785785675048884e-01,-3.364924192428588728e-02,5.188232799342544777e-01,6.344437599182128906e-01,-5.070871114730834961e-01,9.192500935977622589e+01,0.000000000000000000e+00
1.682984799999999836e+01,-1.267415643192209597e-02,-4.176689633929343837e-03,1.111332654953002930e+00,1.497355933133901222e-03,-8.942633080254003275e-03,7.342667250189082763e-03,3.283451232799743623e-03,1.702787287232013225e-02,2.401058971881866455e-01,1.580224029565117927e-02,-1.417845164559898008e-01,-1.142941817785661854e-02,-3.313633820648154843e-02,-2.713522052609061985e-01,-3.527386724883199015e-02,-3.142987489700316966e-02,-2.070100307464599609e-01,-5.587116479873657088e-02,5.187381598298838048e-01,6.691279411315917969e-01,-4.055014848709106445e-01,8.506180988550480038e+01,0.000000000000000000e+00
1.686007000000000033e+01,-1.267108031357810395e-02,-3.860973278704254736e-03,1.116014003753662109e+00,-8.144165421797343665e-04,-2.216057096255497072e-03,7.139720659631630141e-03,-1.287399452237371735e-03,1.499849263251007252e-02,2.438565045595169067e-01,1.566453014485966232e-03,-9.986054028931512505e-02,-1.539974134082341961e-02,-2.201323183617160534e-02,-2.209143820210348885e-01,-2.770804114185920763e-02,-3.353673219680786133e-02,-1.938728570938110241e-01,-4.770004749298095703e-02,5.182567019923157714e-01,6.819932460784912109e-01,-4.919937849044799805e-01,8.003615669420941003e+01,0.000000000000000000e+00
1.688310699999999898e+01,-1.263712933215519786e-02,-3.466863236357391274e-03,1.120714545249938965e+00,-2.852783564612698837e-03,4.600099923835365701e-03,7.408013819377457995e-03,-9.422973838893490550e-03,1.868705101768060664e-02,2.482162564992904663e-01,-1.559995528784419508e-02,-4.368979102504304268e-02,-1.458906903536298649e-02,-2.619240281821179350e-03,-1.628557769498086283e-01,-1.034450364435321804e-02,-3.117445707321166853e-02,-1.740076303482055720e-01,-3.108998537063598425e-02,5.174787008936064803e-01,6.818389892578125000e-01,-3.953319787979125977e-01,9.981891853074841947e+01,0.000000000000000000e+00
1.690592499999999987e+01,-1.261782051970741954e-02,-3.026207789136065463e-03,1.125412821769714355e+00,-4.383238800290989098e-03,1.130617912175879702e-02,7.447592240782523534e-03,-7.225895650187571725e-03,1.274997745605810882e-02,2.535924613475799561e-01,-3.624209761740858349e-02,1.827807790034205460e-02,-9.307872724393909461e-03,2.216304191470076096e-02,2.162341893090330147e-01,1.191427727170808470e-01,-1.127132177352905239e-02,1.586026668548583818e-01,9.824466705322265625e-02,5.163832210372624187e-01,6.692917346954345703e-01,-3.619829416275024414e-01,7.216943850632304702e+01,0.000000000000000000e+00
1.692960899999999924e+01,-1.243791785062670942e-02,-2.276679825900624569e-03,1.132560729980468750e+00,-6.113490135339740353e-03,2.043243793522497853e-02,7.884853291754917795e-03,1.007047982659615461e-02,2.947119835645197958e-02,2.511714100837707520e-01,-6.068382125639313479e-02,8.069798584777700123e-02,-5.619767700020964277e-04,-9.771924618455614386e-03,3.048240661621093861e-01,2.172272200043215140e-01,-6.981865167617797019e-02,2.048240661621093806e-01,1.950654745101928766e-01,5.161781612908701300e-01,6.836214065551757812e-01,-3.982344865798950195e-01,4.494573198418874682e+01,0.000000000000000000e+00
1.695942700000000158e+01,-1.220147640506653690e-02,-1.628637943829156377e-03,1.139772176742553711e+00,-6.676640611148874742e-03,2.778773387122779326e-02,7.826687283116140481e-03,8.869427349618272741e-03,2.470279610079631483e-02,2.514646649360656738e-01,-8.422150199059547093e-02,1.370184998865889570e-01,7.844843784173978138e-03,-6.361907221566097392e-02,3.127680182456969993e-01,2.327697797467851715e-01,-1.214765310287475586e-01,2.127680182456970215e-01,2.106872856616973932e-01,5.158830713835264037e-01,7.045382261276245117e-01,-6.466499567031860352e-01,9.235473754159674797e+01,0.000000000000000000e+00
1.698316900000000018e+01,-1.189281731041985299e-02,-9.504344507364130383e-04,1.147137284278869629e+00,-6.300575365993426637e-03,2.961846555849767526e-02,6.067163646805805513e-03,1.177365856301156727e-02,3.695705465413717805e-02,2.552123665809631348e-01,-9.882851294884438531e-02,1.776982168578196408e-01,9.014541328275249912e-03,-3.897322055037170940e-02,3.124681293964385875e-01,2.264370024767802525e-01,-1.058601200580596841e-01,2.124681293964385820e-01,2.093546748161315973e-01,5.151068954633279962e-01,7.143714427947998047e-01,-5.536242723464965820e-01,9.129709640899861256e+01,0.000000000000000000e+00
1.700572899999999876e+01,-1.163612924446611949e-02,-3.822129392785593286e-04,1.152083039283752441e+00,-6.108984016319030791e-03,2.719647571844796552e-02,3.947890295599476226e-03,8.084003324770617713e-03,3.665698453318888550e-02,2.608946263790130615e-01,-1.051075204561220111e-01,2.035902011713588422e-01,5.641480548602572156e-03,-1.848177068902222275e-02,3.071147620677948109e-01,2.191093715989962387e-01,-8.249309062957763117e-02,2.071147620677948054e-01,2.079682052135467529e-01,5.141597160240093389e-01,7.138223648071289062e-01,-7.644692659378051758e-01,1.039854978489962747e+02,0.000000000000000000e+00
1.703205000000000169e+01,-1.116952768803207950e-02,6.944391756016152087e-04,1.159336566925048828e+00,-7.627086171500663432e-03,2.006280461794407444e-02,1.018765544294861171e-03,1.344170901120840880e-02,4.481112771074816092e-02,2.523382604122161865e-01,-9.865267815492638481e-02,2.013485054395832419e-01,-2.812036950575435602e-03,8.898106345771265857e-02,2.994545519351959340e-01,2.031273262969195692e-01,7.506537437438964150e-03,1.994545519351959284e-01,2.001987218856811357e-01,5.141883327455852859e-01,7.182097434997558594e-01,-6.163138151168823242e-01,-1.053939443275554311e+02,0.000000000000000000e+00
1.705719399999999908e+01,-1.137085297863004753e-02,1.500568368883789484e-03,1.164110183715820312e+00,-9.111452450229184583e-03,1.410827519128377006e-02,-1.320305585063515346e-03,1.550367082354939599e-02,4.832272540041086806e-02,2.531901001930236816e-01,-8.666360518834609339e-02,1.804974635877344413e-01,-1.472961377301098065e-02,1.470269876167454859e-01,2.753317441663203358e-01,1.634575512343536541e-01,5.349361896514892578e-02,1.833325624465942383e-01,1.670784294605255071e-01,5.135034159475019289e-01,7.121526002883911133e-01,-6.033252477645874023e-01,9.904548839970368590e+01,0.000000000000000000e+00
1.708391400000000004e+01,-1.150019533151602595e-02,2.807434104919222326e-03,1.171110391616821289e+00,-1.091358179103551172e-02,4.199167223458477594e-03,-4.580910380243352099e-03,2.409497263832512462e-02,5.352976896224593412e-02,2.571693658828735352e-01,-7.319588502011839526e-02,1.361581971929111123e-01,-2.628959627194199511e-02,1.710172414779663197e-01,1.795857103840048374e-01,1.421218990119148262e-01,7.101724147796630027e-02,1.451852738857269121e-01,1.549123048782348466e-01,5.127415982126515281e-01,7.236754894256591797e-01,-6.057642698287963867e-01,8.915391965123200180e+01,0.000000000000000000e+00
1.710478099999999912e+01,-1.154409320718010300e-02,3.292059875870375317e-03,1.173500537872314453e+00,-1.089073625143502540e-02,7.390606596373583415e-04,-5.765524795576146798e-03,2.344344921110089533e-02,5.326612918126058527e-02,2.634817957878112793e-01,-6.014791997795553014e-02,8.247162061429232083e-02,-3.790980463258053490e-02,1.765873670578003152e-01,1.345747866581829544e-01,1.137619510500044728e-01,7.658736705780029574e-02,1.245132386684417725e-01,1.298946619033813366e-01,5.119636152708622046e-01,7.259199619293212891e-01,-8.608852624893188477e-01,8.246443920831069363e+01,0.000000000000000000e+00
1.713377799999999951e+01,-1.158792837497212187e-02,4.789880825867203450e-03,1.180543065071105957e+00,-9.324486911347542456e-03,-9.050659748745193411e-03,-8.817617426979781209e-03,2.493596839690350245e-02,5.863720153892107434e-02,2.542854845523834229e-01,-4.716637070687755562e-02,2.150586811234505430e-02,-4.938971257213695815e-02,2.341552257537841686e-01,-4.856055196894986520e-02,7.754477357821351613e-02,1.341552257537841630e-01,3.735977411270141341e-03,1.022611498832702581e-01,5.112326381494691763e-01,6.876137256622314453e-01,-3.687754869461059570e-01,1.276916432881956638e+02,0.000000000000000000e+00
1.715669700000000120e+01,-1.157588433304110147e-02,5.717968008285644228e-03,1.185279965400695801e+00,-6.836356828009050243e-03,-1.485236388439159505e-02,-1.078109568947978325e-02,1.633071848449293637e-02,6.100901985678131717e-02,2.621174752712249756e-01,-3.210509174132046561e-02,-4.285981436097761194e-02,-6.133596058750930696e-02,2.100400086713336834e-01,-2.801894497701617470e-01,-3.727725026519818075e-02,1.184522509574890137e-01,-1.826378345489501898e-01,-7.099092006683349609e-03,5.092294001282494653e-01,6.406066417694091797e-01,-5.437594652175903320e-01,8.299838241648726012e+01,0.000000000000000000e+00
1.718653700000000129e+01,-1.152943735615039045e-02,7.057774582520202379e-03,1.192336082458496094e+00,-2.450430505627747106e-03,-2.195937031350925217e-02,-1.372288206729402674e-02,2.000779321418326429e-02,6.259524456403380011e-02,2.475784271955490112e-01,-1.441786554403736743e-02,-1.043828018090666304e-01,-7.264291801354684497e-02,1.477128771241277005e-01,-3.242962598800659402e-01,-2.666366554554814444e-02,8.232758045196532370e-02,-2.242962598800659069e-01,1.160550713539123570e-02,5.090634952429277105e-01,6.116968393325805664e-01,-4.610685110092163086e-01,8.347593558287621818e+01,0.000000000000000000e+00
1.720928500000000128e+01,-1.152049180821948689e-02,8.027139356770778694e-03,1.196977496147155762e+00,9.615581855925703358e-04,-2.493470068096526049e-02,-1.500735800899188725e-02,1.988899663077779018e-02,7.078620509950012130e-02,2.421760261058807373e-01,4.078414142239736306e-03,-1.587589091682303777e-01,-8.283737938335969386e-02,1.211420168020587440e-01,-3.262546658515930176e-01,-2.404999438009456508e-02,7.021025419235228660e-02,-2.262546658515930120e-01,1.763556003570556502e-02,5.090451537300220153e-01,6.170156002044677734e-01,-2.625668048858642578e-02,-9.556825958381770647e+01,0.000000000000000000e+00
1.722987600000000086e+01,-1.148275059139401352e-02,9.039612414241145547e-03,1.201578021049499512e+00,4.756547300741502740e-03,-2.604410734590567600e-02,-1.615253583759668210e-02,2.499566303667770731e-02,6.312671665102456697e-02,2.418885231018066406e-01,2.145416493835358360e-02,-1.983658082089237162e-01,-8.866785750443322012e-02,3.764092777116805066e-02,-3.264994263648987038e-01,-2.105426030349164673e-02,1.795567274093627999e-02,-2.264994263648986705e-01,2.373454570770263533e-02,5.085009059360976469e-01,6.149904727935791016e-01,-1.291144967079162598e+00,2.108667910004028556e+01,0.000000000000000000e+00
1.725524400000000114e+01,-1.137161128995331852e-02,1.059747038770049270e-02,1.208419799804687500e+00,1.087484095978733835e-02,-2.269419797659333327e-02,-1.707040353736750254e-02,1.637160503225142463e-02,6.530830727166161975e-02,2.298273146152496338e-01,4.035709165163403611e-02,-2.165683238635570940e-01,-9.035555515162392581e-02,-2.543049073304621405e-02,-3.268859863281249889e-01,-2.490609113037388703e-02,-9.506499767303467144e-03,-2.268859863281249833e-01,2.227343916893005302e-02,5.087637085639883372e-01,6.176447868347167969e-01,-7.755910158157348633e-01,8.568761913801805008e+01,0.000000000000000000e+00
1.728337300000000099e+01,-1.086822893604004123e-02,1.231874169095319334e-02,1.214972734451293945e+00,1.717379554334468386e-02,-1.486748121216474594e-02,-1.779679428897272889e-02,3.311450382812305970e-02,7.394374470422415691e-02,2.263680845499038696e-01,6.024024217485017541e-02,-2.027751859577852367e-01,-8.814452815721297851e-02,-7.171940882314335741e-02,-3.070367694234976685e-01,-3.026342748866196405e-02,-2.339324355125427246e-02,-2.245963811874389648e-01,1.909239292144775460e-02,5.086969050620684385e-01,6.356437206268310547e-01,-4.403327703475952148e-01,-1.382684627179799186e+01,0.000000000000000000e+00
1.730781500000000150e+01,-1.030647463563586635e-02,1.402398185386498353e-02,1.221350550651550293e+00,2.192856256379068641e-02,-4.620520111473735980e-03,-1.843107806042043606e-02,1.636140325720304364e-02,6.389555834626946262e-02,2.319251149892807007e-01,8.106184145880587777e-02,-1.655547356052236851e-01,-8.154370016647030650e-02,-1.176042714420240248e-01,-2.548850813641733160e-01,-4.040269720329011521e-02,-2.966110110282897672e-02,-2.226324319839477484e-01,1.099639534950256313e-02,5.080446686513804266e-01,6.586160659790039062e-01,-3.956993818283081055e-01,9.872539841444020681e+01,0.000000000000000000e+00
1.732984400000000136e+01,-9.929651477057769432e-03,1.521789463659337094e-02,1.225445628166198730e+00,2.378577494137558423e-02,2.614098647111706697e-03,-1.861065040700793372e-02,2.533982976584489913e-02,6.978575771213295365e-02,2.074254602193832397e-01,1.023887518168434818e-01,-1.107743740470346350e-01,-7.302104668374299890e-02,-1.675395180738870615e-01,-1.741187383093602548e-01,-3.279921728506157708e-02,-7.489449977874755582e-02,-1.992019057273864691e-01,1.949411630630493164e-02,5.099630882104448926e-01,6.887645721435546875e-01,-1.181045889854431152e+00,1.391760053209251282e+02,0.000000000000000000e+00
1.735625900000000144e+01,-9.046005006258251921e-03,1.687660471397350870e-02,1.231469869613647461e+00,2.451373878394057584e-02,1.294987663330116057e-02,-1.833793978190617624e-02,2.694114049182765730e-02,6.471743763765078206e-02,2.118264287710189819e-01,1.188525470941796114e-01,-4.874311561576734342e-02,-6.345072994429895585e-02,-2.476740956306457409e-01,3.235978558365543156e-02,-4.505447641200453074e-02,-1.476740956306457353e-01,-6.060494184494018277e-02,6.964570283889769987e-03,5.096932021796496404e-01,7.253564596176147461e-01,-4.929705858230590820e-01,8.614584286905586907e+01,0.000000000000000000e+00
1.738258799999999837e+01,-7.595674297893740233e-03,1.815854379685000880e-02,1.237285494804382324e+00,2.398109218692901640e-02,2.183606132251214582e-02,-1.833349254537963366e-02,3.458195674566415245e-02,6.970453949355258361e-02,2.032171040773391724e-01,1.267974759188464084e-01,1.541429986090469065e-02,-5.249925361599736690e-02,-2.856234115235179449e-01,2.517667353153228982e-01,-1.375022390943129724e-01,-1.939228355884551891e-01,1.517667353153228649e-01,-8.501393795013427457e-02,5.097782743893956026e-01,7.281743288040161133e-01,-9.890466928482055664e-01,9.353704328692595027e+01,0.000000000000000000e+00
1.740454599999999985e+01,-6.547761621804760492e-03,1.904462831173834789e-02,1.241163015365600586e+00,2.241906757339125200e-02,2.669309789265250643e-02,-1.797365945489647412e-02,2.781179041210576561e-02,6.070752488512983630e-02,2.008695751428604126e-01,1.263579787511797392e-01,7.712449313629148040e-02,-4.062262285047017751e-02,-1.975305960975785036e-01,3.171540558338165061e-01,-2.670515083209400453e-01,-1.083323478698730441e-01,2.171540558338165283e-01,-2.154932498931884655e-01,5.092823724598982693e-01,7.177007198333740234e-01,-7.734044790267944336e-01,-6.699271519096531335e+01,0.000000000000000000e+00
1.743127499999999941e+01,-5.495047683718546488e-03,1.993471616874762167e-02,1.245026111602783203e+00,2.012773906646734071e-02,2.995672177476538245e-02,-1.777500545605615462e-02,3.257065129795407021e-02,6.002924707010202920e-02,2.042813152074813843e-01,1.144745857390731397e-01,1.325972721410359767e-01,-2.944725159399251210e-02,1.106137047437996263e-01,3.185958504676819070e-01,-2.649017172447866164e-01,1.830594062805175615e-01,2.185958504676818737e-01,-2.138089656829833818e-01,5.083849467686738510e-01,7.087199687957763672e-01,-7.123554944992065430e-01,1.211852733867332148e+02,0.000000000000000000e+00
1.745402800000000099e+01,-4.184074443721398466e-03,2.146021758981300070e-02,1.250943183898925781e+00,1.511884101732480570e-02,3.000939589738549351e-02,-1.577547096781506744e-02,3.950676796731083379e-02,6.522580508549451206e-02,2.027971446514129639e-01,9.216195148341946308e-02,1.740094186609122684e-01,-1.706560344647940416e-02,1.730305849535724860e-01,3.170206785202026589e-01,-2.577249986456917052e-01,2.068232417106628251e-01,2.170206785202026256e-01,-2.123797416687011608e-01,5.073711704935637279e-01,6.825206279754638672e-01,-8.189808130264282227e-01,9.128023267193785273e+01,0.000000000000000000e+00
1.747999599999999987e+01,-3.488540229460072948e-03,2.330918523871310447e-02,1.256976842880249023e+00,9.660584485001405194e-03,2.416883765528354822e-02,-1.194732150837822179e-02,4.130786253714604367e-02,6.826989990175519329e-02,1.990785449743270874e-01,6.245457418002166999e-02,1.938769410347325750e-01,-2.139745957899200253e-03,1.977124511929568840e-01,3.196871519088745339e-01,-2.514897625465360997e-01,1.924058675765991100e-01,2.196871519088745006e-01,-2.172515630722045843e-01,5.068430643896170151e-01,6.739263534545898438e-01,-7.441445589065551758e-01,1.346362108060494336e+02,0.000000000000000000e+00
1.750470299999999924e+01,-3.026410470171726850e-03,2.445962508145911249e-02,1.261099338531494141e+00,7.796412979674496001e-03,1.752333453374577132e-02,-8.990898676623605007e-03,2.977950004475139398e-02,5.513789310064293181e-02,2.075798660516738892e-01,3.025313030804524517e-02,1.899649434301204642e-01,1.250901906129753792e-02,1.360061094396750048e-01,3.078227043151855469e-01,-2.360373946327033734e-01,1.289237022399902233e-01,2.078227043151855413e-01,-2.104009151458740290e-01,5.059080196035279364e-01,6.856437921524047852e-01,-8.367832899093627930e-01,7.884356468399016649e+01,0.000000000000000000e+00
1.753128299999999840e+01,-2.521205496991401913e-03,2.555141315538191765e-02,1.265295743942260742e+00,8.002963873410130768e-03,1.006695893384179641e-02,-6.290847681395068426e-03,3.653549973232223663e-02,5.089639651583707791e-02,2.163814902305603027e-01,-7.845685297236393296e-04,1.602344294554067239e-01,2.834100864081708429e-02,2.228152280759009701e-02,2.367952845689894614e-01,-1.326211026014444960e-01,1.674410104751586706e-02,1.485878705978393444e-01,-1.146859645843505832e-01,5.044508884272416172e-01,6.716494560241699219e-01,-1.011373877525329590e+00,1.231232849222109706e+02,0.000000000000000000e+00
1.755750600000000006e+01,-1.978743978437637156e-03,2.653585182380239008e-02,1.269536375999450684e+00,1.005208490687353046e-02,1.944363866982712352e-03,-3.088005948613436503e-03,4.704359520730254374e-02,6.471561641439610435e-02,2.067930251359939575e-01,-2.573950934535874577e-02,1.080545615510135199e-01,4.459577024438970971e-02,-4.191179735203931500e-02,1.748301571683281153e-01,1.599865479038374907e-02,-4.767413735389709056e-02,1.307917356491088701e-01,2.484456896781921456e-02,5.054045153139169466e-01,7.116982936859130859e-01,-5.865556001663208008e-01,9.264725405318087326e+01,0.000000000000000000e+00
1.758150799999999947e+01,-1.331489480289239739e-03,2.769038619359094622e-02,1.273798465728759766e+00,1.315448672815749086e-02,-6.007534117433266374e-03,-2.388981315090994023e-04,2.937412347837855056e-02,3.659790875446204683e-02,2.181874960660934448e-01,-4.088037107621074473e-02,4.337289214773840107e-02,6.070388741037895108e-02,-1.391802131885548632e-01,4.818562674139831997e-02,1.229325771824352122e-03,-9.962916970252989890e-02,7.183617353439331055e-02,1.795238256454467687e-03,5.041201191584919750e-01,7.186541557312011719e-01,-7.508455514907836914e-01,9.105248001406377512e+01,0.000000000000000000e+00
1.760868599999999873e+01,-6.016454671563516241e-04,2.898549950037595038e-02,1.277978658676147461e+00,1.606328157263643697e-02,-1.283955607010356381e-02,2.194822386536818964e-03,4.710851928081306178e-02,5.258651135145394478e-02,2.029801607131958008e-01,-4.538973451589062291e-02,-2.773693727832896722e-02,7.612989439573800143e-02,-6.361367198609843565e-02,-2.155581928608287789e-01,-2.623807222683403884e-02,-2.432574033737182687e-02,-1.663599014282226562e-01,-3.266025781631469449e-02,5.041579749665885402e-01,6.880375146865844727e-01,-6.457678079605102539e-01,9.383522885552119419e+01,0.000000000000000000e+00
