timestamp,x,y,z,roll,pitch,yaw,vx,vy,vz,p,q,r,psp,qsp,rsp,pres,qres,rres,thrust_sp, thrust_res
0.000000000000000000e+00,1.451487601017487951e-02,-2.525639266173939149e-02,1.009822010993957520e+00,8.532003242862660347e-03,-1.316075223730517330e-02,-2.082810641147370134e-02,-1.878428838389540126e-02,6.245282925163046436e-03,1.115382555872201920e-02,2.691899722399583930e-02,1.059364226435172834e-02,2.616212321054639175e-03,-2.973298649462987608e-01,1.224111088913191758e-01,-1.991968350422485268e-01,-2.325770177941682837e-01,2.183302163835370013e-01,-1.410255502444448250e-01,5.243458004718468679e-01,7.506191730499267578e-01
2.460599999999999940e-02,1.384008106507126148e-02,-2.483503197100415255e-02,1.009319663047790527e+00,8.672071141720590071e-03,-1.252847241410814938e-02,-2.075689322268114978e-02,-1.651386018874465358e-02,2.025491935709686220e-02,5.621099844574928284e-03,3.080968949196024632e-03,2.458819919720021258e-02,-7.414889458287291825e-03,-2.639448597513312511e-01,-3.114139914724935454e-01,-1.120723892389575010e-01,-2.108522264749621011e-01,-2.282727529711950365e-01,-5.411776911545683466e-02,5.247543291910111707e-01,7.491258382797241211e-01
4.909499999999999975e-02,1.346693385879984238e-02,-2.458590245946595462e-02,1.009063124656677246e+00,8.828806793562645958e-03,-1.247286491769195038e-02,-2.077676700194341919e-02,-1.290988423910335338e-02,9.596884160835912267e-03,1.013843808323144913e-02,-8.269609453336608518e-03,-2.433133185156007017e-02,2.322976822925977396e-03,1.490894782782695716e-01,1.510352031339106671e-01,-2.907781792487258432e-01,2.192311564921962108e-01,2.309066108012516882e-01,-2.327219667564196515e-01,5.243225799298304457e-01,7.429841756820678711e-01
7.453100000000000003e-02,1.296812868707642417e-02,-2.417227608339672304e-02,1.008721947669982910e+00,8.980435812863327150e-03,-1.164629079862167238e-02,-2.090732840951492477e-02,-1.702538498186993710e-02,1.852460580552541328e-02,1.013573841191828251e-03,-4.208734149287092496e-02,5.964900086263027340e-02,-5.012889177295143384e-03,-2.215895389162529650e-01,-3.122301429058068067e-01,-2.821848455345701279e-01,-1.637789985369896284e-01,-2.316027042465258201e-01,-2.238022098275279370e-01,5.250558639697949781e-01,7.453715801239013672e-01
9.993799999999999906e-02,1.235313397206845229e-02,-2.371524079314835109e-02,1.008587598800659180e+00,9.881253570480592885e-03,-1.223304301332994726e-02,-2.005011682282908936e-02,-3.114486110464346341e-02,9.559450474093397071e-03,1.700495742261409760e-02,5.827404244942303163e-02,-7.122515617162698820e-02,3.888485506918823442e-02,1.422572612032986239e-01,1.327046278374180155e-01,-2.885728720124192126e-01,2.184566620703335682e-01,2.305067528279653999e-01,-2.326027895433609716e-01,5.240955502033201041e-01,7.567396163940429688e-01
1.245369999999999949e-01,1.191394595819658848e-02,-2.342476990897814082e-02,1.008687376976013184e+00,1.064571335718621746e-02,-1.274892762303103666e-02,-1.896687807633812284e-02,-1.474311584245431919e-02,1.662878164324676014e-02,1.825979724526405334e-02,4.501985421009288210e-03,-9.149275448595974719e-03,5.498666313439563164e-02,1.470795463754866195e-01,3.968300405363082983e-02,-2.838032392896402967e-01,2.170889307305975680e-01,1.190677460084961503e-01,-2.308762724964020241e-01,5.239387448383004964e-01,7.542555332183837891e-01
1.494880000000000098e-01,1.144914001359845397e-02,-2.279764435157155544e-02,1.008935213088989258e+00,9.791591287607313496e-03,-1.122487867089594360e-02,-1.722091077336607157e-02,-1.945578242038064828e-02,1.316686856963061522e-02,2.870888821780681610e-02,-3.258276596211186898e-02,1.207142789196777397e-03,6.543459709592215623e-02,1.512730947380623581e-01,-2.596500450916910951e-01,-2.751225789874101046e-01,2.217995726566121262e-01,-1.790037133539807146e-01,-2.270561674196066859e-01,5.230871027715684463e-01,7.513782978057861328e-01
1.739229999999999943e-01,1.110009515986929741e-02,-2.241904714587405686e-02,1.009348869323730469e+00,1.025279362481056750e-02,-1.091169905827826803e-02,-1.602481796566079808e-02,-2.459390405272497346e-02,1.781928429042106340e-02,4.040927439928054810e-02,2.964065692435604096e-02,-7.819433852157562162e-03,4.854000614528790336e-02,6.448270205368784869e-02,1.373916219266456129e-01,-2.603914858295275359e-01,1.317197638933612913e-01,2.199450197085507930e-01,-2.157030393530611767e-01,5.222054409083365378e-01,7.528309822082519531e-01
1.989670000000000050e-01,1.069344605579941078e-02,-2.211990210154357941e-02,1.009992241859436035e+00,1.179938125010739948e-02,-1.130408073910604827e-02,-1.459850519213823361e-02,-1.559544450077332729e-02,8.076489587728986203e-03,4.468319192528724670e-02,9.954995568699959163e-02,-1.140779842822805569e-02,7.512080806435239566e-02,-3.192596975722793440e-01,1.451994447909003283e-01,-2.361276686581684492e-01,-2.303639618386729149e-01,2.191559245298289882e-01,-1.954103431332890606e-01,5.217667736995637018e-01,7.497551441192626953e-01
2.245479999999999976e-01,1.023221365742585376e-02,-2.171656617680424103e-02,1.011217594146728516e+00,1.543127831682064924e-02,-1.048380221126321565e-02,-1.259165887241842086e-02,-2.089230343878367355e-02,1.477705431584837824e-02,6.351754814386367798e-02,1.382682265539609545e-01,4.601222370430396724e-02,7.312923068411619765e-02,-3.198531877347099428e-01,1.325717485705337761e-01,1.577629787952446461e-01,-2.180824774056843995e-01,2.105941813899852855e-01,1.927637678748544969e-01,5.200270035274678904e-01,7.371176481246948242e-01
2.499349999999999905e-01,9.903905207878399564e-03,-2.137603160749141848e-02,1.012746810913085938e+00,1.784470854556243283e-02,-1.003873114599129757e-02,-1.074309456861977097e-02,-1.733357058403397349e-02,8.687582288480419357e-03,6.928732991218566895e-02,1.694702221214679574e-02,-1.245009315522260622e-02,3.221545000956214932e-02,-3.454362134087552438e-01,1.560497775731675696e-01,9.815088904807459103e-02,-2.192914533375483477e-01,2.256178140469626836e-01,1.279871482742441502e-01,5.197247772247067799e-01,7.515013217926025391e-01
2.738990000000000036e-01,9.754572520641139124e-03,-2.111461991348019540e-02,1.013837695121765137e+00,1.635448200642742808e-02,-1.057263084056092595e-02,-1.111851093920712685e-02,-2.156958444982137735e-02,1.498959699244968233e-02,6.618081033229827881e-02,-1.288437056263043168e-01,-5.496306046382916366e-02,-6.579178298621035648e-02,1.108744782991545608e-01,1.231836216756474200e-01,-2.598133681366856518e-01,2.183062122390788673e-01,2.021792783343775990e-01,-2.289571439779094220e-01,5.199094565581749983e-01,7.550439834594726562e-01
2.993029999999999857e-01,9.486219776938347586e-03,-2.053082253387563533e-02,1.015559077262878418e+00,9.872665162803355085e-03,-1.337947639422232271e-02,-1.264995952608893859e-02,-1.451274373520987718e-02,1.795514307802437148e-02,6.857552379369735718e-02,-2.814047130003624053e-01,-1.465289830339530364e-01,-4.178855785099154507e-02,1.536395940606337107e-01,1.262913330108668686e-01,-2.648447140628290564e-01,2.176751446835290260e-01,2.146437083780314836e-01,-2.296133045191366961e-01,5.195083572956388229e-01,7.515003681182861328e-01
3.244310000000000249e-01,9.219976890638404560e-03,-2.007803679379938783e-02,1.016757607460021973e+00,4.778401171883051891e-03,-1.627651935211149592e-02,-1.247071207041905438e-02,-3.495733414902332109e-02,2.586054667216034983e-02,7.920651882886886597e-02,-2.523591386148682503e-01,-1.353372468830413566e-01,1.832360182897694104e-02,1.936059126919424112e-01,8.975632614290707245e-02,-2.650982240599600859e-01,2.172059442827355691e-01,2.213390009977214967e-01,-2.303486818609209730e-01,5.185765813970180105e-01,7.501608133316040039e-01
3.489340000000000219e-01,8.876004679876463993e-03,-1.976107579617570470e-02,1.018161535263061523e+00,1.859770550445692672e-03,-2.053652791467941441e-02,-1.149831640106935282e-02,-1.393676686745911643e-02,1.957670541276055470e-02,9.095625579357147217e-02,-8.521953498227217982e-02,-2.085698238171021235e-01,6.884376857126045524e-02,2.056366189801386302e-01,1.004485886693439745e-01,-2.625865307244712454e-01,2.193374513901685530e-01,2.299362034802522048e-01,-2.304364557258541946e-01,5.174942645377313966e-01,7.466187477111816406e-01
3.732770000000000254e-01,8.309685317734514728e-03,-1.959629678414243070e-02,1.020695686340332031e+00,1.471482079617156269e-03,-2.702067859857293364e-02,-9.461217661611787122e-03,-4.721552499098791156e-02,1.379461558491122154e-02,1.065732017159461975e-01,2.917332091346521578e-02,-2.060566114231732748e-01,1.075689453597503953e-01,1.995147331291694526e-01,1.445397624069647002e-02,-2.571285792129411885e-01,2.146563494200669220e-01,2.297745138954901678e-01,-2.306666204092807926e-01,5.161705264210473265e-01,7.500085830688476562e-01
4.002700000000000147e-01,7.605350900945325593e-03,-1.946537061509298269e-02,1.023620963096618652e+00,4.794107724476503671e-03,-3.253912843940232058e-02,-7.254668377178585814e-03,-3.348330583880636258e-02,1.017505618920155376e-02,1.187698766589164734e-01,1.624516848632819033e-01,-1.440115251923226314e-01,7.646986007697235965e-02,-2.260259798275237320e-01,-2.154463643136206308e-03,-2.361863928696652515e-01,-1.878854889835094855e-01,2.223902852281017806e-01,-2.160536783358120161e-01,5.148638990604487153e-01,7.433049678802490234e-01
4.237670000000000048e-01,7.055958406317035768e-03,-1.940202927007056086e-02,1.025696516036987305e+00,8.031170473606732627e-03,-3.546462707177799878e-02,-5.929487742986516707e-03,-4.792015756531681214e-02,6.011237958729675514e-03,1.157552376389503479e-01,1.472702947965074671e-01,-1.393945997075996535e-01,5.380146064398416694e-02,-2.407852712407222706e-01,-4.255258059312710950e-02,-2.347567798729088828e-01,-1.784615813182872934e-01,2.220519042524641828e-01,-2.185237472796053848e-01,5.149024992492129416e-01,7.442520856857299805e-01
4.502599999999999936e-01,6.445217850761305635e-03,-1.932994152046220784e-02,1.027850151062011719e+00,1.145741889342067124e-02,-3.715483702876376526e-02,-4.301408341895296417e-03,-4.013836380671392118e-02,1.818543977821040700e-02,1.150425374507904053e-01,1.503048793778177239e-01,-3.850210508139942367e-02,9.541251704015911439e-02,-2.858163506628216832e-01,-4.409357094881719008e-02,-2.163512713485058747e-01,-2.158597464660712006e-01,2.182256122149384414e-01,-2.049940413303862619e-01,5.146190383947960578e-01,7.378375530242919922e-01
4.736270000000000202e-01,4.510772947101610378e-03,-1.844085211820196621e-02,1.030998945236206055e+00,1.308649566646440804e-02,-3.778205808355727946e-02,-2.050589450002693326e-03,-4.827103954538929098e-02,1.466629167306514846e-02,1.195757538080215454e-01,-4.719310028525270685e-03,6.931136310746171918e-03,7.919020573513382844e-02,7.228238065999065265e-03,-9.212977160204513516e-02,6.068958983665784235e-02,9.569145883273302844e-02,1.872437314407401632e-01,6.567538903908209935e-02,5.140637000811820734e-01,7.415757179260253906e-01
4.995410000000000128e-01,2.459886675623294394e-03,-1.730032041680342261e-02,1.034070372581481934e+00,9.114684280636484170e-03,-3.618460962428193817e-02,3.660551494255592786e-04,-4.320686952125751823e-02,2.968093777174253545e-02,1.169429272413253784e-01,-1.478034704079992934e-01,8.830791666827997322e-02,4.750045790279854019e-02,1.708143737920306826e-01,-3.198294955091531278e-01,-2.293266564583271439e-01,2.153885233427621226e-01,-5.798980693456737973e-02,-2.309926782947061275e-01,5.137677751406990456e-01,7.305679321289062500e-01
5.240709999999999535e-01,1.054152461853707663e-03,-1.652198489253234662e-02,1.036123394966125488e+00,5.519551417326317745e-03,-3.499733080408606867e-02,7.284293071849745616e-04,-5.323833823300453544e-02,1.716906992637906582e-02,1.190834417939186096e-01,-1.554687494022509164e-01,1.616477094611275603e-02,-1.888937186069785182e-02,1.759758549314897613e-01,-1.327006794295598202e-01,-2.321331798030141225e-01,2.157977918172807041e-01,1.351267938500817500e-01,-2.344559262235817454e-01,5.135538348511083928e-01,7.387856245040893555e-01
5.506630000000000136e-01,-8.764866309532579535e-04,-1.555562726728984373e-02,1.039411664009094238e+00,2.348283401571017812e-03,-3.272334705130375276e-02,1.969783035444372388e-03,-5.115895269655179600e-02,2.766448631437346678e-02,1.207701936364173889e-01,-7.271804478685477136e-02,1.104110858398966583e-01,6.698401617786951812e-02,2.149358769336146280e-01,-4.168368466710973275e-01,-1.195647761569521017e-01,2.174923451152386000e-01,-1.684849694129435249e-01,-1.253100929260518304e-01,5.131468841683612947e-01,7.400960922241210938e-01
5.767280000000000184e-01,-1.833701034248462654e-03,-1.510729310577505619e-02,1.041753411293029785e+00,2.799336175135116404e-03,-3.025194185055890550e-02,3.435147161873874921e-03,-6.859249512220065570e-02,2.124444213840014084e-02,1.254990547895431519e-01,2.871069187884224203e-02,1.358410634859592292e-01,5.915324022787506186e-02,2.019821896240177328e-01,-4.197602119538734744e-01,2.147250895660429426e-01,2.180208898227506131e-01,-1.671550001154366860e-01,2.049369889426765623e-01,5.126255533765333716e-01,7.434151172637939453e-01
6.009280000000000177e-01,-2.796474457088048149e-03,-1.473479424658114684e-02,1.044154524803161621e+00,4.892281124888652431e-03,-2.718664506172951967e-02,5.085058922818408433e-03,-6.695297683407869238e-02,1.851218265216872730e-02,1.299124360084533691e-01,1.204525957605047937e-01,1.775556818919951652e-01,9.212166375832028797e-02,1.776202566908279823e-01,-3.610130528257465277e-01,2.244184961923816057e-01,2.074798976678345896e-01,-1.359780407322814244e-01,2.099295085055648824e-01,5.120540831954899508e-01,7.437016963958740234e-01
6.241039999999999921e-01,-4.138399012601975090e-03,-1.427133056614130445e-02,1.047778964042663574e+00,9.751573454837835289e-03,-1.981054914116842092e-02,5.677229199381184088e-03,-4.620794830056451641e-02,1.566130489672589582e-02,1.307337135076522827e-01,1.970789033592646178e-01,2.878887626869628957e-01,-2.971269476663903827e-02,6.451403447424303161e-02,-3.528839317040259882e-01,2.376553474619963746e-01,1.276998967622718362e-01,-1.965051298997878559e-01,2.214300101017332156e-01,5.115923151775657596e-01,7.406742572784423828e-01
6.498310000000000475e-01,-4.944155893393288592e-03,-1.400676119530498698e-02,1.050180792808532715e+00,1.378157247589924597e-02,-1.282643293579233124e-02,4.198521173756297742e-03,-5.684748590519232009e-02,5.318960972288992554e-03,1.287578046321868896e-01,2.136973669981076795e-01,3.155776352270251994e-01,-9.684582789348436527e-02,-9.980237870530637989e-02,-3.319778235274669642e-01,2.386999594281566939e-01,-6.596149413712517739e-04,-2.008821819718843993e-01,2.265970478555170420e-01,5.115544496362430804e-01,7.436099052429199219e-01
6.744299999999999740e-01,-6.023477943325361572e-03,-1.328872272572105204e-02,1.053748130798339844e+00,1.985783371122287408e-02,-9.855736330590669780e-04,1.712446042283488623e-03,-3.809761750299160005e-02,1.106867182255391428e-02,1.213053464889526367e-01,1.550095440600802732e-01,4.353053540046621372e-01,-9.707308080469617684e-02,-1.094383111246813867e-01,-2.446925450333181373e-01,2.359698864786931027e-01,1.861509264448638415e-02,-2.140919593888653827e-01,2.310431897318188099e-01,5.118788594585158558e-01,7.492897510528564453e-01
6.994820000000000482e-01,-6.974625836602035833e-03,-1.256292647203857346e-02,1.057117581367492676e+00,2.400304648385527886e-02,1.121297319437930540e-02,-9.222344302308727038e-04,-4.327327397564242895e-02,1.434674783013178793e-02,1.143600642681121826e-01,9.126629248533257854e-02,4.104521095615928372e-01,-9.461222380214899530e-02,-1.976173743361545609e-01,-1.815421074563597637e-01,2.292169780748060104e-01,-4.434339987416480861e-02,-2.166860532272242290e-01,2.319840471323986741e-01,5.121352855290169925e-01,7.519878149032592773e-01
7.238839999999999719e-01,-7.483140580665645879e-03,-1.210428037511346137e-02,1.059319734573364258e+00,2.494815891351408188e-02,1.933083946524649654e-02,-2.906303475606275555e-03,-3.658892482846003852e-02,1.248328604785913648e-02,1.096319183707237244e-01,2.037370332711796114e-02,4.274220172870771273e-01,-1.016780910634797197e-01,-2.959024761354083211e-01,-1.221104528621183016e-01,2.211916331528381574e-01,-1.334289566662675008e-01,-2.187428948076433621e-01,2.298472731288203341e-01,5.122679685310446152e-01,7.525066137313842773e-01
7.496549999999999603e-01,-7.906331982243891207e-03,-1.160253068274278918e-02,1.061520934104919434e+00,2.462187600283537864e-02,2.656850867167404040e-02,-5.105069988181831775e-03,-2.435150129157608034e-02,1.542051389573347898e-02,1.056390851736068726e-01,-9.575186543088214097e-02,3.906303500081271807e-01,-1.038956197120729646e-01,-3.094002352883914453e-01,-6.525253571317204959e-02,2.126927172082945239e-01,-1.531510105615690454e-01,-2.190998927828662346e-01,2.278216619104035945e-01,5.123138372043843924e-01,7.512595653533935547e-01
7.744550000000000045e-01,-8.625941941661089199e-03,-1.122714745926307184e-02,1.064639806747436523e+00,2.178200619749584219e-02,3.542053383134313727e-02,-7.925341609136271614e-03,-2.695383940740368051e-02,1.513342624186704392e-02,1.083573922514915466e-01,-9.386196297084364870e-02,2.233005348678667734e-01,-1.011744382735200454e-01,-2.422754267007936890e-01,-1.607764005337022906e-02,2.026691387261735644e-01,-1.030226837609093948e-01,-2.193216855342539351e-01,2.258283049607610338e-01,5.118111252524991661e-01,7.510812282562255859e-01
7.987490000000000423e-01,-9.021628816179263349e-03,-1.109370275724485405e-02,1.066700100898742676e+00,1.789365840909740504e-02,3.974642218398405369e-02,-1.021816497049021777e-02,-1.240330506674208223e-02,1.682197374549394137e-02,9.694365411996841431e-02,-2.372403594636695034e-01,2.085803696419424869e-01,-9.851616772315728576e-02,3.719001176894520810e-02,2.671147440469304191e-02,-2.074265726834368107e-01,1.492377930425589083e-01,-2.210026026039850766e-01,-1.778272876612297659e-01,5.123247566934022723e-01,7.446267604827880859e-01
8.245179999999999731e-01,-9.325427835232703161e-03,-1.080478203419295812e-02,1.069694161415100098e+00,1.048985626488917536e-02,4.402093669489914873e-02,-1.360010627676899730e-02,-4.957311882641870018e-03,1.366202049105493845e-02,9.908384829759597778e-02,-2.606002793810754392e-01,9.505138396510300069e-02,-9.883653525407183615e-02,1.588011150600925347e-01,6.084315686136346213e-02,-2.407959096288677936e-01,2.268587482345194029e-01,-2.169098258042962690e-01,-2.020885761293198246e-01,5.118990410870005725e-01,7.457532882690429688e-01
8.498989999999999601e-01,-9.350889805069213800e-03,-1.058028322079705361e-02,1.071583032608032227e+00,5.564329856737122021e-03,4.541455107650227419e-02,-1.479110853288512217e-02,6.061382106315783141e-03,1.969980219947053621e-02,1.053650304675102234e-01,-2.397742328250385413e-01,4.498863724699760785e-02,-2.567751357787380340e-02,2.051540909033393034e-01,7.935997163889613182e-02,-2.503632871663284964e-01,2.333219949851121078e-01,-2.164080498515500994e-01,-2.085169869241256524e-01,5.112492347665733572e-01,7.471919059753417969e-01
8.736439999999999761e-01,-9.531929579273233297e-03,-1.055871134292910712e-02,1.074639558792114258e+00,1.731148206076349840e-03,4.491335775149685183e-02,-1.397789049563025188e-02,1.628872945297850372e-02,1.059545662824865932e-02,1.213871389627456665e-01,-4.684863639077880421e-02,-6.897771211618101972e-02,4.984990253609445504e-02,1.853332849901864199e-01,9.677016133283136701e-02,3.198910749470931791e-02,2.006096527346538927e-01,-2.026657148160495858e-01,7.119733101360650740e-02,5.098188006903423553e-01,7.509697675704956055e-01
8.987549999999999706e-01,-9.530791866867999521e-03,-1.070516391333922214e-02,1.076749086380004883e+00,2.299927182609705790e-03,4.370740531881556201e-02,-1.286431407585819642e-02,2.014633286646760543e-02,9.695982088768047291e-03,1.196890994906425476e-01,5.683596164011096852e-02,-7.521025799983038773e-02,4.624032505227625156e-02,-1.796532384904393209e-01,2.433433071051996632e-01,1.523402889266785298e-01,-1.632243540047314256e-01,-4.845787210395538502e-02,1.884891989134719059e-01,5.097998390680195113e-01,7.555301189422607422e-01
9.241329999999999822e-01,-9.142296273700495704e-03,-1.101304858247416536e-02,1.080160260200500488e+00,6.028831721475752525e-03,4.051946395798222689e-02,-1.187345085352964347e-02,4.448747893347809040e-02,2.852375358181002529e-03,1.262873560190200806e-01,1.626283469849627294e-01,-1.413913562511636968e-01,9.707425158225964010e-03,-2.690912169870428583e-01,8.746174757489419416e-02,1.774504102015045937e-01,-2.214770898590380788e-01,-2.089077898298910274e-01,2.109962113574761489e-01,5.090038277786748111e-01,7.570159435272216797e-01
9.496740000000000181e-01,-8.558218329320249271e-03,-1.126157525509514749e-02,1.082417488098144531e+00,9.070565964016799598e-03,3.815957778430778546e-02,-1.250662564349047656e-02,4.043572820307705235e-02,7.214512706701142232e-03,1.315596252679824829e-01,1.528527875183439966e-01,-1.255037741908768822e-01,-6.840247256090922767e-02,-2.782559272816981233e-01,4.820208073067328014e-02,1.807237577005267326e-01,-2.179933488587318113e-01,-2.193257998483407745e-01,2.162518724705661533e-01,5.083689894318971225e-01,7.577457427978515625e-01
9.742100000000000204e-01,-7.689019291585190950e-03,-1.138138105907652783e-02,1.085602045059204102e+00,9.932140123955839409e-03,3.412796978183285646e-02,-1.464554729817901801e-02,7.088916403639418384e-02,1.046272628533295897e-02,1.111241579055786133e-01,-3.279671629980219355e-02,-1.469638623388240251e-01,-1.068776719947279324e-01,-1.714132469753659738e-01,6.015064380426951574e-02,1.673151837753117099e-01,-1.077152815824126836e-01,-2.163015162163402227e-01,2.089188404396563337e-01,5.095500000534554097e-01,7.551640272140502930e-01
9.995399999999999840e-01,-6.949892667619379100e-03,-1.123588318978110782e-02,1.087459921836853027e+00,7.358806556715111365e-03,3.181735838751209577e-02,-1.634870901220031314e-02,7.052330896003609906e-02,1.526840384685131634e-02,1.062986999750137329e-01,-1.658515512147027970e-01,-8.961640585978425388e-02,-8.331217695025232295e-02,1.775544434848484454e-01,3.927351451183491715e-02,-2.142351343866229496e-01,2.205898652987282604e-01,-2.105050906644101438e-01,-1.680255566229328368e-01,5.096813147973863201e-01,7.544240951538085938e-01
1.024636000000000102e+00,-5.480128702679668701e-03,-1.087535905319131357e-02,1.090037584304809570e+00,9.636048252813814944e-04,2.884186352330520009e-02,-1.910257067115672669e-02,8.733889001634080607e-02,2.648344674661069764e-02,9.284745156764984131e-02,-2.061345246066405845e-01,-8.229512085205850647e-02,-1.006251851367218481e-01,2.344144158663805377e-01,3.845064791577362806e-02,-2.496145486063948704e-01,2.250378176979716816e-01,-2.112793136726376364e-01,-1.959499863896851934e-01,5.104023166890401253e-01,7.526731491088867188e-01
1.051617999999999942e+00,-4.304596776315844017e-03,-1.056245322391438299e-02,1.091602444648742676e+00,-3.067238854464596209e-03,2.691164522355649069e-02,-1.984972169993159952e-02,8.828574853649250043e-02,2.006930937725446076e-02,9.340294450521469116e-02,-1.886165654613356502e-01,-1.209846730930322217e-01,6.652713296832993284e-03,2.281958340600636348e-01,3.765920243617859597e-02,-1.526725008825683960e-01,2.036872742557612470e-01,-1.952698999842684968e-01,-9.721546901890924797e-02,5.101365775610098297e-01,7.508373260498046875e-01
1.073677999999999910e+00,-2.300323124483466455e-03,-1.009967381139880750e-02,1.094176650047302246e+00,-4.976273496550933859e-03,2.367204870017358687e-02,-1.834777883975302615e-02,1.031279768624668025e-01,2.834060397286688321e-02,9.745650738477706909e-02,1.167155728218765599e-02,-1.036722837818967735e-01,7.023475754059103904e-02,1.494561263814519481e-01,9.159670396151486926e-02,1.428609814726090055e-01,1.004252539126842397e-01,-1.374646074562680120e-01,1.941112049434508546e-01,5.095474844249575641e-01,7.492451667785644531e-01
1.099855000000000027e+00,-7.189316859096897419e-04,-9.854650005477555430e-03,1.095925569534301758e+00,-3.185824774094345776e-03,2.130781695029715372e-02,-1.672392616533047160e-02,1.034218953490245452e-01,1.588528792760075109e-02,1.059255450963973999e-01,1.225962915950590398e-01,-1.750290691555617117e-01,7.910282631607205850e-02,-1.922037901444720864e-01,1.222861600345961225e-01,1.701157833463646518e-01,-2.130236376329661119e-01,-8.755577780414720845e-02,2.167958390962743398e-01,5.088189766092353628e-01,7.554552555084228516e-01
1.124433999999999934e+00,2.026581574469177912e-03,-9.554401772934831283e-03,1.098678231239318848e+00,2.081465450140399572e-03,1.843872669909507600e-02,-1.590002024896763899e-02,1.237034250289362480e-01,1.886484386020600285e-02,1.001266017556190491e-01,1.644151751477850310e-01,-8.128734720663259583e-02,-2.238332646938273260e-02,-2.242765168438445311e-01,-4.697349086677127250e-03,1.770050013154726709e-01,-2.195008533263632378e-01,-2.195650832858545565e-01,2.216780412996246785e-01,5.089905693063787595e-01,7.556102275848388672e-01
1.150104000000000015e+00,4.105019860224578751e-03,-9.336482374769538434e-03,1.100367307662963867e+00,5.628382225621349211e-03,1.695758983168760281e-02,-1.687233924618247727e-02,1.192476552009097690e-01,2.020284930521432445e-02,9.731348603963851929e-02,1.550009121376577370e-01,-8.141602297966235580e-02,-9.673743515744388788e-02,-2.461179338905508107e-01,-2.497197524016953052e-02,1.739393400229099496e-01,-2.186848849742527301e-01,-2.189611999106771401e-01,2.214711467198944850e-01,5.089745547309981744e-01,7.546346187591552734e-01
1.175019000000000036e+00,7.611681650041437694e-03,-9.278428450724929624e-03,1.102614879608154297e+00,6.922508042466198053e-03,1.525165307801201742e-02,-1.898990701068647979e-02,1.409024046161734822e-01,2.897822631600049242e-02,8.241376280784606934e-02,-3.011948731840361979e-02,-1.683320903711416766e-02,-7.717095140648054519e-02,2.741702447171806209e-02,-2.882692844868639526e-03,1.493272398565409220e-01,5.367994042944297661e-02,-2.130752846023263591e-01,2.029341832882264052e-01,5.098318713778644540e-01,7.523803710937500000e-01
1.199384999999999923e+00,1.028250337810808837e-02,-9.655066133662369710e-03,1.103884100914001465e+00,5.370992267146775835e-03,1.464838922690714362e-02,-2.057990546661914166e-02,1.430249990285379913e-01,3.318582524554809093e-02,7.476351410150527954e-02,-9.070396072059702663e-02,7.402311533115026911e-03,-7.505515329099922417e-02,1.969543971101109237e-01,-1.149450110355884624e-02,-2.599937342102353055e-01,2.121595585171160703e-01,-2.135301970238503710e-01,-2.020130446645704292e-01,5.101874835799731223e-01,7.496292591094970703e-01
1.224520000000000053e+00,1.453944159897398516e-02,-1.003940771018548180e-02,1.105546236038208008e+00,7.289454302101633322e-04,1.495904896516808691e-02,-2.294732768284601931e-02,1.451181696545815747e-01,3.309848046618491663e-02,6.691572815179824829e-02,-1.387644568702136871e-01,3.067560542851522146e-02,-9.020171663758007330e-02,2.275807301488765311e-01,-1.489983194627064744e-03,-2.763318994311952936e-01,2.143626165562648733e-01,-2.100317989026523335e-01,-2.119332669915950651e-01,5.105492030297473782e-01,7.475136518478393555e-01
1.249389000000000083e+00,1.743454494436549179e-02,-1.024715054537829288e-02,1.106729984283447266e+00,-8.935580978771483609e-04,1.446996004483103171e-02,-2.308809547496037951e-02,1.572171402756175895e-01,3.591871038097992075e-02,6.416943669319152832e-02,-6.528654666163376252e-02,-1.034084997751925222e-02,2.669894473096067616e-02,1.900648301660798900e-01,2.176797336806474137e-02,-2.245506135154680671e-01,1.630368192986094700e-01,-1.980070353171504149e-01,-1.598052433425999341e-01,5.105221067033642868e-01,7.425674200057983398e-01
1.274464999999999959e+00,2.178939015295734694e-02,-1.010107284118156798e-02,1.108677983283996582e+00,1.073973442956117951e-03,1.340473929865937386e-02,-2.111367889564919054e-02,1.436101597133732644e-01,2.731801343609046792e-02,7.784765958786010742e-02,1.137550934061004743e-01,-5.367512970793601040e-02,7.737425773190374778e-02,-2.072366923782411607e-01,-1.897760696908198930e-02,1.641536543199540732e-01,-2.108732424501083280e-01,-2.161594369457991716e-01,2.233773576838463948e-01,5.095158547810426652e-01,7.558259963989257812e-01
1.299363999999999963e+00,2.466111102100992589e-02,-9.425984661929448852e-03,1.110108613967895508e+00,4.594073267254700742e-03,1.259326489674972294e-02,-1.913780811457144182e-02,1.658213518458068469e-01,2.828324305605611419e-02,8.062746375799179077e-02,2.006151290914579555e-01,-6.677354662571804989e-02,8.383651960767682376e-02,-2.299632431419054712e-01,3.407127994450587227e-03,1.708624291631564984e-01,-2.159677410549619425e-01,-2.200783495006188584e-01,2.247730537857383915e-01,5.091610887644574257e-01,7.559590339660644531e-01
1.323266999999999971e+00,2.925531107461515345e-02,-8.474741658079300299e-03,1.112279653549194336e+00,1.019051334343542940e-02,1.175756215165502105e-02,-1.811948947783648123e-02,1.668730381633390381e-01,2.566009785992872869e-02,7.741694897413253784e-02,1.439798646775164725e-01,-5.803005850366604185e-02,-1.527611107661988078e-02,-2.730792412785166268e-01,-5.812519086263179258e-03,1.741669971323416832e-01,-2.200183849801803371e-01,-2.196420875721534771e-01,2.254518748238391601e-01,5.091337976114397312e-01,7.544097900390625000e-01
1.348746999999999918e+00,3.253153420455630329e-02,-7.771477824836750710e-03,1.113619804382324219e+00,1.131659401829468795e-02,1.205777993968348838e-02,-1.893910874245374742e-02,1.754063853932259498e-01,3.547419551344259403e-02,6.396444886922836304e-02,1.026304806035298160e-02,4.461207131222560962e-02,-6.330569926617601872e-02,-2.202551311498830433e-01,1.062873931053645582e-02,1.562442814435958671e-01,-1.722303368101426868e-01,-2.158667138330739588e-01,2.100028544105544959e-01,5.098051017657989625e-01,7.446823120117187500e-01
1.374619999999999953e+00,3.765530348551624634e-02,-6.460895435945923811e-03,1.115342736244201660e+00,8.416971070283192982e-03,1.240145217635091335e-02,-2.062254913722094685e-02,1.847889686110658070e-01,3.577524525526881022e-02,5.087137594819068909e-02,-1.517082967038370922e-01,-1.516910505697297018e-02,-6.630242983761208686e-02,1.568671161720080476e-01,3.646269866337556453e-02,-2.568449387275102413e-01,1.883423720299141624e-01,-2.025126715894915164e-01,-1.985029542964025506e-01,5.106623077909893116e-01,7.477114200592041016e-01
1.400628999999999902e+00,4.134678458397965384e-02,-5.216571942293931827e-03,1.116318106651306152e+00,4.507720940549351726e-03,1.292643934570825159e-02,-2.189387974435463846e-02,1.799834349643444353e-01,4.301364515092004348e-02,4.931963607668876648e-02,-1.901710157343644292e-01,7.729102702557669180e-02,-6.759128288417823316e-02,1.590322865709988820e-01,3.833776636174829333e-02,-2.700666561821143397e-01,1.565072026227265489e-01,-1.979514644132238377e-01,-2.083031342849943901e-01,5.104776202332524937e-01,7.391955852508544922e-01
1.424333000000000071e+00,4.694218230048840396e-02,-3.289294496742146013e-03,1.117717504501342773e+00,-8.278147503695052053e-04,1.242109265503210658e-02,-2.228113853524860133e-02,2.027268936986079684e-01,4.525664733369073878e-02,4.550430551171302795e-02,-1.201031148828382855e-01,-6.343608877460399365e-02,2.792054387468677346e-02,1.006471604807468723e-01,8.400011418206629332e-02,9.029571794499863246e-02,6.192054664761003496e-02,-1.795514554014779607e-01,1.529007222844255831e-01,5.105059761171961696e-01,7.323014736175537109e-01
1.449038999999999966e+00,5.068694249583324818e-02,-2.018500115899383735e-03,1.118748068809509277e+00,-2.033077095985798624e-03,1.156301021052841271e-02,-2.055300828568507043e-02,1.818440904496446686e-01,3.720823019307294144e-02,5.159162357449531555e-02,-1.955017209422216240e-02,-6.960545089736407121e-02,1.267858884559671662e-01,-1.097497079618769134e-01,4.217814787135931720e-02,1.054648490809610151e-01,-1.470397292060939831e-01,-1.878142458488371858e-01,1.630783564006950404e-01,5.101486417403361395e-01,7.470401525497436523e-01
1.474247000000000085e+00,5.644840827111321374e-02,-2.700256276015830254e-04,1.120476961135864258e+00,-1.705529935980331171e-04,9.191409030109731759e-03,-1.923712581075420758e-02,2.066905387843024078e-01,4.715236173669026809e-02,4.627393558621406555e-02,1.042995488344839600e-01,-7.281102682193971165e-02,-6.138007772987520358e-03,-1.773947769600511259e-01,1.725070719998154645e-01,1.611208635015551893e-01,-2.181662312010844151e-01,-8.083139932348963608e-02,2.152834185733869532e-01,5.104877405870892337e-01,7.512283325195312500e-01
1.499508000000000063e+00,6.062140239908068301e-02,6.975818797448455092e-04,1.121634244918823242e+00,1.737492607752947563e-03,7.556972694297670046e-03,-1.937314542428847375e-02,1.986191442293309684e-01,3.568323031641559145e-02,4.830277711153030396e-02,6.273490069856420270e-02,-1.051674648173483162e-01,-3.529656954043775344e-03,-2.079101483435263353e-01,2.663980737920660924e-01,1.654723351091252626e-01,-2.205924810652039880e-01,3.850282785470056368e-02,2.199618377825516002e-01,5.101826290146229681e-01,7.523869276046752930e-01
1.524124999999999952e+00,6.710031692088616606e-02,2.265534748327573990e-03,1.123264908790588379e+00,2.131587996212416271e-03,6.500835025380569121e-03,-2.018610159992340058e-02,2.158849615076884054e-01,5.433784799506590629e-02,3.522439301013946533e-02,-4.116540585653716972e-02,-2.499087703813273817e-03,-4.283347964176122818e-02,2.046703583666985016e-01,4.704579600227298819e-02,-1.055125848344571488e-01,1.683783966565534085e-01,-1.995302652163269685e-01,-4.849717374180130547e-02,5.109896861278250269e-01,7.505645751953125000e-01
1.550143000000000049e+00,7.148132459218720092e-02,3.415309880452588927e-03,1.124185919761657715e+00,7.008210765208861080e-04,4.596298000402398998e-03,-2.117902572259788840e-02,2.196784369239751233e-01,4.782888215155460532e-02,3.196655958890914917e-02,-1.005979918282942920e-01,-1.167608273870964497e-01,-5.679853518013215641e-02,6.173963453439924171e-02,6.221300820964731360e-02,5.664772296887835012e-02,2.933477979096062865e-02,-1.728940708327544873e-01,1.162417294490315223e-01,5.105507135279997444e-01,7.211883068084716797e-01
1.574804000000000093e+00,7.804347243234888154e-02,5.244071403583790841e-03,1.125650882720947266e+00,-1.309651129533743541e-03,4.207087774839024519e-04,-2.091067738021612499e-02,2.062184370055697435e-01,5.478320803052555421e-02,4.150295630097389221e-02,-4.438144418094389088e-02,-1.170498200145786705e-01,6.297235013628423028e-02,-1.954723899962666073e-02,3.911353477230011810e-02,1.279540323788578571e-01,-7.635974916834439852e-02,-1.580560357477491518e-01,1.867371284386713237e-01,5.100011601656697646e-01,7.397968769073486328e-01
1.598943000000000003e+00,8.238878882430411554e-02,6.420906965329436708e-03,1.126649022102355957e+00,-9.748934777665251320e-04,-2.745944830400359749e-03,-2.048445392275377586e-02,2.265291627338748559e-01,5.587094051280195456e-02,2.860520407557487488e-02,2.940446754206375857e-02,-1.598943087829582943e-01,-4.892823584693633057e-03,-1.379279847423626193e-01,1.619665458998386931e-01,1.574429269147471222e-01,-1.923070163487272388e-01,-4.454890108150156430e-02,2.150500010409202856e-01,5.109253904686471559e-01,7.421777248382568359e-01
1.624171000000000031e+00,8.904818785795526326e-02,8.172861759904894233e-03,1.128047704696655273e+00,6.751755049135486604e-04,-6.018159704865189141e-03,-2.025304367973612685e-02,2.180173494763709974e-01,4.835099765157441914e-02,2.934481576085090637e-02,3.274698331416912161e-02,-1.241938294428041184e-01,9.919305021966367750e-03,-1.624534303284699555e-01,2.409889189113005870e-01,1.630685261201121894e-01,-1.987049474860788367e-01,6.767682580761812117e-02,2.200049755909602167e-01,5.107418610053562347e-01,7.452447414398193359e-01
1.650522000000000045e+00,9.356136914639269497e-02,9.374444728031625443e-03,1.128896355628967285e+00,1.629235038964689042e-03,-7.307561600854217687e-03,-2.091622704063977878e-02,2.246316141515987685e-01,5.883923468257704764e-02,2.405426837503910065e-02,2.953663130395119477e-02,-6.571902249652697425e-02,-6.949723514929756485e-02,-1.478445210302941071e-01,2.076040017877012478e-01,-6.028719176286453235e-02,-1.933492549715004893e-01,2.929146716214203056e-02,-1.362935361548262914e-03,5.103662145695340158e-01,7.091689109802246094e-01
1.675767000000000007e+00,1.003626026018890477e-01,1.128542600925003594e-02,1.130028843879699707e+00,1.088027233041412214e-03,-1.034763391837190127e-02,-2.215784740994442004e-02,2.252824977742177437e-01,5.662629013089327118e-02,1.467901933938264847e-02,-5.234902289246285562e-02,-1.578389806810190921e-01,-4.596066824905675752e-02,1.176759813139006960e-03,1.135829729633403007e-02,4.743012431469957602e-02,-4.306330740908497628e-02,-1.499584339742625616e-01,1.097458312980280765e-01,5.106031180453349805e-01,6.916913986206054688e-01
1.699194000000000093e+00,1.047192891349049554e-01,1.338208484535731609e-02,1.130609154701232910e+00,-6.803353660159158290e-04,-1.309470854178829136e-02,-2.209730896178641046e-02,2.127007564909428050e-01,6.979640368000197825e-02,1.233956031501293182e-02,-8.869914842627855955e-02,-1.073646465415898782e-01,1.670564477795631608e-02,4.373949104353419548e-02,-1.532862984556968011e-02,-4.078059642735477885e-02,-2.840855170900061233e-02,-1.480592504189656433e-01,2.133624101617047353e-02,5.108385787762345087e-01,7.006492614746093750e-01
1.724223000000000061e+00,1.111772641773967896e-01,1.663279558286521326e-02,1.131599187850952148e+00,-3.963308140256007785e-03,-1.861648296706519545e-02,-2.147182601546182568e-02,2.187712157591790718e-01,6.757938312677957970e-02,5.679859779775142670e-03,-9.593556578542974944e-02,-1.998449745552182133e-01,-7.128736609163179201e-03,4.663820781325474230e-02,-3.901008321931920264e-02,-1.042399525837071905e-02,-4.189441880683635044e-02,-1.519077286737866572e-01,4.979676642261611497e-02,5.109642284691319203e-01,6.861941814422607422e-01
1.748973000000000111e+00,1.154635364593365326e-01,1.880862636984888953e-02,1.132125020027160645e+00,-5.630968385123955380e-03,-2.153127759075723624e-02,-2.086108723964752443e-02,2.130130910664358446e-01,6.601151122020526563e-02,1.030206400901079178e-02,-4.335490476310393387e-02,-1.403005794138346418e-01,3.394565481798753753e-02,4.251298590709497865e-02,-2.699782683747464773e-02,2.383008362927287183e-02,-5.754273012495152856e-02,-1.161164390069764768e-01,8.228418549043288455e-02,5.110176429204965620e-01,7.128267288208007812e-01
1.774359999999999937e+00,1.218697819928114268e-01,2.207422348264526102e-02,1.133075237274169922e+00,-6.554158023010845865e-03,-2.393603582129566476e-02,-1.954324159137588168e-02,2.155014826049131138e-01,8.280958977722709113e-02,-6.860353052616119385e-03,-2.749626027387691921e-02,-3.913222062243836008e-02,3.595347978811387624e-02,1.005577410933498894e-01,-2.232521803217267509e-02,-9.086296258248954816e-02,-2.611801693572621957e-02,-1.043081873245642888e-01,-3.606512902651886482e-02,5.123554211178504847e-01,7.206625938415527344e-01
1.798567000000000027e+00,1.262926205452290784e-01,2.456716898952846992e-02,1.133584976196289062e+00,-6.376557643602382905e-03,-2.447519305246559362e-02,-1.845900343099193819e-02,2.105010219969924989e-01,8.076255908875490386e-02,-2.249351004138588905e-03,5.541225988087611180e-03,-2.167531923580536327e-02,4.479133671661982008e-02,3.694375512430458919e-03,1.475965363727506641e-01,8.108157761870646296e-02,-1.148176918212577280e-01,7.155772917771095754e-02,1.328231480007943388e-01,5.120787548165440795e-01,7.293881177902221680e-01
1.823593000000000020e+00,1.330337182302171739e-01,2.872432707853123102e-02,1.134350180625915527e+00,-4.582305920945261950e-03,-2.414475861685483338e-02,-1.670660685971991910e-02,2.131323739776463944e-01,8.548015182375581777e-02,2.223766641691327095e-04,8.375094994192253117e-02,5.520372821426256654e-02,6.901224800197423848e-02,-5.126252322208764423e-02,-9.896219466542456600e-02,1.250291937820748323e-01,-1.666737591533668794e-01,-1.869869672833406049e-01,1.719383126882452206e-01,5.116047555894860377e-01,7.184848785400390625e-01
1.848800999999999917e+00,1.374570310073000567e-01,3.146927112340322519e-02,1.134871840476989746e+00,-2.910745152610551539e-03,-2.429580281167531552e-02,-1.596448314676379709e-02,2.169014194153376651e-01,8.792348554171651454e-02,-1.064515486359596252e-02,8.340785970228892232e-02,-3.772666163225009417e-02,3.978841054475999728e-02,-9.818102661778012330e-02,2.734114596901666694e-01,1.772078728702033978e-01,-2.052358524583440258e-01,1.804986495711066730e-01,2.220895116229071875e-01,5.124643627784585265e-01,7.249090671539306641e-01
1.874805999999999973e+00,1.440175989556466696e-01,3.566202581836375868e-02,1.135537028312683105e+00,-1.163096157803707566e-03,-2.505729189850969263e-02,-1.531261436832398459e-02,2.078508476944907757e-01,8.638644968534645030e-02,-1.456172950565814972e-02,2.852612187967247526e-02,-2.101183641035190772e-02,1.621278986744405931e-02,-1.133667053396235636e-01,2.671847023841438795e-01,1.818557127304477605e-01,-2.091444182643054095e-01,1.856993284135918798e-01,2.249200459603090674e-01,5.127701085851451568e-01,7.313284873962402344e-01
1.898935999999999957e+00,1.481693684339435990e-01,3.837725656381237027e-02,1.135890007019042969e+00,-8.781002777018244660e-04,-2.564767567652048719e-02,-1.563759260291686104e-02,2.074707943222177664e-01,9.894414108180341061e-02,-2.226644195616245270e-02,1.253082703710161824e-02,-5.202933725544032356e-02,-3.953954685159232624e-02,-2.716771809740999022e-02,1.519073384084955736e-01,-6.760118285391741866e-02,-1.371208381978369639e-01,6.857538739843514752e-02,-2.357385994706029039e-02,5.107036683850685321e-01,5.930336713790893555e-01
1.927159000000000066e+00,1.540482018337921422e-01,4.229167205311334943e-02,1.136323213577270508e+00,-1.705523567352286484e-03,-2.923307773393091225e-02,-1.649091279611658578e-02,1.890835679014500892e-01,9.790562607558818409e-02,-1.912584528326988220e-02,-5.490657456695786920e-02,-1.967214060561620903e-01,-3.493799826746077364e-02,7.084900454258689917e-02,-7.361445471040269084e-02,-8.481202710549110013e-02,-4.152341865327259518e-02,-1.186939170012774464e-01,-3.853067967715802927e-02,5.124429489404827009e-01,7.038502693176269531e-01
1.948817000000000021e+00,1.577635000910292684e-01,4.499507210544149982e-02,1.136520981788635254e+00,-2.874388890547888761e-03,-3.304281761628735659e-02,-1.589711976210494981e-02,1.796790590194332904e-01,1.069958724546976464e-01,-2.847708202898502350e-02,-6.506629093370515371e-02,-1.646304379808995189e-01,4.155835475326905698e-02,1.095374965895082875e-01,-1.296143488798144616e-01,-1.195368888580459477e-01,-2.228650946662624061e-02,-1.492826424640929794e-01,-7.498971303984999781e-02,5.135988722822840691e-01,7.308218479156494141e-01
1.974820999999999938e+00,1.631025006685853929e-01,4.912726262332019894e-02,1.136824488639831543e+00,-4.617453184339102672e-03,-3.930168366682851300e-02,-1.376333549574670911e-02,1.850427134339156510e-01,1.087994595173485124e-01,-2.807656303048133850e-02,-2.194887189338156144e-02,-2.038527180173176356e-01,7.194068322459983011e-02,9.551202124937918647e-02,-1.537366478579196491e-02,-2.131441842275019066e-02,-4.882503848143221470e-02,-7.958093857077516015e-03,1.717622248346687558e-02,5.133699752204458067e-01,7.222045660018920898e-01
1.998591999999999924e+00,1.666267298962625376e-01,5.187795644493941455e-02,1.137049794197082520e+00,-5.267850447664917425e-03,-4.154351834745151351e-02,-1.176563207478498185e-02,1.657656032464725204e-01,1.062828931696516432e-01,-2.455176971852779388e-02,1.892653753869687813e-03,-9.910070990586029860e-02,1.024701433250985311e-01,3.228825962381239034e-02,4.191521538731929342e-02,1.367445145643206017e-01,-1.144084547312456540e-01,8.334425501956885252e-02,1.695621666554013862e-01,5.132979156426329403e-01,7.374892234802246094e-01
2.024131000000000125e+00,1.719226750981919793e-01,5.594578991162182241e-02,1.137305259704589844e+00,-4.665000330609792890e-03,-4.192357715437933230e-02,-9.025423717917036015e-03,1.732359393387168656e-01,1.204235870004637526e-01,-4.097453877329826355e-02,4.809236077197271558e-02,5.440911918854172274e-02,7.204329912214174625e-02,8.407261220296413651e-02,-1.153102312183707512e-01,-5.625715289591229351e-03,-7.672745312642093030e-02,-8.992317351155572347e-02,1.954491607943574516e-02,5.135356542065461216e-01,6.850568056106567383e-01
2.050421000000000049e+00,1.753962057356283910e-01,5.861481353339504513e-02,1.137366414070129395e+00,-3.486508714502825537e-03,-4.183183203688511931e-02,-8.209000953647294097e-03,1.628829984345825099e-01,1.136240241059273404e-01,-3.765027597546577454e-02,5.388224460061413063e-02,-1.970215840207382302e-02,3.847232725679215065e-02,-5.217912168758534475e-02,1.601545084559365950e-01,1.998183346078387379e-01,-1.945080127741465048e-01,1.957204704271165441e-01,2.226756016579208575e-01,5.138843624609560345e-01,7.207629680633544922e-01
2.074695000000000178e+00,1.803145569567377871e-01,6.265967985055337364e-02,1.137571334838867188e+00,-9.639181722894930252e-04,-4.132750440472476861e-02,-7.291199126633784999e-03,1.530968657550072776e-01,1.179729521192554864e-01,-3.212922811508178711e-02,9.027039802491203246e-02,7.626150083976167282e-02,6.567629098556754252e-02,-2.089274678803904051e-03,-4.178995997228103498e-02,1.175078986302924011e-01,-1.381117312554684950e-01,-7.048793589701165749e-03,1.377698387079086817e-01,5.127341275513477292e-01,6.839709281921386719e-01
2.098164000000000140e+00,1.834869224335071436e-01,6.537436692816929462e-02,1.137677311897277832e+00,7.209568291475967460e-04,-4.093989569706768528e-02,-7.068323572934076537e-03,1.573764248599169024e-01,1.201644049407427361e-01,-4.172851517796516418e-02,5.421569546778268883e-02,1.774192470308088437e-02,-8.707153188172547017e-04,-8.313666351393961262e-02,1.811372382047697349e-01,2.097053931711724550e-01,-2.106541650427366519e-01,2.029954169636226102e-01,2.293857316179266637e-01,5.134473343259449152e-01,6.850244998931884766e-01
2.123622999999999816e+00,1.890204069423215283e-01,6.882810180776025022e-02,1.137654662132263184e+00,1.965455541944976375e-03,-4.076857347431928069e-02,-7.038884632778241723e-03,1.383130419675741296e-01,1.235049673638217854e-01,-4.074339941143989563e-02,2.995318369781905382e-02,1.226738048491222456e-02,1.155530577434177482e-02,-7.340512574782226407e-02,1.141263567305550869e-01,1.925091586823199086e-01,-1.980493289150901948e-01,1.527060964499259710e-01,2.120165053270434419e-01,5.137105997332763740e-01,7.062737941741943359e-01
2.149067000000000061e+00,1.925240164853810054e-01,7.117610713244021392e-02,1.137608885765075684e+00,2.098389329597261793e-03,-4.159156774488570463e-02,-7.605182794827136661e-03,1.366050592214826942e-01,1.201051780891013582e-01,-4.682878404855728149e-02,-1.819620792512305005e-02,-5.385892503491179761e-02,-2.458316034827308719e-02,8.276727577568696037e-02,-1.199229272296342963e-01,-1.162864798359726087e-01,-3.793296396546417398e-02,-8.385736973603616362e-02,-9.518012335680951785e-02,5.143234362517328240e-01,7.158734798431396484e-01
2.174045000000000005e+00,1.974305188220537854e-01,7.477429468947298374e-02,1.137401580810546875e+00,1.669087697562091511e-03,-4.406255339960907236e-02,-8.412137764870930567e-03,1.343826465123975078e-01,1.308181061601728645e-01,-5.310931056737899780e-02,-3.755488183404802338e-02,-1.086968181672498257e-01,-1.574146667954929787e-02,1.849068425812774863e-01,-2.091061217951913354e-01,-1.578748390965589721e-01,4.603365704631378480e-02,-1.584290016796740808e-01,-1.346026247157802724e-01,5.152687157336736101e-01,7.413034439086914062e-01
2.199256999999999795e+00,2.004616964736579687e-01,7.725263855911099209e-02,1.137210726737976074e+00,1.246664401578369925e-03,-4.592729450917309997e-02,-8.093959762002889136e-03,1.177030703119813365e-01,1.293456752474544669e-01,-5.305061861872673035e-02,-3.320272864402187829e-02,-9.968029597545575993e-02,2.854846609622274309e-02,1.324373961585362247e-01,-2.352759039986007661e-01,-1.125305906940366890e-01,-5.328209095773640304e-03,-1.580994136621731161e-01,-9.027142615410897741e-02,5.152510520731773402e-01,7.430744171142578125e-01
2.224600999999999829e+00,2.050101153105395591e-01,8.019463298180498634e-02,1.136727452278137207e+00,1.146831609602631677e-03,-4.657999152610559079e-02,-5.203592359945385937e-03,1.106697478818208097e-01,1.310252963823846928e-01,-5.384269729256629944e-02,-7.605385212377714470e-03,3.817474227201549108e-02,1.357802098400929525e-01,1.210007359467962923e-01,-1.070316410488650477e-01,-5.356226977393408611e-02,-2.128168135683604356e-02,-2.816655263231207865e-02,-3.940962458022451848e-02,5.145033267664151921e-01,6.991531848907470703e-01
2.252295999999999854e+00,2.078943344916822644e-01,8.214381930641519169e-02,1.136394739151000977e+00,2.476579059227682240e-03,-4.523376507219878384e-02,-3.011063757237586458e-03,1.155277586428880565e-01,1.352593610902492194e-01,-5.608735233545303345e-02,9.069420318401638648e-02,1.031316079043860107e-01,9.646073545652017467e-02,3.691913678987884806e-02,-4.549113562017252643e-02,8.249495160501098268e-02,-1.015792855330166222e-01,1.430991332451938061e-02,9.058353181835994417e-02,5.143203623549875703e-01,6.794419288635253906e-01
2.273689000000000071e+00,2.120638068779635010e-01,8.505949002256069091e-02,1.135941743850708008e+00,6.012279080169332691e-03,-4.078190983400586944e-02,9.347159223649370574e-05,9.643779615121643445e-02,1.187280351078725815e-01,-5.124082788825035095e-02,1.406686310388401417e-01,1.479482212774297090e-01,7.684194823591179724e-02,-6.354200359998324332e-02,-2.246418793419236934e-02,1.753301688511871570e-01,-1.614684765233180830e-01,2.676276362813763063e-02,1.747812894685663865e-01,5.138682830044426497e-01,6.771610975265502930e-01
2.300583000000000045e+00,2.147084673169727675e-01,8.700126329214781518e-02,1.135594487190246582e+00,8.843710671706304580e-03,-3.721591289366932287e-02,1.611477959043483565e-03,1.029816517925491171e-01,1.236047369728723172e-01,-5.052092298865318298e-02,1.542714400785687445e-01,1.797117849582856031e-01,6.392890408520604528e-02,-7.701745024032514986e-02,1.274550932673609166e-02,1.916349121664884803e-01,-1.692604071394397669e-01,2.213729683225350645e-02,1.870602964842135174e-01,5.136007560296110830e-01,6.638019084930419922e-01
2.325107000000000035e+00,2.181475310048432148e-01,9.053570778459028856e-02,1.135010600090026855e+00,1.221984194204932608e-02,-3.320550634124286304e-02,2.031036190427659704e-03,8.622636755982276968e-02,1.257300099871269394e-01,-5.997075140476226807e-02,9.461242426351793022e-02,1.183624996140133084e-01,-1.958285940681538106e-02,-1.262674951533054313e-01,1.069776589763851704e-01,2.225416098718371316e-01,-1.992029523585055473e-01,1.083678633297918553e-01,2.168458881188050635e-01,5.137860144600581158e-01,6.367077827453613281e-01
2.350028000000000006e+00,2.203010939709742766e-01,9.288601065551753411e-02,1.134556651115417480e+00,1.332554618675710519e-02,-3.177003978582604304e-02,1.723156367181566395e-03,8.259073066893861392e-02,1.177402401406017068e-01,-5.854872986674308777e-02,3.724584505660509526e-02,5.514099133925397939e-02,-1.364411016242571099e-02,-1.429131565647001334e-01,8.474045585384830381e-02,2.218530679564911512e-01,-2.013082534807471013e-01,7.243979142892767453e-02,2.171243972973024572e-01,5.137662886936931184e-01,6.410920619964599609e-01
2.375446000000000168e+00,2.232798503676443336e-01,9.650183727963702884e-02,1.133701324462890625e+00,1.321557635541224622e-02,-3.052885825362583461e-02,8.308185064533901709e-04,8.170543826797996290e-02,1.289477651661251889e-01,-7.272481173276901245e-02,-4.993914063923677454e-02,3.846755702433488772e-02,-5.320066733965491540e-02,1.924071570725812141e-01,-1.254134716277030825e-01,-1.228055950602552626e-01,1.160353961667138778e-01,-1.477346448736437667e-01,-1.249475255673527518e-01,5.157335406194900607e-01,6.864848136901855469e-01
2.399605999999999906e+00,2.251050560504277154e-01,9.893572599613889573e-02,1.133012890815734863e+00,1.192919109263057206e-02,-3.119223347148825098e-02,2.236530758632504501e-04,7.330351481415819936e-02,1.247797010180292515e-01,-6.610549241304397583e-02,-8.374331552532128520e-02,-7.077255718104515092e-02,-4.445329379193189295e-02,1.411838116728599268e-01,-1.464580081021116253e-01,-1.302898084682947710e-01,6.284159730703353652e-02,-1.577427806228267615e-01,-1.308285381354219179e-01,5.161807334863162122e-01,7.364356517791748047e-01
2.424656000000000144e+00,2.276444449885262344e-01,1.030244525419746066e-01,1.131868720054626465e+00,9.909130723224329751e-03,-3.239226252581328680e-02,8.915921743408716793e-04,5.941562339508586754e-02,1.269291043250544426e-01,-6.568682193756103516e-02,-3.352592363434982875e-02,1.891157099788410081e-02,7.522686989494827003e-02,8.648709571781730554e-02,-4.045152971352564131e-02,-3.652883204288116109e-02,-1.168990135627967844e-02,-3.453443880038921387e-02,-3.906913763041792303e-02,5.155276926194901632e-01,7.002227306365966797e-01
2.448758999999999908e+00,2.291747464077282248e-01,1.056901700294690660e-01,1.131177425384521484e+00,1.030470905465865131e-02,-3.252260074693524849e-02,2.442922171125960773e-03,7.177180066470791042e-02,1.231350072227119924e-01,-7.030837237834930420e-02,4.512942118953518211e-02,1.966894047959404437e-02,7.065205405566206409e-02,-5.633632903677741888e-02,1.630004284177028473e-01,1.693501750217057678e-01,-1.486083051664164045e-01,1.500121337174537828e-01,1.626099241177363652e-01,5.161794569563894486e-01,7.137168645858764648e-01
2.473456000000000099e+00,2.314059030892462177e-01,1.095655784694077595e-01,1.130121231079101562e+00,1.287611347448217383e-02,-3.071618939463749420e-02,5.087877168329146826e-03,5.890324996935809160e-02,1.180754036705980586e-01,-6.573894619941711426e-02,9.449518242966158110e-02,4.337279871348263816e-02,7.078187710294285562e-02,-1.090516419107936952e-01,1.608244772066097783e-01,2.026871978961694021e-01,-1.831757332937548610e-01,1.519745307195634054e-01,1.885159431524767726e-01,5.160095763131330449e-01,7.213742733001708984e-01
2.501208999999999794e+00,2.328031696591978394e-01,1.120832257524503189e-01,1.129345893859863281e+00,1.489340568818119624e-02,-2.958160760119987742e-02,5.553398178249846495e-03,4.746863275745644151e-02,1.187420479410200430e-01,-6.958411633968353271e-02,1.187861883723578954e-01,5.011497069413856781e-02,1.155178644336363712e-02,-1.459892953571511609e-01,2.065190537174571572e-01,2.397318762748893994e-01,-2.113774666391478041e-01,1.963292105031676227e-01,2.242733437016415365e-01,5.160395420422156931e-01,7.059928178787231445e-01
2.523632000000000097e+00,2.345198431973523345e-01,1.162255648057573948e-01,1.128113746643066406e+00,1.630154846494124080e-02,-3.055106336568691461e-02,4.697341283093070530e-03,5.491842761429817366e-02,1.188025575511297977e-01,-6.869432330131530762e-02,1.622715685884430423e-02,-9.056497275983937945e-02,-5.565382364097340440e-02,-1.141628656920743862e-01,4.067270526717628454e-02,-1.347397080529697810e-01,-1.733359304411963286e-01,2.314180476653000806e-02,-1.477310969888134540e-01,5.163239793156526591e-01,7.197222709655761719e-01
2.549383000000000177e+00,2.354313252576862581e-01,1.191292157888600017e-01,1.127222895622253418e+00,1.582589739281450511e-02,-3.214183578471918601e-02,3.745901132077733564e-03,3.505477580424641582e-02,1.194655998349317683e-01,-7.285581529140472412e-02,-3.263277179045664250e-02,-9.434937512261165615e-02,-4.993098295236152173e-02,4.063103190537258741e-02,-1.684629764458196177e-01,-1.586624508244419973e-01,-2.463490478726720195e-02,-1.524266757065201594e-01,-1.692933206806041813e-01,5.170496872471370686e-01,7.413690090179443359e-01
2.573557000000000095e+00,2.365136381381499897e-01,1.235258046217867917e-01,1.125761747360229492e+00,1.322649241073196869e-02,-3.595641001821903160e-02,4.344496893355032086e-03,4.508742484522013788e-02,1.268451417685331761e-01,-7.562569528818130493e-02,-1.277005831042834216e-01,-1.419501141230070096e-01,3.169870487892075678e-02,1.957537535960996722e-01,-2.208324071120180143e-01,-7.337657700591986021e-02,1.032149428170757444e-01,-1.991620830551835697e-01,-8.572821374481996715e-02,5.175206880927791797e-01,7.485120296478271484e-01
2.599457000000000129e+00,2.370833826788953380e-01,1.264715039135040353e-01,1.124837398529052734e+00,1.125081898731009750e-02,-3.764587073197689371e-02,6.283194628448285357e-03,2.426561794152043428e-02,1.227684806554123487e-01,-6.383342295885086060e-02,-7.855984613449752685e-02,-4.203173729039256373e-02,1.188158171252536865e-01,1.623637608699640134e-01,-2.014449876693772401e-01,5.230769872686048816e-02,6.165318439222403774e-02,-1.444922463667148715e-01,3.425121640626828390e-02,5.165977994805206475e-01,7.457572221755981445e-01
2.623228999999999811e+00,2.380318137084134478e-01,1.307404751291594558e-01,1.123443245887756348e+00,1.001499226990643782e-02,-3.664436812035054558e-02,8.810302020571647574e-03,2.407686824220000785e-02,1.193388838958032577e-01,-6.258649379014968872e-02,2.646951771179077012e-02,1.147402579635836695e-01,6.495046069576985992e-02,-6.510174792812156719e-03,-1.747163963790879793e-01,2.261137510309058629e-01,-1.157394023347038253e-01,-1.333398871981808509e-01,2.011213986261559117e-01,5.160282479523775612e-01,7.150834798812866211e-01
2.649210000000000065e+00,2.386499088117143008e-01,1.334527385477084771e-01,1.122527360916137695e+00,1.099592303921155013e-02,-3.420797574872236346e-02,9.831460381170664675e-03,3.462108900465162009e-02,1.147450936492995649e-01,-7.102777808904647827e-02,6.408462109405947682e-02,1.242847067895996166e-01,5.466038187245573360e-02,-3.985220898979953408e-02,-1.281732248440891897e-01,2.339816546708367584e-01,-1.406128775971566547e-01,-1.143864873140986865e-01,2.063490835791160771e-01,5.160302167113868244e-01,6.781277656555175781e-01
2.673703000000000163e+00,2.395574489696656595e-01,1.373283077998389834e-01,1.121194958686828613e+00,1.473005332264130246e-02,-2.864993426448814162e-02,9.989746592893311572e-03,1.995555275375859861e-02,1.078106626028674242e-01,-6.146365404129028320e-02,1.223896068372868490e-01,2.100592181354146160e-01,-2.218884363901825821e-02,-1.195877836238692093e-01,-4.855669295746986580e-02,2.422353508110431375e-01,-1.938841604382703920e-01,-5.278208801311023990e-02,2.143054112496251551e-01,5.150792659646291627e-01,6.627802848815917969e-01
2.701090999999999909e+00,2.401266852433266152e-01,1.398585821590009048e-01,1.120177507400512695e+00,1.671694021862035751e-02,-2.441085776707074828e-02,9.272656418552127633e-03,2.849311271885398428e-02,1.033808823788842368e-01,-6.304058432579040527e-02,8.952388459597726555e-02,2.116747202396566108e-01,-3.818345252291328873e-02,-1.387498987933561134e-01,-1.095199203276025629e-01,2.496149736920660611e-01,-2.000372840178046285e-01,-1.564564945619887626e-01,2.240903431285433955e-01,5.147838420331841691e-01,6.365679502487182617e-01
2.723793000000000131e+00,2.411690031159250680e-01,1.436064756247828200e-01,1.118598699569702148e+00,1.815287903157628696e-02,-1.833681860483449277e-02,7.749648859846303139e-03,2.686119875478009886e-02,1.122359310969605617e-01,-7.494946569204330444e-02,1.842066183701372706e-02,1.784458313605924162e-01,-4.681874936863084091e-02,-1.165854620516547646e-01,-1.116406323232057018e-01,2.460916847028523646e-01,-1.822214861409547082e-01,-1.933850183244107401e-01,2.252128870235917679e-01,5.140522579606336961e-01,5.439827442169189453e-01
2.748752000000000084e+00,2.418083608662402184e-01,1.461478901693093746e-01,1.117388963699340820e+00,1.757124189139042461e-02,-1.501157812515496737e-02,6.768800091204951741e-03,1.591531721121581394e-02,1.072383340706251631e-01,-7.624555379152297974e-02,-1.506424746073231798e-02,1.163070789047005033e-01,-6.975594109011992727e-02,3.695704723400874969e-03,-9.955016654574935786e-02,1.998309956308651214e-01,-5.929082633274772307e-02,-1.924381727565423472e-01,1.817776873925640857e-01,5.175491519891259884e-01,7.236008644104003906e-01
2.775360000000000049e+00,2.427693152436704305e-01,1.498770357451151003e-01,1.115455508232116699e+00,1.544217568290769810e-02,-1.059278539246477635e-02,5.015273592508862066e-03,1.946419546820292445e-02,1.128172095167141731e-01,-7.556960731744766235e-02,-8.701925368543381167e-02,1.575785661202656895e-01,-6.911130282984610795e-02,2.487878769030121007e-01,-8.772121085289877329e-02,-1.011665085582065526e-01,1.611573492177164058e-01,-2.178815171116605942e-01,-1.139632485571620280e-01,5.176099323383895889e-01,7.211736440658569336e-01
