timestamp,x,y,z,roll,pitch,yaw,vx,vy,vz,p,q,r,psp,qsp,rsp,pres,qres,rres,thrust_sp, thrust_res
0.000000000000000000e+00,6.941522567942419106e-03,-2.397316732373907730e-02,1.004467964172363281e+00,1.175402979917981351e-02,-4.784096376088120550e-03,1.761523102681364708e-02,-1.529307048504993313e-02,6.775211213699525691e-03,-8.638099767267704010e-03,-1.592313126886686983e-02,1.843533935019962128e-02,-4.218449163402550328e-02,-2.798655592888876220e-01,1.698263197712785999e-01,-2.763636210392410308e-02,-1.938559234142303300e-01,2.087810039520263672e-01,-7.704473733901977262e-02,5.258985084235334728e-01,7.344487905502319336e-01,-6.488350629806518555e-01,9.839480359823325273e+01,0.000000000000000000e+00
1.405999999999999958e-02,6.941522567942419106e-03,-2.397316732373907730e-02,1.004467964172363281e+00,1.175402979917981351e-02,-4.784096376088120550e-03,1.761523102681364708e-02,-1.529307048504993313e-02,6.775211213699525691e-03,-8.638099767267704010e-03,-1.592313126886686983e-02,1.843533935019962128e-02,-4.218449163402550328e-02,-2.809526413030893899e-01,1.720314928274673805e-01,-2.764256244580191868e-02,-1.938559234142303300e-01,2.087810039520263672e-01,-7.704473733901977262e-02,5.259023041381000185e-01,7.344487905502319336e-01,-6.268268823623657227e-01,1.018164278440861636e+02,0.000000000000000000e+00
2.920899999999999885e-02,6.782699392537180384e-03,-2.400124889475680617e-02,1.004663467407226562e+00,1.179398636797681504e-02,-4.840436656929902881e-03,1.775801450120113867e-02,-1.611990060402104449e-02,1.175604706919401374e-02,-6.988791283220052719e-03,1.667722613345908045e-02,2.154133733433393968e-02,-2.935560436143617655e-02,-2.753017005667168782e-01,1.711458790139800401e-01,-2.544628478180567532e-02,-1.919089615345001276e-01,2.090085268020629716e-01,-7.525602579116820456e-02,5.257849256285330730e-01,7.352442741394042969e-01,-7.250100374221801758e-01,9.805296629065244929e+01,0.000000000000000000e+00
4.984199999999999742e-02,6.626793417646600209e-03,-2.400105693097615706e-02,1.004868149757385254e+00,1.172866455037814039e-02,-4.894683600692451009e-03,1.783707578538836630e-02,-1.449732816735904359e-02,1.632618051078861196e-02,-7.352931424975395203e-03,2.195119871328858607e-03,1.926341683712681991e-03,1.237211606291578093e-02,-2.714594430873639719e-01,1.728363369114263026e-01,-2.866606137577798474e-02,-1.913998425006866455e-01,2.097085833549499345e-01,-7.869797945022583008e-02,5.258280192747040171e-01,7.368447780609130859e-01,-3.827387094497680664e-01,1.011533804002179977e+02,0.000000000000000000e+00
6.858400000000000607e-02,6.301009604079236930e-03,-2.402306293987281627e-02,1.005254507064819336e+00,1.178581967513831104e-02,-4.759345322395969191e-03,1.746056355477200797e-02,-8.393756409747777855e-03,3.075575316861466849e-03,-6.073034368455410004e-03,-2.987551785229695597e-02,-1.959143284473146077e-02,-1.971277415184566340e-02,-2.903588332487495594e-01,1.776673878217381042e-01,-3.985240608094359205e-02,-1.984200775623321533e-01,2.093507766723632646e-01,-8.880579471588134766e-02,5.257095602339230123e-01,7.369002103805541992e-01,-6.760991811752319336e-01,1.012941505990119566e+02,0.000000000000000000e+00
9.536000000000000032e-02,5.675105966695886267e-03,-2.397151029590419494e-02,1.005878090858459473e+00,1.164467153862474950e-02,-4.413845616050737775e-03,1.736158741845631598e-02,-1.588428663676738281e-02,8.709930783019063927e-03,-1.199476886540651321e-02,-5.127808151724222441e-02,-1.806599698986662700e-02,1.385057323077410613e-02,-2.748850341765769478e-01,1.720569268454122114e-01,-2.835046884366851372e-02,-1.904617488384246771e-01,2.087729573249816895e-01,-7.704391479492186945e-02,5.260393965520335779e-01,7.336351871490478516e-01,-5.341750383377075195e-01,-5.047174434351175165e+01,0.000000000000000000e+00
1.181529999999999941e-01,5.155431407715558613e-03,-2.383022015758348364e-02,1.006159543991088867e+00,1.030026873357538578e-02,-5.232808212632278355e-03,1.799596289935693344e-02,-1.776164897663846248e-02,1.894381377067052771e-02,-1.852681115269660950e-02,-6.355351391396774074e-02,-3.597643252053846219e-02,3.095834600539692019e-02,-2.469921583356173289e-01,1.658431352147509974e-01,-2.614734365138127181e-02,-1.787910282611846757e-01,2.085741698741912786e-01,-7.662874460220336914e-02,5.265162946271251254e-01,7.343084812164306641e-01,-7.053960561752319336e-01,8.350830384935291306e+01,0.000000000000000000e+00
1.424529999999999963e-01,3.946005207590237360e-03,-2.335541585102385298e-02,1.005995631217956543e+00,5.773660877230736739e-03,-7.700026292556172436e-03,1.886444375479482544e-02,-1.939263515196660431e-02,2.212835272895807490e-02,-2.856661751866340637e-02,-1.872424468964895838e-01,-1.294043529604531617e-01,2.596943964640445815e-02,-1.994504841713609922e-01,1.455188009144117445e-01,-2.730252228553958771e-02,-1.619880080223083385e-01,2.061982870101928544e-01,-8.019822835922241211e-02,5.272391690966333755e-01,7.322657108306884766e-01,-7.601269483566284180e-01,9.812736754128140149e+01,0.000000000000000000e+00
1.718179999999999985e-01,2.201613055338937693e-03,-2.240462485937825751e-02,1.004937767982482910e+00,-4.135398514391272831e-03,-1.370225589910289976e-02,2.087469480763697038e-02,-3.489725508750365218e-02,2.402541455373643706e-02,-4.805952683091163635e-02,-2.752598866319880822e-01,-1.619997453504184448e-01,2.418884472284759876e-02,-7.360023717383541719e-02,9.672685265541075550e-02,4.469169677960641018e-03,-1.022309660911560059e-01,1.967268526554107611e-01,-5.388475656509399137e-02,5.283535762772735289e-01,7.096548080444335938e-01,-7.651544809341430664e-01,1.008597915489341688e+02,0.000000000000000000e+00
1.920900000000000107e-01,1.239658255323281650e-03,-2.178169359893101717e-02,1.004031896591186523e+00,-9.741625557228088608e-03,-1.714509266878017080e-02,2.198420984303720363e-02,-1.778076842741188948e-02,3.839276910588256680e-02,-7.043404132127761841e-02,-2.902210474301109011e-01,-1.812539576433672139e-01,6.825904838326499191e-02,-2.192395912032546468e-02,9.892899990081785444e-02,-2.208893030134022328e-02,-9.820121526718139648e-02,1.989289999008178600e-01,-8.344305753707885465e-02,5.301595756639516654e-01,7.132217884063720703e-01,-7.260068655014038086e-01,9.754051085760472972e+01,0.000000000000000000e+00
2.201950000000000018e-01,-1.052839251960300789e-03,-2.127397114744479165e-02,1.001506090164184570e+00,-2.083416935986002333e-02,-2.459411904690789186e-02,2.436191658290751821e-02,-4.867830926841725664e-02,3.848185545429871901e-02,-8.101534843444824219e-02,-2.259888463355559374e-01,-1.654080806871603415e-01,4.293940295495445036e-02,2.318017840385437067e-01,-1.757997274398805099e-02,1.971880304804509432e-01,1.318017840385437012e-01,8.242002725601195456e-02,1.297894477844238337e-01,5.297234829956103397e-01,6.333274841308593750e-01,-7.747691869735717773e-01,1.079992175336192446e+02,0.000000000000000000e+00
2.438309999999999922e-01,-2.982001459763407216e-03,-2.083448495232130548e-02,9.989261627197265625e-01,-2.732109293831846281e-02,-3.000519991809458276e-02,2.584045100194952427e-02,-2.583275220004992850e-02,4.917952768828350030e-02,-1.078162640333175659e-01,-2.097039220231865786e-01,-1.969125814394088181e-01,5.240831674210897489e-02,2.525583982467651256e-01,3.083819150924682617e-02,2.541326648807168964e-01,1.525583982467651201e-01,1.308381915092468317e-01,1.828906416893005260e-01,5.325794520603784887e-01,6.686476469039916992e-01,-1.118463635444641113e+00,8.834348355526414309e+01,0.000000000000000000e+00
2.695529999999999871e-01,-4.995848278255572011e-03,-2.016834489508393530e-02,9.958710670471191406e-01,-3.076990233007123252e-02,-3.417969668913500847e-02,2.687731054098770750e-02,-5.822709975785361064e-02,4.881881303333481664e-02,-1.166388019919395447e-01,-5.031367621843588905e-02,-1.418650703766399512e-01,2.728861692744456377e-02,2.873050212860107644e-01,-1.520847439765930231e-01,2.727143519046456577e-01,1.873050212860107311e-01,-5.208474397659301758e-02,1.990805804729461614e-01,5.331370445638126121e-01,6.459619998931884766e-01,-7.331014871597290039e-01,9.985431940121659977e+01,0.000000000000000000e+00
2.945380000000000220e-01,-7.132895996283105701e-03,-1.948576162396857894e-02,9.923917651176452637e-01,-2.974843788472896974e-02,-3.758522171502542975e-02,2.563730046632594836e-02,-4.375247176770323543e-02,5.359116119895977748e-02,-1.262289881706237793e-01,9.174395319362527168e-02,-8.101655222051271088e-02,-7.527873873348529810e-02,2.890458106994628906e-01,-1.531528353691101185e-01,2.639684956086716383e-01,1.890458106994628851e-01,-5.315283536911010603e-02,1.937537670135497936e-01,5.344659327479360789e-01,6.610159873962402344e-01,-1.472486972808837891e+00,6.334892538197940581e+01,0.000000000000000000e+00
3.202220000000000066e-01,-8.592412244791333698e-03,-1.903123904581594319e-02,9.898177385330200195e-01,-2.635953095182415329e-02,-3.892015413907645716e-02,2.415901244177389925e-02,-5.292898836876992752e-02,5.718057811783140015e-02,-1.355819553136825562e-01,2.271081853151479535e-01,-9.501225373204716385e-02,-5.368510603792605446e-02,2.830969929695129617e-01,-1.763261914253234919e-01,2.467332955891369251e-01,1.830969929695129284e-01,-7.632619142532348633e-02,1.805226087570190319e-01,5.353320579452964800e-01,6.541924476623535156e-01,-8.771897554397583008e-01,9.250946864705420580e+01,0.000000000000000000e+00
3.419579999999999842e-01,-1.009291056082224115e-02,-1.845173773615088261e-02,9.870372414588928223e-01,-2.199414083655792940e-02,-3.852988863081874271e-02,2.199800254239963476e-02,-6.281310560181095626e-02,6.159258877432843143e-02,-1.557064354419708252e-01,2.191720214571571124e-01,6.064282349183547360e-02,-9.606596336431302841e-02,2.686848759651184193e-01,-1.880766630172729381e-01,2.276717964944957595e-01,1.686848759651184138e-01,-8.807666301727294644e-02,1.672174930572509766e-01,5.371055780475020303e-01,6.530925035476684570e-01,-9.341632127761840820e-01,1.066607190223501931e+02,0.000000000000000000e+00
3.670740000000000114e-01,-1.246101139661554176e-02,-1.735916572899155047e-02,9.824275970458984375e-01,-1.350521844791207834e-02,-3.600784794045019943e-02,1.896158609263022890e-02,-6.131155365836919724e-02,6.935028794925787721e-02,-1.653051823377609253e-01,3.010117271282452545e-01,1.144980097514649575e-01,-1.020455516269929697e-01,2.317334413528442383e-01,-1.584304571151733398e-01,1.977619024588675722e-01,1.317334413528442327e-01,-5.843045711517333429e-02,1.451673030853271318e-01,5.383501093433037399e-01,6.566758155822753906e-01,-8.558036088943481445e-01,1.115042657099946979e+02,0.000000000000000000e+00
3.933159999999999989e-01,-1.390310618926800940e-02,-1.705681802868530203e-02,9.790375232696533203e-01,-7.426468078226670239e-03,-3.316664545472680636e-02,1.686300916739916569e-02,-6.437098335770262414e-02,6.719822675600464756e-02,-1.764760315418243408e-01,2.899680654105016853e-01,1.428943414402107648e-01,-4.464034347685734427e-02,1.746426586970307171e-01,-1.109476685523986816e-01,1.792844492954838442e-01,9.388639926910399836e-02,-1.094766855239868129e-02,1.322104454040527177e-01,5.396659090320520269e-01,6.622444391250610352e-01,-1.092268109321594238e+00,1.001759666696108297e+02,0.000000000000000000e+00
4.200490000000000057e-01,-1.589333216708227123e-02,-1.703472142566009317e-02,9.736751317977905273e-01,2.290837923876371234e-03,-2.739867603867662815e-02,1.342957768232809490e-02,-7.725698527785142267e-02,6.904657836117791825e-02,-1.904133409261703491e-01,3.277163593962177379e-01,2.470512188155948863e-01,-1.167207756984533773e-01,-5.320288462823836995e-02,-6.659233570098885280e-03,1.349816831569946585e-01,-7.283046841621398926e-02,9.334076642990112027e-02,9.698862433433531882e-02,5.415646644524249043e-01,6.804621219635009766e-01,-9.215096235275268555e-01,9.539223877871729940e+01,0.000000000000000000e+00
4.419049999999999923e-01,-1.730840669851299932e-02,-1.694835975081595419e-02,9.699058532714843750e-01,7.993777498018597369e-03,-2.378018251470415123e-02,1.183090656385879166e-02,-7.217008964356362577e-02,7.638404459050726625e-02,-1.986037045717239380e-01,2.622964890487134437e-01,1.876986677452460450e-01,-5.054576952171981746e-02,-1.470692678833109002e-01,8.185042738914488636e-02,9.504327267446921468e-02,-1.351381301879882868e-01,1.818504273891448919e-01,6.127363443374633789e-02,5.430714521792069371e-01,7.058132886886596680e-01,-1.458911776542663574e+00,7.519232996880894859e+01,0.000000000000000000e+00
4.691730000000000067e-01,-1.958931673015735717e-02,-1.659508367158954098e-02,9.639714360237121582e-01,1.601822514674670905e-02,-1.860938714108439918e-02,8.978591973768270187e-03,-7.800893912802306374e-02,6.851301842830082034e-02,-2.073056250810623169e-01,2.207860989948275399e-01,1.485897561994027893e-01,-1.073723143559349308e-01,-2.617686904467676490e-01,9.530823230743407093e-02,3.871579789190505994e-02,-1.909971177577972357e-01,1.953082323074340765e-01,1.273648738861083915e-02,5.445637676210917100e-01,7.191295623779296875e-01,-1.284311890602111816e+00,1.213872010993554795e+02,0.000000000000000000e+00
4.963409999999999767e-01,-2.206790956823807479e-02,-1.594779322699270765e-02,9.580038189888000488e-01,2.027278366358188991e-02,-1.487138495899920088e-02,7.188964059966979243e-03,-9.148026926681476767e-02,8.159512595955119296e-02,-2.227879166603088379e-01,7.450529409407165293e-02,9.888944163745215510e-02,-1.216218402711179321e-02,-2.820455608075042586e-01,9.500746726989744984e-02,2.575514628361431566e-02,-1.951085686683654841e-01,1.950074672698974554e-01,4.625755548477173025e-03,5.463949678325907833e-01,7.231688499450683594e-01,-8.782883882522583008e-01,1.024581377769872006e+02,0.000000000000000000e+00
5.203489999999999505e-01,-2.387309653965115006e-02,-1.514863671070349610e-02,9.538218379020690918e-01,2.064514051183587856e-02,-1.381091101502973650e-02,6.217780598836504698e-03,-9.077817656896541854e-02,7.987736226204100731e-02,-2.298840731382369995e-01,-1.867264639508359192e-02,3.674442614917298316e-02,-5.297053307584608656e-02,-2.881564618394866217e-01,9.835761785507202148e-02,2.269881729115208469e-02,-1.962204337120056208e-01,1.983576178550720270e-01,4.336237907409667969e-03,5.474446538978884336e-01,7.238032817840576172e-01,-1.146313071250915527e+00,2.020689472739144890e+02,0.000000000000000000e+00
5.425020000000000397e-01,-2.578508932769402184e-02,-1.429540226910027204e-02,9.495624899864196777e-01,1.876000873528324217e-02,-1.382833372876768330e-02,5.730505002911853371e-03,-1.025626672932836991e-01,8.210299559180356255e-02,-2.326218783855438232e-01,-1.297691876931029442e-01,-4.083927271657870027e-03,-4.584669230274715512e-03,-2.702820425986729447e-01,9.801545739173889160e-02,2.107354058107451314e-02,-1.931809365749359020e-01,1.980154573917388972e-01,4.069787263870239084e-03,5.481748977657699973e-01,7.226229906082153320e-01,-1.191583991050720215e+00,1.057168278601894542e+02,0.000000000000000000e+00
5.668490000000000473e-01,-2.874706671899728352e-02,-1.280038298260799748e-02,9.429706335067749023e-01,1.323338500236859692e-02,-1.519695233778550758e-02,5.089465772638721713e-03,-9.470319312015160196e-02,8.926035197944418020e-02,-2.354304790496826172e-01,-2.300871735915051564e-01,-7.489015587064269674e-02,-4.028742658390949832e-02,-2.175398998711243204e-01,1.042965829372405895e-01,6.433738981410098631e-03,-1.823787868022918590e-01,2.042965829372405950e-01,-8.618545532226561459e-03,5.491403010845317123e-01,7.252460718154907227e-01,-1.017105698585510254e+00,1.594535119099940061e+02,0.000000000000000000e+00
5.938780000000000170e-01,-3.196323906089264949e-02,-1.101192139005220498e-02,9.363675713539123535e-01,5.357417133604265407e-03,-1.740061213082633174e-02,4.894854429289594022e-03,-1.103061646480965607e-01,8.633599389482238262e-02,-2.375692725181579590e-01,-2.808397731924044960e-01,-9.003824955182523904e-02,-1.544166288517025143e-02,-1.191594454477267612e-01,1.007311046123504639e-01,2.476247580212427232e-02,-1.332152009010314775e-01,2.007311046123504694e-01,1.048620343208312919e-02,5.497747267676927896e-01,7.108496427536010742e-01,-4.806648492813110352e-01,5.590186426198236802e+01,0.000000000000000000e+00
6.186369999999999925e-01,-3.425396756530570130e-02,-9.485744605709917066e-03,9.318881630897521973e-01,-1.081327627117430477e-04,-1.931476483924710053e-02,4.929328797587216940e-03,-1.164492799882917012e-01,9.011287749652946433e-02,-2.357554584741592407e-01,-2.489337244387070380e-01,-9.733081955972397448e-02,1.372226762621256077e-02,-2.328324980612489492e-02,9.744257330894467994e-02,4.917249575626305574e-02,-7.718235254287719727e-02,1.974425733089446855e-01,3.498426675796508650e-02,5.499923471319037027e-01,6.971091032028198242e-01,-1.396187663078308105e+00,9.357531283684552648e+01,0.000000000000000000e+00
6.456509999999999749e-01,-3.783349666721146781e-02,-7.159138116102664595e-03,9.253075718879699707e-01,-7.681575170239760171e-03,-2.254146778523113959e-02,4.693682428475972820e-03,-1.093632504365310565e-01,9.498579019429602421e-02,-2.374574691057205200e-01,-2.299042517849140266e-01,-8.538802604845216471e-02,-6.205794389414587969e-02,1.401131153106689453e-01,9.797470569610594593e-02,5.257386314014893258e-02,4.011311531066894670e-02,1.979747056961059515e-01,3.937069773674010953e-02,5.507684185236866314e-01,6.925926208496093750e-01,-1.331372857093811035e+00,1.025791482385123174e+02,0.000000000000000000e+00
6.683989999999999654e-01,-4.028322570939200931e-02,-5.523181753751875422e-03,9.209499359130859375e-01,-1.145871338623063312e-02,-2.490808462179017191e-02,4.884096451345265946e-03,-1.187285114648391482e-01,9.673640933034166611e-02,-2.381802350282669067e-01,-1.690147648789592505e-01,-1.110262293941705752e-01,3.083950153799971602e-02,2.085283637046814187e-01,9.229248166084288996e-02,2.161750628320043693e-02,1.085283637046813993e-01,1.922924816608428955e-01,8.075004816055298199e-03,5.512591149726692175e-01,6.838750839233398438e-01,-8.712583780288696289e-01,1.158567696076394640e+02,0.000000000000000000e+00
6.940619999999999568e-01,-4.279226413807610957e-02,-3.856725702892588835e-03,9.166058897972106934e-01,-1.390834218937401535e-02,-2.740215442208526753e-02,4.599181666569262389e-03,-1.176062439247793079e-01,9.040631182622732576e-02,-2.233324050903320312e-01,-8.777806025963021119e-02,-1.771385062440611891e-01,-2.177545798214687925e-02,2.287722826004028320e-01,7.958562374114988569e-02,8.717946464064538215e-02,1.287722826004028265e-01,1.795856237411498912e-01,7.462527751922606867e-02,5.507421148901585628e-01,6.809446811676025391e-01,-1.035812973976135254e+00,-6.790884163414995101e+01,0.000000000000000000e+00
7.194500000000000339e-01,-4.687159677868129454e-02,-1.308452286833996104e-03,9.102555513381958008e-01,-1.424253509470778216e-02,-3.074322544541185920e-02,4.208919745304952505e-03,-1.278856275626022720e-01,9.472986167160539484e-02,-2.341104894876480103e-01,2.595835810921702513e-02,-9.928029430417220635e-02,9.149322365274480465e-03,2.594462394714355247e-01,1.848604679107665461e-02,7.843337447721836220e-02,1.594462394714355469e-01,1.184860467910766602e-01,6.697295308113097867e-02,5.520831108736169446e-01,6.721613407135009766e-01,-1.190559744834899902e+00,1.011165930013483063e+02,0.000000000000000000e+00
7.457500000000000240e-01,-5.110452027669942082e-02,1.346994499609018448e-03,9.042804837226867676e-01,-1.024430027650081836e-02,-3.439692886337697431e-02,3.976225479902847394e-03,-1.254152224969201368e-01,1.007591894616025330e-01,-2.227698564529418945e-01,1.887746599728051811e-01,-1.405729500447690794e-01,1.002168930121608535e-02,2.592088460922241100e-01,-1.133960962295532254e-01,8.537216860843610186e-03,1.592088460922241044e-01,-1.339609622955322162e-02,-2.602136135101318273e-03,5.520569452636056029e-01,6.757926940917968750e-01,-1.147286772727966309e+00,9.918812324014106707e+01,0.000000000000000000e+00
7.683550000000000102e-01,-5.406627430385692323e-02,3.132128619146357529e-03,9.003701806068420410e-01,-6.090394227306432200e-03,-3.623060112338971628e-02,3.246387765010291544e-03,-1.424660400951412720e-01,9.822593183808210615e-02,-2.209121584892272949e-01,2.242885105346693053e-01,-9.437729565348497440e-02,-3.757161825334035671e-02,2.551115036010742076e-01,-1.987501382827758789e-01,-5.431329141633448043e-02,1.551115036010742021e-01,-9.875013828277587336e-02,-6.371852159500121515e-02,5.525985507026852650e-01,6.814868450164794922e-01,-9.402538537979125977e-01,8.390073236811599600e+01,0.000000000000000000e+00
7.925740000000000007e-01,-5.704442109924608151e-02,4.999293086796328077e-03,8.965047597885131836e-01,-1.070974680087612456e-03,-3.767407715238446642e-02,2.853155382448036795e-03,-1.513586693167751351e-01,9.977144233476208102e-02,-2.175848931074142456e-01,2.813693736476812202e-01,-3.004358103211965045e-02,1.177007454728421117e-02,2.174870663611817856e-01,-2.253688097000122181e-01,-8.757996980126304953e-02,1.417821049690246582e-01,-1.253688097000122126e-01,-9.634487628936767856e-02,5.529170987961024020e-01,6.808462142944335938e-01,-9.049814939498901367e-01,9.211583801499720892e+01,0.000000000000000000e+00
8.207940000000000236e-01,-6.175232071117534721e-02,7.775337912856407005e-03,8.908386826515197754e-01,7.142754109995781871e-03,-3.757760175306801287e-02,2.560709248918354233e-03,-1.443197552686506790e-01,1.050627273906406672e-01,-2.164046019315719604e-01,2.720354006706737771e-01,5.332289953553060596e-02,-3.203472884806580351e-02,1.096382582788321125e-01,-2.065932393074035867e-01,-1.033896357616910650e-01,8.173710107803344727e-02,-1.065932393074035672e-01,-1.120625853538513156e-01,5.535148362078153861e-01,6.807028055191040039e-01,-1.147617697715759277e+00,1.018407638080989130e+02,0.000000000000000000e+00
8.434859999999999580e-01,-6.493941556172831697e-02,9.662116351378799428e-03,8.871123194694519043e-01,1.254731770789929875e-02,-3.560678224024727001e-02,3.516556983969608158e-03,-1.516953611600658502e-01,1.116304033349935915e-01,-2.186707854270935059e-01,2.980936821610012943e-01,1.043479382503220282e-01,1.002825873864981038e-01,2.971032290568219672e-02,-1.909343600273132324e-01,-1.032846591205884429e-01,3.136067390441894115e-02,-9.093436002731322687e-02,-1.151175856590270913e-01,5.542442219204587461e-01,6.810505390167236328e-01,-9.624141454696655273e-01,7.132289120021331996e+01,0.000000000000000000e+00
8.689310000000000089e-01,-6.988321589300475201e-02,1.255404844143711077e-02,8.816868662834167480e-01,2.034561426488719349e-02,-3.006393247621752529e-02,4.648145904644985019e-03,-1.673847563625643353e-01,9.898330258185476793e-02,-2.189044505357742310e-01,2.831095882543172015e-01,2.131198773758192500e-01,2.794551720654375043e-02,-1.287794926151090424e-01,-1.401337862014770397e-01,-8.991880886712759480e-02,-6.828830838203429898e-02,-4.013378620147704801e-02,-1.052925109863281222e-01,5.549507864504807930e-01,6.812590360641479492e-01,-1.186644196510314941e+00,1.069924613103377027e+02,0.000000000000000000e+00
8.927410000000000068e-01,-7.321147331697026861e-02,1.445288071986790962e-02,8.782237768173217773e-01,2.439979562984638875e-02,-2.543394063003368011e-02,6.084327444824217876e-03,-1.575690683663848457e-01,1.095888598331412195e-01,-2.285020649433135986e-01,1.320775012529207537e-01,3.095309482446018667e-01,1.121987573082735834e-01,-2.213732116213907863e-01,1.853974461555479847e-02,-8.999356496276998685e-02,-1.453662872314453181e-01,1.185397446155548040e-01,-1.095200300216674777e-01,5.562908712512847353e-01,6.883919239044189453e-01,-1.163727879524230957e+00,9.382518164725210852e+01,0.000000000000000000e+00
9.197650000000000547e-01,-7.811807673621852521e-02,1.741674933441843959e-02,8.731910586357116699e-01,2.923912337859601793e-02,-1.840032295209703683e-02,8.083228147997315385e-03,-1.639283077952682077e-01,1.083882743754739086e-01,-2.223323732614517212e-01,1.568922667559085049e-01,2.342610451530292015e-01,9.105609835591459145e-02,-2.963041901588440163e-01,6.539648771286010742e-02,-3.255299397914354631e-02,-1.963041901588439830e-01,1.653964877128601130e-01,-5.767121315002440851e-02,5.568301349339177531e-01,7.054483890533447266e-01,-5.019676685333251953e-02,-9.424290747915362587e+00,0.000000000000000000e+00
9.441310000000000535e-01,-8.137056716287570379e-02,1.942762913463659535e-02,8.699194192886352539e-01,2.989682384182758973e-02,-1.395723777069246552e-02,9.395912124132375573e-03,-1.712350685423486008e-01,1.024033310770324640e-01,-2.185843735933303833e-01,-3.603913161813589866e-02,1.958477138288133856e-01,8.619161772605948846e-02,-3.051422476768493874e-01,8.838781118392943781e-02,4.811002950057327587e-02,-2.051422476768493541e-01,1.883878111839294434e-01,1.950105428695678503e-02,5.573318697704998659e-01,7.180371284484863281e-01,-1.067670464515686035e+00,8.395406248515544689e+01,0.000000000000000000e+00
9.708579999999999988e-01,-8.640621226673081412e-02,2.248162704148081240e-02,8.651925325393676758e-01,2.812628995627966186e-02,-9.330859532903801323e-03,1.136842609350737290e-02,-1.687982427436545418e-01,1.095582273411980501e-01,-2.236193418502807617e-01,-1.351907176752071282e-01,1.504803728463502410e-01,9.162618615867884619e-02,-2.997371643580534206e-01,1.074129343032836914e-01,9.800197377958419498e-02,-2.052662551403045543e-01,2.074129343032836970e-01,6.416612863540649414e-02,5.585945151407110121e-01,7.331709861755371094e-01,-9.499379396438598633e-01,1.220638269592936211e+02,0.000000000000000000e+00
9.977139999999999898e-01,-8.983597453094906149e-02,2.453101235941532177e-02,8.619653582572937012e-01,2.468995840023294891e-02,-8.049624366639251960e-03,1.208092724365873206e-02,-1.749526999386946391e-01,9.906590896726315265e-02,-2.073661684989929199e-01,-2.331662226817820260e-01,2.542077837715409766e-02,-3.033798384382697857e-03,-2.831971977917802086e-01,1.088237941265106090e-01,1.023873522017278576e-01,-2.043217062950134222e-01,2.088237941265106146e-01,6.677709817886352817e-02,5.580111501121032269e-01,7.337474822998046875e-01,-9.972211122512817383e-01,-1.051675303867586848e+02,0.000000000000000000e+00
1.022297000000000011e+00,-9.342447978100211492e-02,2.710864190683944311e-02,8.586453199386596680e-01,1.985056949436389898e-02,-7.829291481667999264e-03,1.260132254775869418e-02,-1.776039364847673829e-01,1.113829669720097504e-01,-2.088426202535629272e-01,-2.647406020727810505e-01,1.177352737948003832e-02,2.232195819070770249e-02,-2.257286444815670423e-01,1.130852699279785156e-01,7.490863847852674562e-02,-1.905708432197570634e-01,2.130852699279785212e-01,3.796765208244323730e-02,5.585880122912368906e-01,7.293932437896728516e-01,-1.319320321083068848e+00,3.130618572113178288e+01,0.000000000000000000e+00
1.042477000000000098e+00,-9.725213400348346748e-02,3.013858764478877239e-02,8.553151488304138184e-01,1.413888950304412889e-02,-8.940595547424212697e-03,1.242651624803502164e-02,-1.707284594000201550e-01,1.062186761183056966e-01,-2.067485898733139038e-01,-3.050400508444917058e-01,-6.743346446645193115e-02,-3.388462505079972015e-02,-1.707288966485213111e-01,1.141645729541778398e-01,4.980225801583197665e-02,-1.692710459232330267e-01,2.141645729541778453e-01,1.362497806549072162e-02,5.589317656392917000e-01,7.268899679183959961e-01,-1.075694441795349121e+00,4.686169566902570693e+01,0.000000000000000000e+00
1.072527999999999926e+00,-1.030300923996254892e-01,3.462524910387770882e-02,8.504474163055419922e-01,4.962840932717725584e-03,-1.129384680542200314e-02,1.208493652773649438e-02,-1.805589667302029133e-01,1.110707850171606947e-01,-2.092545479536056519e-01,-2.994474538712280642e-01,-8.788639895138276870e-02,-1.657619093190458104e-03,-4.919094154160456867e-02,1.126813828945159857e-01,-6.585156983333857739e-02,-1.144047439098358071e-01,2.126813828945159912e-01,-1.007854700088500893e-01,5.595863551290718441e-01,7.159013748168945312e-01,-1.166292786598205566e+00,1.176178382624788696e+02,0.000000000000000000e+00
1.093866999999999923e+00,-1.068693402241471385e-01,3.763695536898546690e-02,8.472378253936767578e-01,-9.540816970937913977e-04,-1.321933462586666330e-02,1.164528029831843510e-02,-1.818354484994061104e-01,1.124649742137532049e-01,-1.939475089311599731e-01,-2.640279936586120146e-01,-7.963088317914414349e-02,-2.725701170079921840e-02,1.267204165458679366e-01,1.109008610248565507e-01,-1.021626355228363037e-01,2.672041654586792062e-02,2.109008610248565563e-01,-1.356076240539550726e-01,5.590373345193399013e-01,7.146265506744384766e-01,-1.249988675117492676e+00,1.031276329194318464e+02,0.000000000000000000e+00
1.120200000000000085e+00,-1.107490193268952511e-01,4.070954092987744133e-02,8.440882563591003418e-01,-6.554825659987067836e-03,-1.542649842685595019e-02,1.176013751839287240e-02,-1.875801756022066058e-01,1.164850402204440083e-01,-1.976124197244644165e-01,-2.726947647015489640e-01,-1.054728976543343605e-01,5.099380586761965289e-02,2.091961622238159291e-01,1.098339855670928955e-01,-1.294566251973190696e-01,1.091961622238159096e-01,2.098339855670929011e-01,-1.629786014556884599e-01,5.597660107559292442e-01,7.108097076416015625e-01,-4.912935495376586914e-01,8.548905187846743559e+01,0.000000000000000000e+00
1.149605999999999906e+00,-1.150850856179520126e-01,4.410803052949897884e-02,8.410471677780151367e-01,-1.092583487439499103e-02,-1.796774537528933458e-02,1.168343662499784011e-02,-1.866627557058917197e-01,1.165016358235180099e-01,-1.910053342580795288e-01,-2.065382423543018486e-01,-1.215156986636763137e-01,-3.175006910747546485e-02,2.501158714294433594e-01,1.050839543342590165e-01,-1.265620796398277681e-01,1.501158714294433538e-01,2.050839543342590221e-01,-1.596312761306762640e-01,5.595958740311910429e-01,6.974025964736938477e-01,-1.352458119392395020e+00,1.118728227176085852e+02,0.000000000000000000e+00
1.171292000000000000e+00,-1.194200122841361789e-01,4.757156779804298102e-02,8.381091356277465820e-01,-1.420996122876668627e-02,-2.033593082206364144e-02,1.278469533580257195e-02,-1.894706392957410668e-01,1.250542698927549490e-01,-1.823825538158416748e-01,-1.451023223076874091e-01,-8.869869145423520118e-02,7.736958799904751494e-02,2.861287117004394642e-01,1.005253612995147539e-01,-8.756500500079091032e-02,1.861287117004394587e-01,2.005253612995147594e-01,-1.236021280288696206e-01,5.593955871084884679e-01,6.902341842651367188e-01,-1.017835974693298340e+00,6.947792050160947497e+01,0.000000000000000000e+00
1.194700000000000095e+00,-1.261224832301534038e-01,5.274252833637477905e-02,8.339396119117736816e-01,-1.543575582744942561e-02,-2.430656933608710268e-02,1.482380044015359222e-02,-1.963456228855101626e-01,1.255995309665537685e-01,-1.706717461347579956e-01,6.844357973484647972e-02,-1.536786220385249202e-01,9.885646340687524736e-02,3.026878833770751953e-01,4.213608503341673139e-02,2.010665362450439475e-03,2.026878833770751898e-01,1.421360850334167369e-01,-3.969855308532714566e-02,5.590821861282552208e-01,6.842218637466430664e-01,-1.062639594078063965e+00,1.004736468042075046e+02,0.000000000000000000e+00
1.219071999999999933e+00,-1.329839212124233894e-01,5.794279660110702307e-02,8.301659822463989258e-01,-1.244386664753698545e-02,-2.838617923705100132e-02,1.737896573935276967e-02,-2.109105842944216935e-01,1.237374400875048269e-01,-1.560274511575698853e-01,1.748564118372231135e-01,-1.255031977909529806e-01,7.346024406853761402e-02,3.078995585441589578e-01,-2.050428509712219349e-01,-9.681312261400690233e-04,2.078995585441589244e-01,-1.050428509712219155e-01,-5.015065670013427873e-02,5.586485922179412755e-01,6.844904422760009766e-01,-1.249296784400939941e+00,1.016928697220006228e+02,0.000000000000000000e+00
1.242032999999999943e+00,-1.402198973243346525e-01,6.262656662243959449e-02,8.268567323684692383e-01,-5.850365892660362895e-03,-3.215360205739248300e-02,1.978832145847278859e-02,-2.095837301620482873e-01,1.327999580724623374e-01,-1.425039321184158325e-01,2.591261103433527557e-01,-1.112990847669049349e-01,3.737536131353947494e-02,3.035377502441406472e-01,-2.354985475540161133e-01,-4.460305830267149996e-02,2.035377502441406139e-01,-1.354985475540161077e-01,-1.013382911682128851e-01,5.582192227745755853e-01,6.837134361267089844e-01,-7.702168226242065430e-01,9.699480606367740165e+01,0.000000000000000000e+00
1.270391000000000048e+00,-1.502166068144640265e-01,6.854992093413871113e-02,8.230416178703308105e-01,5.770580766936862956e-03,-3.553600473666951309e-02,2.190312256707516517e-02,-2.205130775164143853e-01,1.265332246527404170e-01,-1.320353299379348755e-01,3.297285339487084910e-01,-4.585241377484375325e-02,1.199994976218429418e-02,2.740657336088438978e-01,-2.892930030822754017e-01,-8.494984474993441670e-02,1.806920528411865290e-01,-1.892930030822753962e-01,-1.488796234130859431e-01,5.576821047158090350e-01,6.623761653900146484e-01,-7.916699647903442383e-01,9.330836172332475087e+01,0.000000000000000000e+00
1.293131000000000030e+00,-1.552736055679089233e-01,7.150345116334186346e-02,8.211823701858520508e-01,1.208689210078610528e-02,-3.469491932500101683e-02,2.276355109423246897e-02,-2.192604630996492499e-01,1.303983173160738473e-01,-1.340257227420806885e-01,3.403492946351299175e-01,1.134748403793612997e-01,7.058728259666857685e-02,2.138926615248716856e-01,-2.881063222885131836e-01,-1.002696910227553750e-01,1.555676221847534235e-01,-1.881063222885131780e-01,-1.673147320747375433e-01,5.582029354311922598e-01,6.606891155242919922e-01,-1.416442751884460449e+00,1.031527680155774931e+02,0.000000000000000000e+00
1.319406000000000079e+00,-1.627626634522394977e-01,7.585217720295601984e-02,8.187803030014038086e-01,2.159662940959966582e-02,-3.042613298532503840e-02,2.414516132511626556e-02,-2.159758777422738085e-01,1.349460739887991811e-01,-1.335725784301757812e-01,2.993585756609439819e-01,2.054960098347610453e-01,2.356810963873653963e-02,7.964892832416470281e-02,-2.683264970779418723e-01,-1.073836957643492240e-01,7.689564228057861606e-02,-1.683264970779418945e-01,-1.791167020797729548e-01,5.587334803251458037e-01,6.667916774749755859e-01,-1.168206095695495605e+00,1.053373425499035392e+02,0.000000000000000000e+00
1.344100000000000072e+00,-1.677935060598010342e-01,7.859398042699637654e-02,8.171409964561462402e-01,2.757049266437030383e-02,-2.560788762337651292e-02,2.585864994039348275e-02,-2.263679280876754185e-01,1.309858188883378516e-01,-1.312131285667419434e-01,2.970638877761337393e-01,2.821559991066991402e-01,1.255731609275275718e-01,-5.342663875451441474e-02,-2.442596793174743597e-01,-1.056613859725272775e-01,-1.669982671737670760e-02,-1.442596793174743541e-01,-1.825364828109741211e-01,5.589693531039203744e-01,6.660555601119995117e-01,-1.130729317665100098e+00,8.017337519463497131e+01,0.000000000000000000e+00
1.369588000000000028e+00,-1.753014821014935720e-01,8.263654105778749093e-02,8.148369193077087402e-01,3.642756344607366720e-02,-1.662636675906048467e-02,2.795041429540307334e-02,-2.312798818837528969e-01,1.236954844065158710e-01,-1.208534240722656250e-01,2.988428153718665770e-01,3.420179042465716912e-01,7.194994507951256446e-02,-2.140676368197176327e-01,-2.093415021896362360e-01,-1.027258202171437984e-01,-1.189369082450866671e-01,-1.093415021896362305e-01,-1.856119394302368220e-01,5.589065054631506824e-01,6.781324148178100586e-01,-1.077433705329895020e+00,1.078843610725363078e+02,0.000000000000000000e+00
1.395688999999999957e+00,-1.827884983396709517e-01,8.654324277739931792e-02,8.125760555267333984e-01,4.236829648536305504e-02,-6.880294254256957842e-03,3.067437128940979363e-02,-2.201963278711200622e-01,1.224485061806882963e-01,-1.218588054180145264e-01,1.301065957522212213e-01,3.130615463769211293e-01,6.078353181115059983e-02,-2.928101837635040394e-01,8.128619790077207252e-02,-8.351574434585049000e-02,-1.928101837635040339e-01,1.812861979007720781e-01,-1.736098051071166826e-01,5.595702827271462620e-01,6.879093647003173828e-01,-1.425006031990051270e+00,1.034869964924228896e+02,0.000000000000000000e+00
1.418125000000000080e+00,-1.879742899981589332e-01,8.928348577992466228e-02,8.112045526504516602e-01,4.438533002429150692e-02,-3.276745026170591046e-04,3.264898017545793396e-02,-2.291483935834434660e-01,1.214502023981994805e-01,-1.214164867997169495e-01,8.690742363966758033e-02,3.130684312210396114e-01,1.091743535952706817e-01,-3.075255334377288707e-01,1.017288148403167614e-01,-6.029940002343514571e-02,-2.075255334377288652e-01,2.017288148403167669e-01,-1.556234836578369030e-01,5.602000385613498112e-01,7.030942440032958984e-01,-1.494277834892272949e+00,6.522618921497907252e+01,0.000000000000000000e+00
1.441427999999999932e+00,-1.932683924449907775e-01,9.211064386695101691e-02,8.097986578941345215e-01,4.394162156601161967e-02,5.789595744749576056e-03,3.446244506640223915e-02,-2.309281181643784986e-01,1.176284725723970581e-01,-1.137620732188224792e-01,-9.237900491310445383e-02,2.754650647911069949e-01,9.172598166156602228e-02,-3.066031038761138916e-01,1.147967517375945989e-01,-4.094770330095473532e-02,-2.066031038761138861e-01,2.147967517375946045e-01,-1.408131837844848466e-01,5.604006762841673428e-01,7.234858274459838867e-01,-1.044458746910095215e+00,9.084480811234953990e+01,0.000000000000000000e+00
1.469851999999999936e+00,-2.012306398444828892e-01,9.636759509446639338e-02,8.078424930572509766e-01,3.967091148975218640e-02,1.178971572336595663e-02,3.721821216524189707e-02,-2.358008803131020903e-01,1.206106387446309880e-01,-1.172453239560127258e-01,-1.867122256860140050e-01,1.201599352234463958e-01,1.064808316298565954e-01,-3.046683907508850320e-01,1.214410305023193304e-01,-5.220727920532225452e-02,-2.046683907508849987e-01,2.214410305023193359e-01,-1.522072792053222601e-01,5.613537885466116650e-01,7.395230531692504883e-01,-7.947336435317993164e-01,9.865804591903470566e+01,0.000000000000000000e+00
1.493781000000000025e+00,-2.064894193154933610e-01,9.913693815629574801e-02,8.066141009330749512e-01,3.505985338360641940e-02,1.287021736400162375e-02,3.874242932625697466e-02,-2.421662180613911031e-01,1.125913066504164034e-01,-1.010907813906669617e-01,-2.068129167430584336e-01,-1.493391749642372646e-02,8.396347803967578460e-02,-2.738491402938700858e-01,1.221502780914306419e-01,-7.570149898529052179e-02,-1.977980017662048229e-01,2.221502780914306474e-01,-1.757014989852905273e-01,5.606246513152127742e-01,7.410736083984375000e-01,-1.109523892402648926e+00,9.555865633784466695e+01,0.000000000000000000e+00
1.520065000000000000e+00,-2.149175102983651442e-01,1.033633609402744152e-01,8.049125075340270996e-01,2.641958897660064143e-02,1.191824816744446736e-02,4.043606694063614504e-02,-2.294212133192497505e-01,1.129503147602007179e-01,-1.048360988497734070e-01,-3.237130830794003322e-01,-6.987714010158775635e-02,2.681336376505657690e-02,-1.519976824355511458e-01,1.227763593196868896e-01,-8.701387643814084694e-02,-1.364587783813476507e-01,2.227763593196868952e-01,-1.870138764381408525e-01,5.612061097484593031e-01,7.381387948989868164e-01,-7.698737382888793945e-01,6.948642408712613872e+01,0.000000000000000000e+00
1.544462999999999919e+00,-2.211394246014957987e-01,1.064758670082702752e-01,8.038151860237121582e-01,1.985516739098162550e-02,1.021809579474042273e-02,4.226742290785730910e-02,-2.362421515537103667e-01,1.137390589193370688e-01,-1.007970944046974182e-01,-3.179094260548770423e-01,-9.254885047087127448e-02,1.130214288958032304e-01,-3.817862925957437453e-02,1.226495444774627630e-01,-9.849551916122434303e-02,-6.898477077484130304e-02,2.226495444774627686e-01,-1.984955191612243486e-01,5.612545250992159174e-01,7.358555793762207031e-01,-7.785493135452270508e-01,5.482451803362874188e+01,0.000000000000000000e+00
1.567010000000000014e+00,-2.303228994793433682e-01,1.111227642493942819e-01,8.022492527961730957e-01,1.032962151589990503e-02,6.818448151535871915e-03,4.457697395488503800e-02,-2.269945233757099945e-01,1.147186511922634600e-01,-7.813626527786254883e-02,-2.407516163480894755e-01,-1.192467908192248044e-01,5.134442272249602202e-02,1.413437776517967592e-01,1.221975207328796220e-01,-1.056828737258911077e-01,4.377586841583251676e-02,2.221975207328796276e-01,-2.056828737258911133e-01,5.600331348791908193e-01,7.352604866027832031e-01,-1.175048708915710449e+00,9.686469779017782855e+01,0.000000000000000000e+00
1.592049999999999965e+00,-2.363205228439689276e-01,1.140990195394392531e-01,8.013607859611511230e-01,4.682793900743506023e-03,4.297340836229013306e-03,4.636879802257277972e-02,-2.233590673190204712e-01,1.107113936209251082e-01,-8.788571506738662720e-02,-2.433375881402785879e-01,-1.518936119757205716e-01,1.232690966252435599e-01,1.953740596771240123e-01,1.214841067790984885e-01,-1.105437874794006348e-01,9.537405967712402066e-02,2.214841067790984941e-01,-2.105437874794006403e-01,5.610564404385075532e-01,7.370903491973876953e-01,-6.967409849166870117e-01,1.054929069384397451e+02,0.000000000000000000e+00
1.621118000000000059e+00,-2.451877117388123195e-01,1.185385104109818039e-01,8.001102209091186523e-01,-4.008586969652369646e-04,4.588712435464881167e-04,4.932586216854635552e-02,-2.353486379207714585e-01,1.105159239060862358e-01,-8.178498595952987671e-02,-1.111776937188111852e-01,-1.102032261704796456e-01,1.223644145403445099e-01,2.353839635848999079e-01,1.177805304527282659e-01,-1.066202878952026145e-01,1.353839635848999023e-01,2.177805304527282715e-01,-2.066202878952026201e-01,5.606350881912941508e-01,7.154608964920043945e-01,-1.016526579856872559e+00,9.932417377821855098e+01,0.000000000000000000e+00
1.643675999999999915e+00,-2.510548250651218893e-01,1.210615284595034646e-01,7.994126081466674805e-01,-1.214212858143798963e-03,-2.433619657126628866e-03,5.133074123938902861e-02,-2.266638894878423016e-01,1.038755699393739546e-01,-5.937181040644645691e-02,-2.120977365982477415e-03,-1.137550258799820413e-01,6.941784573605135067e-02,2.566485524177551381e-01,1.146205127239227073e-01,-9.889606237411496803e-02,1.566485524177551325e-01,2.146205127239227128e-01,-1.988960623741149736e-01,5.591277746347078637e-01,7.026205062866210938e-01,-6.430374383926391602e-01,1.011989377619819805e+02,0.000000000000000000e+00
1.669394999999999962e+00,-2.597738991431901567e-01,1.248104741680510776e-01,7.987353801727294922e-01,1.404642198507072108e-03,-6.858382476569335751e-03,5.426218680394155613e-02,-2.213841629253434362e-01,1.014241507204612786e-01,-4.790508374571800232e-02,1.263191073590052838e-01,-1.745771114496911802e-01,7.283530214700800753e-02,2.657606959342956321e-01,9.925717711448667213e-02,-9.072333574295043945e-02,1.657606959342956543e-01,1.992571771144866777e-01,-1.907233357429504450e-01,5.584473612214044813e-01,6.931898593902587891e-01,-1.132995486259460449e+00,1.024253118878361164e+02,0.000000000000000000e+00
1.693103999999999942e+00,-2.655157281453315310e-01,1.272472557178219166e-01,7.984111309051513672e-01,4.717445844095070548e-03,-9.468307076440307668e-03,5.667219619110642342e-02,-2.292054407236334135e-01,1.128734215043520339e-01,-4.329154267907142639e-02,2.375012795899257845e-01,-1.142450802655528008e-01,1.497346136466775335e-01,2.592056274414062389e-01,5.983421206474304199e-02,-9.185647964477539062e-02,1.592056274414062333e-01,1.598342120647430475e-01,-1.918564796447753962e-01,5.584254624583461224e-01,6.940867900848388672e-01,-8.127723932266235352e-01,1.095363242855739401e+02,0.000000000000000000e+00
1.718628000000000045e+00,-2.740890800510826231e-01,1.309125191209209171e-01,7.981048822402954102e-01,1.136285401523422917e-02,-1.298920185393281912e-02,5.950006551789117221e-02,-2.310726362549266610e-01,9.889992743246131535e-02,-3.497855365276336670e-02,2.812889869167539691e-01,-1.240917835441454758e-01,7.468253743888116081e-02,2.200431869391653028e-01,-1.765417337417602428e-01,-9.346573352813719593e-02,1.204790353775024303e-01,-7.654173374176025113e-02,-1.934657335281372015e-01,5.580518166855761297e-01,6.921184062957763672e-01,-7.380858659744262695e-01,1.008496077368816799e+02,0.000000000000000000e+00
1.744828000000000046e+00,-2.800195061789495510e-01,1.330449388250951603e-01,7.979241609573364258e-01,1.620193129768828649e-02,-1.518051970551015373e-02,6.158511204830295627e-02,-2.321151425771351418e-01,1.021549381270718815e-01,-3.016976080834865570e-02,2.395187427113835976e-01,-3.609236598107224553e-02,1.096162066272070718e-01,1.764845933219570950e-01,-2.409856319427490234e-01,-9.335458278656005859e-02,1.014696836471557645e-01,-1.409856319427490179e-01,-1.933545827865600641e-01,5.578808075655060650e-01,6.876721382141113281e-01,-9.835976362228393555e-01,1.008353258113271806e+02,0.000000000000000000e+00
1.768089999999999939e+00,-2.888726080290118792e-01,1.362032240692602481e-01,7.977458238601684570e-01,2.458981485592398597e-02,-1.756432877555869077e-02,6.456467062237504495e-02,-2.223128598216439211e-01,1.031128321536860237e-01,-2.851487323641777039e-02,2.834521488442802162e-01,-5.042075246032731717e-02,1.469082575927823653e-01,3.283811118391939676e-02,-2.823805570602416770e-01,-9.955427646636960670e-02,8.988082408905029297e-03,-1.823805570602416992e-01,-1.995542764663696123e-01,5.577342535673553980e-01,6.735076904296875000e-01,-5.677193403244018555e-01,-1.664242697882202293e+01,0.000000000000000000e+00
1.792653000000000052e+00,-2.946628842095693201e-01,1.382635456197796042e-01,7.976029515266418457e-01,2.971279412777528411e-02,-1.704659427852073250e-02,6.644357155575818241e-02,-2.381881907097484763e-01,1.014847533650626021e-01,-2.749766036868095398e-02,2.657128958198362034e-01,6.858491260349031116e-02,8.056988733021189231e-02,-7.691563222239841680e-02,-2.963231086730956920e-01,-1.049184083938598522e-01,-6.949440836906432828e-02,-1.963231086730956865e-01,-2.049184083938598577e-01,5.577356971457307910e-01,6.625391244888305664e-01,-7.443755865097045898e-01,1.088406968393648242e+02,0.000000000000000000e+00
1.818268999999999913e+00,-3.031684920757725665e-01,1.412624722448083125e-01,7.972804903984069824e-01,3.590277454737644813e-02,-1.303265903689476701e-02,6.968850987131421093e-02,-2.261258309272346501e-01,9.263480622674291620e-02,-3.694804757833480835e-02,1.163430206587954818e-01,1.843079136698264064e-01,1.412508173048362681e-01,-1.501670970542176020e-01,-2.856289982795715554e-01,-1.053083658218383623e-01,-9.926984310150145652e-02,-1.856289982795715221e-01,-2.053083658218383678e-01,5.587493159041635460e-01,6.708853244781494141e-01,-5.363503694534301758e-01,8.349779218822025939e+01,0.000000000000000000e+00
1.843634999999999913e+00,-3.090933471793316234e-01,1.438934978226441286e-01,7.970733642578125000e-01,3.888316579925573530e-02,-8.163338982921208853e-03,7.177522344374763497e-02,-2.245803217224675852e-01,9.683580936788170612e-02,-2.489124611020088196e-02,7.943535484997658880e-02,3.404642745597464826e-01,7.248360580499041417e-02,-1.741311217660659050e-01,-2.664269566535949485e-01,-1.061879873275756725e-01,-1.120184540748596219e-01,-1.664269566535949707e-01,-2.061879873275756780e-01,5.581499976315272837e-01,6.706001758575439453e-01,-5.926936864852905273e-01,8.910850572344058662e+01,0.000000000000000000e+00
1.871148000000000033e+00,-3.177869276789698216e-01,1.477154480794231617e-01,7.965163588523864746e-01,4.029031901879087663e-02,4.649683904764945197e-04,7.525004114378594511e-02,-2.206577947717357768e-01,9.442758137222280468e-02,-3.570834547281265259e-02,-2.536483022926390093e-02,2.565474073887747397e-01,1.254574691505647710e-01,-2.260644604409033920e-01,7.154536247253417969e-02,-1.026222586631774791e-01,-1.568949401378631481e-01,1.715453624725341852e-01,-2.026222586631774847e-01,5.592957186424392102e-01,6.784695386886596680e-01,-7.812515497207641602e-01,9.442782972828983645e+01,0.000000000000000000e+00
1.892120999999999942e+00,-3.234909427966455309e-01,1.502123274566025679e-01,7.960577011108398438e-01,3.956361883464810936e-02,7.031457996278023259e-03,7.776500536666047791e-02,-2.293970924468923256e-01,9.266393621572811823e-02,-2.829564362764358521e-02,-3.379947083223280163e-02,3.127809086800352190e-01,1.255226710234448873e-01,-2.477244711470610872e-01,1.073355436325073020e-01,-9.494620561599731445e-02,-1.867583334445953314e-01,2.073355436325073076e-01,-1.949462056159973200e-01,5.594884871793230907e-01,7.031217813491821289e-01,-7.256935834884643555e-01,9.761817693865694423e+01,0.000000000000000000e+00
1.917337999999999987e+00,-3.317912175148677312e-01,1.538438845942238509e-01,7.954156398773193359e-01,3.622592233798425931e-02,1.634824999829387338e-02,8.111383065386021385e-02,-2.197485108860008085e-01,8.469955467855849740e-02,-3.347369283437728882e-02,-1.656623612521624100e-01,2.598444566791541233e-01,8.020122691264350290e-02,-2.129041693650535749e-01,1.241946220397949219e-01,-1.120216488838195745e-01,-1.724448680877685436e-01,2.241946220397949274e-01,-2.120216488838195801e-01,5.607018061121573638e-01,7.381966114044189453e-01,-6.502717733383178711e-01,1.329321332496446360e+02,0.000000000000000000e+00
1.941786999999999930e+00,-3.371976950665912520e-01,1.564105728853064370e-01,7.950426936149597168e-01,3.318453637901633974e-02,2.106595559689550257e-02,8.361266685581644764e-02,-2.221480234735374593e-01,9.087424164690281747e-02,-2.748619392514228821e-02,-1.500028033815055395e-01,1.860296011552553253e-01,1.369697114857599263e-01,-1.777898444096167319e-01,1.258803188800811657e-01,-1.191178083419799638e-01,-1.667842626571655329e-01,2.258803188800811712e-01,-2.191178083419799694e-01,5.606371561549654547e-01,7.429943084716796875e-01,-8.411921262741088867e-01,9.045115015953584248e+01,0.000000000000000000e+00
1.969473999999999947e+00,-3.451917105942170494e-01,1.606259023277527287e-01,7.947218418121337891e-01,2.744329533830383236e-02,2.369163181540057117e-02,8.703870292311412238e-02,-2.171335360681346249e-01,8.284165766857502777e-02,-8.782242424786090851e-03,-1.736011229120870136e-01,-1.124372399371579949e-02,9.974608601443128719e-02,-1.132195404420075074e-01,1.263461291790008434e-01,-1.206659078598022461e-01,-1.382449507713317816e-01,2.263461291790008489e-01,-2.206659078598022516e-01,5.595451247126200789e-01,7.421866655349731445e-01,-6.171973943710327148e-01,1.017871331627359694e+02,0.000000000000000000e+00
1.995203999999999978e+00,-3.504448712047210646e-01,1.633630426867295760e-01,7.945977449417114258e-01,2.307072210556922534e-02,2.313261211704831233e-02,8.936766900241831235e-02,-2.119149101505427846e-01,8.804373813640327395e-02,-1.448645163327455521e-02,-2.362597103374373952e-01,-4.646464808819929931e-02,1.247358969024753572e-01,-4.356353987784151310e-02,1.265417158603668046e-01,-1.208207607269287109e-01,-1.046555042266845703e-01,2.265417158603668102e-01,-2.208207607269287165e-01,5.601279774766664277e-01,7.406661510467529297e-01,-1.247989296913146973e+00,9.289973199585040220e+01,0.000000000000000000e+00
2.017452000000000023e+00,-3.580981343778602555e-01,1.672986683360270788e-01,7.945832610130310059e-01,1.685325077002291713e-02,2.024137386128588290e-02,9.309305534567652307e-02,-2.114425187802439210e-01,8.526924769656570036e-02,-2.651353133842349052e-03,-1.713997972354084076e-01,-1.572012391814206766e-01,1.731509331072326185e-01,7.016873955726624090e-02,1.265702903270721214e-01,-1.183024168014526201e-01,-2.983126044273376465e-02,2.265702903270721269e-01,-2.183024168014526256e-01,5.594497656929250384e-01,7.368822097778320312e-01,-8.085774183273315430e-01,9.514344230801042102e+01,0.000000000000000000e+00
2.042673999999999879e+00,-3.630847542121199978e-01,1.695446535874169935e-01,7.945719361305236816e-01,1.305374120309755158e-02,1.774121757520852327e-02,9.552566437806774002e-02,-2.165172025538266154e-01,8.245443776778768608e-02,1.025926787406206131e-02,-1.390365348893315978e-01,-1.193489022314859899e-01,1.081785642232356570e-01,1.653399705886841042e-01,1.259583532810210904e-01,-1.148690462112426647e-01,6.533997058868408481e-02,2.259583532810210960e-01,-2.148690462112426702e-01,5.586885841181542522e-01,7.328965663909912109e-01,-9.701801538467407227e-01,9.683269152372714927e+01,0.000000000000000000e+00
2.069023000000000057e+00,-3.704158103504174848e-01,1.723264747064047753e-01,7.948113083839416504e-01,9.219267885155611741e-03,1.326363325803026072e-02,9.930610335255442289e-02,-1.977398352370820789e-01,7.544997298699811228e-02,3.974613733589649200e-03,-1.161724750714438481e-01,-1.701886073730627114e-01,1.321491010916096276e-01,2.305532693862915039e-01,1.243307709693908525e-01,-1.101794362068176103e-01,1.305532693862914984e-01,2.243307709693908580e-01,-2.101794362068176159e-01,5.591824885467190365e-01,7.290053367614746094e-01,-1.304798960685729980e+00,-7.908671258825344808e+01,0.000000000000000000e+00
2.092452000000000201e+00,-3.751067324893918031e-01,1.741115941616222240e-01,7.950600385665893555e-01,8.664173157161158059e-03,1.031647264227553151e-02,1.018663279672380462e-01,-2.013797943049783490e-01,8.347159556843555817e-02,1.959353871643543243e-02,3.744910564603744912e-02,-1.381511119523611553e-01,1.052659194180877861e-01,2.405755400657653698e-01,1.204107761383056419e-01,-1.020617485046386719e-01,1.405755400657653642e-01,2.204107761383056474e-01,-2.020617485046386774e-01,5.580089689619343041e-01,7.127768993377685547e-01,-8.327833414077758789e-01,8.866144252150657223e+01,0.000000000000000000e+00
2.119040000000000035e+00,-3.820111681097210221e-01,1.766807166444014643e-01,7.956725955009460449e-01,1.044298233821848963e-02,5.471472935369536827e-03,1.057057293860704655e-01,-1.961430263860301504e-01,7.238948764740731068e-02,3.392049670219421387e-02,1.237723538314103033e-01,-1.644812318765524750e-01,1.162666169885678419e-01,2.396179199218750056e-01,1.035399496555328147e-01,-7.087130546569822553e-02,1.396179199218750000e-01,2.035399496555328203e-01,-1.708713054656982311e-01,5.565528242508767098e-01,6.805269718170166016e-01,-8.666981458663940430e-01,7.819841233574744876e+01,0.000000000000000000e+00
2.144041000000000086e+00,-3.863411057643565960e-01,1.782401346279496868e-01,7.960983514785766602e-01,1.334924911448813999e-02,2.585952505267608004e-03,1.082098585159442933e-01,-1.946990847895200272e-01,7.190635856992051711e-02,2.945372834801673889e-02,1.746318605831075621e-01,-1.020927297023089542e-01,1.480809821024265394e-01,2.395523667335510143e-01,8.093169927597043678e-02,-7.773936986923216108e-02,1.395523667335510087e-01,1.809316992759704423e-01,-1.777393698692321666e-01,5.570192063745185163e-01,6.814415454864501953e-01,-9.728835821151733398e-01,9.673447340346235990e+01,0.000000000000000000e+00
2.169630999999999865e+00,-3.904517847369656236e-01,1.796570110259999575e-01,7.965694069862365723e-01,1.736003484743389030e-02,-1.392534727513439208e-04,1.103527195498996555e-01,-1.930790834465917760e-01,6.939179107756468512e-02,3.615283221006393433e-02,2.296435613543547916e-01,-9.505030985109884367e-02,7.797701831371950387e-02,2.103295922279357910e-01,-1.537255048751831610e-02,-8.465507030487059992e-02,1.103295922279357855e-01,8.462744951248168945e-02,-1.846550703048706055e-01,5.565914873796030671e-01,6.763961315155029297e-01,-1.123804211616516113e+00,3.205890671861303787e+01,0.000000000000000000e+00
2.202250999999999959e+00,-3.964762463552914395e-01,1.817108970368037091e-01,7.973425388336181641e-01,2.386590722115663338e-02,-4.110006466981674933e-03,1.135767956055592498e-01,-1.831302460760504680e-01,6.357300689469226607e-02,4.066978767514228821e-02,1.966659430641818085e-01,-1.250372964269457488e-01,8.284216938012170517e-02,7.717178614329235631e-02,-2.370888471603393444e-01,-9.536809921264646772e-02,1.289087533950805664e-02,-1.370888471603393388e-01,-1.953680992126464733e-01,5.563523783219165297e-01,6.760693788528442383e-01,-1.267344594001770020e+00,4.188602238698189240e+01,0.000000000000000000e+00
2.217381000000000046e+00,-3.984594345772515256e-01,1.823693804846480970e-01,7.975535392761230469e-01,2.627000824397976789e-02,-5.168695559128355654e-03,1.146348069297958849e-01,-1.852097957067221357e-01,6.366240409333416561e-02,4.085511341691017151e-02,2.434077626953874696e-01,-9.240715265325100125e-02,6.114148419469739998e-02,1.510648542784329140e-02,-2.639539241790771484e-01,-9.864990711212157093e-02,-3.618925809860229492e-02,-1.639539241790771429e-01,-1.986499071121215765e-01,5.564556928859103468e-01,6.741328239440917969e-01,-1.031472563743591309e+00,9.026019856090979943e+01,0.000000000000000000e+00
2.244625999999999788e+00,-4.062324106999393725e-01,1.847487537306327365e-01,7.984097599983215332e-01,3.580743084375004326e-02,-8.517412118995038028e-03,1.187113993780923860e-01,-1.796988049292553846e-01,5.357810368320833905e-02,4.434671625494956970e-02,2.354332616839926173e-01,-3.537038712946682234e-02,8.674951140321834897e-02,-1.215135306590049563e-01,-2.917797327041625755e-01,-9.839659929275512695e-02,-1.067006349563598550e-01,-1.917797327041625977e-01,-1.983965992927551325e-01,5.561008377123687341e-01,6.632895469665527344e-01,-1.299500823020935059e+00,3.614706863499998235e+01,0.000000000000000000e+00
2.266893000000000047e+00,-4.118212826611436506e-01,1.863776850998138390e-01,7.987884879112243652e-01,4.131955647944802329e-02,-7.480879314271327019e-03,1.221780289401797753e-01,-1.828069152291883770e-01,5.390941140871326198e-02,3.271320089697837830e-02,1.124033255986427449e-01,1.098505962416072429e-01,1.293711910834266232e-01,-1.800277609111547161e-01,-2.911233067512511985e-01,-9.934463500976561945e-02,-1.341351628303527888e-01,-1.911233067512512207e-01,-1.993446350097656250e-01,5.570572236963122759e-01,6.630686521530151367e-01,-8.920406103134155273e-01,8.957047922833274356e+01,0.000000000000000000e+00
2.293921000000000099e+00,-4.154218630682117164e-01,1.874251529767178570e-01,7.988843321800231934e-01,4.346445987277847145e-02,-4.360053583847500747e-03,1.243590676020566999e-01,-1.672556566487996832e-01,4.951387877934249754e-02,2.911929599940776825e-02,5.782536024826228499e-02,1.905606885066676026e-01,8.535396746662998746e-02,-2.028787112478471766e-01,-2.470695972442626953e-01,-9.757537841796873335e-02,-1.413565635681152399e-01,-1.470695972442626898e-01,-1.975753784179687389e-01,5.574395483568349574e-01,6.642074584960937500e-01,-1.508533596992492676e+00,1.727234971276291020e+01,0.000000000000000000e+00
2.320008000000000070e+00,-4.205976638108744337e-01,1.889043715508691434e-01,7.988295555114746094e-01,4.372497088780220864e-02,2.975349515611735995e-03,1.278281999696941063e-01,-1.632907577331161320e-01,4.881267673004727886e-02,2.613459527492523193e-02,-1.074056211939738853e-01,2.534695065102766653e-01,1.324777388647896958e-01,-2.228073824851080076e-01,9.005653858184814453e-02,-9.803786277770995539e-02,-1.637492537498474177e-01,1.900565385818481501e-01,-1.980378627777099609e-01,5.573631461559095390e-01,6.382203102111816406e-01,-8.112024068832397461e-01,9.486979077891385259e+01,0.000000000000000000e+00
2.342019000000000073e+00,-4.239405830836106559e-01,1.898364068876879640e-01,7.986960411071777344e-01,4.222991502784037565e-02,8.729493649836994607e-03,1.303093319256473648e-01,-1.559557639540445073e-01,5.001531255468769088e-02,2.671054750680923462e-02,-1.009926701549145323e-01,2.426096547228449862e-01,1.246932028071513904e-01,-2.015051996596053385e-01,1.145646333694457786e-01,-9.115835428237914484e-02,-1.560273885726928544e-01,2.145646333694457841e-01,-1.911583542823791504e-01,5.579297157275827646e-01,6.635600328445434570e-01,-1.493526339530944824e+00,5.994583143934474379e+01,0.000000000000000000e+00
2.370245000000000157e+00,-4.285016043161640753e-01,1.916029180719320824e-01,7.984740734100341797e-01,3.802951098774294547e-02,1.704562714070978480e-02,1.337431905811813371e-01,-1.643346882274454301e-01,3.286491839845647606e-02,2.459441497921943665e-02,-1.757282455836172708e-01,2.158322778859243229e-01,1.012938884040585907e-01,-1.699333176581542815e-01,1.240597069263458252e-01,-9.963996410369871382e-02,-1.444781899452209362e-01,2.240597069263458307e-01,-1.996399641036987194e-01,5.586474559298093556e-01,6.850317716598510742e-01,-5.772076845169067383e-01,7.327601111413514445e+01,0.000000000000000000e+00
2.394984000000000002e+00,-4.315146455933863701e-01,1.926327568822333858e-01,7.982869744300842285e-01,3.467465377389401804e-02,2.054358929536492795e-02,1.361375212128806689e-01,-1.545163301185696336e-01,3.682045657487695300e-02,2.586970292031764984e-02,-1.687179325009477704e-01,1.056161273411434232e-01,1.463935087308866345e-01,-1.085942173706322955e-01,1.255767107009887473e-01,-1.094689369201660156e-01,-1.123144268989562933e-01,2.255767107009887529e-01,-2.094689369201660212e-01,5.591510443780125517e-01,7.097182273864746094e-01,-5.722690820693969727e-01,1.031565451101885031e+02,0.000000000000000000e+00
