timestamp,x,y,z,roll,pitch,yaw,vx,vy,vz,p,q,r,psp,qsp,rsp,pres,qres,rres,thrust_sp, thrust_res
0.000000000000000000e+00,9.213243520747099388e-03,-1.392006033768777157e-02,9.860424995422363281e-01,7.687520012181582769e-03,-5.855784057338109250e-04,-2.908942559243454795e-03,1.076697801044554891e-02,1.376911463776832496e-02,9.734693914651870728e-03,-1.551897563702995392e-02,-1.117642529231593213e-02,1.836131592831538248e-02,-8.683730437793553414e-02,1.906661109360697492e-01,-1.347524259116200107e-01,-3.929278022383632385e-02,1.799894768013062807e-01,-1.265888744839094304e-01,5.261645010157727231e-01,7.487044334411621094e-01,-7.001245021820068359e-02,9.285867572874946063e+01,0.000000000000000000e+00
2.795900000000000121e-02,9.436384257596731190e-03,-1.403056801108147969e-02,9.860938191413879395e-01,7.448020143402058098e-03,-9.913776483487790614e-04,-3.213731799071029016e-03,3.030282944216186602e-03,4.891625734523434403e-03,1.621490344405174255e-02,-2.160439336316428982e-02,-3.632453807422398370e-03,-4.535627321322184546e-02,1.703939576844984705e-01,2.241442569707280952e-01,-2.352635754545039926e-01,2.256902876327240848e-01,2.237134410713835231e-01,-2.262645630261267971e-01,5.258789104279231186e-01,7.590993642807006836e-01,4.746869802474975586e-01,-3.903569906897094199e+01,0.000000000000000000e+00
4.927800000000000236e-02,9.559405451949753649e-03,-1.408231697038221479e-02,9.861195087432861328e-01,7.654338111704806109e-03,-1.538476935071919627e-03,-3.385676006739224420e-03,8.590840211629091616e-03,1.704410370678900374e-02,1.652958430349826813e-02,4.756443904091624958e-02,-4.900021387720526062e-02,-2.461995912064989661e-02,-2.315341865244067154e-01,1.571374966680625929e-01,1.925026436362400895e-02,-1.860180694440815574e-01,1.545204292630631415e-01,2.873482427492582425e-02,5.256007532852782216e-01,7.454245090484619141e-01,6.368502378463745117e-01,-3.175737777241907267e+01,0.000000000000000000e+00
7.752299999999999469e-02,9.962560406522453366e-03,-1.454033285648197518e-02,9.863080978393554688e-01,7.798420038958770589e-03,-1.615858312353779525e-03,-3.789161990989775575e-03,4.581764695733356665e-03,9.523201573060195019e-03,8.243115618824958801e-03,-2.457835360323144466e-02,2.496706260652597174e-03,2.827547135361273278e-02,-2.245651692651393083e-01,2.032293758428785901e-01,-4.588494442490409497e-02,-1.699459628255692856e-01,2.048663625236444019e-01,-3.527786008483746460e-02,5.255301238746530323e-01,7.093408107757568359e-01,-2.039791345596313477e-01,1.008083329037272904e+02,0.000000000000000000e+00
1.014069999999999971e-01,1.042115989339762600e-02,-1.556334786015596376e-02,9.865902066230773926e-01,9.702594960933843063e-03,-2.808991955831618981e-03,-3.103651974049270734e-03,-1.089689840044354196e-03,8.023954592847866094e-03,1.933832466602325439e-02,9.423182882284837636e-02,-7.754100349640900836e-02,-1.715273441381333364e-02,-2.740101548126273601e-01,1.403350911419407043e-01,5.361065711477957380e-02,-2.062255200649038278e-01,1.533765018691696791e-01,6.227563531597079399e-02,5.254457346068753809e-01,7.499971389770507812e-01,8.950245380401611328e-02,-9.501329305337583264e+01,0.000000000000000000e+00
1.249760000000000038e-01,1.068684437287603477e-02,-1.621353299488036137e-02,9.867238998413085938e-01,1.051186370981943910e-02,-4.276657052024734895e-03,-2.916094014653980437e-03,2.824925294413630893e-03,1.218109262016856681e-02,4.863179288804531097e-03,6.566373332522122686e-02,-5.554055777694564405e-02,-7.618281305690571999e-03,-2.819650389777494381e-01,1.510076480185351400e-01,8.000317149742666722e-02,-2.121000143438580288e-01,1.694133256388997977e-01,8.812747094352543775e-02,5.265162527348529187e-01,7.511866092681884766e-01,-2.172076702117919922e-02,1.049617026361203500e+02,0.000000000000000000e+00
1.486889999999999878e-01,1.106052635824069860e-02,-1.710017476500333769e-02,9.866747260093688965e-01,8.922535898332036031e-03,-7.474249353360606918e-03,-2.997839886803133069e-03,4.656720919259048699e-03,1.904860447545972044e-02,-9.570536203682422638e-03,-1.490207127731574266e-01,-1.390328692279121370e-01,3.651321956841551558e-02,-1.534824246803352943e-01,1.647270763053368947e-01,-2.280460107236181311e-01,-9.833184578842649182e-02,2.027676896901187686e-01,-2.197287703460207298e-01,5.276740256802449069e-01,7.559490203857421875e-01,-1.259239912033081055e-01,1.027400606651686417e+02,0.000000000000000000e+00
1.749130000000000129e-01,1.135371670413122189e-02,-1.770580646078802334e-02,9.861388206481933594e-01,4.508838219915008334e-03,-1.132775216730075307e-02,-3.632829712946650247e-03,1.745018482063515389e-04,1.263882368027983115e-02,-2.219054847955703735e-02,-2.358615219659315199e-01,-1.571743695068894831e-01,-6.834856090877200474e-02,2.212077266449686413e-02,1.534054788493429689e-01,-2.353697684723810579e-01,5.509522895232599887e-02,2.201268191912742200e-01,-2.252545647196668166e-01,5.286657394161011769e-01,7.563457489013671875e-01,1.532770395278930664e-01,1.115023805777837680e+02,0.000000000000000000e+00
1.992230000000000112e-01,1.115504194993579418e-02,-1.830456809691989595e-02,9.851452112197875977e-01,-1.982643565035427380e-03,-1.595856170071652258e-02,-4.118059966053966292e-03,-1.089707118258684791e-02,2.272761728057427072e-02,-3.552765026688575745e-02,-2.119694352161380635e-01,-1.977979182659985735e-01,-5.676768790358127040e-04,-1.719446106783967532e-01,1.196247844514841674e-01,-2.281035914147284960e-01,-1.898159319567949421e-01,2.196247844514841729e-01,-2.165455496811267422e-01,5.296531911572039952e-01,7.512269020080566406e-01,-1.196414232254028320e-01,4.854372878988431239e+01,0.000000000000000000e+00
2.234829999999999872e-01,1.072405728420028868e-02,-1.863650412784942714e-02,9.838503599166870117e-01,-9.299542402419870915e-03,-2.088296323782357078e-02,-2.305860133851478366e-03,-1.538579939551688001e-02,2.549346654245623900e-02,-5.094329640269279480e-02,-2.721570364121060348e-01,-1.799443582755246018e-01,1.137373079120901215e-01,-9.892401670191272589e-02,1.152951571972436751e-01,6.494281663709451646e-02,-1.648598083768166578e-01,2.152951571972436806e-01,7.165290521043428396e-02,5.306500482999505497e-01,7.364552021026611328e-01,-1.535617113113403320e-01,9.765633037536063910e+01,0.000000000000000000e+00
2.472169999999999923e-01,1.017812434608630044e-02,-1.893949442646239781e-02,9.825187325477600098e-01,-1.427929949369635340e-02,-2.675845525961917382e-02,2.240696582083145927e-04,-2.452062902712113732e-02,2.905908226471510744e-02,-4.921695962548255920e-02,-1.545964300366282074e-01,-2.334148205086062355e-01,7.300975210450404151e-02,8.165232465740281109e-02,-3.051435475156928367e-01,2.201336056809488073e-01,-1.834767534259719446e-02,-2.051435475156928034e-01,2.200266932529346686e-01,5.301512047918675030e-01,7.073225975036621094e-01,3.093022108078002930e-01,9.988011019552256187e+01,0.000000000000000000e+00
2.732990000000000141e-01,9.799462546511497618e-03,-1.921647927810629652e-02,9.809499979019165039e-01,-1.812736706729323882e-02,-3.192859665522318480e-02,2.693021764831771137e-03,-1.268681400638815328e-02,3.597206867714109607e-02,-6.324249505996704102e-02,-7.868545846823810086e-02,-2.024706905194681994e-01,8.340213386571235232e-02,2.196084471527001147e-01,-2.890470121726222419e-01,2.311848673483313799e-01,1.196084471527000953e-01,-1.890470121726222363e-01,2.243701660038813217e-01,5.314442634731081361e-01,7.124955654144287109e-01,2.262357473373413086e-01,9.387170206568906394e+01,0.000000000000000000e+00
3.008739999999999748e-01,1.004365683046574455e-02,-1.962028886740166053e-02,9.791358709335327148e-01,-2.075405803783960182e-02,-3.542653462244649276e-02,1.863591032200018205e-03,-2.053277128971764051e-02,3.379421201205422276e-02,-6.777913868427276611e-02,-1.068751218405125103e-01,-4.322885873016289737e-02,-8.527391477663698316e-02,3.062832935600329765e-01,-1.002285611407086885e-01,2.362380327794422474e-01,2.062832935600329709e-01,-2.285611407086894468e-04,2.320099642819343500e-01,5.321845705547124661e-01,7.236202955245971680e-01,1.028072834014892578e-02,2.773194431336952803e+01,0.000000000000000000e+00
3.225819999999999799e-01,1.026027076437502003e-02,-1.986026525391906133e-02,9.779610037803649902e-01,-2.116450253661161449e-02,-3.549613204678392364e-02,1.432301767747556909e-04,-2.531054359527684997e-02,3.680481349618523745e-02,-7.644896954298019409e-02,-8.939328749802445684e-03,3.010807765048430923e-02,-1.318102432807771451e-01,2.947532234697167741e-01,1.131554478150411103e-01,2.342174623043977444e-01,1.947532234697167408e-01,2.131554478150411158e-01,2.348185909843510111e-01,5.330399971873641674e-01,7.268042564392089844e-01,-8.218133449554443359e-02,9.194742604063220881e+01,0.000000000000000000e+00
3.504559999999999897e-01,1.064550463147050097e-02,-2.010585406822833210e-02,9.751122593879699707e-01,-1.821458019887896990e-02,-2.988995366253277552e-02,-4.360940121080014720e-03,-1.872775259888697155e-02,3.614952663587425036e-02,-8.874663710594177246e-02,1.680760890372707261e-01,1.848296743715601154e-01,-1.475195150996052584e-01,3.236989728207201322e-01,1.242660037053000821e-01,-2.046275457999648106e-01,2.236989728207201544e-01,2.242660037053000877e-01,-1.917123598177592758e-01,5.340642552191623427e-01,7.176929712295532227e-01,2.313061952590942383e-01,-2.440905386706373648e+01,0.000000000000000000e+00
3.729660000000000197e-01,1.073575108146099591e-02,-2.016857442152104885e-02,9.743847846984863281e-01,-1.662147027035956737e-02,-2.822142239949498865e-02,-5.485704370743471614e-03,-2.798198548944241110e-02,4.185353229059110558e-02,-9.094673395156860352e-02,2.403100819807447164e-01,1.896859462463940660e-01,-1.290897619145932040e-01,2.907493969231771391e-01,1.200538204122625907e-01,-1.976986356495656350e-01,1.907493969231771613e-01,2.200538204122625963e-01,-1.817406373188374391e-01,5.340683495828155714e-01,7.004699707031250000e-01,2.628815174102783203e-02,1.008100131302631155e+02,0.000000000000000000e+00
4.007220000000000226e-01,1.067451431368735340e-02,-2.020076541926893107e-02,9.712457656860351562e-01,-7.518313582276381184e-03,-2.437982392980786450e-02,-9.460976807905252528e-03,-3.752898612386685456e-02,4.410017402982866624e-02,-1.026710942387580872e-01,2.535800233785335811e-01,4.403195102027811919e-02,5.167094433285964079e-03,-1.447026717876197521e-01,1.039808889584222795e-01,-7.730432726556413225e-02,-2.104143209220810384e-01,2.039808889584222851e-01,-5.062603938013732902e-02,5.357987649790265650e-01,7.305718660354614258e-01,-2.114483118057250977e-01,9.766169207385910056e+01,0.000000000000000000e+00
4.250909999999999966e-01,1.007407539531966940e-02,-2.005812163314848323e-02,9.689877033233642578e-01,1.596408968443718997e-03,-2.504004400377923822e-02,-9.191143159554382436e-03,-5.860496609441545601e-02,3.617016873176715636e-02,-8.394670486450195312e-02,3.303121430562980243e-01,-7.662580784758783736e-02,1.515648905779402172e-02,-2.182448482864604578e-01,9.717642061612707938e-02,7.463610788973422394e-02,-2.182722960603647455e-01,1.971764206161270849e-01,1.002345946309062125e-01,5.349574886719085098e-01,7.432954311370849609e-01,-1.011830568313598633e-01,6.451446301289622909e+01,0.000000000000000000e+00
4.527430000000000065e-01,9.228395028433554470e-03,-1.972284134502425013e-02,9.665169715881347656e-01,1.006645924276797915e-02,-2.711466093708470027e-02,-7.993021026402979956e-03,-5.916005147634285227e-02,4.522041649908885297e-02,-1.048954799771308899e-01,3.203576798696953221e-01,-1.303476740146294610e-01,8.326468637243650273e-02,-2.642402827307971935e-01,1.016428887778800805e-01,1.544720362183103768e-01,-2.176878948187796758e-01,2.016428887778800860e-01,1.762681766169422459e-01,5.367874019336318359e-01,7.449033260345458984e-01,3.255776166915893555e-01,6.576321283847131838e+01,0.000000000000000000e+00
4.745030000000000081e-01,8.625179230751966325e-03,-1.940918899619993240e-02,9.648658633232116699e-01,1.312838811524435004e-02,-2.803833183296999820e-02,-8.057100273231476706e-03,-6.071637636680618511e-02,5.783898381693188678e-02,-1.199281215667724609e-01,1.004873476034060381e-01,-2.593810692758194425e-02,-1.038684023395963774e-02,-2.820326269147724885e-01,1.088643913580818745e-01,1.673184295068136096e-01,-2.243617380533253491e-01,2.088643913580818801e-01,1.890668691049753602e-01,5.381049869147235265e-01,7.440693378448486328e-01,-1.205843687057495117e-01,9.546620289723936992e+01,0.000000000000000000e+00
4.967799999999999994e-01,7.240580528899189135e-03,-1.894386194745846519e-02,9.618856906890869141e-01,1.375788849149429428e-02,-2.971908432533187927e-02,-9.147084903124991229e-03,-6.169577088827870454e-02,5.709825631043465716e-02,-1.201963946223258972e-01,-8.064877901252313908e-02,-5.016794414850440920e-02,-9.079762674862944249e-02,-2.710551789483741647e-01,-5.168126608960232904e-02,-2.061070071549173655e-01,-2.073449113098052299e-01,4.831873391039767651e-02,-1.813697938840050927e-01,5.382291081147229095e-01,7.301992177963256836e-01,-4.884707927703857422e-01,9.160413390275819268e+01,0.000000000000000000e+00
5.245069999999999455e-01,5.641231622490896526e-03,-1.825448399685603018e-02,9.588546752929687500e-01,1.020743162368629130e-02,-3.133390136994540498e-02,-1.145700007287686617e-02,-7.664248201147581818e-02,6.121726720447001613e-02,-1.251639574766159058e-01,-1.448090275070262334e-01,-8.488673669336456451e-02,-1.143312709917408687e-01,-2.462042791519614138e-01,-2.740074437374782068e-01,5.561914356402102022e-02,-2.093220014692300235e-01,-1.740074437374782290e-01,8.689673605156865432e-02,5.387064670944927691e-01,7.164759635925292969e-01,4.458749294281005859e-02,4.874666737050372944e+01,0.000000000000000000e+00
5.533230000000000093e-01,3.796893547293266231e-03,-1.746444297707774873e-02,9.557731151580810547e-01,3.388222236396177135e-03,-3.364720629491135817e-02,-1.233923992814278670e-02,-7.513439647547562328e-02,5.701871163359516909e-02,-1.168609708547592163e-01,-2.440888249073180916e-01,-8.293087174994670518e-02,2.764028352561713475e-02,-1.538951442200098829e-01,-2.465090714724300636e-01,1.298122126721703573e-01,-1.581855798592990137e-01,-1.465090714724300580e-01,1.639355641829027266e-01,5.375685064894487608e-01,6.660717725753784180e-01,-1.411317586898803711e-01,9.898905737678103378e+01,0.000000000000000000e+00
5.762990000000000057e-01,2.507390037651942728e-03,-1.688554382181726640e-02,9.538759589195251465e-01,-1.902147362257180932e-03,-3.421134197558672874e-02,-1.227638567077971032e-02,-7.344354134567303294e-02,6.258777724338486503e-02,-1.204214915633201599e-01,-3.122552080853204792e-01,-1.953371361781084531e-02,-1.204600304224452169e-02,2.165588769238950204e-02,1.156215348386329944e-01,1.263677141592473019e-02,-2.238928867866279634e-02,2.156215348386330000e-01,4.683675599067027573e-02,5.390464060951976055e-01,7.180290222167968750e-01,-1.386712789535522461e-01,8.826905498387851878e+01,0.000000000000000000e+00
5.989609999999999657e-01,8.595769961373033114e-04,-1.559993663163931552e-02,9.511297345161437988e-01,-9.600589843356115496e-03,-3.241249750229724391e-02,-1.352841182228403660e-02,-7.439896094430299700e-02,6.154771158909543016e-02,-1.127353385090827942e-01,-2.759045100160399389e-01,1.562914802519621005e-01,-9.254424597487521942e-02,1.431223495190658834e-02,1.220592385563302185e-01,7.319108226019475916e-02,-7.907195643042867761e-02,2.220592385563302240e-01,1.113379140531369077e-01,5.388651226698306651e-01,7.193675041198730469e-01,2.899539470672607422e-02,9.022934659642885435e+01,0.000000000000000000e+00
6.243260000000000476e-01,-8.288448938207109351e-04,-1.398826571209250448e-02,9.484636187553405762e-01,-1.573631095539214028e-02,-2.815037398978770256e-02,-1.555757984582628595e-02,-8.400972226728335712e-02,6.306096467701086117e-02,-1.150334924459457397e-01,-1.613505896165489950e-01,1.436937921533076867e-01,-5.998383672025850433e-02,1.730533554140460950e-01,1.192337855538358193e-01,1.704382725150986877e-01,7.305335541404607558e-02,2.192337855538358249e-01,2.145450316192833440e-01,5.396077747892923382e-01,7.324140071868896484e-01,-1.705852746963500977e-01,9.805313021519252459e+01,0.000000000000000000e+00
6.499759999999999982e-01,-2.781662655821332420e-03,-1.235599426000797384e-02,9.459687471389770508e-01,-1.836392382307592760e-02,-2.527895789600664855e-02,-1.717399390020446504e-02,-8.889962026483382018e-02,6.535663366178096068e-02,-1.102285012602806091e-01,-6.582735354908036962e-02,1.822082745023708220e-02,-3.595169901284761549e-02,3.066805753567436454e-01,1.159570665897898811e-01,1.791616857980441735e-01,2.066805753567436121e-01,2.159570665897898867e-01,2.278678958141067412e-01,5.393474938786123607e-01,7.187342643737792969e-01,-1.233769655227661133e-01,9.778541412048471670e+01,0.000000000000000000e+00
6.746640000000000414e-01,-4.316575053878461167e-03,-1.123044703258960914e-02,9.444625973701477051e-01,-1.860163529002674745e-02,-2.504429282765019416e-02,-1.863082463476062323e-02,-1.019962995878230527e-01,5.780457211501971448e-02,-9.541388601064682007e-02,3.668604350100952358e-03,-2.679738253163386347e-02,-1.311090439072942204e-01,2.495217347527453056e-01,7.875136886857769802e-02,1.706028068514590934e-01,1.495217347527453000e-01,1.787513688685777036e-01,2.234667717409581644e-01,5.377070587303095506e-01,6.725745201110839844e-01,-1.989852190017700195e-01,9.720947890929089397e+01,0.000000000000000000e+00
6.975160000000000249e-01,-6.917256541722553199e-03,-9.159108533071461111e-03,9.424116015434265137e-01,-1.704814437080441267e-02,-2.688783262841010213e-02,-2.116574960275374728e-02,-1.076430253034752066e-01,7.358665735856832757e-02,-9.827008843421936035e-02,1.252125106708753544e-01,-1.070589713007621263e-01,-1.100792581968906281e-01,1.455486564108922631e-01,-1.593615296311585716e-01,1.393880569968631022e-01,4.554865641089225758e-02,-5.936152963115855913e-02,1.991924054924880949e-01,5.387404254666721126e-01,7.022749185562133789e-01,6.314865350723266602e-01,6.784271174260588566e+01,0.000000000000000000e+00
7.243159999999999599e-01,-9.844047528216326448e-03,-6.784732669750291600e-03,9.403364062309265137e-01,-1.263485162849207512e-02,-3.048825077994643529e-02,-2.415355374960626023e-02,-1.117835487816304790e-01,7.312326590761193679e-02,-1.030083969235420227e-01,1.794808968235681312e-01,-1.480028368174526598e-01,-1.006017503212263131e-01,1.337732517161526746e-01,-2.449540088804572635e-01,1.233676854718266935e-01,3.377325171615266214e-02,-1.449540088804572580e-01,1.913417985501784102e-01,5.394437910119600499e-01,7.061190605163574219e-01,3.077646493911743164e-01,-1.540856662412809897e+02,0.000000000000000000e+00
7.492550000000000043e-01,-1.274791768114535290e-02,-4.418918148210952170e-03,9.382613301277160645e-01,-5.842500642429036654e-03,-3.358626535533759672e-02,-2.725748171495845362e-02,-1.192839328698613172e-01,7.436324698973985348e-02,-9.676958620548248291e-02,2.557680116747731991e-01,-5.094827227390031493e-02,-1.148428480351005865e-01,7.767476263999534281e-02,-1.532255811294119252e-01,1.329873674289401564e-02,-6.881657323312161123e-03,-5.322558112941190578e-02,8.952161851456165442e-02,5.391400879773362576e-01,6.974570751190185547e-01,6.319534778594970703e-02,8.318934767549164633e+01,0.000000000000000000e+00
7.733409999999999451e-01,-1.485050381085724347e-02,-2.758482302833582898e-03,9.368166327476501465e-01,-2.016023554701921149e-03,-3.364265358784979121e-02,-2.936247151252491250e-02,-1.155356339781046515e-01,8.247792383605223598e-02,-1.040290370583534241e-01,2.413857389920314733e-01,-6.619619645597988461e-03,-1.146524125101668345e-01,4.338743172406761550e-03,3.070498287308653929e-02,-1.875535841496923928e-02,-6.261705552107683925e-02,1.307049828730865448e-01,6.303731675315808747e-02,5.399091933934826448e-01,6.973420381546020508e-01,-2.147783041000366211e-01,9.187938369612054146e+01,0.000000000000000000e+00
8.015499999999999847e-01,-1.931006340736817622e-02,1.939602202433703007e-04,9.336708188056945801e-01,5.155192397877061440e-03,-2.881373902355854888e-02,-3.305239022124251136e-02,-1.227882975437052104e-01,9.131717242105272248e-02,-1.214450448751449585e-01,1.943005083101962682e-01,1.983363348073864663e-01,-5.334893900536714223e-02,2.537624010562083976e-01,1.183319714127159805e-01,6.677161381185589550e-02,2.264698712952605830e-01,2.183319714127159861e-01,1.584218933583969868e-01,5.425936321095754522e-01,7.555966377258300781e-01,9.213650226593017578e-02,4.521127949383508593e+01,0.000000000000000000e+00
8.252040000000000486e-01,-2.160527858386265820e-02,1.402982141963331816e-03,9.321864247322082520e-01,8.369925660412228657e-03,-2.500879131301458891e-02,-3.452143409998176260e-02,-1.285168181942943355e-01,8.515944316055619467e-02,-1.144279390573501587e-01,1.378743478004275935e-01,2.144769135086684042e-01,-9.250386161153263676e-02,1.894517554585569419e-01,1.198914949427545007e-01,1.325560687852678499e-01,1.883265206613407572e-01,2.198914949427545062e-01,2.282420327108349578e-01,5.423849765840442760e-01,7.566068172454833984e-01,-1.713694334030151367e-01,9.645488643997705935e+01,0.000000000000000000e+00
8.485439999999999650e-01,-2.545978921857688579e-02,3.448019239599327442e-03,9.296106100082397461e-01,1.228880553726498064e-02,-2.061114919256890055e-02,-3.610459110460251253e-02,-1.311368828479041182e-01,9.497022430739941734e-02,-1.074833050370216370e-01,1.906195233927403532e-01,1.086376748786575530e-01,-6.175821097859904296e-02,1.208736780995849219e-01,1.189856541642813348e-01,9.500465367683402773e-02,1.356404039543877560e-01,2.189856541642813403e-01,1.949322328819687589e-01,5.420792896566308805e-01,7.474782466888427734e-01,-4.811666011810302734e-01,1.309287021622964744e+02,0.000000000000000000e+00
8.757909999999999862e-01,-2.944656867548736678e-02,5.432552209680656732e-03,9.270943403244018555e-01,1.622237795113293246e-02,-1.951205862391769408e-02,-3.827188465073838586e-02,-1.378644023321756451e-01,8.331120219728797849e-02,-1.192140579223632812e-01,1.120463059306933684e-01,8.948046924221186860e-04,-4.955523284075615681e-02,-2.628025343557870430e-01,1.115754571626390024e-01,9.455993876198798276e-02,-2.130411931085648691e-01,2.115754571626390079e-01,1.945599387619879883e-01,5.428992971750699059e-01,7.272071838378906250e-01,-1.594153642654418945e-01,6.970865795215084404e+01,0.000000000000000000e+00
9.009859999999999536e-01,-3.372518327655439629e-02,7.306118925688478462e-03,9.247674942016601562e-01,2.193722740641426347e-02,-2.144121481845973065e-02,-4.114914313674367108e-02,-1.510910431135507048e-01,7.667335689785545472e-02,-9.782659262418746948e-02,1.854876948240684054e-01,-1.300534971545202478e-01,-1.299455613453329994e-01,-2.602611166732772818e-01,-2.632803762218214327e-01,7.910559512521414538e-02,-1.710578152985277045e-01,-1.632803762218214549e-01,1.791055951252141509e-01,5.409329207688168273e-01,6.836895942687988281e-01,-8.059394359588623047e-02,5.837712140210039991e+01,0.000000000000000000e+00
9.234809999999999963e-01,-3.679414647361291951e-02,8.616109686946007290e-03,9.231945872306823730e-01,2.485066993786155115e-02,-2.336605172884875792e-02,-4.288805442144627555e-02,-1.580101857048473446e-01,8.420143054954794259e-02,-1.083003282546997070e-01,1.668529996612346245e-01,-1.326984741662779743e-01,-1.402376151412331462e-01,-2.879382843552782401e-01,-2.903730717674719020e-01,7.508585395798786366e-02,-1.879382843552782345e-01,-1.903730717674718964e-01,1.750858539579878692e-01,5.420242089766911242e-01,6.870857477188110352e-01,-1.212915182113647461e-01,8.983189105843663924e+01,0.000000000000000000e+00
9.496329999999999494e-01,-4.129787328116451411e-02,1.055041495884929785e-02,9.206907153129577637e-01,2.546873389096933685e-02,-2.569924946894541762e-02,-4.561991873724657864e-02,-1.507626228977058669e-01,9.124712957325377405e-02,-1.178256422281265259e-01,-6.059646007438050652e-02,-2.980731771704048585e-02,-7.745800934092901546e-02,-2.793835481330381176e-01,-1.821704927885318681e-01,-2.159213285258774762e-01,-1.803944651913276243e-01,-8.217049278853187644e-02,-1.159213285258774845e-01,5.428912855710886776e-01,6.780799627304077148e-01,-3.179442882537841797e-02,7.796107692246783927e+01,0.000000000000000000e+00
9.730750000000000233e-01,-4.584610262417894433e-02,1.269066712049585557e-02,9.178924560546875000e-01,2.181344528279504508e-02,-2.439456106306470140e-02,-4.846707349619094884e-02,-1.578475236368123424e-01,9.053696147887625723e-02,-1.304375380277633667e-01,-2.397496695739992356e-01,1.238497219148716605e-01,-9.055540810800521978e-02,-2.148226657314912247e-01,1.126482703326317503e-01,-1.326110532569966249e-01,-1.387873298474504302e-01,2.126482703326317558e-01,-3.261105325699661939e-02,5.441491662201476398e-01,6.762738227844238281e-01,2.434021234512329102e-01,-1.148538246299147971e+02,0.000000000000000000e+00
1.000807999999999920e+00,-5.068360254760677364e-02,1.514783489633664618e-02,9.147353172302246094e-01,1.601961297494190750e-02,-1.941577479430778297e-02,-5.011686318544406049e-02,-1.663917430488879579e-01,9.461006318062377407e-02,-1.286997497081756592e-01,-2.262382731628006793e-01,2.324989562549136524e-01,-5.947920443041055522e-02,-1.794241282962035777e-01,1.267934794608243931e-01,-1.555076582979739441e-01,-1.451458912849812322e-01,2.267934794608243987e-01,-5.550765829797393858e-02,5.452192429999304091e-01,7.191047668457031250e-01,-3.171046972274780273e-01,5.378268195877002000e+01,0.000000000000000000e+00
1.024939000000000044e+00,-5.410076593140829976e-02,1.694256663348307421e-02,9.128069877624511719e-01,1.132100816134112668e-02,-1.517841123777263768e-02,-5.005247010113755834e-02,-1.665332287282267065e-01,9.538758323736788725e-02,-1.235974207520484924e-01,-1.985457467800854914e-01,2.661887039398870836e-01,3.486332579538044263e-03,-2.010987605829832325e-01,1.320804118523492277e-01,-2.040104251539851532e-01,-1.984575845294729857e-01,2.320804118523492332e-01,-1.040104251539851615e-01,5.456633680360268857e-01,7.458133697509765625e-01,-1.759864091873168945e-01,1.253739142160002160e+02,0.000000000000000000e+00
1.052229999999999999e+00,-5.928595926417460499e-02,1.953963638663881383e-02,9.100257158279418945e-01,4.472955770992240350e-03,-1.168184871006472392e-02,-4.982225112259941469e-02,-1.692174286162803631e-01,8.880921583125243879e-02,-1.150228381156921387e-01,-2.967176268995299626e-01,8.704889923390721207e-02,2.651002412181411791e-02,-4.029694771685715660e-04,1.198844482298661862e-01,-2.571976538895699993e-01,-3.864638531196376570e-02,2.198844482298661918e-01,-1.571976538895699937e-01,5.446400888634366222e-01,7.008848190307617188e-01,-1.509877443313598633e-01,1.045619316639995020e+02,0.000000000000000000e+00
1.073601000000000028e+00,-6.295835208592286125e-02,2.130999770429521309e-02,9.083465933799743652e-01,9.743137899630382147e-04,-1.143915971318598679e-02,-4.921583583289690367e-02,-1.844787856949487714e-01,9.265730473732257388e-02,-1.064699143171310425e-01,-1.575619407470244260e-01,-6.342642179601723496e-02,2.790563399943910006e-02,1.775736230157851092e-01,3.751184851739416959e-02,-2.066043674978666478e-01,1.117673990325748212e-01,1.375118485173941751e-01,-1.066043674978666422e-01,5.439151096572724109e-01,6.764149665832519531e-01,-3.674626350402832031e-03,9.463432683746684404e+01,0.000000000000000000e+00
1.102100000000000080e+00,-6.850770764470556773e-02,2.397839851736856265e-02,9.062343835830688477e-01,-4.654631373635727612e-03,-1.353051007146177653e-02,-4.764472901474414712e-02,-1.891512402830899386e-01,9.424211039284274838e-02,-1.006781607866287231e-01,-2.227802979816484730e-01,-1.146337028912254863e-01,7.613329801765693350e-02,2.666235137687310575e-01,-3.618116138901644740e-03,-1.032292564691517089e-01,1.666235137687310242e-01,9.638188386109836081e-02,-3.229256469151705125e-03,5.437270408214144313e-01,6.702060699462890625e-01,6.357253789901733398e-01,1.059412405555593892e+02,0.000000000000000000e+00
1.124046000000000101e+00,-7.250608805029643000e-02,2.506728195946245075e-02,9.047966599464416504e-01,-7.766105861056853132e-03,-1.570115511944281117e-02,-4.627154795366261730e-02,-1.992455041499111290e-01,1.023213459625788163e-01,-9.828096628189086914e-02,-1.848392424924976407e-01,-1.050032982587389974e-01,3.573356450795694278e-02,2.851272392176943393e-01,-1.529343774302098780e-01,8.069592790202875787e-02,1.851272392176943615e-01,-5.293437743020985853e-02,1.806959279020287634e-01,5.439423483571734774e-01,6.752824783325195312e-01,2.178789377212524414e-01,5.578609938573981708e+01,0.000000000000000000e+00
1.151559999999999917e+00,-7.850602513388546533e-02,2.663911521513727745e-02,9.032434821128845215e-01,-9.971981312440200002e-03,-1.969118080478193811e-02,-4.397617422412558597e-02,-1.916297387416738829e-01,9.347472930035229111e-02,-9.535001963376998901e-02,-6.151189881842933360e-02,-1.291442072984352596e-01,1.199245860017970622e-01,2.907094826079399952e-01,-2.974026858748780033e-01,1.142763039060760988e-01,1.907094826079399896e-01,-1.974026858748779978e-01,2.142763039060761043e-01,5.441084503913286019e-01,6.808648109436035156e-01,-5.282789468765258789e-01,9.423600386545003005e+01,0.000000000000000000e+00
1.176560000000000050e+00,-8.479333716915675445e-02,2.827285572199864788e-02,9.018825888633728027e-01,-7.777443834485671739e-03,-2.278503315461732903e-02,-4.304475833711340904e-02,-2.010596004400873604e-01,8.522754579302907474e-02,-6.228414177894592285e-02,1.230966197538872625e-01,-7.185676131847422432e-02,-4.729581677385583105e-02,2.005896238721001368e-01,-3.031869808886626938e-01,1.981391230225229561e-02,1.005896238721001312e-01,-2.031869808886626882e-01,1.198139123022523012e-01,5.416473079945640645e-01,6.597774028778076172e-01,-5.209839344024658203e-02,9.378097666294378598e+01,0.000000000000000000e+00
1.199389999999999956e+00,-9.036459214448312738e-02,2.959125168543309467e-02,9.008504152297973633e-01,-2.421715463763023275e-03,-2.331446650213542249e-02,-4.376027510242552765e-02,-2.058357703361960722e-01,8.335372270053653665e-02,-7.485757768154144287e-02,2.654541874753088004e-01,3.342291436631449758e-02,-3.666228511206846841e-02,9.810595702999205803e-02,-5.866199390754790743e-02,-1.853825792414217910e-01,9.476564656395092615e-03,4.133800609245209812e-02,-8.538257924142178545e-02,5.430450589298423392e-01,6.746807098388671875e-01,4.645311832427978516e-02,8.542516228897113706e+01,0.000000000000000000e+00
1.223578999999999972e+00,-9.653855756391416243e-02,3.094997454294301162e-02,8.995120525360107422e-01,4.737025780370160595e-03,-2.013714435375257850e-02,-4.565043979401695040e-02,-1.862984236731932974e-01,7.890941678611551602e-02,-7.510574162006378174e-02,2.252751346112100150e-01,1.206303784243751009e-01,-2.456003767100838064e-02,2.482074344388249532e-01,1.107962414836241305e-01,-1.847292978677557151e-01,2.081223946700997696e-01,2.107962414836241360e-01,-8.472929786775572347e-02,5.445113779242451990e-01,7.425587177276611328e-01,-1.324187517166137695e-01,1.063624993028090984e+02,0.000000000000000000e+00
1.250629999999999908e+00,-1.045739836705664172e-01,3.271325213773648016e-02,8.978410363197326660e-01,1.478096006826024218e-02,-1.115996434945065729e-02,-4.657399807042739148e-02,-1.970608200311339819e-01,9.087084637809585141e-02,-7.676432281732559204e-02,3.040764156195313039e-01,2.209512280654906402e-01,-9.932838799963903537e-03,2.173216947196661419e-01,1.154282293075187260e-01,-7.179726696012436737e-02,2.327047778350467000e-01,2.154282293075187316e-01,2.820273303987563818e-02,5.451632178474734580e-01,7.550823688507080078e-01,7.939040660858154297e-02,7.798061126349408312e+01,0.000000000000000000e+00
1.274488000000000065e+00,-1.083843189451313554e-01,3.351703422089767626e-02,8.972216248512268066e-01,1.897759635230437947e-02,-6.993201539491789021e-03,-4.569157579897975552e-02,-2.058789872518199393e-01,8.976389443878322882e-02,-7.329837232828140259e-02,2.706976026593193030e-01,2.003220927328251688e-01,8.685171849368622521e-02,1.483279168540616866e-01,1.135358461285519704e-01,-3.180746508387860549e-01,1.930248866320853907e-01,2.135358461285519760e-01,-2.180746508387860771e-01,5.451660627301162521e-01,7.569506168365478516e-01,6.008919477462768555e-01,-9.505246418826584431e+01,0.000000000000000000e+00
1.297423999999999911e+00,-1.144821521324811964e-01,3.485803014120215232e-02,8.963210582733154297e-01,2.560642349770177531e-02,-4.069771488536488846e-03,-4.440976099839444302e-02,-2.034302355917381733e-01,7.925652660929342896e-02,-5.070901289582252502e-02,2.601697379398731913e-01,2.713635686520987980e-02,1.395821378505567902e-02,-3.082095984814735568e-01,1.311973291160245247e-01,9.414244834909776816e-02,-2.140463745235939574e-01,2.311973291160245303e-01,1.941424483490977737e-01,5.432536733009638574e-01,7.280477285385131836e-01,1.036816835403442383e-01,4.455375084281629938e+01,0.000000000000000000e+00
1.324775999999999954e+00,-1.214958360110685309e-01,3.750606790540247926e-02,8.955559134483337402e-01,3.203389958655731423e-02,-4.888170286583726210e-03,-4.260556292741379814e-02,-2.182632267630664480e-01,8.093849488105070433e-02,-7.285148650407791138e-02,2.140498096377102255e-01,-4.761118147790580762e-02,1.285609565164509693e-01,-3.222472313384792675e-01,-1.166226980345392850e-01,-2.351233641857825851e-01,-2.222472313384792619e-01,-1.662269803453928635e-02,-1.351233641857825796e-01,5.445432544943279440e-01,6.989672183990478516e-01,9.772002696990966797e-02,9.255402880119937947e+01,0.000000000000000000e+00
1.353118000000000043e+00,-1.282595554024665852e-01,3.990563183035369249e-02,8.950452208518981934e-01,3.633014586149179576e-02,-7.184147673071628049e-03,-4.206943388409944973e-02,-2.129529538362743002e-01,7.453584649434548404e-02,-4.966085776686668396e-02,6.314056682502737494e-02,-1.030973968103601757e-01,-7.410741531169920404e-02,-2.928322395066959016e-01,-3.069326381900070455e-01,-1.418114619268026622e-01,-1.928322395066958683e-01,-2.069326381900070677e-01,-4.181146192680266355e-02,5.427705079577943570e-01,6.819679737091064453e-01,1.773141622543334961e-01,9.639135202031759775e+01,0.000000000000000000e+00
1.375015000000000098e+00,-1.328561882198091015e-01,4.154092810160247423e-02,8.946266770362854004e-01,3.606639161982741482e-02,-8.957698802382285663e-03,-4.172719760016052604e-02,-2.226661447911183200e-01,7.761354738110053109e-02,-5.507304519414901733e-02,8.983356738261663241e-03,-9.571128126437811190e-02,4.819455736841431193e-02,-2.903496651188560707e-01,-3.172033058545772333e-01,-2.639355835263149652e-01,-1.903496651188560929e-01,-2.172033058545772555e-01,-1.639355835263149597e-01,5.433691095627312118e-01,6.829042434692382812e-01,7.733432054519653320e-01,-6.130303954629775731e+00,0.000000000000000000e+00
1.398492999999999986e+00,-1.395033446482878969e-01,4.416399627029182762e-02,8.938645124435424805e-01,3.082356818734343501e-02,-9.386025429829025768e-03,-4.016232366917837915e-02,-2.091469759487358526e-01,8.266501710448551088e-02,-7.641969621181488037e-02,-3.034626572043122028e-01,3.418011397226877052e-02,8.403652268208526566e-02,-6.566259500135626648e-02,-2.942676529702260846e-02,-1.046545542410083907e-01,3.433740499864373213e-02,7.057323470297739709e-02,-4.654554241008388576e-03,5.433710852142636938e-01,5.871136188507080078e-01,-2.479921579360961914e-01,9.212769522339634420e+01,0.000000000000000000e+00
1.424355000000000038e+00,-1.464104892981245853e-01,4.729896299540364835e-02,8.928072452545166016e-01,2.201275469994021239e-02,-6.404223963426991517e-03,-3.803904694016502219e-02,-2.154783457247524681e-01,8.680388331979793648e-02,-7.523576915264129639e-02,-3.503012719048961832e-01,1.763877200179251037e-01,7.717494976047871436e-02,1.425513353155891810e-02,1.077832776554239480e-01,-6.314358031426922646e-02,6.937053839396188637e-02,2.077832776554239536e-01,3.685641968573078603e-02,5.437820968539877065e-01,5.999722480773925781e-01,-4.023534059524536133e-01,2.398524404415903177e+01,0.000000000000000000e+00
1.447551999999999950e+00,-1.511979236899492762e-01,4.953380500299627009e-02,8.920882940292358398e-01,1.507244311377993473e-02,-3.005194831015911561e-03,-3.620199222523079463e-02,-2.179538753015523023e-01,8.539146867033318988e-02,-6.091274321079254150e-02,-3.460296652311748433e-01,1.869168866463832845e-01,8.034828897384262147e-02,3.439477454626811009e-02,1.137475720136327528e-01,-1.255181582581712252e-01,4.406267892506686434e-02,2.137475720136327584e-01,-2.592921419789693399e-02,5.437250182900018602e-01,6.414703130722045898e-01,-6.947171688079833984e-02,8.798730285042631749e+01,0.000000000000000000e+00
1.473270000000000080e+00,-1.581665961183568725e-01,5.257901935817176770e-02,8.913252353668212891e-01,7.056116231234867489e-03,8.784437910063225274e-04,-3.430528037063873548e-02,-2.254295426540445235e-01,7.054277497655116191e-02,-6.775324046611785889e-02,-2.240401826923813511e-01,9.517492113333872461e-02,9.097796035914815227e-02,7.693203926715752594e-02,1.141493343652074666e-01,-2.040645796398885548e-01,4.366450997520750915e-02,2.141493343652074721e-01,-1.091653242219779024e-01,5.449726206074985146e-01,6.715259552001953125e-01,-2.490818500518798828e-02,6.187459489868630413e+01,0.000000000000000000e+00
1.499138999999999999e+00,-1.655252094363861559e-01,5.552296786714995547e-02,8.908903002738952637e-01,3.950635119520796990e-03,1.329689398574585013e-03,-3.277995031836944406e-02,-2.187835404069186362e-01,7.487166856708905860e-02,-3.844126313924789429e-02,-1.858841948675992242e-02,-9.154637044332272766e-02,2.570975597169598489e-02,1.622593361185985933e-02,-2.927290153213714108e-01,9.363388244385872916e-02,-4.553658572502349011e-02,-1.927290153213713775e-01,1.843748204375242339e-01,5.433507805899794318e-01,6.872146129608154297e-01,2.457479238510131836e-01,7.803359304088586157e+01,0.000000000000000000e+00
1.524968000000000101e+00,-1.726354388836157105e-01,5.843647338718230277e-02,8.907466530799865723e-01,3.193680316995703948e-03,-4.032209549926779601e-04,-3.038569221508402585e-02,-2.234873583195523539e-01,6.627695311752603013e-02,-3.893047943711280823e-02,-5.044776855456155513e-03,-3.471077093389507429e-02,1.244615480618275760e-01,1.446996282132294864e-01,-2.194798633307450397e-01,-2.695621475817708834e-01,8.273363041317310929e-02,-1.194798633307450203e-01,-1.855149979642419233e-01,5.431970746703533859e-01,6.677386760711669922e-01,-8.734190464019775391e-02,-5.788617423474905621e+01,0.000000000000000000e+00
1.551264999999999894e+00,-1.797158121791430085e-01,6.139029064242287892e-02,8.908805251121520996e-01,4.552813196079916365e-03,-2.168788806549137860e-03,-2.901184898161579540e-02,-2.164081414105858414e-01,7.066919574983084040e-02,-3.641892969608306885e-02,5.226238048571491684e-02,-2.898781440585691815e-02,-1.267939917645102658e-02,4.451255585528832159e-02,-2.570518851484671630e-01,-1.362473114636466587e-01,-1.576007783579157565e-02,-1.570518851484671574e-01,-5.623423686701174012e-02,5.429749058591621935e-01,6.582956314086914062e-01,6.786156892776489258e-01,8.657588523957819859e+01,0.000000000000000000e+00
1.574013000000000106e+00,-1.843499006316872135e-01,6.340134862906539326e-02,8.908399343490600586e-01,5.412773327351066456e-03,-1.536081158506785727e-03,-2.853276351694367108e-02,-2.142718583626411766e-01,6.910015683305897882e-02,-3.706558421254158020e-02,5.996148211017234692e-02,5.748682032862118679e-02,3.932154981462020887e-02,2.311891807902895501e-01,1.173944789725529236e-01,-2.909829988011496393e-01,1.767206533800283197e-01,2.173944789725529292e-01,-2.123600153905238208e-01,5.446783633202296748e-01,7.430317401885986328e-01,-3.869556188583374023e-01,7.477719790124473320e+01,0.000000000000000000e+00
1.599804000000000004e+00,-1.910693727113928486e-01,6.643591890068417660e-02,8.908097147941589355e-01,6.319568249622911985e-03,2.630206176574167998e-03,-2.602560424165201169e-02,-2.169621753456506819e-01,7.779765022606006941e-02,-4.334986582398414612e-02,5.047360986585848475e-02,1.929408569844885124e-01,1.145214761847629936e-01,-1.622107684403347461e-01,1.294850719512880555e-01,-3.005971600289925050e-01,-2.199699383709649014e-01,2.294850719512880610e-01,-2.290426109797002729e-01,5.446765945016273092e-01,7.090353965759277344e-01,1.131016016006469727e-01,5.969456244015831459e+01,0.000000000000000000e+00
1.622673999999999950e+00,-1.977046666301709443e-01,6.921078901665590755e-02,8.909606337547302246e-01,8.053717147589725331e-03,8.327836026455148755e-03,-2.320004523752361436e-02,-2.079807354779809880e-01,7.315456746298124036e-02,-2.524987794458866119e-02,8.859848486402620293e-02,2.011285825573921882e-01,1.154940267013545019e-01,-1.409024990107323738e-01,1.266958919735136635e-01,-2.913029947594792946e-01,-1.856068216107296109e-01,2.266958919735136690e-01,-2.275474433254334183e-01,5.440652380691689549e-01,7.405209541320800781e-01,-3.932579755783081055e-01,4.990960269934677740e+01,0.000000000000000000e+00
1.650396999999999892e+00,-2.050153892123952604e-01,7.179150426731957524e-02,8.911538720130920410e-01,1.165906643918256623e-02,1.142470963744446344e-02,-1.901634524068773757e-02,-2.211723467187614034e-01,6.554010903078498484e-02,-2.449029311537742615e-02,1.217811951938809478e-01,7.352770396634458749e-02,1.968624704065836672e-01,-1.502981859116690466e-01,1.219723097511356547e-01,-2.771749654343743097e-01,-1.690288021474258551e-01,2.219723097511356602e-01,-2.252701098617562181e-01,5.441817921222762422e-01,7.420711517333984375e-01,5.361211299896240234e-02,-9.184070433485075569e+00,0.000000000000000000e+00
1.674317000000000055e+00,-2.092996929446475918e-01,7.332974628313375376e-02,8.913263082504272461e-01,1.431162819537971746e-02,1.149597708396732365e-02,-1.620691255012607357e-02,-2.051906463413000203e-01,7.554889267355675841e-02,-1.839905977249145508e-02,1.067442800059126562e-01,-3.990971139109467797e-02,1.066781284310031608e-01,-1.673424497535360711e-01,-3.389847168053357340e-02,-2.086518255473855110e-01,-1.798957468797087456e-01,6.610152831946643215e-02,-1.647471346689382277e-01,5.422999105514553220e-01,6.562434434890747070e-01,7.798922061920166016e-02,8.854250160729998242e+01,0.000000000000000000e+00
1.697832000000000008e+00,-2.159337948781215322e-01,7.577968590589675979e-02,8.915356993675231934e-01,1.516261305730766222e-02,1.084049895408001341e-02,-1.138505194258310205e-02,-2.108438154347719584e-01,8.116715122459781939e-02,-2.202094346284866333e-02,2.055873051647665040e-02,-4.715554343800009568e-03,2.120368127822856441e-01,-6.732741412093065647e-02,8.718949735732964279e-02,-2.252979910245949680e-01,-8.019369506084809973e-02,1.871894973573296483e-01,-1.950738382855342623e-01,5.430549973030921462e-01,6.765754222869873047e-01,-3.431919813156127930e-01,-3.402706329399264873e-01,0.000000000000000000e+00
1.724018999999999968e+00,-2.227022591350331648e-01,7.811786635055192884e-02,8.918564915657043457e-01,1.324003061856162712e-02,8.998646011090460917e-03,-7.172920497739321277e-03,-1.988539966731261988e-01,8.181403916474118410e-02,-2.231319621205329895e-02,-1.122918788838459664e-01,-9.357835449556009544e-02,1.228914930948026007e-01,7.631327201882677491e-03,-1.975466353327326174e-01,-1.670141770764306255e-01,-2.044270025397109530e-02,-9.754663533273261189e-02,-1.485421463963239042e-01,5.425996082869386505e-01,6.452814340591430664e-01,6.889426708221435547e-02,8.993124982029281966e+01,0.000000000000000000e+00
1.749597999999999987e+00,-2.303546784547989557e-01,8.026114570382128499e-02,8.919119834899902344e-01,9.528443825367929540e-03,7.742431230182367230e-03,-3.052081066026390843e-03,-2.068627593058003089e-01,8.216445057074937830e-02,-1.663215644657611847e-02,-1.441768703278763775e-01,-2.503762778955608004e-02,1.324841070905490859e-01,9.200541846696369541e-02,2.100971751702314372e-02,-1.921308977674157092e-01,3.673239719523330865e-02,1.210097175170231493e-01,-1.851489604905201536e-01,5.420796916505132845e-01,6.307399272918701172e-01,1.684626340866088867e-01,9.252593623314311344e+01,0.000000000000000000e+00
1.777565999999999979e+00,-2.374635330912196474e-01,8.224207980376903315e-02,8.919945955276489258e-01,5.496323523365862808e-03,6.620235009788810743e-03,1.017813841861725521e-03,-2.083085901627969028e-01,7.745736262565477981e-02,-1.505042798817157745e-02,-1.910564884914910389e-01,-4.432221461442731325e-03,1.697873570230412910e-01,1.907645050051048619e-01,8.286705659349047348e-02,-1.726555955230656969e-01,1.101763032448841440e-01,1.828670565934904790e-01,-1.768853913624111596e-01,5.419694121060253389e-01,6.243216991424560547e-01,2.373219728469848633e-01,9.610701807535913588e+01,0.000000000000000000e+00
1.799959000000000087e+00,-2.396886363304774337e-01,8.287404618899801845e-02,8.919364809989929199e-01,4.191209075984560217e-03,6.524751422171792825e-03,2.148776931201412665e-03,-1.973632676442279021e-01,8.128679209900992186e-02,-2.027164585888385773e-02,-1.780616305225173057e-01,-1.218819988441898101e-02,1.157311302824609589e-01,1.976973878092666836e-01,8.320556671077916633e-02,-1.832168550298070298e-01,1.040098182410306160e-01,1.832055667107791719e-01,-1.905470029170530932e-01,5.426843521347799459e-01,6.375062465667724609e-01,5.301312208175659180e-01,1.137978568936633081e+02,0.000000000000000000e+00
1.826322000000000001e+00,-2.468352456893658509e-01,8.494315137164203111e-02,8.919206857681274414e-01,2.437595238605694097e-03,6.796800646704515003e-03,6.202544430491618854e-03,-2.055620629090381679e-01,8.086116873995606580e-02,-7.821553386747837067e-03,3.680150503240402562e-03,-2.144046059889249956e-03,1.624414359230729743e-01,2.138660480075892933e-01,8.071814131759949551e-02,-1.757014757942425842e-01,1.138660480075893017e-01,1.807181413175995011e-01,-1.943427613469676796e-01,5.426424563856324657e-01,6.764755249023437500e-01,1.494013071060180664e-01,9.393764071193636767e+01,0.000000000000000000e+00
1.852545000000000108e+00,-2.539497783596392777e-01,8.634080337601064692e-02,8.919276595115661621e-01,2.853395936771891284e-03,5.885858222469453338e-03,1.015269149817399352e-02,-2.006132356533692485e-01,6.921350544057977561e-02,-2.331835916265845299e-03,3.434312433747762489e-02,-3.303824534541916630e-02,1.337049618956368258e-01,7.966304477411768892e-02,-2.182134888726981747e-01,-1.434821446361531361e-01,-1.867396535724602860e-02,-1.182134888726981692e-01,-1.731664373505645560e-01,5.421054853887459224e-01,6.629769802093505859e-01,-2.304743528366088867e-01,1.014337391750795092e+02,0.000000000000000000e+00
1.873413999999999913e+00,-2.587667308053784310e-01,8.700782066831619366e-02,8.921128511428833008e-01,5.164803762896564426e-03,4.697467665946808424e-03,1.277430203979834644e-02,-1.983014899369039685e-01,7.333933770893504012e-02,9.290490299463272095e-03,1.786746593674675698e-01,-8.233514032033931174e-02,1.278108224976512441e-01,5.044483485776941889e-02,-2.574507252613559283e-01,-1.293382120427649107e-01,-3.957482578001200735e-02,-1.574507252613559505e-01,-1.666203601542863288e-01,5.416354721817506768e-01,6.776643991470336914e-01,2.733417749404907227e-01,1.242392968514560323e+02,0.000000000000000000e+00
1.902644000000000002e+00,-2.657854247320103891e-01,8.795994933575446151e-02,8.923490047454833984e-01,9.681152495055259100e-03,2.627887918140725532e-03,1.669490744532331483e-02,-1.990534792348894744e-01,6.652582076679139367e-02,3.198639024049043655e-04,1.361508170961626685e-01,-3.334599816002271205e-02,1.803903733632276074e-01,-8.875178931810756566e-02,-2.395430950036718798e-01,-1.496719060110753563e-01,-1.455485691363805345e-01,-1.395430950036718742e-01,-1.982835055383866674e-01,5.419989561356206575e-01,6.573703289031982422e-01,1.436280012130737305e-01,6.164408284438754038e+01,0.000000000000000000e+00
1.924304999999999932e+00,-2.704593028235522945e-01,8.858768771853808843e-02,8.925343751907348633e-01,1.315666148275911919e-02,1.600364384627628311e-03,1.888248412916948560e-02,-1.933886216594776497e-01,6.246832775325755760e-02,1.097933482378721237e-02,1.544039282507328192e-01,-5.202057024935393542e-02,1.091469155148731690e-01,-1.265006535665966769e-01,-2.551801950169161337e-01,-1.349815778196933880e-01,-1.602564752316677221e-01,-1.551801950169161004e-01,-1.899914561712674477e-01,5.413977525001434365e-01,6.619193553924560547e-01,-1.775181293487548828e-02,2.514891703343244345e+01,0.000000000000000000e+00
1.948882000000000003e+00,-2.768722659754249138e-01,8.931233049106616917e-02,8.927647471427917480e-01,1.700920921096994720e-02,3.466056137224393652e-03,2.212263164397465509e-02,-1.788881415573394806e-01,7.379346196928536494e-02,1.774343545548617840e-03,1.395987197492036813e-01,1.177967063163954387e-01,7.659173188770250496e-02,-1.683465627426258271e-01,1.145431602447562758e-01,-1.529521197105937202e-01,-1.878485040037770060e-01,2.145431602447562813e-01,-2.172672698236778055e-01,5.431797805046721939e-01,7.207847833633422852e-01,3.504992723464965820e-01,8.911427723328925765e+01,0.000000000000000000e+00
1.972337999999999925e+00,-2.825700316033952220e-01,8.956239077575937901e-02,8.927569985389709473e-01,1.838011028651886924e-02,9.040302195764349236e-03,2.553762425533379066e-02,-1.866403491916435731e-01,6.870914446277046062e-02,-1.427250541746616364e-02,-3.750076605608614749e-02,2.984824772588829944e-01,1.708549792899827502e-01,-2.238861258997727754e-01,1.139995080132553129e-01,-1.553169094655222626e-01,-2.305661805655131458e-01,2.139995080132553185e-01,-2.290240909123646695e-01,5.441818471678668834e-01,7.057036161422729492e-01,-1.591998338699340820e-01,8.713622029870771257e+01,0.000000000000000000e+00
2.000646000000000146e+00,-2.899917326627641789e-01,9.020431046452596913e-02,8.922719359397888184e-01,1.704199667750982972e-02,1.831485798944365584e-02,2.988388727019652968e-02,-1.782294105968612874e-01,7.043595897093603286e-02,-1.666905917227268219e-02,-1.148963117475778617e-01,2.413861428289037492e-01,7.990195604869917978e-02,-2.077133064628613746e-01,1.156884849545996852e-01,-1.407509430234323844e-01,-2.274551253012641050e-01,2.156884849545996907e-01,-2.260739426315803713e-01,5.451675535736484335e-01,7.433369159698486328e-01,1.924821138381958008e-01,-6.888840004415649787e+01,0.000000000000000000e+00
2.025866999999999862e+00,-2.953734352564984511e-01,9.073776060889336692e-02,8.919282555580139160e-01,1.422932606554137662e-02,2.293062117629718344e-02,3.347076002534188355e-02,-1.800924294066535425e-01,6.955058263825793230e-02,-3.713792655616998672e-03,-1.044113162089631980e-01,1.338641843567515144e-01,1.574213409577881750e-01,-1.749503903134795868e-01,1.166011620489985634e-01,-1.303621940862493556e-01,-2.146611810391182151e-01,2.166011620489985690e-01,-2.254241866931475935e-01,5.445530073575610697e-01,7.519856691360473633e-01,7.206332683563232422e-02,8.514806834453288786e+01,0.000000000000000000e+00
2.048477999999999799e+00,-3.005717799131068513e-01,9.121326348426447850e-02,8.916546106338500977e-01,1.029110872631662336e-02,2.361468201350613860e-02,3.681067407626459342e-02,-1.822763260254616213e-01,6.309141531329522101e-02,1.667627249844372272e-03,-1.579717275427950929e-01,-5.230369969951188108e-02,1.049979463575409777e-01,9.508065759039785458e-02,1.190940251871767108e-01,1.433112259058340332e-01,3.245310323923373402e-02,2.190940251871767164e-01,4.331122590583402071e-02,5.427914312577405420e-01,6.676715612411499023e-01,3.435295820236206055e-01,-1.102675301871696512e+01,0.000000000000000000e+00
2.073958000000000190e+00,-3.059583374138705181e-01,9.182048819660983130e-02,8.912914395332336426e-01,5.127311162119565016e-03,2.244079647697194702e-02,4.020550676164491577e-02,-1.616070300003735749e-01,7.025241370725997248e-02,8.120965212583541870e-04,-1.802367151058891503e-01,-9.981298131186232270e-02,1.547676721988492377e-01,1.544288303101415960e-01,1.162920007801001854e-01,1.712392997306073084e-01,5.442883031014158352e-02,2.162920007801001909e-01,7.123929973060728893e-02,5.431414890589950639e-01,6.783697605133056641e-01,3.480228185653686523e-01,9.380105741910362838e+01,0.000000000000000000e+00
2.100299000000000138e+00,-3.107761232640512961e-01,9.244197909561831239e-02,8.909384608268737793e-01,-2.878944855996960523e-04,1.981549300076212994e-02,4.207978989616245613e-02,-1.506069001505039862e-01,6.970348521082234128e-02,-9.491774253547191620e-04,-2.184658689424560651e-01,-1.114480488880858627e-01,3.740307574397284951e-02,2.219940767742689114e-01,1.225632651346769408e-01,1.556437889785507456e-01,1.219940767742688920e-01,2.225632651346769464e-01,5.564378897855075390e-02,5.440464669734574876e-01,7.152760028839111328e-01,-1.911103725433349609e-02,1.118102035432979022e+02,0.000000000000000000e+00
2.122808000000000028e+00,-3.139349958467405610e-01,9.286572129142849075e-02,8.906463384628295898e-01,-2.550506192173817351e-03,1.768789199874509777e-02,4.206167803881766254e-02,-1.589536739071911176e-01,6.116025821878805224e-02,6.127097178250551224e-03,-1.062326454866406311e-01,-1.424555344223664977e-01,-6.152682608109428380e-02,8.613810078541021820e-02,-1.862776147603313337e-01,2.737069748047683548e-01,-1.386189921458978562e-02,-8.627761476033132815e-02,1.737069748047683493e-01,5.434202629551864172e-01,7.004517316818237305e-01,1.431881189346313477e-01,-1.600831324080641309e+02,0.000000000000000000e+00
2.151048999999999989e+00,-3.191735891398952418e-01,9.379221515756233640e-02,8.902841806411743164e-01,-3.370155877099575373e-03,1.400069978035256568e-02,4.178929874733339211e-02,-1.525972003894308371e-01,6.794028098132495752e-02,9.378044866025447845e-03,7.918411979562571534e-02,-1.488323575784383235e-01,7.887614456704893778e-03,1.104860828323347699e-01,-2.430490273368119680e-01,1.252321495078348723e-01,1.048608283233476088e-02,-1.430490273368119625e-01,2.523214950783487717e-02,5.433583414141710533e-01,7.031797170639038086e-01,5.151760578155517578e-02,7.944641084051383473e+01,0.000000000000000000e+00
2.177751999999999910e+00,-3.245268146558294986e-01,9.486466029884618734e-02,8.900449872016906738e-01,-1.923498791593967723e-03,1.039753491489392445e-02,4.050163824917918376e-02,-1.440826990099868810e-01,5.889028555447577140e-02,1.568436250090599060e-02,5.164940756332757343e-02,-5.031485731503895775e-02,-7.818276149066090419e-02,1.537750041863483186e-01,-6.510188997376639697e-02,5.850629704703912831e-02,5.377500418634829915e-02,3.489811002623360858e-02,-4.149370295296087724e-02,5.429678815756558974e-01,7.011060714721679688e-01,1.914957761764526367e-01,9.755146648103342955e+01,0.000000000000000000e+00
2.203422000000000214e+00,-3.279417531273984276e-01,9.562351348752731739e-02,8.899000883102416992e-01,-1.859663137620250163e-04,9.345951640886251965e-03,3.905135258894931738e-02,-1.362053759039469625e-01,6.453692042260877892e-02,1.066774688661098480e-02,9.868835478360035718e-02,-1.923553783851624996e-02,-9.537483813317754189e-02,1.248045322324857348e-01,1.013382055988798769e-01,1.820389933305733843e-01,2.480453223248572925e-02,2.013382055988798824e-01,8.203899333057336485e-02,5.431209710935182011e-01,6.841671466827392578e-01,2.713493108749389648e-01,1.606973303389883654e+02,0.000000000000000000e+00
2.230599999999999916e+00,-3.296715844306483678e-01,9.609252213225215333e-02,8.897475004196166992e-01,8.434164684891597282e-04,9.691048759603804186e-03,3.852816375640033542e-02,-1.375101236568483376e-01,6.591480946202619984e-02,8.399497717618942261e-03,1.010306577499293229e-01,5.966534542892273918e-02,-7.900016988883226676e-02,2.371576349138025952e-01,1.218718227341874516e-01,1.474580374031306818e-01,1.371576349138025896e-01,2.218718227341874571e-01,4.745803740313067620e-02,5.434913928078568546e-01,6.894220113754272461e-01,1.523424386978149414e-01,1.038199408937043415e+02,0.000000000000000000e+00
2.255240000000000133e+00,-3.311819632483470333e-01,9.649060908456348618e-02,8.895063996315002441e-01,1.664433259324153182e-03,1.041352869619349697e-02,3.798865556096098217e-02,-1.363451031984426465e-01,6.573958350714351195e-02,4.575490020215511322e-03,1.054561571206153736e-01,1.118097677352121871e-01,-8.070149302568391247e-02,3.037256647745996685e-01,1.303834598716054616e-01,1.760330471796042462e-01,2.037256647745996629e-01,2.303834598716054671e-01,7.603304717960424064e-02,5.445062543812412281e-01,7.245703935623168945e-01,2.574218511581420898e-01,9.863700893639106937e+01,0.000000000000000000e+00
2.278528999999999805e+00,-3.326659046437805967e-01,9.690187228916376239e-02,8.892514705657958984e-01,2.512859717881497836e-03,1.149756497717158155e-02,3.761315528019415488e-02,-1.350394338484690315e-01,6.434581558900998033e-02,7.628691382706165314e-03,1.202159746918219085e-01,1.716291437416727628e-01,-5.816318795250319945e-02,2.992828612365252550e-01,1.316475553293231515e-01,-5.846106305925596880e-02,1.992828612365252772e-01,2.316475553293231571e-01,-1.584610630592559744e-01,5.446680032454688236e-01,7.392624616622924805e-01,5.093644857406616211e-01,1.100634099838238171e+02,0.000000000000000000e+00
2.298496000000000095e+00,-3.357249767543377117e-01,9.789181856561368633e-02,8.888638615608215332e-01,4.308949244319838084e-03,1.416378685144614735e-02,3.704665308098031851e-02,-1.205488164134810719e-01,7.795137270871188573e-02,3.523617051541805267e-03,1.157101643792381729e-01,1.538827678326855908e-01,-6.386857869590929770e-03,2.705978133804595176e-01,1.301202401520893948e-01,-1.067611178155634388e-01,1.705978133804595398e-01,2.301202401520894003e-01,-2.067611178155634444e-01,5.450412080370535817e-01,7.375423908233642578e-01,-4.166638851165771484e-02,1.163381203592069397e+02,0.000000000000000000e+00
2.322513999999999967e+00,-3.398541234924910004e-01,9.909575930041431002e-02,8.881818652153015137e-01,7.648243638534994726e-03,1.806398480011317531e-02,3.545760134522257800e-02,-1.290907724760386732e-01,6.512895708307370191e-02,6.934875156730413437e-03,1.113809382430112072e-01,1.081451039425628952e-01,-5.016775864403754531e-02,2.986289001295840961e-01,1.291055582469111951e-01,-2.789105665365845810e-02,2.085993814518095901e-01,2.291055582469112006e-01,-1.278910566536584636e-01,5.449073474414651841e-01,7.342152595520019531e-01,1.397405862808227539e-01,8.795921028237005146e+01,0.000000000000000000e+00
2.352132000000000112e+00,-3.453450813192620594e-01,1.007265393683876992e-01,8.876277804374694824e-01,1.319374653851884682e-02,1.854085006816719172e-02,3.295623880679943163e-02,-1.186218328370975961e-01,6.176205711894860312e-02,2.491734921932220459e-02,2.243297792558525128e-01,-8.037011835199231458e-02,-8.171258557974665770e-02,-6.247263280721114531e-02,1.029243223813212371e-01,1.989273226357515800e-01,-1.168238812047448366e-01,2.029243223813212427e-01,1.050123559719211563e-01,5.430474402484327667e-01,6.952991485595703125e-01,1.744865179061889648e-01,8.568604136431977736e+01,0.000000000000000000e+00
2.376224999999999810e+00,-3.492632415038237070e-01,1.018743654494704970e-01,8.871692419052124023e-01,1.824884775003416185e-02,1.599818943713304797e-02,3.147132495690496690e-02,-1.280852594756816398e-01,6.319718316527975221e-02,1.043521333485841751e-02,1.927475835765561363e-01,-9.971879789467552602e-02,-2.433940768686763609e-02,-1.397340204375208672e-01,7.916964328004419404e-02,2.264588109857920695e-02,-1.632976293441028293e-01,1.791696432800441996e-01,-6.762292414317080946e-02,5.441359836605593747e-01,6.898729801177978516e-01,3.911653757095336914e-01,9.705698810588118874e+01,0.000000000000000000e+00
2.400332000000000132e+00,-3.534843466526321198e-01,1.032768327104362366e-01,8.867739439010620117e-01,2.469246327918189418e-02,1.160836478897486757e-02,3.176387079397846591e-02,-1.229179945702838506e-01,6.155801418498481337e-02,2.744087576866149902e-02,2.468343774087541076e-01,-1.617744218171691117e-01,-1.063633795671716821e-02,-1.987443663564824603e-01,-4.097296978670204176e-02,-5.720748186476198871e-02,-1.807307384850503629e-01,5.902703021329796379e-02,-1.489479261247725894e-01,5.429156930402176950e-01,6.831325292587280273e-01,-2.958893775939941406e-03,1.217100231602869513e+02,0.000000000000000000e+00
2.424348999999999865e+00,-3.574288632874296212e-01,1.044986778530994226e-01,8.865098357200622559e-01,3.154417436492323867e-02,7.264051293421225353e-03,3.250094772134559662e-02,-1.258156371663494699e-01,5.389693969043234806e-02,2.580222301185131073e-02,2.811250204721375545e-01,-9.291500897099798373e-02,6.835986281363463923e-02,-2.789374224758134346e-01,-3.414386149731142572e-02,7.166010206150597028e-03,-2.121900299490815101e-01,6.585613850268857983e-02,-8.741314820656570506e-02,5.430943627374237304e-01,6.803351640701293945e-01,1.592708826065063477e-01,-2.696985571144159752e-02,0.000000000000000000e+00
