timestamp,x,y,z,roll,pitch,yaw,vx,vy,vz,p,q,r,psp,qsp,rsp,pres,qres,rres,thrust_sp, thrust_res
0.000000000000000000e+00,7.943821304393553981e-03,-1.807063572651121733e-02,1.010234117507934570e+00,1.063994979004354892e-02,-9.232742292508033799e-03,-3.334380144556226000e-03,-1.146133959076419198e-02,2.658486338355805362e-02,-1.604827266419306397e-04,-1.631127041683115911e-02,-3.641462893071258089e-02,6.465691560953069558e-03,-1.383223925975066992e-01,1.484553436253095715e-01,6.057374327926282054e-02,-7.938472859236150869e-02,2.128396339352363331e-01,6.974066503937700889e-02,5.011783184826086313e-01,-5.293039083480834961e-01,4.246479272842407227e-01,1.330591747682068728e+02,3.661947488784790261e-01
2.679600000000000037e-02,8.207728334740640661e-03,-1.689551898948530445e-02,1.010347127914428711e+00,1.085257573895498026e-02,-9.125240091059749759e-03,-2.903266147098459982e-03,-5.842293653799550228e-03,3.261730843376016431e-02,4.000479239039123058e-04,2.677102554388892386e-02,3.055146176548126369e-02,4.190051282321068798e-02,-2.769761929527012612e-01,1.665883478424607100e-01,-2.219773025007322487e-01,-2.184193120019414791e-01,2.238575993428784106e-01,-2.140047429459519257e-01,5.080937763915626126e-01,-1.615937352180480957e-01,3.412843942642211914e-01,9.749737821299611085e+01,3.661947488784790261e-01
5.043600000000000166e-02,8.422985448559057106e-03,-1.574272842070370201e-02,1.010463476181030273e+00,1.120056891557330569e-02,-9.549486541048590738e-03,-3.071522642565049921e-03,7.039887744928225756e-03,3.054493867810321658e-02,-9.564184583723545074e-03,-3.926909808306901922e-02,-1.428046344017402068e-02,-2.714573176823400699e-02,1.333235532900790554e-01,1.732590258558275864e-01,1.712253822346768983e-01,1.959233732898969516e-01,2.235317517017829936e-01,1.796873725129216337e-01,5.008812714239332387e-01,-5.805568695068359375e-01,5.208240747451782227e-01,5.572635572106971580e+01,3.661947488784790261e-01
7.558499999999999941e-02,8.654441567920344996e-03,-1.460507481770465486e-02,1.010521292686462402e+00,1.182249375000125717e-02,-9.772581627386811576e-03,-2.829431793847536625e-03,-8.855916755173278213e-03,3.368745493310951189e-02,-6.464249920099973679e-03,7.965679736685578327e-02,-1.205502003540002455e-02,3.437636508566226795e-02,-2.853906866600183778e-01,1.570351938086799182e-01,-2.271866978221729338e-01,-2.223504421276177034e-01,2.233517608711693414e-01,-2.194634637857715287e-01,5.089381726342762091e-01,-1.430100202560424805e-01,7.186281681060791016e-02,-1.210367850741771321e+02,3.661947488784790261e-01
1.022839999999999999e-01,8.600491203039021398e-03,-1.350463220074198979e-02,1.010509610176086426e+00,1.153302668301669706e-02,-1.030363320674831940e-02,-1.737316381589693037e-03,-3.532212754537917242e-03,3.744655102762726312e-02,-3.974514082074165344e-03,-8.508256795456503249e-03,3.661282370580683405e-03,-1.253791660076358436e-02,-2.700154297601329301e-01,1.601628901651420689e-01,1.904366248640002035e-02,-2.122178080792459509e-01,2.232741942579364314e-01,2.371550729925567258e-02,4.989593699397196769e-01,-6.583540439605712891e-01,8.004844188690185547e-02,9.681796563587658966e+01,3.661947488784790261e-01
1.245659999999999962e-01,8.446052089271224861e-03,-1.297190807013853114e-02,1.010352134704589844e+00,1.044823651772705704e-02,-1.206372026562907429e-02,-1.789429940127096330e-03,4.694698278508083861e-04,3.692653309921050536e-02,-1.660558953881263733e-02,-7.411816975336223134e-02,-1.198930851079035298e-01,3.477466071058234187e-02,9.025301252577111466e-02,1.361617538879930089e-01,1.498843311939138112e-01,1.415883740253111867e-01,2.083467824218575570e-01,1.546926619600847430e-01,5.060614334488784394e-01,-3.360445499420166016e-01,7.347980737686157227e-01,-2.090958937033478193e+01,3.661947488784790261e-01
1.571299999999999919e-01,8.075538549270646488e-03,-1.207666251902492043e-02,1.009858489036560059e+00,8.412811051191678574e-03,-1.532420710742266046e-02,-2.104330240801921548e-04,-1.848438956167113012e-02,3.330992493208418531e-02,-2.681787125766277313e-02,-1.190277986796257625e-01,-6.311376464215102955e-02,8.536259763560344327e-02,1.684295556259063631e-01,8.826804541296009998e-02,2.226213740507928251e-01,2.088013613739094221e-01,1.882680454129601055e-01,2.229603878821189433e-01,5.119622187719848894e-01,-6.606596708297729492e-02,-1.321383714675903320e-01,1.044109571625855466e+02,3.661947488784790261e-01
1.755289999999999906e-01,7.925816228728413404e-03,-1.175878067402931493e-02,1.009591341018676758e+00,6.899460075226004734e-03,-1.659227264740859020e-02,3.258929687843803435e-05,-9.941270612067530654e-03,4.084985327414738382e-02,-3.606780990958213806e-02,-2.343327477220606969e-01,-7.393224138934242906e-02,2.841787238722086675e-02,1.924455459664102253e-01,4.586793484523429831e-02,2.204315991545731657e-01,2.161314935657482617e-01,1.458679348452343039e-01,2.201038542316473556e-01,5.173608384826022810e-01,1.839091777801513672e-01,1.853526830673217773e-01,9.103893574893963603e+01,3.661947488784790261e-01
1.984289999999999943e-01,7.617259653832604734e-03,-1.108523071459470259e-02,1.008937120437622070e+00,3.920071044283567931e-03,-1.948857642043200222e-02,1.946019889857986129e-04,-3.477452618589825430e-03,4.300659492304800130e-02,-4.068643227219581604e-02,-1.083870017196888469e-01,-1.695413319392474472e-01,-2.006205784219551244e-02,1.982436777982085341e-01,8.094327079176344419e-02,1.318989919102661612e-01,2.014338478469010763e-01,1.809432707917634497e-01,1.311590946986864181e-01,5.167365635340162022e-01,1.279511451721191406e-01,8.090615272521972656e-03,1.924286953359534493e+02,3.661947488784790261e-01
2.259519999999999862e-01,7.565787332163181542e-03,-1.037211298994520324e-02,1.007685184478759766e+00,1.825904858841236240e-04,-2.416580408999968732e-02,-1.471295523786997350e-03,-2.159325901763234357e-02,3.183742162998596387e-02,-4.376079887151718140e-02,-8.847160652839161643e-02,-1.315791945829965226e-01,-1.084218447778460409e-01,2.195941275302138451e-01,2.593558472324125619e-02,1.701953332002837660e-01,2.072054649152321459e-01,1.259355847232412617e-01,1.742321682754484902e-01,5.095589964583734366e-01,-2.741565704345703125e-01,1.079744100570678711e-01,9.778751098855990165e+01,3.661947488784790261e-01
2.493420000000000081e-01,7.560522260181549124e-03,-1.007188541761155215e-02,1.006653785705566406e+00,-4.968036620296489630e-04,-2.718484722963410150e-02,-2.979848575138444033e-03,1.304853371627553299e-03,3.430352375169716528e-02,-6.300839036703109741e-02,1.122897064750244187e-02,-1.359324011454323966e-01,-5.080925179131719899e-02,1.752752024809389464e-01,-9.091465118326418071e-02,1.065487616065688287e-01,1.545704885669366424e-01,9.085348816735828309e-03,1.148130128040289327e-01,5.259903648016140965e-01,5.264025926589965820e-01,5.701566934585571289e-01,-7.843935408890881433e+01,3.661947488784790261e-01
2.781959999999999988e-01,7.505660088056919331e-03,-9.604731383140883635e-03,1.004925966262817383e+00,2.233071130898546877e-03,-3.081770672037720260e-02,-6.035893657960977876e-03,-3.221879149506924611e-02,2.947702294156527916e-02,-6.075994297862052917e-02,1.678107906145395456e-01,-1.167107730019313755e-01,-1.077551127115375651e-01,-2.186756336186445326e-01,8.893352153620695533e-02,-2.277366843180620715e-01,-2.178255123533549553e-01,1.889335215362069609e-01,-2.110435181723315512e-01,5.292644751637842759e-01,7.042551040649414062e-01,1.546779870986938477e-01,9.136663456493850788e+01,3.661947488784790261e-01
3.021900000000000142e-01,7.376865134820235516e-03,-9.330569773420838153e-03,1.003656387329101562e+00,5.018177820340564109e-03,-3.285896919257513815e-02,-7.603269243767973862e-03,-1.838574841169497709e-02,2.871145913648816272e-02,-7.618384808301925659e-02,1.160155928912156298e-01,-5.384494388101284529e-02,-4.556522262317028171e-02,-2.360371620184564811e-01,1.089405409472818109e-01,-2.339831200237335873e-01,-2.175272033354263834e-01,2.089405409472818165e-01,-2.130336118877388107e-01,5.297380433662038923e-01,6.606872081756591797e-01,-2.650249004364013672e-02,4.670595711066565769e+01,3.661947488784790261e-01
3.247729999999999784e-01,7.161964927839927116e-03,-8.967401558517983443e-03,1.002268791198730469e+00,9.099444279069866109e-03,-3.462161781197914401e-02,-9.453841934300877270e-03,-2.664889338755473472e-02,3.216375948613402203e-02,-7.312115281820297241e-02,2.360063324902778870e-01,-8.675372926957883313e-02,-9.424777828232386301e-02,-2.587334295176207388e-01,1.046936440788614475e-01,-2.390894847669779444e-01,-2.169048555064750361e-01,2.046936440788614531e-01,-2.132259379603785310e-01,5.288578237344039312e-01,6.155591011047363281e-01,-1.755440235137939453e-02,9.613981664375353375e+01,3.661947488784790261e-01
3.494740000000000069e-01,6.925429760541269159e-03,-8.560317160226559030e-03,1.000895738601684570e+00,1.310214672902592845e-02,-3.527965658938203575e-02,-1.118759504317190512e-02,-3.783669458795121954e-02,2.923433703834455930e-02,-8.818738907575607300e-02,1.806360943634539029e-01,1.315548573065548205e-02,-4.348387145065620019e-02,-2.863187771102841395e-01,1.226628815828071928e-01,-2.502819215698768307e-01,-2.159380295679100004e-01,2.226628815828071983e-01,-2.197908783441825109e-01,5.279332641309955054e-01,4.957122802734375000e-01,5.055272579193115234e-02,9.112292658516328459e+01,3.661947488784790261e-01
3.737699999999999911e-01,6.557065374818760173e-03,-8.066533506609015886e-03,9.994621276855468750e-01,1.700709865721663008e-02,-3.492794518266739701e-02,-1.174694074630688867e-02,-3.429260534570996444e-02,3.659083133810552002e-02,-8.841767907142639160e-02,1.669873625635861225e-01,4.855072363431205129e-02,-3.272803045588131704e-02,-3.052482557352720893e-01,1.236946870959575451e-01,-2.545070493886142371e-01,-2.161768793851349402e-01,2.236946870959575506e-01,-2.226897256419208271e-01,5.287323937971659671e-01,5.283243656158447266e-01,2.635170221328735352e-01,9.263678337318324907e+01,3.661947488784790261e-01
4.020020000000000260e-01,6.054603967353674142e-03,-7.512618593431911670e-03,9.979515075683593750e-01,1.835261376507284561e-02,-3.432338228005327174e-02,-1.048923822184311128e-02,-4.658940898106761486e-02,4.000865867150203009e-02,-8.528103679418563843e-02,1.743170277183185915e-02,3.647969150260291227e-02,1.363794911695162537e-01,-3.122504951506540061e-01,3.548969867033308079e-02,1.559995370650004154e-01,-2.163985198480863348e-01,1.354896986703330863e-01,1.841762705336004724e-01,5.272592602236112480e-01,4.498339891433715820e-01,1.826089620590209961e-01,9.749256975982041240e+01,3.661947488784790261e-01
4.237799999999999900e-01,5.758503419675585835e-03,-7.145446174396325248e-03,9.972124695777893066e-01,1.845846186762358648e-02,-3.417572382131961461e-02,-9.968444295921141673e-03,-4.538073065178834659e-02,3.504582955284313989e-02,-7.457600533962249756e-02,-1.600223528255364375e-02,-5.327896056574666500e-02,4.357149033495601870e-02,-1.958507657282002323e-01,-3.071003850235742849e-01,-1.134212090219888780e-01,-9.585076572820022678e-02,-2.071003850235743071e-01,-8.665911038122831034e-02,5.122309018968437266e-01,-3.250407576560974121e-01,6.181718111038208008e-01,-5.879850992294434064e+01,3.661947488784790261e-01
4.524420000000000108e-01,4.625996780052583565e-03,-5.980035778696768389e-03,9.950045347213745117e-01,1.470587251469344242e-02,-3.418088220074055883e-02,-7.031009524270270816e-03,-5.134618740748414512e-02,4.340922311679302342e-02,-7.932601124048233032e-02,-2.206456929808925660e-01,-2.413946494125250586e-02,9.280860368445359443e-02,1.328270732191916825e-01,-2.797574753491602895e-01,1.992587079924435511e-01,2.009985937564960634e-01,-1.797574753491602839e-01,2.179081825908372183e-01,5.160514273419273268e-01,-1.525863409042358398e-01,3.584063053131103516e-02,5.078916713990434317e+01,3.661947488784790261e-01
4.761329999999999729e-01,3.829754246799329121e-03,-5.383112078005595699e-03,9.935685396194458008e-01,1.052896996747511131e-02,-3.530618614416369816e-02,-4.619256112672331938e-03,-6.019190184653099018e-02,5.277296994124204554e-02,-7.971530407667160034e-02,-2.151116762728810805e-01,-6.637297319050677880e-02,1.398009163474175920e-01,1.660508734707491774e-01,-2.911628368201375494e-01,1.948188960471455289e-01,2.004430849266755355e-01,-1.911628368201375161e-01,2.068409618434456920e-01,5.134882706470492719e-01,-3.014909625053405762e-01,-7.410323619842529297e-02,9.507684796360280188e+01,3.661947488784790261e-01
5.013379999999999503e-01,2.873584378408567275e-03,-4.717554673321213560e-03,9.922311902046203613e-01,5.522645347718417065e-03,-3.734892598394101704e-02,-2.364752691005778118e-03,-6.925636633016511723e-02,4.661485567612085740e-02,-6.637340784072875977e-02,-2.417538593359246368e-01,-1.581186196870954797e-01,8.523574385362883699e-02,1.918014816346211016e-01,-3.014062570933054852e-01,1.253150584167483095e-01,1.992992280866570376e-01,-2.014062570933054797e-01,1.313216530853680564e-01,5.074124518660250160e-01,-5.809316039085388184e-01,2.025424242019653320e-01,7.213760299460160752e+01,3.661947488784790261e-01
5.255250000000000199e-01,1.855460670154509542e-03,-4.011444746976529536e-03,9.909746050834655762e-01,-4.732707285768652616e-04,-3.914304683845148958e-02,-9.695481486045043340e-04,-7.118415137096277545e-02,4.768044756487403724e-02,-6.541699171066284180e-02,-3.492438567271929362e-01,-6.004988176701590158e-02,7.998895431846233042e-03,2.431901899783500409e-01,-2.800425825430955529e-01,1.881829008932994207e-01,2.094379213971016840e-01,-1.800425825430955751e-01,1.906220524200738509e-01,5.146612502592312621e-01,-2.000657320022583008e-01,8.948789834976196289e-01,2.241455666714997363e+01,3.789757966995239147e-01
5.484660000000000091e-01,7.495253742405154395e-04,-3.282360229967529186e-03,9.897438883781433105e-01,-6.552018008273398190e-03,-4.100235721277933898e-02,-6.590160082498019989e-04,-5.586372942665795982e-02,6.130094892748868401e-02,-7.172346115112304688e-02,-2.769001094780386141e-01,-6.696740785045735000e-02,2.198025506678429747e-02,2.972938829165940877e-01,-2.839099101582072127e-01,1.877282301025208766e-01,2.128441667425965689e-01,-1.839099101582072349e-01,1.895804050654150141e-01,5.173349711519009686e-01,-9.052932262420654297e-02,4.745336771011352539e-01,1.413886860836857977e+02,3.789757966995239147e-01
5.762159999999999505e-01,-7.984738822004247560e-04,-1.933113666382811971e-03,9.878261089324951172e-01,-1.640807016071609697e-02,-3.952713730587342766e-02,-4.441103972283588774e-04,-7.962041843326186918e-02,5.749389375037217836e-02,-6.589896231889724731e-02,-3.193131985362279157e-01,1.040345394527916190e-01,-6.911938042957652129e-02,3.150893272088721719e-01,-1.498549899480167147e-01,2.228626087831286906e-01,2.150893272088721386e-01,-4.985498994801671607e-02,2.248214954351248074e-01,5.234514558737048961e-01,2.507907152175903320e-01,1.825124025344848633e-01,1.285097496866014524e+02,3.789757966995239147e-01
5.991440000000000099e-01,-1.646242596305805750e-03,-9.850552969478299122e-04,9.865542054176330566e-01,-2.073228706682126582e-02,-3.653746283004588591e-02,-1.518937423607313875e-03,-6.359999086566359150e-02,6.130761972980404428e-02,-8.270832896232604980e-02,-1.804094790782783120e-01,2.139117468938732669e-01,-4.285228587610241668e-02,2.978260426611405998e-01,1.037087413295855187e-01,2.308336384227717419e-01,1.978260426611405942e-01,2.037087413295855243e-01,2.359434858619010311e-01,5.311129658282349730e-01,5.926289558410644531e-01,-1.332243680953979492e-01,6.884717985251548100e+01,3.789757966995239147e-01
6.281240000000000157e-01,-2.985795232173173771e-03,4.130831691188315306e-04,9.846417903900146484e-01,-2.162040973175977446e-02,-3.013894803685901458e-02,-4.252366261334294961e-03,-7.637924472756653371e-02,5.702897558803959183e-02,-7.413141429424285889e-02,7.338506007970850564e-02,2.476637278336056291e-01,-7.281794730217781841e-02,3.187282625323586416e-01,-7.258572712087286993e-02,2.229189903128698247e-01,2.187282625323586360e-01,2.741427287912713215e-02,2.356673262250118528e-01,5.328665281890146987e-01,7.105412483215332031e-01,4.382685422897338867e-01,3.259848824794946154e+01,3.789757966995239147e-01
6.523649999999999727e-01,-3.934655069104921882e-03,1.347022039474584862e-03,9.833238720893859863e-01,-1.938560462581818272e-02,-2.452446387917106563e-02,-6.486110048100179881e-03,-6.033152858198542051e-02,6.001577310017621597e-02,-8.133153617382049561e-02,1.000436207136266992e-01,2.897217501787732186e-01,-1.125153359746118575e-01,3.194028593425606299e-01,6.747328427873408585e-02,2.179377877501603167e-01,2.194028593425605966e-01,1.674732842787340914e-01,2.366507935565285714e-01,5.335972379900610907e-01,7.124125957489013672e-01,-2.590256929397583008e-01,1.581047544545915855e+02,3.789757966995239147e-01
6.745679999999999454e-01,-4.908280670474463384e-03,2.371364559017909157e-03,9.819195270538330078e-01,-1.532347889990340502e-02,-1.850333731705222640e-02,-8.729838921526900108e-03,-7.876163292180339559e-02,6.130426833592636515e-02,-7.808877527713775635e-02,2.710183371154776810e-01,2.799557222517500832e-01,-1.138538783864070786e-01,3.134828611907764517e-01,1.096939453153454869e-01,2.040062319890327269e-01,2.134828611907764462e-01,2.096939453153454924e-01,2.287776075819725752e-01,5.330090319584556147e-01,6.820936203002929688e-01,-1.916035413742065430e-01,1.234643982297397571e+02,3.789757966995239147e-01
7.018600000000000394e-01,-5.774028276385047287e-03,2.791612837045976975e-03,9.804211854934692383e-01,-1.096272531398658628e-02,-1.244387323917828247e-02,-1.108934921283988295e-02,-7.395092058440201621e-02,5.805722839442085947e-02,-7.986452430486679077e-02,1.849972505744662266e-01,3.169380089492898067e-01,-1.002088541682842060e-01,3.128540781561237605e-01,1.134336696304019121e-01,1.868129690041469004e-01,2.128540781561237827e-01,2.134336696304019176e-01,2.179928434130798953e-01,5.311975269807281963e-01,5.648758411407470703e-01,4.312828779220581055e-01,-5.007376288095345274e+01,3.789757966995239147e-01
7.279499999999999860e-01,-7.157604569711970878e-03,3.550508789507944660e-03,9.781010746955871582e-01,-2.122135231486356379e-03,-4.111196589898336029e-03,-1.507234536914547895e-02,-6.802298415803212372e-02,6.477221058741720883e-02,-8.836904168128967285e-02,3.330055631643675795e-01,2.501319045566322563e-01,-1.028287767595761071e-01,-5.355905240005581075e-02,1.489857739708124462e-01,-2.559784243548021143e-01,-1.152879827703853083e-01,2.269173236678366234e-01,-2.138650489616575889e-01,5.328345927213025135e-01,6.064463853836059570e-01,6.195652484893798828e-02,9.171247436337293379e+01,3.789757966995239147e-01
7.500360000000000360e-01,-8.635377736920839958e-03,4.411554672121491098e-03,9.758283495903015137e-01,8.342429733376942672e-03,1.005829816690173573e-03,-1.991388903118318510e-02,-7.636010798386796972e-02,6.049932249867606693e-02,-8.318677544593811035e-02,3.765326375292550320e-01,1.005958686940164049e-01,-1.504379336587558236e-01,-2.330192890426956986e-01,1.758227131968648216e-01,-2.811786223587374733e-01,-2.227473595066928325e-01,2.294999325032097970e-01,-2.255955222319803999e-01,5.301403490135747631e-01,4.645987749099731445e-01,2.946807146072387695e-01,9.221685651282169260e+01,3.789757966995239147e-01
7.761609999999999898e-01,-9.672715055946102050e-03,4.962512294753852922e-03,9.743995666503906250e-01,1.525687354769081350e-02,2.495819043325742115e-03,-2.325987955124220186e-02,-7.200237699043839090e-02,5.678026207121664171e-02,-7.742042839527130127e-02,3.049364368254446345e-01,8.562058204128350503e-02,-1.869815131388331830e-01,-2.797460372201677203e-01,1.885375492121083574e-01,-2.919742022580810170e-01,-2.226677653728198203e-01,2.292277033298902311e-01,-2.270376388501051945e-01,5.274359003224022846e-01,3.288919925689697266e-01,3.534506559371948242e-01,-1.548248019925030974e+02,3.789757966995239147e-01
8.013890000000000180e-01,-1.095691275223003615e-02,5.471936638628202565e-03,9.730107188224792480e-01,2.230189936908581055e-02,3.263504206049372414e-03,-2.619668552422438346e-02,-7.220029324281705685e-02,6.158972596963305235e-02,-7.358211278915405273e-02,3.543893102905742443e-01,1.943380918730773857e-02,-1.094739675732256667e-01,-3.201756293059010439e-01,1.896680890461090729e-01,-3.006701163791893339e-01,-2.219660781570109431e-01,2.277582714777622586e-01,-2.275613627235815173e-01,5.231965484879842476e-01,1.028802394866943359e-01,-3.340923786163330078e-02,1.347366555679836608e+02,3.789757966995239147e-01
8.238020000000000342e-01,-1.318069905998854423e-02,5.992453645669849199e-03,9.709854125976562500e-01,3.277091861720616423e-02,2.525335864167033151e-03,-3.129452455373216146e-02,-7.866969699923045956e-02,5.620195899297165953e-02,-6.154305115342140198e-02,4.116032623786501365e-01,-7.492219745749809090e-02,-1.866767698430250311e-01,-3.211537531745494167e-01,1.764938951391735455e-01,-3.170183218984931051e-01,-2.211537531745493834e-01,2.269325758326549702e-01,-2.298210469609189011e-01,5.211459514890880440e-01,2.683103084564208984e-02,-9.335958957672119141e-01,1.255444093980620721e+02,3.789757966995239147e-01
8.476909999999999723e-01,-1.468556986358233486e-02,6.258151878154319218e-03,9.697294235229492188e-01,3.922741797830642946e-02,1.166687246730413463e-03,-3.467145536430304986e-02,-7.637334068137513476e-02,4.075504227721549882e-02,-6.363736838102340698e-02,2.705020432193070423e-01,-8.530784973551977513e-02,-1.550578967690947052e-01,-3.201936061393385602e-01,1.683223119048352645e-01,-3.276946657143879893e-01,-2.201936061393385269e-01,2.263183638161605782e-01,-2.311670608072127486e-01,5.214162495652187035e-01,2.373445034027099609e-02,-9.627449512481689453e-02,9.542741425294286728e+01,3.789757966995239147e-01
8.765789999999999971e-01,-1.777858101228469573e-02,6.770994013499453089e-03,9.674919843673706055e-01,5.011874510585848097e-02,-2.865087402371013781e-03,-3.639217391223392717e-02,-6.748061548256367725e-02,4.262534405820755934e-02,-4.707296565175056458e-02,1.623086390731452444e-01,-1.519440264379602057e-01,1.269235528489871291e-02,-3.181135504355693255e-01,1.428448754210104310e-01,-3.259381998981553119e-01,-2.181135504355692922e-01,2.235641532633705353e-01,-2.259381998981552786e-01,5.142243745820782586e-01,-3.103250265121459961e-01,5.978500843048095703e-02,1.030780115951117040e+02,3.789757966995239147e-01
9.004199999999999982e-01,-1.976991623546487872e-02,7.033016186803766473e-03,9.665200710296630859e-01,5.123657519346611067e-02,-4.349582040180877129e-03,-3.534136677046895159e-02,-9.063821799826576875e-02,3.736078617556799070e-02,-5.479079484939575195e-02,-7.405590319311050780e-03,-6.664424001965837951e-02,9.017131924478970217e-02,-3.147164424193857890e-01,1.157361408822066284e-01,-2.822302174041533829e-01,-2.147164424193857835e-01,2.157361408822066340e-01,-1.846212455322324697e-01,5.122612359924890724e-01,-4.544614553451538086e-01,1.787630319595336914e-01,-1.265956028320837135e+02,3.789757966995239147e-01
9.238389999999999658e-01,-2.175015948485566758e-02,7.340379370707788426e-03,9.656646251678466797e-01,4.981021676072833887e-02,-6.423983550268408393e-03,-3.404402181074339673e-02,-7.452508700344837034e-02,4.832855774230858381e-02,-4.146544262766838074e-02,-1.103532742750051726e-01,-9.547247835445804576e-02,2.909834361213649995e-02,-3.157639965943973004e-01,1.236492113269437032e-01,-1.873646234723287951e-01,-2.157639965943972948e-01,2.236492113269437088e-01,-9.337872271795107093e-02,5.089766579899308585e-01,-5.834233760833740234e-01,-8.359658718109130859e-02,7.026715569039362208e+01,3.841048002243042103e-01
9.522800000000000153e-01,-2.481735768529066966e-02,7.745930727707005595e-03,9.645691514015197754e-01,4.357015715137223938e-02,-1.078941500180508051e-02,-3.105416337931021786e-02,-8.604756968585379473e-02,3.273303080301104978e-02,-3.283881023526191711e-02,-2.209923830175142823e-01,-2.229286177945949687e-01,7.469342048351608476e-02,-3.153029767258157534e-01,1.194284621497144483e-01,-1.183820254562918395e-01,-2.153029767258157201e-01,2.194284621497144538e-01,-3.299976966349883051e-02,5.089822785431566965e-01,-5.570067167282104492e-01,2.407681941986083984e-02,9.641982707896738702e+01,3.841048002243042103e-01
9.757040000000000157e-01,-2.688003110195777076e-02,7.944516390677964363e-03,9.639886021614074707e-01,3.768153676141592495e-02,-1.400422007266244329e-02,-2.887790591687133812e-02,-8.886953119326380934e-02,3.405474717313934641e-02,-3.676222264766693115e-02,-3.238907883915913555e-01,-1.309104281241225132e-01,9.034738639648255687e-02,-2.872467175322744870e-01,1.151374111292005897e-01,7.675560136756742757e-04,-1.872467175322744815e-01,2.151374111292005953e-01,8.002274584510599142e-02,5.101491842919816389e-01,-5.165865421295166016e-01,1.098598241806030273e-01,1.323244239984319108e+02,3.841048002243042103e-01
1.001333000000000029e+00,-2.882297368506717139e-02,8.270704908403233094e-03,9.634643197059631348e-01,3.128554695651764028e-02,-1.762498501022924380e-02,-2.628236199647870919e-02,-8.714251857789774569e-02,2.975585743679065934e-02,-3.946532309055328369e-02,-3.305398085751701798e-01,-1.410023172371822064e-01,1.639530296198409842e-01,-2.314932083461666290e-01,7.243013383671029204e-02,8.120232044634648205e-02,-1.314932083461666235e-01,1.724301338367102976e-01,1.532725815408843284e-01,5.115690300200901319e-01,-4.575320482254028320e-01,3.036512136459350586e-01,1.121964507408621188e+02,3.841048002243042103e-01
1.026485000000000092e+00,-3.148579185672276820e-02,8.985648037120468751e-03,9.628452658653259277e-01,2.077062093271235879e-02,-2.301827290978697427e-02,-2.231877679437732631e-02,-9.559968802817682410e-02,2.635643299142346671e-02,-3.757197409868240356e-02,-3.525733307174021003e-01,-1.317911553808547576e-01,1.366029109474104775e-01,8.599450984491205374e-02,-2.374263946445625273e-01,1.607027594981696728e-01,1.859945098449120593e-01,-1.374263946445625217e-01,2.218959675193359626e-01,5.097116499359681807e-01,-5.553464889526367188e-01,6.122907400131225586e-01,8.739783703448671304e+01,3.841048002243042103e-01
1.055039999999999978e+00,-3.333061771999124706e-02,9.443379063868072298e-03,9.624118208885192871e-01,1.359557305904614266e-02,-2.637170668091126657e-02,-1.956813062402629200e-02,-9.167332448817891444e-02,2.920014319181509291e-02,-2.891708351671695709e-02,-3.324816806043073836e-01,-1.552383691675681687e-01,1.082810703158107041e-01,1.379776068617937224e-01,-2.548590455052576753e-01,1.603752042178878956e-01,1.957333221926020050e-01,-1.548590455052576698e-01,2.141374417519571749e-01,5.072594505094395467e-01,-6.561530232429504395e-01,6.132757663726806641e-02,9.553240792086430133e+01,3.841048002243042103e-01
1.073935000000000084e+00,-3.519666865864033711e-02,9.904496284256769645e-03,9.619452953338623047e-01,5.876491938021637107e-03,-2.943763824979761523e-02,-1.729709692382197517e-02,-9.926641351028381299e-02,2.531107321765819346e-02,-3.737838938832283020e-02,-4.002455866485420954e-01,-1.643582040002615763e-01,9.442905018523430061e-02,1.893453373361717318e-01,-2.840596736665029765e-01,1.516061257416004282e-01,2.000374915306067647e-01,-1.840596736665029431e-01,1.994066987817048608e-01,5.078081306971691244e-01,-6.664159893989562988e-01,-2.983319759368896484e-02,9.128122304936749742e+01,3.841048002243042103e-01
1.102759999999999962e+00,-3.811268399970493825e-02,1.064615603854179686e-02,9.611238241195678711e-01,-5.260370060278143044e-03,-3.393342621813033588e-02,-1.432406371737338091e-02,-9.407955984977874053e-02,2.975142683034409999e-02,-4.566536471247673035e-02,-3.900412936712188694e-01,-1.297402256327838399e-01,1.101864902864709006e-01,2.751316534850192230e-01,-2.708620794676245280e-01,1.539317267212400309e-01,2.086721228979723786e-01,-1.708620794676244947e-01,1.940531241864728307e-01,5.109787938251306727e-01,-5.382180213928222656e-01,1.168459653854370117e-01,3.827159556123785933e+01,3.841048002243042103e-01
1.127504999999999979e+00,-4.028721576688337747e-02,1.193596378086712005e-02,9.604623317718505859e-01,-1.207552592124402392e-02,-3.687110613981392504e-02,-1.347072587582109904e-02,-1.069649917131898637e-01,3.272250019000884358e-02,-3.906212374567985535e-02,-2.961749863331062937e-01,-1.414541134842368653e-01,-1.065099971313062006e-02,3.128520795163245438e-01,-2.898941154870642301e-01,1.561971325480246420e-01,2.128520795163245105e-01,-1.898941154870642523e-01,1.944057666530384920e-01,5.165096498302721439e-01,-2.236655950546264648e-01,-4.889190196990966797e-02,-1.504675920945201710e+02,3.841048002243042103e-01
1.157869999999999955e+00,-4.358029398825059852e-02,1.395481254844648140e-02,9.592778682708740234e-01,-2.183970415996991724e-02,-4.080236795477620859e-02,-1.357502105621533062e-02,-1.012162989079444936e-01,3.327496275450669144e-02,-4.640653729438781738e-02,-3.013102355446110603e-01,-1.592042000298329318e-01,-6.405475177524828923e-02,3.148088799702100649e-01,-2.789269759270329718e-01,1.659466169918506762e-01,2.148088799702100593e-01,-1.789269759270329385e-01,2.052296455142569032e-01,5.245520006716929418e-01,1.726522445678710938e-01,5.788682699203491211e-01,5.493201155078640596e+01,3.841048002243042103e-01
1.177874000000000088e+00,-4.696762720860451351e-02,1.613064659616517127e-02,9.577423334121704102e-01,-2.973410503042074257e-02,-4.249989194105774359e-02,-1.501110841917574490e-02,-1.109075321375318501e-01,4.930508561032394266e-02,-6.974619626998901367e-02,-2.327380753496519350e-01,3.043696083935837349e-02,-5.019886782708372908e-02,3.156082413809511711e-01,-2.432333091069809883e-01,1.786884364417348214e-01,2.156082413809511655e-01,-1.432333091069809827e-01,2.225477679127843000e-01,5.300332474321145515e-01,3.669643402099609375e-01,-1.767183542251586914e-01,9.423714450704142109e+01,3.841048002243042103e-01
1.198320000000000052e+00,-4.927595397543527850e-02,1.767503820404409121e-02,9.565504193305969238e-01,-3.224269266894681796e-02,-4.169124307334426405e-02,-1.658731288600612253e-02,-1.024352712599790882e-01,4.893840099497293733e-02,-7.118318229913711548e-02,-6.327355057586321607e-02,5.992115769050481572e-02,-9.074221120055894763e-02,3.120622217460380377e-01,-2.224140994366069768e-01,1.764345883724620923e-01,2.120622217460380599e-01,-1.224140994366069712e-01,2.248730500066808691e-01,5.237701657268548638e-01,9.805083274841308594e-03,2.053657770156860352e-01,8.144335324815045851e+01,3.841048002243042103e-01
1.224882999999999944e+00,-5.305919758702581229e-02,1.908361555809779536e-02,9.545035362243652344e-01,-3.229517860120006273e-02,-3.739475973367234474e-02,-1.917260768007178484e-02,-1.164194300060345938e-01,5.155711082626750208e-02,-7.502989470958709717e-02,3.954945610090727232e-02,2.168439694941372287e-01,-1.013112272096575450e-01,3.133050485929110285e-01,-4.156816109682283378e-02,1.782700327907681126e-01,2.133050485929110229e-01,5.843183890317717177e-02,2.338450861888134169e-01,5.306408325551333904e-01,3.543484210968017578e-01,3.013566732406616211e-01,8.918744221967843089e+01,3.841048002243042103e-01
1.248963000000000045e+00,-5.691872722500958964e-02,2.065897033133637720e-02,9.521751999855041504e-01,-2.741880660610615181e-02,-3.059626624921785165e-02,-2.213787581348558575e-02,-1.103295738428314438e-01,6.056126448419172498e-02,-9.682162851095199585e-02,2.046320919655982840e-01,2.520343320300350021e-01,-6.334909561184219606e-02,3.080821694452984261e-01,-1.540224704650675069e-01,1.672372154358501006e-01,2.080821694452983928e-01,-5.402247046506751527e-02,2.304544970873939336e-01,5.362353851387938741e-01,5.597331523895263672e-01,2.294398546218872070e-01,9.332853810213296697e+01,3.841048002243042103e-01
1.275106999999999990e+00,-6.080579131778745400e-02,2.247624761364315493e-02,9.497568011283874512e-01,-1.916681274715251529e-02,-2.177966940124331785e-02,-2.539809870519205148e-02,-1.131749649857720086e-01,7.383214388714570697e-02,-9.526792913675308228e-02,3.311754348559616257e-01,3.486932167745357969e-01,-9.709870892092109518e-02,3.086449655584010410e-01,-1.271664268013685817e-01,1.582386599027626184e-01,2.086449655584010077e-01,-2.716642680136858307e-02,2.298279033841412466e-01,5.353352686982391084e-01,4.987373352050781250e-01,-1.631389856338500977e-01,3.537345408884765874e+01,3.841048002243042103e-01
1.295968999999999927e+00,-6.337588182181773389e-02,2.375317030675461530e-02,9.480177164077758789e-01,-1.275014203457594010e-02,-1.576749882157790772e-02,-2.782298200377542052e-02,-1.073891708932416672e-01,6.552946702164852422e-02,-9.565311670303344727e-02,3.219226119149971033e-01,2.683820071103061866e-01,-1.016537925349925153e-01,2.949467470915637657e-01,1.057448614018164923e-01,-1.845233354788557850e-02,1.949467470915637324e-01,2.057448614018164978e-01,5.959896529376077640e-02,5.369668005840934066e-01,5.734593868255615234e-01,-3.540033102035522461e-01,9.368376258048699867e+01,3.841048002243042103e-01
1.321741000000000055e+00,-6.716743542638121955e-02,2.562840322663038559e-02,9.452702403068542480e-01,-2.774641542183476500e-03,-6.431189160807537775e-03,-3.124132581884797588e-02,-1.160702062084837810e-01,7.725045822298182152e-02,-1.107488796114921570e-01,2.890299123579587737e-01,3.452936486612476208e-01,-6.096968054070138476e-02,2.947480222555236562e-01,1.155205414427218635e-01,-2.436313891944670018e-01,2.054860614756812420e-01,2.155205414427218691e-01,-1.564754784632066131e-01,5.364944760507583954e-01,4.676947593688964844e-01,2.638515233993530273e-01,9.396531663845325966e+01,3.841048002243042103e-01
1.348503000000000007e+00,-7.092129742138711390e-02,2.773198385631131524e-02,9.424811005592346191e-01,7.400010068800064005e-03,1.725482796921529172e-03,-3.479658759945847279e-02,-1.084689226707205717e-01,8.456764742888324415e-02,-1.023288965225219727e-01,3.678664495393148548e-01,2.186721594944671665e-01,-1.043208942452939769e-01,-1.846031028960563036e-01,1.323508652574864886e-01,-3.174127701119007772e-01,-2.128106824573682554e-01,2.323508652574864941e-01,-2.204727047669750029e-01,5.402129576298175806e-01,6.880826950073242188e-01,1.639050245285034180e-01,9.307149759309788806e+01,3.841048002243042103e-01
1.374994000000000050e+00,-7.450312582048981835e-02,2.991810326481473409e-02,9.398630261421203613e-01,1.720210046305900922e-02,8.583161581320331024e-03,-3.846095275646033151e-02,-1.145591962313680934e-01,8.176224416128302641e-02,-8.253329247236251831e-02,3.632760656860561377e-01,1.934778612500697437e-01,-1.180294938751852013e-01,-2.565696616809408637e-01,1.512616328327542059e-01,-3.225068005891076339e-01,-2.188154667155469135e-01,2.320319694329800453e-01,-2.225068005891076561e-01,5.388017566381145818e-01,6.700060367584228516e-01,1.041702032089233398e-01,1.284973870442037196e+02,3.841048002243042103e-01
1.400635000000000074e+00,-7.817731948915393470e-02,3.215914350677223643e-02,9.374136924743652344e-01,2.593078705039401910e-02,1.512949600467017319e-02,-4.152635493663048294e-02,-8.400423758449233891e-02,8.442893256337249963e-02,-7.573509961366653442e-02,2.620946346334648291e-01,2.281644240465762197e-01,-1.272878973872395847e-01,-3.095411648243786007e-01,2.142102262925338063e-01,-3.119709786265816298e-01,-2.192642275273380681e-01,2.317131658723605159e-01,-2.119709786265815965e-01,5.384992793467964223e-01,6.645045280456542969e-01,-6.135504245758056641e-01,1.042344445838648994e+02,3.841048002243042103e-01
1.425983000000000001e+00,-8.184382853089978982e-02,3.448705794569336541e-02,9.352470636367797852e-01,3.441166906791869734e-02,2.023740167606025153e-02,-4.196537902918096030e-02,-9.943613840937441661e-02,8.490831647113140923e-02,-6.403791159391403198e-02,3.204111613789240032e-01,6.965661086307280148e-02,-3.287029329055789467e-03,-3.208299036237363122e-01,2.250171824228209827e-01,-3.245510017073680586e-01,-2.208299036237363344e-01,2.292011969243695491e-01,-2.245510017073680253e-01,5.325216711143007098e-01,3.646844625473022461e-01,-5.059365034103393555e-01,9.504856415024977423e+01,3.841048002243042103e-01
1.447076000000000029e+00,-8.425194686541773170e-02,3.602351847912316218e-02,9.341404438018798828e-01,4.003143434729678624e-02,2.176351076318128186e-02,-4.046646666842446116e-02,-1.050606164875719506e-01,7.333550915844977425e-02,-5.754207447171211243e-02,2.489174271490571522e-01,5.049428371567272339e-02,1.018388959063105809e-01,-3.220402004974803334e-01,2.291342015422881406e-01,-3.254827001082238325e-01,-2.220402004974803278e-01,2.276897945860800188e-01,-2.254827001082238269e-01,5.294448858830830273e-01,2.111152410507202148e-01,-2.026861906051635742e-01,1.127619084418691386e+02,3.841048002243042103e-01
1.471840000000000037e+00,-8.769598062391778526e-02,3.837588857735779735e-02,9.328307509422302246e-01,4.512111336381396248e-02,2.097572371340339359e-02,-3.608236169950518324e-02,-8.815877776181180181e-02,7.284025511363485805e-02,-3.852523863315582275e-02,1.045647698970393613e-02,-4.326365952548346522e-02,1.547440506317289410e-01,-3.191276228028527839e-01,2.353287415890690792e-01,-2.255994458612374243e-01,-2.191276228028527506e-01,2.280913894455397217e-01,-1.255994458612374187e-01,5.131340853449648520e-01,-6.053385138511657715e-01,-7.025563716888427734e-02,9.964445500877877748e+01,3.841048002243042103e-01
1.500450000000000061e+00,-9.272853289861753001e-02,4.116797096599408845e-02,9.316212534904479980e-01,4.035152157933821065e-02,1.831901746508957096e-02,-2.804671558507498830e-02,-7.775149548984909564e-02,9.742538693007522788e-02,-1.535407919436693192e-02,-2.061774602064953277e-01,-1.003704460138304250e-01,2.242262315785099602e-01,3.947264652029078280e-02,2.158048006423499143e-01,8.287644893057824480e-02,1.394726465202907884e-01,2.236209058650005799e-01,1.613138413779864611e-01,5.099200917596101723e-01,-6.947290301322937012e-01,-1.339539289474487305e-01,1.218839470973121593e+02,3.841048002243042103e-01
1.524855000000000071e+00,-9.604733411116191111e-02,4.335223362540887443e-02,9.312334060668945312e-01,3.148230992861660721e-02,1.516725346148817266e-02,-2.055222047824911691e-02,-5.836943691472558371e-02,9.779506289874301261e-02,-1.182437315583229065e-02,-2.742173172033128825e-01,-9.248838482624950619e-02,2.411055827039643995e-01,1.102122105185797674e-01,2.011078843410370187e-01,1.112028443666272237e-01,2.102122105185797729e-01,2.170669983774520251e-01,1.685893462872862514e-01,5.104286119606757932e-01,-6.586950421333312988e-01,5.274045467376708984e-02,1.814247961301993257e+02,3.841048002243042103e-01
1.548531000000000102e+00,-9.909935365847437339e-02,4.560613429469825841e-02,9.313489198684692383e-01,2.173226591471046770e-02,1.037672323008465014e-02,-1.254318718780300657e-02,-6.438509579346875233e-02,9.264506528373439576e-02,7.016562391072511673e-03,-2.957030484763354949e-01,-1.896070383693696515e-01,2.393746089633660701e-01,1.721100624481061714e-01,1.544622522228808748e-01,1.695099003469467125e-01,2.156733484294200975e-01,2.107522034466627059e-01,2.041834670028529752e-01,5.098956608231065557e-01,-6.156517863273620605e-01,-2.644211053848266602e-01,9.738818397873511401e+01,3.841048002243042103e-01
1.575248999999999899e+00,-1.016180100009487497e-01,4.911418748994154926e-02,9.315574169158935547e-01,1.225917001994637420e-02,4.812959258593707546e-03,-6.076421657057684556e-03,-2.424798657263155591e-02,8.703409105726696293e-02,-8.875501342117786407e-03,-2.312408547378327073e-01,-2.264720560690706708e-01,1.240086827578109618e-01,2.336232490675388407e-01,1.519209931578214823e-01,1.924486834517490086e-01,2.160951101928631490e-01,2.128803595215320588e-01,2.091053452162479342e-01,5.124211241818695806e-01,-5.455658435821533203e-01,6.615532636642456055e-01,1.221335068416587966e+01,4.112364053726196289e-01
1.601242999999999972e+00,-1.037843905695674390e-01,5.307472108414464790e-02,9.318209290504455566e-01,7.742661000473469862e-03,-2.398765703041316755e-03,-1.869259634403208636e-03,-3.043558070732711035e-02,7.057016270216899534e-02,9.934311732649803162e-03,-5.977172622311821559e-02,-2.742614535674429699e-01,1.028045053352715787e-01,2.548641668565608254e-01,9.312172368929552690e-02,2.145182763343248533e-01,2.165248889377670016e-01,1.931217236892955325e-01,2.191984067409403214e-01,5.130456672016030506e-01,-4.399774074554443359e-01,4.129861593246459961e-01,-1.827169859588957124e+01,4.112364053726196289e-01
1.624446999999999974e+00,-1.050426400886903672e-01,5.568519369674079789e-02,9.319602251052856445e-01,7.176662356238330820e-03,-5.638783367708288807e-03,5.708568029061389382e-05,-2.960528754119669259e-02,8.207049535630296655e-02,-1.131254620850086212e-02,4.427444555806317635e-03,-1.279766692027810016e-01,1.231165868792726964e-01,2.657665786230615779e-01,1.106914779239163149e-01,2.210086811481367097e-01,2.106273534481163390e-01,2.106914779239163205e-01,2.201589327124667816e-01,5.132840727028619154e-01,-5.151060223579406738e-01,-1.264163255691528320e-01,-1.038295782906232319e+02,4.112364053726196289e-01
1.651040000000000063e+00,-1.064214258915701650e-01,5.949187530708715393e-02,9.320767521858215332e-01,8.881145823190200045e-03,-9.436775344272785304e-03,2.186053309674695910e-03,-1.223798416191560455e-02,9.723845406322839668e-02,-1.601001620292663574e-02,1.114724398598416488e-01,-1.198894880340373031e-01,3.729393703520829384e-02,-1.588507872873687610e-01,1.158893251804710700e-01,-2.034375784623539962e-01,-2.159609608302812123e-01,2.158893251804710756e-01,-2.104301279454411366e-01,5.195974038079890223e-01,-1.987084150314331055e-01,-2.316061258316040039e-01,-1.820542868546752047e+01,4.112364053726196289e-01
1.674814999999999943e+00,-1.070113289963455505e-01,6.203615986105665697e-02,9.319609999656677246e-01,1.143761990753933491e-02,-1.136136610946936187e-02,3.859267817797107369e-03,-5.122662991104574327e-03,8.666569678113562880e-02,-2.768282778561115265e-02,1.452297697779811048e-01,-8.687399723825506292e-02,1.201547265716855634e-01,-1.828958528283409768e-01,1.139634949632675198e-01,-1.923265344518726161e-01,-2.148267326946850519e-01,2.139634949632675254e-01,-2.041032118877912083e-01,5.206982681623001374e-01,-1.901559233665466309e-01,-2.185398340225219727e-01,6.658831335058719958e+01,4.112364053726196289e-01
1.702250999999999959e+00,-1.076303758994104492e-01,6.575389137567906606e-02,9.314803481101989746e-01,1.735607544814691053e-02,-1.409768368052510823e-02,6.153635597956785830e-03,-7.569069049324851813e-03,9.447337118011363277e-02,-3.425984829664230347e-02,2.679897315019303394e-01,-9.158307369155523070e-02,7.747769292283225584e-02,-2.214095529312730126e-01,1.192969854761852799e-01,-2.041062421186456977e-01,-2.251649134286120013e-01,2.192969854761852855e-01,-2.227291041595476084e-01,5.310961557518724119e-01,3.420711755752563477e-01,8.265197277069091797e-02,8.807103413946150283e+01,4.112364053726196289e-01
1.724876000000000076e+00,-1.079006591692498601e-01,6.827831526580188659e-02,9.309739470481872559e-01,2.137788818759269252e-02,-1.589119850485531948e-02,9.354420977933708414e-03,-2.071204909875965362e-04,8.650906581052854316e-02,-4.687860980629920959e-02,1.624955169826578782e-01,-6.747034379532595993e-02,2.241325386748524162e-01,-2.512549037495573345e-01,1.148634110243805240e-01,-1.838816172814725369e-01,-2.233984358387592906e-01,2.148634110243805295e-01,-2.116381248772242485e-01,5.317776923274258882e-01,3.223128318786621094e-01,-7.404005527496337891e-02,7.624953396930020233e+01,4.112364053726196289e-01
1.747951999999999950e+00,-1.082430457032559773e-01,7.088955438414293320e-02,9.303457140922546387e-01,2.459897956346062883e-02,-1.656708019693620138e-02,1.451932369195119144e-02,4.775295571256637193e-03,9.672005716261322661e-02,-4.669263586401939392e-02,1.296580763976301343e-01,1.066300254267248809e-02,2.511820377743340105e-01,-2.626035535779633889e-01,1.159431940139507289e-01,-1.701130132082420698e-01,-2.251341722921971211e-01,2.159431940139507344e-01,-2.125475153414889129e-01,5.259050777948111044e-01,-6.725907325744628906e-03,8.875130414962768555e-01,1.313253175870207770e+02,4.112364053726196289e-01
1.777091999999999894e+00,-1.084323793085511523e-01,7.436279016112494478e-02,9.292322993278503418e-01,2.525265259842502871e-02,-1.760490759998045718e-02,2.446380503558209796e-02,1.172709387382009881e-02,9.925193879810353947e-02,-5.332988873124122620e-02,-6.516420926508577349e-02,-6.016717793628827832e-02,3.631139719756500961e-01,1.214868165169952080e-01,7.493756905047646577e-02,2.668908229110147357e-01,1.599577027590604605e-01,1.749375690504764713e-01,1.965513463001025973e-01,5.208892113284304681e-01,-3.155235648155212402e-01,3.832508325576782227e-01,1.094843328856118063e+02,4.112364053726196289e-01
1.800106999999999902e+00,-1.085639379106392299e-01,7.646443180191608846e-02,9.284356236457824707e-01,2.388537791092371770e-02,-1.826189069406547461e-02,3.203572694518541653e-02,-4.087184412770245717e-03,1.125536224360610404e-01,-5.485848337411880493e-02,-5.953723833039029079e-02,-2.322893584150756072e-02,4.126571460187479223e-01,1.540191125080851708e-01,-5.935311512301780223e-02,2.921378690857463489e-01,1.713118782970805554e-01,4.064688487698220332e-02,2.004124796464323011e-01,5.208503759155901358e-01,-3.343117833137512207e-01,6.542593240737915039e-01,-1.050674817757963382e+02,4.112364053726196289e-01
1.826991999999999949e+00,-1.084998324761719674e-01,7.975370961323700880e-02,9.271243810653686523e-01,1.843173880858578126e-02,-1.902057138250468071e-02,4.413487344399436019e-02,1.959342622926612404e-02,1.105530528832997794e-01,-6.297462433576583862e-02,-1.931942550575861672e-01,-5.915192219500547272e-02,4.082062022152752045e-01,2.109814253142513751e-01,1.195098502837428633e-01,9.827453156433851866e-03,1.941631697638721843e-01,2.195098502837428689e-01,-9.017254684356615368e-02,5.292482457036637999e-01,7.891213893890380859e-02,1.801012158393859863e+00,-1.208333683803158181e+02,5.602024316787719282e-01
1.850292999999999966e+00,-1.081920939470170512e-01,8.207190048059433141e-02,9.262278079986572266e-01,1.391866217702483928e-02,-1.948257087524241093e-02,5.192839889982825419e-02,1.053039218695139140e-02,1.222051295619508982e-01,-7.111476361751556396e-02,-1.977906463865131137e-01,-5.000007467817674245e-02,3.545232829888871895e-01,2.577195040078842925e-01,1.038283294825890490e-01,3.617673947319845207e-02,1.999952473703577038e-01,2.038283294825890546e-01,-6.382326052680155348e-02,5.342405990013117112e-01,3.089776039123535156e-01,6.207536458969116211e-01,7.850809994290499105e+01,5.602024316787719282e-01
1.873658000000000046e+00,-1.078555125395505160e-01,8.432297549010260573e-02,9.253347516059875488e-01,1.026502876499444002e-02,-2.012551694093156485e-02,5.756638287712823043e-02,2.159205468933231287e-02,1.051858130662686047e-01,-5.951829627156257629e-02,-1.309615805082563755e-01,-3.440560864852328787e-02,2.367733568468264604e-01,2.668751920234974095e-01,1.028968177481063284e-01,5.786650341620482724e-02,1.981431007593555116e-01,2.028968177481063340e-01,-4.213349658379517831e-02,5.312129132964474865e-01,1.792107820510864258e-01,4.589670896530151367e-01,7.682044216126487868e+01,5.602024316787719282e-01
1.904055999999999971e+00,-1.073510016115195170e-01,8.909157829627994962e-02,9.242749810218811035e-01,9.035947836009855863e-03,-1.976258196956215407e-02,6.551931217600026613e-02,2.822998616059774202e-02,1.018038876844145763e-01,-5.988971889019012451e-02,1.636946797312770208e-02,4.056284519012871154e-02,3.207452985583562621e-01,2.423886917756286341e-01,1.327367312352877582e-01,2.118670672508209396e-01,1.624325738304744637e-01,2.327367312352877637e-01,1.118670672508209202e-01,5.364297345009533258e-01,4.539393186569213867e-01,4.139505624771118164e-01,6.360373924934506817e+01,5.602024316787719282e-01
1.925640000000000018e+00,-1.070990440469388461e-01,9.225341270815469452e-02,9.234780669212341309e-01,9.857316915846918784e-03,-1.894740261412253268e-02,7.224398818101951392e-02,2.290123243044698415e-02,1.003376265913372006e-01,-6.070994213223457336e-02,4.896749114209066750e-02,1.449593181683726806e-02,3.416817313560487901e-01,2.159084575264907657e-01,1.314948814172367253e-01,2.130574270148163918e-01,1.389820444561535306e-01,2.314948814172367308e-01,1.130574270148163862e-01,5.377212507453246193e-01,5.118656158447265625e-01,1.488853573799133301e+00,-1.605874599159995455e+02,5.602024316787719282e-01
1.948979999999999935e+00,-1.067792792960277209e-01,9.534066567057966624e-02,9.228146672248840332e-01,1.260037944410709841e-02,-1.894524231154126603e-02,7.948136053365861819e-02,3.924173990005428575e-02,9.846447813986379527e-02,-4.997526854276657104e-02,1.999872672688650932e-01,-4.627061998434473140e-03,3.761813783638464637e-01,-1.648287625807276502e-01,1.035217759603836163e-01,-3.809948617632555323e-02,-2.248216472388493703e-01,2.035217759603836218e-01,-1.380994861763255588e-01,5.286040018176698663e-01,4.408240318298339844e-02,8.686959743499755859e-02,4.102899074049619799e+01,5.602024316787719282e-01
1.973186000000000107e+00,-1.062536732635425835e-01,9.818136597807025634e-02,9.223064184188842773e-01,1.669985157577414184e-02,-1.993829658599621801e-02,8.664980351351747601e-02,3.807675981950219002e-02,9.042880100740510740e-02,-6.369848549365997314e-02,1.951103504458826798e-01,-1.607679687074366551e-02,3.972751067614742615e-01,-2.056280436034264025e-01,1.000095160874012179e-01,-4.566715157731479624e-02,-2.351346829758565182e-01,2.000095160874012234e-01,-1.456671515773148018e-01,5.269536752832393312e-01,-1.091184020042419434e-01,1.688817739486694336e-01,7.004751729725352050e+01,5.602024316787719282e-01
2.000087000000000170e+00,-1.057390231739118031e-01,1.028002441777835924e-01,9.214446544647216797e-01,2.429296286326882229e-02,-2.088322746970083799e-02,9.663751558615629733e-02,4.701168342626216995e-02,9.776051113803185810e-02,-5.805678665637969971e-02,3.076198428111835970e-01,7.467136626094003984e-03,3.128874886010193923e-01,-2.525317517473983364e-01,9.827126107658920584e-02,-8.891668656724985298e-02,-2.424427692710739712e-01,1.982712610765892114e-01,-1.889166865672498585e-01,5.262069622442653305e-01,-1.381918191909790039e-01,3.279644250869750977e-01,-1.227843845959732789e+02,5.602024316787719282e-01
2.023604999999999876e+00,-1.051968866256361296e-01,1.059095583901953908e-01,9.209597110748291016e-01,2.991394019198617693e-02,-2.258441096051644337e-02,1.029637514564103462e-01,5.504075049618850635e-02,9.725236884924885750e-02,-5.735479667782783508e-02,2.826299047725159275e-01,-2.850041152918532730e-02,3.634280149756237699e-01,-2.900147403068537022e-01,9.614656711742280981e-02,-7.590303397677022890e-02,-2.438785895063414200e-01,1.961465671174228154e-01,-1.759030339767702344e-01,5.278144824209620722e-01,-5.647313594818115234e-02,-1.139527559280395508e-01,-1.153418279857338717e+02,5.602024316787719282e-01
2.052373999999999921e+00,-1.042063758600353662e-01,1.105406620118871280e-01,9.202547669410705566e-01,3.620875798162770387e-02,-2.486038351691854942e-02,1.140931238395226366e-01,4.448827653216348016e-02,9.922309490448162628e-02,-5.401116982102394104e-02,1.357050267910748509e-01,-3.778621290698085111e-02,4.146650924769767488e-01,-3.307254780833756014e-01,9.709516684379274065e-02,1.137982887127558379e-01,-2.492064238143838761e-01,1.970951668437927462e-01,1.379828871275583062e-02,5.305749170873774734e-01,9.766912460327148438e-02,5.959931612014770508e-01,9.466979600982671172e+01,5.602024316787719282e-01
2.076325999999999894e+00,-1.035944497981081264e-01,1.135809495423609899e-01,9.197791218757629395e-01,3.765177279532614524e-02,-2.597548039242569828e-02,1.229387793629919123e-01,6.592694846453997504e-02,9.802656314616156608e-02,-6.315992027521133423e-02,7.931832094034724223e-02,-7.094281609954604384e-02,4.740733247666141237e-01,-3.441504116891007103e-01,9.628781130197258675e-02,2.170036460859161853e-01,-2.522885548455153781e-01,1.962878113019725923e-01,1.170036460859161798e-01,5.314051742752747831e-01,9.834992885589599609e-02,7.441865205764770508e-01,7.263814657773681915e+01,5.602024316787719282e-01
2.099355000000000082e+00,-1.029735845746861528e-01,1.165676378453644607e-01,9.190917015075683594e-01,3.659300511276108309e-02,-2.805330702964048406e-02,1.320692909665606152e-01,4.134651362583173506e-02,1.071368811821887951e-01,-7.447378337383270264e-02,-9.633146727503288931e-02,-1.331597463325139563e-01,5.090467607107048709e-01,-3.065712837425560444e-01,4.686795014929079350e-02,2.273403060312953194e-01,-2.324611698872387500e-01,1.468679501492907991e-01,1.273403060312953139e-01,5.364908011245249631e-01,3.220763206481933594e-01,6.527620553970336914e-01,7.089319716933864868e+01,5.602024316787719282e-01
2.127397999999999900e+00,-1.017532955322604377e-01,1.223086309381106324e-01,9.180805683135986328e-01,3.155019585594951576e-02,-3.002465463347658847e-02,1.464593370654276860e-01,7.691532047256277593e-02,1.029579030314445726e-01,-7.104083895683288574e-02,-2.207797159429541745e-01,-4.530402893563228311e-02,4.649074805826242107e-01,-9.902009949124887522e-02,1.068017520399505704e-03,1.838560329035557328e-01,-5.337539523043605127e-02,1.010680175203995113e-01,8.385603290355572725e-02,5.209324899848031265e-01,-5.255592465400695801e-01,-4.612262248992919922e-01,-1.765517669310024740e+00,5.602024316787719282e-01
2.150488999999999873e+00,-1.006943892699613263e-01,1.260633986711929277e-01,9.172462821006774902e-01,2.691141844875218070e-02,-3.002506670042093262e-02,1.554390321557939103e-01,7.248052582582535652e-02,1.047067049873154077e-01,-7.078166306018829346e-02,-2.299489722124518909e-01,-2.020424642745546201e-02,4.471591125797404476e-01,6.585827854983193619e-02,-2.093965811578239744e-02,1.855240710072633137e-01,7.589589378258167207e-02,7.906034188421760811e-02,8.552407100726329425e-02,5.211293835598415081e-01,-5.253530144691467285e-01,-3.134633302688598633e-01,3.720160886171493075e+01,5.602024316787719282e-01
2.176092999999999833e+00,-9.961534568932665923e-02,1.297607702045991962e-01,9.162764549255371094e-01,2.120319735170105718e-02,-2.972779865783792275e-02,1.636280137921419797e-01,7.482366356931814677e-02,9.871245043685249188e-02,-7.642468065023422241e-02,-3.128342937342733499e-01,-8.803380586398477925e-02,4.103963015933206893e-01,1.911798847318360584e-01,-3.660439177849156289e-02,2.078959770598914902e-01,1.668146258867708176e-01,6.339560822150844266e-02,1.078959770598914847e-01,5.227686544179632744e-01,-4.705889821052551270e-01,9.423133134841918945e-01,-1.801220263384785980e+01,5.602024316787719282e-01
2.202474000000000043e+00,-9.837736864351848132e-02,1.331835607494524232e-01,9.154360294342041016e-01,1.490991011563042729e-02,-3.002132749855324079e-02,1.712408667161917641e-01,8.590355739480551311e-02,9.314639824419017333e-02,-7.631620019674301147e-02,-3.521020015350718735e-01,-6.912130297573321203e-02,3.570211562821224427e-01,2.651773558535164277e-01,-1.168501450138836606e-01,1.596893166950636433e-01,2.021194895375122702e-01,-1.685014501388365851e-02,5.968931669506365167e-02,5.220101504115816082e-01,-5.224096775054931641e-01,9.872192144393920898e-01,-3.254528448940964580e+01,5.602024316787719282e-01
2.225839999999999819e+00,-9.694647970225632461e-02,1.378469923315139012e-01,9.145979285240173340e-01,7.907387355429375264e-03,-2.984715240545243731e-02,1.786653627457845950e-01,9.207688363681622301e-02,1.030844692980105587e-01,-7.547637820243835449e-02,-3.046864809811152819e-01,-3.909446774289813964e-02,3.506391548821435888e-01,3.216286097652470977e-01,-1.965563589789390275e-01,1.187716567759431324e-01,2.216286097652470644e-01,-9.655635897893902198e-02,1.877165677594312340e-02,5.227743687000828698e-01,-4.899196028709411621e-01,1.082142591476440430e-01,-2.264668747628202916e-01,5.602024316787719282e-01
2.256317999999999824e+00,-9.553732760748243069e-02,1.434737578746472786e-01,9.138958454132080078e-01,1.369470070879656113e-03,-2.964478601557019033e-02,1.859689412362632854e-01,9.288580835976910366e-02,1.027199181445409421e-01,-7.342813909053802490e-02,-2.447440579037791775e-01,-1.273257957705947047e-02,3.969144760835653374e-01,3.198243352049992549e-01,-1.875426992808774673e-01,1.745654566351962367e-01,2.198243352049992494e-01,-8.754269928087747565e-02,7.456545663519624501e-02,5.218751422893680436e-01,-5.414472222328186035e-01,8.463455438613891602e-01,1.881945517864358237e+02,5.602024316787719282e-01
2.274640999999999913e+00,-9.479672447794885992e-02,1.462692411058074682e-01,9.134516119956970215e-01,-1.599401119866487040e-03,-2.924061223529106357e-02,1.897233836846816679e-01,9.623213091805443709e-02,1.136235470781161716e-01,-8.985996246337890625e-02,-2.542136632230461157e-01,-2.631229723816369895e-02,4.116895865758591344e-01,3.069436593503989119e-01,-1.000648329590709817e-01,1.684336701548097559e-01,2.069436593503988786e-01,-6.483295907097687033e-05,6.843367015480976423e-02,5.232255932916047847e-01,-5.446227192878723145e-01,1.113238930702209473e+00,4.085677435076350150e+01,5.602024316787719282e-01
2.297950000000000159e+00,-9.313579103703299722e-02,1.518649508999628250e-01,9.124850034713745117e-01,-6.845325933855679612e-03,-2.899794387517506955e-02,1.968949006915243771e-01,1.094480001578449768e-01,1.124638330916244988e-01,-7.666120678186416626e-02,-2.355191056012119755e-01,-1.444836955334261736e-02,3.694956016349289496e-01,2.872107955989769423e-01,2.377275681987149614e-02,9.726944607728534031e-02,1.872107955989769368e-01,1.237727568198715017e-01,-2.730553922714660901e-03,5.219217974822192296e-01,-5.752133131027221680e-01,1.309198260307312012e+00,-8.347225411091358183e+00,5.602024316787719282e-01
2.327732000000000134e+00,-9.031018475020509417e-02,1.602061107772654591e-01,9.112607240676879883e-01,-1.057239527113743895e-02,-2.787594630382739247e-02,2.082387544242625399e-01,1.198961573404398601e-01,1.198983889518188961e-01,-7.820029556751251221e-02,1.538796123587753660e-02,7.486398483227511835e-02,3.545503951310337576e-01,2.491638785497134745e-01,1.317046718130718275e-01,1.557854420689109842e-01,1.491638785497134689e-01,2.317046718130718330e-01,5.578544206891099255e-02,5.249422582566454221e-01,-4.316798448562622070e-01,7.482086420059204102e-01,6.682501355627398709e+01,5.602024316787719282e-01
2.354312000000000182e+00,-8.826682680979509865e-02,1.656905844500930758e-01,9.104171991348266602e-01,-1.051967235705468691e-02,-2.659863658618721871e-02,2.158647789957772734e-01,1.148630244002398076e-01,1.198954225373538990e-01,-7.493449002504348755e-02,5.783695338550521453e-02,1.028053195525838598e-01,3.951691181142640841e-01,2.444730847838666177e-01,1.314533341054218984e-01,1.046999517325679363e-01,1.444730847838666121e-01,2.314533341054219040e-01,4.699951732567926414e-03,5.251848834844650149e-01,-4.174459576606750488e-01,1.447598338127136230e+00,1.103944282717593239e+02,5.602024316787719282e-01
2.378200000000000092e+00,-8.501511142364946705e-02,1.738670539762555700e-01,9.092244505882263184e-01,-7.335284768813062767e-03,-2.270810529004374523e-02,2.273613721666385423e-01,1.275280399071672954e-01,1.236865171379364081e-01,-7.996042817831039429e-02,9.017791448301024082e-02,1.501781833261701948e-01,3.804968688521891962e-01,2.347033354120968973e-01,1.396431538300338948e-01,6.482001737649709106e-02,1.347033354120968918e-01,2.396431538300339004e-01,-3.517998262350291450e-02,5.236375528135369661e-01,-5.353594422340393066e-01,1.702073216438293457e+00,7.251898026728761693e+01,5.602024316787719282e-01
2.402486000000000121e+00,-8.250292461411343203e-02,1.793520716856633057e-01,9.084067344665527344e-01,-3.023643398468528042e-03,-1.990366103518903529e-02,2.348380447780262781e-01,1.421391534936484180e-01,1.332986596890782249e-01,-8.068054914474487305e-02,1.901884866791010154e-01,2.106149154891286679e-01,3.535321570489938781e-01,8.744102968491099248e-02,1.359972184003143125e-01,2.442066088137296032e-01,-1.255897031508901134e-02,2.089678480044074305e-01,1.442066088137295976e-01,5.258279154868747973e-01,-4.321695566177368164e-01,4.964498281478881836e-01,1.658853166362874276e+01,5.602024316787719282e-01
2.427163999999999877e+00,-7.821950018661236181e-02,1.875299322068378072e-01,9.073038697242736816e-01,6.157280197597581745e-03,-1.612531601588051977e-02,2.460120252696971210e-01,1.496917191936793512e-01,1.433636998418134356e-01,-7.384910434484481812e-02,3.902097221590031251e-01,2.115442182814529226e-01,4.174216338606143717e-01,-1.421373750951497317e-01,1.338670497921981561e-01,3.098314519041865389e-01,-2.421373750951497372e-01,1.685319461065650226e-01,2.098314519041865334e-01,5.289272825070873152e-01,-2.501453161239624023e-01,9.771429300308227539e-01,-6.061649454413745808e+00,5.602024316787719282e-01
