timestamp,x,y,z,roll,pitch,yaw,vx,vy,vz,p,q,r,psp,qsp,rsp,pres,qres,rres,thrust_sp, thrust_res
0.000000000000000000e+00,1.046020530675074653e-02,6.922785441509087846e-03,9.941204786300659180e-01,1.429836048843933193e-02,-1.232750858788111969e-02,5.997591183322770192e-03,1.274022660597195350e-02,5.086584055466138524e-03,-1.032783649861812592e-02,-6.968668490315238495e-02,3.475435076528380490e-02,3.207576416183752221e-02,-9.076080081915155473e-03,1.608005851274056930e-01,2.209592853828187264e-01,7.558871756884241733e-02,2.239123597710458990e-01,2.039544357071291225e-01,5.004051577802788309e-01,-6.749913096427917480e-01
2.603700000000000112e-02,1.104900568547577226e-02,6.451292406157095767e-03,9.938750863075256348e-01,1.404403613891074681e-02,-1.250373560837636511e-02,6.200514306706761403e-03,8.286686800410138914e-03,7.091752844985473730e-03,-7.344839628785848618e-03,4.616331851439781087e-02,-1.567819659697699056e-02,1.064296148973441214e-02,-3.069909935990933203e-01,1.519593754986282297e-01,-2.027431732607209158e-01,-2.246209325697327563e-01,2.212185143632314221e-01,-2.203345319483106246e-01,5.093351753870561938e-01,-1.939490437507629395e-01
4.958800000000000013e-02,1.174716910915114300e-02,6.035873362744446219e-03,9.936435818672180176e-01,1.353017052198509686e-02,-1.287589209275230573e-02,5.764144612123711653e-03,5.781103042401039820e-04,-7.441192402330631603e-03,-1.524877501651644707e-03,-3.709291199227261054e-02,-2.085512327835542870e-02,-3.697120100382458863e-02,-2.590880139844302654e-01,1.423487083658263597e-01,-1.432178121175295693e-01,-1.678347466773629226e-01,2.191578824790553215e-01,-1.595726948100582854e-01,5.006523966590312735e-01,-6.301578283309936523e-01
7.342999999999999527e-02,1.241277397848790723e-02,5.656610285817128062e-03,9.933782219886779785e-01,1.346946581171100388e-02,-1.298331301059030274e-02,6.033618263884488186e-03,1.448559230766221888e-02,1.281053571213269706e-03,-3.598626004531979561e-03,5.387351421242411037e-03,6.516630011080334385e-03,4.072074403986483682e-02,-2.522672019157196077e-01,1.612782665813497218e-01,2.085951027065630903e-01,-1.702868584816823183e-01,2.259012451470385763e-01,1.915016807532277932e-01,5.078101255846396711e-01,-2.629297375679016113e-01
9.854000000000000259e-02,1.324482261388858044e-02,5.224928198547225747e-03,9.928137660026550293e-01,1.120320200995583021e-02,-1.394021901346720327e-02,8.067342456132164941e-03,2.714583933253683981e-03,1.302283841482348992e-02,-7.445298600941896439e-03,-8.567710424154484361e-02,-5.682582069476523057e-02,8.074555968654907601e-02,6.601539782880894158e-02,1.395918250995710208e-01,2.138072202341032846e-01,1.253224109638269579e-01,2.213149357977581833e-01,1.909848620764146576e-01,5.068593011204352017e-01,-3.313779830932617188e-01
1.247710000000000069e-01,1.372598912348947306e-02,5.061493587291875096e-03,9.922797083854675293e-01,7.687270532875939075e-03,-1.496424162191734020e-02,9.304667110855202594e-03,-8.244056208181530648e-03,3.698987301084191801e-03,-2.216760441660881042e-02,-1.933784064084273779e-01,-8.435892161285635238e-02,4.185011549191273994e-02,1.634986075754607526e-01,1.229373232010013001e-01,2.448004735051899639e-01,2.092578085923918196e-01,2.181699491869067975e-01,2.185765624034584631e-01,5.130374463671550922e-01,-6.478852033615112305e-02
1.467509999999999926e-01,1.420827308547749877e-02,4.977289656563584942e-03,9.915838837623596191e-01,3.431871109809124000e-03,-1.708794088768805786e-02,8.675861003218265921e-03,2.790530899645982544e-03,8.698095160258937503e-03,-2.387734502553939819e-02,-2.045598008161941539e-01,-9.616207225883072196e-02,-9.615152151584815954e-02,1.954145625517975660e-01,1.198493193564065251e-01,2.314244440611996911e-01,2.082389597416947069e-01,2.181112280549720173e-01,2.070286442196454246e-01,5.086008745456570557e-01,-3.120173215866088867e-01
1.753280000000000116e-01,1.509564691061051830e-02,4.913347282894968936e-03,9.897428154945373535e-01,-1.832071399735366339e-03,-2.335936967262508546e-02,5.206333447272060155e-03,-2.327333889397552574e-03,2.256744718007356893e-03,-3.058972023427486420e-02,-4.153333776800267191e-02,-1.766828822001501875e-01,-1.447715516374584177e-01,1.466670541811569417e-01,1.008073630653895381e-01,-1.605396852689557410e-02,1.310981446682983054e-01,2.008073630653895436e-01,-3.059214198033296042e-02,5.205657857768362096e-01,2.924536466598510742e-01
2.018429999999999946e-01,1.547056042995335716e-02,4.820595124282603741e-03,9.886265397071838379e-01,-1.784344394166621425e-03,-2.648333944497882619e-02,3.280917849062037206e-03,-5.970337068847355808e-03,4.979354649415762557e-03,-3.628876432776451111e-02,7.268072273803501127e-02,-1.603701492815192697e-01,-7.910709838506840841e-02,-1.988762798706532609e-01,1.146273088508675542e-01,-1.497756876808929161e-01,-2.172819234084283624e-01,2.146273088508675597e-01,-1.589357311911963333e-01,5.290931664996426642e-01,7.264969348907470703e-01
2.245749999999999968e-01,1.576427674455392960e-02,4.747731189576854041e-03,9.873740673065185547e-01,-3.181085030020613870e-04,-2.977776860230707534e-02,1.155883961419190697e-03,-1.080287600481195237e-02,-2.266517112753784185e-03,-3.655456006526947021e-02,7.084029159869045800e-02,-1.570968153604748174e-01,-9.299717293969929355e-02,-2.163311751009008577e-01,6.457485076700281157e-02,-1.592952683250432044e-01,-2.190773856855029178e-01,1.645748507670028171e-01,-1.625229044326871319e-01,5.291459404975981107e-01,7.209420204162597656e-01
2.506630000000000247e-01,1.602362399292532255e-02,4.845982948918570003e-03,9.853972196578979492e-01,3.162291294783385436e-03,-3.370764410167681469e-02,5.463323834953293101e-04,-1.031525136177965062e-02,1.487059732686481749e-02,-5.425870791077613831e-02,6.976830280650307692e-02,-1.180182135847200747e-01,3.716432947492032124e-02,-1.628522486573961425e-01,-2.565139160788514339e-01,-1.292738202292614269e-01,-1.577909700944706561e-01,-1.565139160788514283e-01,-1.310606553568995913e-01,5.284804212823415170e-01,6.033308506011962891e-01
2.747890000000000055e-01,1.614509283474784007e-02,5.219101857280304332e-03,9.839999675750732422e-01,4.325494243880726418e-03,-3.556556205578575991e-02,1.306147281643799118e-03,-2.294096229469193282e-02,1.995250816236260327e-02,-4.822920635342597961e-02,5.739193471826768006e-02,-8.693732217344916913e-02,4.394834104898764221e-02,-1.478622843733665149e-01,-2.970046137183383061e-01,-3.200174365535157078e-02,-1.370977878320610022e-01,-1.970046137183382728e-01,-3.601648035857701186e-02,5.266236734624945015e-01,5.171020030975341797e-01
3.013879999999999892e-01,1.615152171476775741e-02,6.019219998305639675e-03,9.818849563598632812e-01,2.069199004519291056e-03,-3.657346267515038107e-02,2.975307099946755685e-03,-2.701719171825847643e-02,2.099393910492915183e-02,-4.156945645809173584e-02,-1.371460508869490613e-01,1.732148369972970683e-02,1.903284583186993714e-02,2.121002402080113813e-01,-2.753826949980059391e-01,2.256972312239614309e-01,2.075837033782201302e-01,-1.753826949980059058e-01,2.171111539460146844e-01,5.103429221027209195e-01,-3.442605137825012207e-01
3.222809999999999842e-01,1.608525839317671499e-02,6.712085733573419470e-03,9.803739190101623535e-01,-1.337748915864544726e-03,-3.536119994115005660e-02,4.207006873279350856e-03,-1.096027052781529780e-02,3.417151655316015557e-02,-6.077179685235023499e-02,-1.773200354822080382e-01,9.346825850744321096e-02,6.521061209810630199e-02,2.345155541061394455e-01,-1.341698691938057186e-01,2.374115964482141905e-01,1.971885021117697756e-01,-3.416986919380571308e-02,2.254840813225419960e-01,5.160673290870704255e-01,-1.245137453079223633e-01
3.476319999999999966e-01,1.621488790207314956e-02,7.432195840303051047e-03,9.781860709190368652e-01,-6.957363271578990462e-03,-3.059416018269134341e-02,4.569862517649792011e-03,-2.749228719314387656e-02,3.010321387373696839e-02,-4.697236046195030212e-02,-1.137176196320842936e-01,1.657110685450305376e-01,-4.852213357533157606e-02,2.545370539941815835e-01,8.332282616008529486e-02,2.427242379389326354e-01,1.851172959790808870e-01,1.833228261600853004e-01,2.300741736134662985e-01,5.271894306479716352e-01,5.194201469421386719e-01
3.728069999999999995e-01,1.668333261629780309e-02,7.258613749410510775e-03,9.767652750015258789e-01,-8.493855637634561279e-03,-2.592707953946660204e-02,2.950195504585639839e-03,-1.764994682961908840e-02,2.801319126759183042e-02,-4.425304755568504333e-02,-6.171362058993701966e-02,2.521104149610380318e-01,-1.064301607112185938e-01,2.417906185807233710e-01,1.078392333476606568e-01,2.377633298020492281e-01,1.633761426387431992e-01,2.078392333476606624e-01,2.296808466825163153e-01,5.296210246937332888e-01,6.540304422378540039e-01
3.969190000000000218e-01,1.721305516108185413e-02,6.998478942863437316e-03,9.748592972755432129e-01,-5.649181563765854827e-03,-1.996098952432401319e-02,-3.701218348626245103e-04,-2.572610318764077461e-02,2.298435933630152070e-02,-4.022382572293281555e-02,1.797668855636056495e-01,1.667541293462977137e-01,-7.636619178139920916e-02,2.355363548241568572e-01,1.197677817381225529e-01,-8.826042291693012021e-02,1.792241245842565445e-01,2.197677817381225585e-01,-8.714658322463261775e-02,5.247051181582848001e-01,3.911359310150146484e-01
4.234149999999999858e-01,1.741534185842695537e-02,6.814044210378314599e-03,9.736763238906860352e-01,-1.606832850348936109e-03,-1.793193124891878654e-02,-3.045692789679588230e-03,-2.844903012739653098e-02,1.980352965015720959e-02,-2.956434153020381927e-02,2.241804140676655621e-01,2.571774007177001810e-03,-1.481981486730230557e-01,-1.933080227979102617e-01,1.260584841171797643e-01,-2.316288424062764029e-01,-2.216182379584639706e-01,2.260584841171797699e-01,-2.231315464072179400e-01,5.263024734691797990e-01,5.126667022705078125e-01
4.516089999999999827e-01,1.741471310147218315e-02,6.455984247683276347e-03,9.720867276191711426e-01,5.505109613325068034e-03,-1.782011946407169312e-02,-5.554104127433623361e-03,-4.320204573122354147e-02,2.688592300839615090e-02,-3.469759598374366760e-02,2.269641065574344307e-01,-4.496839354558700153e-02,-3.061605773116860690e-02,-2.331374017818403088e-01,1.242249173867044365e-01,-2.357410949831663383e-01,-2.211755860599798340e-01,2.242249173867044421e-01,-2.204566005491106762e-01,5.231518895055373708e-01,3.116970062255859375e-01
4.756969999999999810e-01,1.706501970214682057e-02,5.760506503223558616e-03,9.705910682678222656e-01,1.219261555976340616e-02,-1.982731893712830207e-02,-4.725352448158082197e-03,-4.619315351851513429e-02,3.337558548634602523e-02,-3.804336488246917725e-02,1.327247926470347117e-01,-1.113828749640326243e-02,8.111653883518932240e-02,-2.701934018858624942e-01,1.205993286775532136e-01,-2.254118581783886299e-01,-2.185757831052335676e-01,2.205993286775532192e-01,-2.127077400096963611e-01,5.230652183279590473e-01,2.844572067260742188e-01
5.007829999999999782e-01,1.670337922442444167e-02,5.485816388310173208e-03,9.696325659751892090e-01,1.403922890064850104e-02,-2.117026152914736059e-02,-3.105905343598891477e-03,-4.663280867621847486e-02,4.178614092863731228e-02,-2.595807611942291260e-02,2.432763801375260188e-02,-6.595590969377859714e-02,9.246984253868445469e-02,-2.393729298709729170e-01,2.371802872303822862e-02,1.506474769512556600e-01,-1.815474232831521817e-01,1.237180287230382342e-01,1.586923490349501364e-01,5.192516192518837892e-01,1.194242238998413086e-01
5.256129999999999969e-01,1.603930143165405511e-02,5.372623462288258003e-03,9.681844115257263184e-01,1.198490632191356355e-02,-2.291409312129477627e-02,8.637091022167808774e-06,-6.288853280258273337e-02,3.413584209901738414e-02,-2.109307050704956055e-02,-1.190597213461466047e-01,-9.712526129375298467e-02,7.147056009108665453e-02,1.144660549584459730e-01,-2.482611467246274850e-01,2.263201765516599240e-01,1.661922246966291705e-01,-1.482611467246274795e-01,2.256670137476671778e-01,5.119114901172109322e-01,-2.631574869155883789e-01
5.513719999999999732e-01,1.550756911639258537e-02,5.417502021674283283e-03,9.671997427940368652e-01,7.732468824623080911e-03,-2.436254393992509648e-02,1.661040487173082170e-03,-4.834176708228340308e-02,4.474924413195730671e-02,-3.806979209184646606e-02,-2.757207378095886674e-01,-6.493886428797254751e-02,4.089214690032109967e-02,1.975675595491203640e-01,-2.750820325996081728e-01,2.228173332787254379e-01,2.120786724270979640e-01,-1.750820325996081395e-01,2.176585991852297286e-01,5.152329309016377978e-01,-1.601577401161193848e-01
5.760260000000000380e-01,1.467338413068846464e-02,5.671065511944513131e-03,9.657227993011474609e-01,1.573226514951532205e-03,-2.666096744720025669e-02,8.474768715711622491e-04,-4.795772542202710043e-02,4.412110387714787696e-02,-3.253294527530670166e-02,-1.549714118361256721e-01,-6.229411155243769899e-02,-5.897660490828614266e-02,2.325979675777084255e-01,-2.686642135365234774e-01,2.078187002369540348e-01,2.087411795600396802e-01,-1.686642135365234441e-01,2.051585843652733998e-01,5.167455916352845513e-01,-6.634253263473510742e-02
5.967999999999999972e-01,1.440124029248157980e-02,5.742422914957759361e-03,9.652155041694641113e-01,-6.811233889194032241e-05,-2.694080003729948380e-02,-2.565157761580394435e-05,-5.122752960374905157e-02,4.185831230180298707e-02,-3.627128899097442627e-02,-1.448489892134809387e-01,-4.201776091687860204e-02,-5.632845183762385383e-02,2.434850979936305504e-01,-2.658396470687394153e-01,2.084251811820349021e-01,2.104690444537229421e-01,-1.658396470687394098e-01,2.082836486918890895e-01,5.178961783266167185e-01,-2.485072612762451172e-02
6.258289999999999687e-01,1.346503528540734726e-02,5.908251854776838501e-03,9.631370306015014648e-01,-5.941261057311351609e-04,-2.283516270608054732e-02,-4.436481084841181755e-03,-4.086252583163058061e-02,3.527809958355253989e-02,-3.432413563132286072e-02,8.197897760732493488e-02,2.134587615034337083e-01,-9.418919789095872575e-02,2.110467200123683496e-01,1.152888483763619409e-01,1.769088181113397662e-01,1.791693658668441491e-01,2.152888483763619465e-01,1.891981302888364469e-01,5.283320049626826220e-01,5.368089675903320312e-01
6.506440000000000001e-01,1.298767250679166638e-02,6.009421922590494486e-03,9.620636105537414551e-01,2.021627264793195416e-03,-1.854341387200153513e-02,-6.777190138542277253e-03,-3.717875800212279425e-02,2.697045453380703811e-02,-3.729455918073654175e-02,1.408022626477571371e-01,2.093599241907065089e-01,-1.130244114617404150e-01,8.651604361131558230e-02,1.203927458944586970e-01,6.690409695769365672e-02,7.709902512335820024e-02,2.203927458944587026e-01,8.571817957847636948e-02,5.257269807563930142e-01,3.751306533813476562e-01
6.735769999999999813e-01,1.225601311481249768e-02,6.557498781320995895e-03,9.609410762786865234e-01,6.394703334193918044e-03,-1.350902886934668423e-02,-9.036904169830828337e-03,-4.437670806218476510e-02,3.298449298333355761e-02,-4.141324013471603394e-02,2.958317602539235480e-01,2.426005974708094759e-01,-1.092209680282818229e-01,-2.228727318932911816e-01,1.255023125281240215e-01,-2.458571504117713635e-01,-2.101764337013103112e-01,2.255023125281240270e-01,-2.208130741662822083e-01,5.199631702427491842e-01,3.801274299621582031e-02
6.966599999999999460e-01,1.102701433962570941e-02,7.337455695455553061e-03,9.593083858489990234e-01,1.403678229815341454e-02,-8.072743773668067391e-03,-1.253169743247983803e-02,-5.184186947149699298e-02,2.896241012722639702e-02,-3.724641352891921997e-02,2.497756032959732031e-01,1.286439192372616225e-01,-1.311499090410923329e-01,-2.877654809227716548e-01,1.448026245068036455e-01,-2.621670132642617279e-01,-2.218209865554772175e-01,2.265261822734389585e-01,-2.273938081342047612e-01,5.194067847878853783e-01,1.410019397735595703e-02
7.223840000000000261e-01,1.004385456328526875e-02,7.879252082364965326e-03,9.584211707115173340e-01,1.881563283121835337e-02,-6.818584239835390193e-03,-1.339745324911412183e-02,-5.432836315064766552e-02,3.550368277233429543e-02,-4.701320081949234009e-02,1.713744568805208590e-01,4.805074488642625125e-02,9.316066142556965815e-03,-3.124197826602047035e-01,1.496293878412993661e-01,-2.630940152448214553e-01,-2.215151322963858638e-01,2.249617422242591314e-01,-2.259644937667555642e-01,5.212069735185115293e-01,6.465208530426025391e-02
7.463790000000000147e-01,8.384207809107535603e-03,9.011909260945553599e-03,9.571965932846069336e-01,2.178094841016500402e-02,-7.054971729483439091e-03,-1.152732078179052877e-02,-5.364648665436082264e-02,4.557467799969999039e-02,-3.551720082759857178e-02,9.048849491788876417e-03,-4.468147563229323688e-02,1.340573380588213348e-01,-2.906606850175604828e-01,1.455982214394672680e-01,1.367379815369049872e-02,-1.906606850175604773e-01,2.228375842441429888e-01,4.548779717078247492e-02,5.130097581268709961e-01,-3.391284942626953125e-01
7.752999999999999892e-01,6.525722572770154516e-03,1.018610777553541000e-02,9.560427665710449219e-01,1.828303132942939863e-02,-8.814208183431482269e-03,-8.095630027855404975e-03,-7.506425393188558004e-02,4.972135904159932090e-02,-3.411812707781791687e-02,-1.335841230355765408e-01,-8.660405999657962151e-02,1.466805462052715447e-01,5.157172039999338709e-02,1.126112963532013567e-01,1.654082640227916012e-01,1.283244513773310336e-01,2.126112963532013622e-01,1.875064592928928631e-01,5.177651834342864579e-01,-8.764654397964477539e-02
7.980979999999999741e-01,5.274197520286813198e-03,1.104141567192599982e-02,9.553031325340270996e-01,1.317774964879329241e-02,-1.093666463577469550e-02,-6.672678370560625183e-03,-6.225921289028615857e-02,5.318747166853361741e-02,-4.117596149444580078e-02,-3.263347054812572035e-01,-1.020453514706000236e-01,6.725033693420211060e-03,1.753724203106858115e-01,9.472048851785766499e-02,1.978568760303050234e-01,2.160180290039052375e-01,1.947204885178576705e-01,2.160720793699947573e-01,5.187585301629720202e-01,-6.911897659301757812e-02
8.218320000000000070e-01,4.037930589649521389e-03,1.189617198071537575e-02,9.545844197273254395e-01,7.977487466281017389e-03,-1.364387364206964826e-02,-6.216381705082874021e-03,-5.529773489328086711e-02,5.119075317691500204e-02,-3.830197080969810486e-02,-2.407939275546470137e-01,-1.241577203749443525e-01,-1.633628634792618189e-04,2.057352947353793815e-01,6.425437180177537289e-02,1.975973137721473427e-01,2.138508117606908454e-01,1.642543718017753784e-01,2.146135343984757471e-01,5.170194092696395183e-01,-1.582515239715576172e-01
8.488639999999999519e-01,2.212749115190214538e-03,1.310391150979655153e-02,9.537013769149780273e-01,2.364577523813813590e-03,-1.824009964905815018e-02,-8.169301852151811261e-03,-7.026390178589803082e-02,4.629482983254677025e-02,-2.804198488593101501e-02,-7.440164862883151542e-02,-1.362920946451016413e-01,-1.173684699589353647e-01,2.176993132221728688e-01,9.475027176796174677e-02,8.951970356194635658e-02,1.919310309839402373e-01,1.947502717679617523e-01,1.120801753919327404e-01,5.196123770735371350e-01,1.440024375915527344e-02
8.730830000000000535e-01,6.937987170501916032e-04,1.379517848020602247e-02,9.531366825103759766e-01,1.070303345496353411e-03,-2.119077362385768382e-02,-9.641994147433496920e-03,-6.571953856163566254e-02,3.506456036457735598e-02,-4.193292558193206787e-02,-4.163549329207413136e-02,-1.045785291722223925e-01,-5.338231050286400270e-02,2.273716049117825988e-01,5.731906477824996737e-02,3.335625726574366345e-02,2.008092569817280237e-01,1.573190647782499729e-01,6.010952593631020691e-02,5.241376464116651590e-01,1.978847980499267578e-01
8.970209999999999573e-01,-1.919304313238232376e-03,1.478132861375882137e-02,9.522661566734313965e-01,3.518901277090271361e-03,-2.529882265106420114e-02,-1.209880083378944704e-02,-5.955141061395684970e-02,4.126324880104598192e-02,-3.683820366859436035e-02,1.605125865746862834e-01,-1.324251867965099139e-01,-6.920446762529686158e-02,-1.994810320132336390e-01,1.164337949052250964e-01,-2.509952618019484771e-01,-2.175305525005085117e-01,2.164337949052251020e-01,-2.175550692384191631e-01,5.325117657943417848e-01,6.676461696624755859e-01
9.244620000000000060e-01,-3.791110052693180861e-03,1.541418999014301273e-02,9.517161846160888672e-01,6.786856204925078608e-03,-2.747719212603660921e-02,-1.335407025452295393e-02,-7.127573186399169258e-02,3.461537999436282986e-02,-3.538481146097183228e-02,1.743658228144883693e-01,-1.259263980265625527e-01,-5.428320825717414949e-02,-2.261086097048362054e-01,5.575279428847779162e-02,-2.505441563734716048e-01,-2.172876436552262092e-01,1.557527942884777972e-01,-2.137642035897674431e-01,5.322744326898832812e-01,6.538496017456054688e-01
9.471870000000000012e-01,-6.652484816691195749e-03,1.639605734329599787e-02,9.508416652679443359e-01,1.264215075472700615e-02,-3.031567977154514537e-02,-1.348726260341281957e-02,-8.456730825305604216e-02,3.315601858496600163e-02,-4.226974770426750183e-02,1.184293833822375325e-01,-5.556745386807052101e-02,7.570729345192647730e-02,-2.638849934947364861e-01,-2.903251711823698900e-01,-1.744175211262304070e-01,-2.174770539680987436e-01,-1.903251711823699122e-01,-1.376754823899163649e-01,5.305134529047870195e-01,5.217349529266357422e-01
9.732769999999999477e-01,-8.396869719611012653e-03,1.696213329650913745e-02,9.502416849136352539e-01,1.496340271883406757e-02,-3.108906271523692588e-02,-1.207556531626297058e-02,-7.967366412961286726e-02,4.782309194309054823e-02,-3.470408171415328979e-02,6.426592974685509108e-02,1.192834056337803428e-02,5.428548388389627805e-02,-2.637961006654533924e-01,-5.365739440616042882e-02,-1.986179772749154249e-01,-2.147385915493960629e-01,4.634260559383957673e-02,-1.660698129546267499e-01,5.277712088024828496e-01,3.949615955352783203e-01
9.994429999999999703e-01,-1.077221578094015274e-02,1.772278662200135746e-02,9.496318697929382324e-01,1.383260997193489807e-02,-3.088903862515013365e-02,-9.288101010161087245e-03,-8.679915605417312663e-02,4.905999921655568308e-02,-2.234366908669471741e-02,-8.581182415148783105e-02,2.561678470907038235e-02,5.744919709684432468e-02,1.381913780260386193e-01,-1.192008122383673568e-01,1.982677637089108602e-01,1.802741669535418978e-01,-1.920081223836735476e-02,2.230469787383173030e-01,5.102497884372029224e-01,-5.063173770904541016e-01
1.026977999999999946e+00,-1.235412808564847163e-02,1.839032319173769178e-02,9.491752386093139648e-01,9.663812267093195574e-03,-2.835956198619049573e-02,-7.155565210048564495e-03,-8.579805970414992877e-02,5.171451729091249699e-02,-4.020681977272033691e-02,-2.510843567808735965e-01,1.544639160597885419e-01,1.235907562924837139e-01,1.596374429471388579e-01,-5.995196655831993432e-02,2.058171369444802834e-01,1.722807061873637413e-01,4.004803344168007123e-02,2.249108728469014773e-01,5.170335694428124240e-01,-2.207694649696350098e-01
1.049503000000000075e+00,-1.395778366818505034e-02,1.912089988360982096e-02,9.488825798034667969e-01,4.713587318606752077e-03,-2.567892227870682831e-02,-5.444162822158205017e-03,-8.051640219849062752e-02,6.238292772055055446e-02,-2.753129974007606506e-02,-2.626181543873089552e-01,1.751556734245756364e-01,-7.866509944069925795e-04,2.169729990888093207e-01,-1.930747866139443936e-01,2.128972244993672658e-01,1.885671897994836421e-01,-9.307478661394437414e-02,2.274529035210852701e-01,5.151850372338100392e-01,-2.750676870346069336e-01
1.075811000000000073e+00,-1.559878694368602679e-02,1.982863969763988890e-02,9.487119317054748535e-01,2.878400830586052227e-04,-2.343511378387796995e-02,-5.306599421694091490e-03,-8.215707141238273725e-02,4.935741772731746385e-02,-2.688746713101863861e-02,-2.120916112920140650e-01,8.838283054650168669e-02,1.472538012988798030e-02,2.379550584504323274e-01,-1.647657836452964264e-01,2.105236763972765934e-01,1.919331638437514753e-01,-6.476578364529642085e-02,2.250184035608946420e-01,5.139739106830794046e-01,-3.417572975158691406e-01
1.099255000000000093e+00,-1.699842731873694654e-02,2.075627151263817471e-02,9.486266970634460449e-01,-1.459578528605858742e-03,-2.171701535010739370e-02,-6.372017929057616215e-03,-9.437263340548997237e-02,5.058518512703244485e-02,-6.616333965212106705e-03,6.632102033943023701e-03,7.288710138004099448e-02,-8.806337895686622286e-02,3.944913138821327936e-02,1.151158668674240049e-01,1.980242971400872354e-01,-2.171252718372825019e-02,2.151158668674240104e-01,2.155571108422469351e-01,5.312751879675503552e-01,6.716802120208740234e-01
1.124730000000000008e+00,-1.843907962386065816e-02,2.157049267840668513e-02,9.486823678016662598e-01,-1.015325520533631471e-03,-2.005740907673980722e-02,-8.052946699209417858e-03,-9.152599128055267930e-02,3.993635123146994231e-02,-1.924208924174308777e-02,6.069670108339684372e-02,1.211519577738035675e-01,-6.350747757140411121e-02,2.360643810711522406e-01,1.154220562894358315e-01,2.058369019006607847e-01,1.858459985313425655e-01,2.154220562894358371e-01,2.281305334386635186e-01,5.314461486902715137e-01,6.281354427337646484e-01
1.152355999999999936e+00,-2.052987826706739044e-02,2.272670900943934633e-02,9.487006068229675293e-01,3.838307466795953457e-03,-1.669340662046381318e-02,-1.120554604059087467e-02,-7.565765756048489776e-02,4.610836076852179582e-02,-1.997936517000198364e-02,2.249664939150851639e-01,1.445908480813387631e-01,-1.093067261095150150e-01,-1.906785886470765967e-01,1.257275950814128462e-01,-2.518418247512692054e-01,-2.166241909903981744e-01,2.257275950814128518e-01,-2.209049750181306115e-01,5.272692497211700635e-01,3.934159278869628906e-01
1.177192000000000016e+00,-2.194848075337865398e-02,2.350926142432517574e-02,9.487349987030029297e-01,7.868862859769350238e-03,-1.371488734329373571e-02,-1.350715698188653668e-02,-8.244939358735048351e-02,4.278062901946767804e-02,-1.847097650170326233e-02,1.845873862002972432e-01,1.192396596745568249e-01,-1.080364143265680060e-01,-2.232096311029166669e-01,1.274241278571292824e-01,-2.619301519288546043e-01,-2.199557709607575517e-01,2.274241278571292879e-01,-2.246492928274972656e-01,5.285683548561085354e-01,4.667308330535888672e-01
1.201049000000000033e+00,-2.341666443291689007e-02,2.431773159414954075e-02,9.487004280090332031e-01,1.144204911596253572e-02,-1.157928186498535794e-02,-1.552581570185362914e-02,-8.460183946239045738e-02,4.638813106716292711e-02,-1.792752556502819061e-02,2.014237931836761197e-01,5.524389047393281349e-02,-8.853706731059152180e-02,-2.430325119279450330e-01,1.268143113450983239e-01,-2.672562814296577383e-01,-2.204657348713326415e-01,2.268143113450983295e-01,-2.244216248103334532e-01,5.258489717524752471e-01,3.168449401855468750e-01
1.224078999999999917e+00,-2.479914166310652826e-02,2.470104632352999527e-02,9.488109350204467773e-01,1.476111538169176153e-02,-1.124013507142773705e-02,-1.779600089065236368e-02,-9.463883409455602080e-02,4.362016844414789984e-02,-8.660059422254562378e-03,1.548885671698568278e-01,-2.615599260639511758e-02,-8.726679566700219770e-02,-2.672928128055616082e-01,1.258388484069203339e-01,-2.709151024692781351e-01,-2.207934801158304983e-01,2.258388484069203395e-01,-2.218555495552277379e-01,5.258495857191906042e-01,3.506690263748168945e-01
1.247934000000000099e+00,-2.720402841009703782e-02,2.542319806562446521e-02,9.491385221481323242e-01,1.786832570321347791e-02,-1.271698905830764836e-02,-1.703907781734415039e-02,-9.538051976411443533e-02,5.239892690107997991e-02,-1.606182940304279327e-02,-9.913869846370037056e-03,-3.141536979407859309e-02,1.127858837125975400e-01,-5.326067888023984509e-03,7.588078875734904916e-02,1.384633188341718724e-01,5.335879385804680186e-02,1.758807887573490547e-01,1.851943715158184400e-01,5.123797096099987902e-01,-4.065495729446411133e-01
1.271420999999999912e+00,-2.968763156562837999e-02,2.642969835445313151e-02,9.496525526046752930e-01,1.675753536155972709e-02,-1.464106881700155682e-02,-1.398266493026367741e-02,-1.021919720001934900e-01,5.799996572022432517e-02,-3.933452069759368896e-03,-6.329500019642346487e-02,-2.903151511510592211e-02,1.638986597330711337e-01,9.447837413248053040e-02,1.783112753223296820e-02,1.557268219877039062e-01,1.416050834492467159e-01,1.178311275322329738e-01,1.938039823734471756e-01,5.150459053507153717e-01,-2.172300219535827637e-01
1.297161999999999926e+00,-3.240723202910202744e-02,2.777633642855579371e-02,9.503845572471618652e-01,1.180144520627452072e-02,-1.668948255575775086e-02,-1.021401121181630955e-02,-9.975434779442106381e-02,6.673395563964834576e-02,6.315887439996004105e-03,-1.664762473730221348e-01,-5.835662058832741944e-02,1.524848422742648424e-01,1.878666397639306151e-01,-1.883248069613097098e-01,1.925325793261071783e-01,1.951379885074686904e-01,-8.832480696130970421e-02,2.201520450855735112e-01,5.102048442932517469e-01,-4.344886541366577148e-01
1.321466000000000030e+00,-3.533322408734432263e-02,2.942086565145289601e-02,9.512518048286437988e-01,5.348886063205178683e-03,-1.885716580619645200e-02,-9.072330054615385109e-03,-9.574708163202393096e-02,6.092650950413255190e-02,1.260340027511119843e-02,-1.515767422353820337e-01,-5.074108474708898670e-02,-5.175962972343588903e-02,2.346762180855633817e-01,-2.061054033611547098e-01,1.938842351309430501e-01,2.043595516904606335e-01,-1.061054033611547043e-01,2.185718574320459351e-01,5.059767915823765172e-01,-6.319255232810974121e-01
1.346856000000000053e+00,-3.817322265947894339e-02,3.098071619299984369e-02,9.521173238754272461e-01,1.431917205812742932e-03,-2.121451584011091462e-02,-1.040896951250047664e-02,-8.892381020267764447e-02,5.694583907267625894e-02,1.028302311897277832e-02,-8.840244275431619059e-02,-6.755414137338425218e-02,-8.272246411342447370e-02,2.561685164858868435e-01,-1.901553227403112722e-01,1.802720656499306462e-01,2.014736836111324647e-01,-9.015532274031125282e-02,2.088604501307737560e-01,5.059391017382333100e-01,-6.414113044738769531e-01
1.373064000000000062e+00,-4.090667204841948179e-02,3.250643706750885875e-02,9.528847336769104004e-01,1.240824914516558582e-03,-2.046442481315180473e-02,-1.256176580439616330e-02,-9.516885869823765720e-02,5.325614511582607569e-02,-4.928006324917078018e-03,2.503744069205397077e-02,7.816319572999401444e-02,-9.671772470362385854e-02,-3.955907409865688784e-02,1.192956295407153755e-01,1.751633197427213129e-01,-9.400212535682005155e-02,2.192956295407153811e-01,2.097919633262833594e-01,5.313300843909282145e-01,6.656439304351806641e-01
1.397813999999999890e+00,-4.298635164300831923e-02,3.496950657731521389e-02,9.532989859580993652e-01,4.598658449267729181e-03,-1.588477389819020757e-02,-1.513070633265822806e-02,-7.389038571951057899e-02,5.963131412088214234e-02,-6.153612397611141205e-03,1.621195554396840932e-01,2.095492709139898657e-01,-7.281303676621153631e-02,1.126938124324659007e-01,1.215853856481870499e-01,-2.223709432305707445e-01,7.271200431464243386e-02,2.215853856481870554e-01,-1.806207378951565079e-01,5.293091004847640946e-01,5.494904518127441406e-01
1.423607999999999985e+00,-4.432622307444603060e-02,3.662616710361552008e-02,9.534821510314941406e-01,7.603543126558061707e-03,-1.097382368619559401e-02,-1.706128035970988499e-02,-6.741686759820413044e-02,4.978410807574697866e-02,-5.200365558266639709e-03,1.357422141589204045e-01,2.152990140798094754e-01,-9.255095598111949540e-02,4.474772766300101623e-03,1.245188367559964815e-01,-1.605279683632612198e-01,-8.421318341126863422e-03,2.245188367559964870e-01,-1.133250170369203141e-01,5.302059308292595974e-01,6.007184982299804688e-01
1.450307999999999931e+00,-4.623039090362601050e-02,3.929954314125567311e-02,9.537436962127685547e-01,1.072320196819063001e-02,-4.248544234020101840e-03,-1.842837345478520739e-02,-7.392420628233373203e-02,7.691104917050825551e-02,-1.071745343506336212e-02,6.435881817525496151e-02,2.401637903715646838e-01,6.060191066207689520e-02,-3.662538887259444292e-02,1.234767595193077272e-01,-2.692772774928513524e-01,-5.366626676157239956e-02,2.234767595193077327e-01,-2.182870158922670667e-01,5.142801307203489491e-01,-2.860006690025329590e-01
1.473716000000000026e+00,-4.761382622608444776e-02,4.122723092285985463e-02,9.540910720825195312e-01,1.259131577633400452e-02,-2.151090236308439430e-03,-1.705146857687811490e-02,-7.697975780232603482e-02,7.393797515412656174e-02,9.496639482676982880e-03,1.030318068886111466e-01,2.993601376405438663e-02,9.444507348437949923e-02,-2.191624708342753136e-01,1.262340700387155623e-01,-2.645990086227283378e-01,-2.197600267158834608e-01,2.262340700387155679e-01,-2.174371087838405381e-01,5.232564781731211534e-01,2.768100500106811523e-01
1.497430000000000039e+00,-5.012750816047662622e-02,4.467906140930283376e-02,9.549443125724792480e-01,1.519684232142687851e-02,-2.768978144859435275e-03,-1.277105876154926989e-02,-6.412222788556684594e-02,8.275057114148716420e-02,1.970341987907886505e-02,8.458624691719250632e-02,-2.279761026781543937e-02,1.498342766267704018e-01,-1.965578578751349670e-01,1.229525086893399066e-01,1.093014726016451610e-02,-1.908213177146357298e-01,2.229525086893399122e-01,4.604107715313017490e-02,5.054163375822751103e-01,-6.351320147514343262e-01
1.523709999999999898e+00,-5.194359058222451642e-02,4.721133222587160783e-02,9.555053710937500000e-01,1.615549887819479891e-02,-4.524526820017804596e-03,-9.031745994796835930e-03,-6.142445294198099065e-02,8.007446072375488944e-02,1.233603805303573608e-02,-5.706952993591848065e-03,-8.463222452192661893e-02,2.362637133387714972e-01,1.658728769652382251e-01,1.172356603685933141e-01,1.829363519501860935e-01,1.791287302905036349e-01,2.172356603685933196e-01,2.074809186086007951e-01,5.056372356205434127e-01,-6.519493460655212402e-01
1.548216000000000037e+00,-5.425313245923230748e-02,5.114696323666319266e-02,9.562284946441650391e-01,1.423273990823438993e-02,-5.507094257710454244e-03,-3.150885636564515480e-03,-6.534019274607322236e-02,9.374422198860261901e-02,-3.633380867540836334e-03,-8.879836037099536616e-02,3.536951141325602593e-02,1.924436851582357888e-01,1.963285511080685164e-01,1.160539098509111300e-01,1.461680238144306698e-01,1.829529761559841872e-01,2.160539098509111355e-01,1.541682623216202308e-01,5.088930710744178354e-01,-5.430167317390441895e-01
1.573152000000000106e+00,-5.558549381015327057e-02,5.383162843580226176e-02,9.565217494964599609e-01,1.177843584403462027e-02,-6.110134790498822355e-03,-8.858188394882393624e-04,-3.171544546313213170e-02,7.994609376932888811e-02,7.795860990881919861e-03,-1.215033535241350354e-01,-1.474297992124185865e-02,2.911221498189954515e-02,2.348840730235707552e-01,8.356671197431070341e-02,2.117535677317795295e-01,2.159108754171410738e-01,1.835667119743107090e-01,2.136469939165935583e-01,5.059089050800343879e-01,-6.551607251167297363e-01
1.598062000000000094e+00,-5.734374641924792210e-02,5.877937115816877361e-02,9.567455053329467773e-01,1.011665809738885105e-02,-6.568046790930370804e-03,7.693619423108088995e-04,-2.780235287337247049e-02,8.922057700204573394e-02,1.182219944894313812e-02,-1.365817396760184849e-02,2.013515413639189316e-02,2.840218562657962492e-02,2.138967215472067085e-01,1.254851900581072932e-01,1.981923038267269510e-01,1.710552607370216804e-01,2.254851900581072988e-01,1.954084841607522105e-01,5.048305239799313338e-01,-6.974998712539672852e-01
1.621453000000000033e+00,-5.832466380086696184e-02,6.228441277603979226e-02,9.567086696624755859e-01,1.125675634779198242e-02,-7.272905966042353398e-03,1.301876629783427219e-03,-2.661935812288093381e-02,8.798249979117075958e-02,-5.530226975679397583e-03,1.189876414914687180e-01,-4.701008510928709333e-02,2.359598770512436744e-02,-1.891631523824326977e-01,1.205037709102040333e-01,-2.112498454387293501e-01,-2.245528644302110799e-01,2.205037709102040389e-01,-2.155802612159856413e-01,5.175496877329397449e-01,-9.150022268295288086e-02
1.648433999999999955e+00,-5.951024375973167080e-02,6.746792610644021526e-02,9.564489126205444336e-01,1.442656298971549400e-02,-9.401373458325146260e-03,1.521208589443157067e-03,6.212979690121330509e-04,8.418374217583314556e-02,-4.854710772633552551e-03,1.255769510762700381e-01,-1.044125058113391097e-01,-3.376368023783376388e-02,-2.081905966349765491e-01,1.221202236715168699e-01,-2.048353189172655575e-01,-2.238474126214413940e-01,2.221202236715168754e-01,-2.098165353629477259e-01,5.152680300479477449e-01,-2.142587900161743164e-01
1.672633000000000036e+00,-6.011312457249635283e-02,7.091993189515709284e-02,9.561539292335510254e-01,1.705226517645636042e-02,-1.032881718172751206e-02,2.672605177578279978e-03,-1.204377243226353346e-02,1.088543267527423558e-01,-2.774203196167945862e-02,1.585859572822092278e-01,-6.058945892190817362e-02,1.012990565319754482e-01,-2.009093867859420013e-01,1.200766928336079176e-01,-2.028236546725582790e-01,-2.216315233594929324e-01,2.200766928336079231e-01,-2.113297804932421087e-01,5.151055533116464247e-01,-3.195925951004028320e-01
1.696930000000000049e+00,-6.010131553891911310e-02,7.494612566866702685e-02,9.554708003997802734e-01,1.873134109793805901e-02,-1.315416201068630997e-02,7.002682128906201342e-03,1.533548999144159581e-03,9.729856096071101690e-02,-1.088611129671335220e-02,3.871920686183776689e-02,-1.312328209511799681e-01,1.429264592495718134e-01,-1.366942289776689190e-01,8.354046169696105473e-02,2.424336573452903071e-02,-1.374141248377623581e-01,1.835404616969610603e-01,3.557302696159358492e-03,5.208292885832987995e-01,5.015754699707031250e-02
1.723443000000000058e+00,-5.969733498647500358e-02,7.715631576274178949e-02,9.550527334213256836e-01,1.934109968835058188e-02,-1.632614442928925769e-02,1.041940983342692917e-02,4.789582851779198951e-03,1.175061639136369129e-01,-2.446149103343486786e-02,4.295808212159448781e-03,-1.672506252486963274e-01,1.911514948931651303e-01,4.407665594088343297e-02,3.058275579024510860e-02,3.869581465077216731e-02,2.814452073649731378e-02,1.305827557902451141e-01,8.168146091848974000e-03,5.257597869689835113e-01,2.576305866241455078e-01
1.749497999999999998e+00,-5.881099721778597356e-02,8.052385156233375640e-02,9.543509483337402344e-01,1.922328385880318555e-02,-2.190564971639097358e-02,1.455774152872280069e-02,3.392986758003110892e-02,1.018276137907291323e-01,-2.523312531411647797e-02,2.882646322857532195e-02,-2.031502774040351567e-01,1.310681819450383312e-01,-3.965991213660170767e-02,-9.086080012439332054e-02,-4.614957606181635530e-03,-4.346187617863399993e-02,9.139199875606686743e-03,-4.677145978031721496e-02,5.267962000585861837e-01,3.057842254638671875e-01
1.771505000000000107e+00,-5.799807167327983293e-02,8.280011837219272697e-02,9.538668394088745117e-01,1.734482258964765641e-02,-2.374039857922127794e-02,1.671634335355265399e-02,3.443407919573785586e-02,1.158262238450481207e-01,-3.526099026203155518e-02,-1.377833719015249814e-01,-6.173208907457015948e-02,1.194311144811349423e-01,2.246496615658193086e-01,5.945241878104062794e-02,-9.303839089820120645e-02,1.937085830774929740e-01,1.594524187810406335e-01,-1.413816061639424082e-01,5.144212121016900063e-01,-4.089405536651611328e-01
1.800135999999999958e+00,-5.662311017865875179e-02,8.711297157839478777e-02,9.529689550399780273e-01,1.462724809390395994e-02,-2.370588155015984633e-02,1.969364255476269143e-02,6.494498608768557724e-02,1.136942059007416267e-01,-3.488303720951080322e-02,-4.299207078109183039e-02,1.031753691599658351e-01,1.225693822694858964e-01,2.385486945347353727e-01,1.226259378282860135e-01,-1.311759425872322249e-01,1.907658199492831830e-01,2.226259378282860191e-01,-1.875478909399290461e-01,5.096308421372938158e-01,-6.702557206153869629e-01
1.822654999999999914e+00,-5.611998811558276123e-02,9.083242076377373575e-02,9.524785280227661133e-01,1.289212011067970148e-02,-2.049544931569702300e-02,2.212345711769003742e-02,5.909876597960906502e-02,1.173142295298428145e-01,-2.713225781917572021e-02,-1.333874584147530795e-01,1.846683358861996305e-01,1.201567829708520690e-01,2.678138846856193966e-01,1.254640459427322774e-01,-3.453324263214269108e-02,2.022573812893999068e-01,2.254640459427322829e-01,-9.758840413745012432e-02,5.086681598914948310e-01,-6.968241333961486816e-01
1.847582999999999975e+00,-5.497374107442554170e-02,9.623329653896364744e-02,9.519369602203369141e-01,1.602565924780227982e-02,-1.617513045345275735e-02,2.668422247878088349e-02,5.298593267350874131e-02,1.022748264402297824e-01,-1.621817983686923981e-02,1.732785250228515150e-01,1.342229275509709829e-01,1.935543060590686482e-01,-1.865425201885243522e-01,1.167735149634108460e-01,-1.493341102647779972e-01,-2.238338860786222573e-01,2.167735149634108516e-01,-2.250140070768245626e-01,5.116349001167855848e-01,-5.008773803710937500e-01
1.873923999999999923e+00,-5.422774723913718897e-02,9.954878161577615514e-02,9.516862630844116211e-01,2.041266968026995629e-02,-1.480794549755914957e-02,2.993299283376327224e-02,8.738545429575866885e-02,9.516242357127427387e-02,-5.706382915377616882e-03,2.517197479979193520e-01,-2.521381202841471367e-02,1.665073290527570582e-01,-2.209450442688858929e-01,1.365426088633636126e-01,-1.346938466762346576e-01,-2.286313761058355043e-01,2.151737359589981635e-01,-2.192359886882487563e-01,5.099299124613406731e-01,-5.537163615226745605e-01
1.898274000000000017e+00,-5.273609270255528308e-02,1.044504520607937997e-01,9.515534639358520508e-01,2.770334805663239933e-02,-1.553694480384604226e-02,3.557557463134464193e-02,8.225476583646340600e-02,1.049687109456039630e-01,-1.407291647046804428e-02,1.855831218238403191e-01,-3.091561019237758917e-02,2.083258493779684695e-01,-2.579077328720575379e-01,1.224913967598621756e-01,-1.150202960009480135e-01,-2.303558822240580339e-01,2.123289797941954604e-01,-2.150202960009480191e-01,5.086434888975052138e-01,-6.594497561454772949e-01
1.923016000000000059e+00,-5.150798620634888803e-02,1.077620817836070638e-01,9.513042569160461426e-01,3.051190773291762720e-02,-1.624580300198830152e-02,4.013984390004687874e-02,7.702611434348816122e-02,1.155995401615636797e-01,-1.275536511093378067e-02,6.350293006002498408e-02,-5.122611359499185113e-02,2.364420835407768928e-01,-2.580149416705828647e-01,1.139608538871910992e-01,-9.075183321417354398e-02,-2.218635252010909831e-01,2.097278766034859909e-01,-1.907518332141735495e-01,5.088686972116387430e-01,-6.470144987106323242e-01
1.947208000000000050e+00,-4.957665744305037037e-02,1.126560223470948474e-01,9.508664011955261230e-01,2.857080502945270536e-02,-1.753066620269683185e-02,4.712869791114537854e-02,8.785968065314869735e-02,1.102555146646397033e-01,-2.244831062853336334e-02,-1.774131671632010465e-01,-4.005880738349537618e-02,1.838372099803426973e-01,1.561260549956207111e-01,1.150937028479266100e-01,-8.659199863863875635e-02,1.826840508839820409e-01,2.076882174160669947e-01,-1.865919986386387619e-01,5.104878787655940942e-01,-6.044924855232238770e-01
1.972404000000000046e+00,-4.813271860690141596e-02,1.158612381642430689e-01,9.505505561828613281e-01,2.543680654570333599e-02,-1.944157817157754486e-02,5.241121540714388516e-02,8.971539955222794516e-02,1.063427438535560626e-01,-2.868646010756492615e-02,-1.538143997183830380e-01,-8.389026657234939510e-02,2.548591121233946266e-01,1.643270172683969355e-01,9.902464904355895436e-02,-8.264613321489810982e-02,1.707423836592557032e-01,1.990246490435589599e-01,-1.826461332148981154e-01,5.112426409911472458e-01,-5.941507816314697266e-01
1.999678000000000067e+00,-4.592332635789364570e-02,1.208729889172969058e-01,9.498840570449829102e-01,1.784501929694378916e-02,-2.416146841761168673e-02,5.993275935175423896e-02,1.092321721128632073e-01,1.162659152117285905e-01,-3.300457820296287537e-02,-2.330573687286875140e-01,-2.036388166594933213e-01,2.064778642386662089e-01,2.293700336950124929e-01,-1.597622785298068171e-02,-7.207677747799054457e-02,1.760001675615577021e-01,8.402377214701932384e-02,-1.720767774779905501e-01,5.116050834285278404e-01,-5.997242927551269531e-01
2.022638000000000158e+00,-4.462335379458567258e-02,1.243062633953217477e-01,9.493398070335388184e-01,1.433864111827553786e-02,-2.765961312966780383e-02,6.526567053457821288e-02,9.405856267578345531e-02,1.115121567259008406e-01,-4.664873331785202026e-02,-1.010242019841767758e-01,-1.659372301356666635e-01,2.960032582465110251e-01,2.284300293474060828e-01,-1.338633757970549842e-01,-6.484289125798828324e-02,1.550185367196179331e-01,-3.386337579705498563e-02,-1.648428912579882888e-01,5.129079708187064268e-01,-5.908301472663879395e-01
2.050319000000000003e+00,-4.222258810820787162e-02,1.290155689032365383e-01,9.484610557556152344e-01,1.279635407340826495e-02,-3.351025598816970152e-02,7.375212520338947364e-02,9.799555850915049604e-02,9.075184694908351724e-02,-3.940476104617118835e-02,5.767352079938982412e-02,-1.766563653339427997e-01,2.607243991948971495e-01,-4.248684642048862481e-02,-1.681695183017070661e-01,-6.149977724525476641e-02,-1.127384337866512015e-01,-6.816951830170706050e-02,-1.614997772452547720e-01,5.129716570017126553e-01,-5.660583376884460449e-01
2.073517999999999972e+00,-4.075552841608788557e-02,1.320386384669766655e-01,9.478378295898437500e-01,1.428301299299910253e-02,-3.660048682725136615e-02,7.944358683824814804e-02,1.019413589102849960e-01,8.551589144954134525e-02,-4.060536623001098633e-02,1.531542123360329355e-01,-1.281063420123018937e-01,3.181492606807632684e-01,-1.269541653757626509e-01,6.288946701632319725e-02,-7.092934972819386896e-02,-1.879138257672048617e-01,1.628894670163232028e-01,-1.709293497281938745e-01,5.185685904982525463e-01,-2.780026793479919434e-01
2.097141999999999840e+00,-3.807048263078637029e-02,1.361916290341159408e-01,9.469785094261169434e-01,1.988365646096722922e-02,-3.979402618910721223e-02,8.782885576712362585e-02,1.112086378795381636e-01,9.296136738340082806e-02,-4.216837510466575623e-02,1.848105845268663006e-01,-4.653636523831369137e-02,2.629465092462343057e-01,-1.824408347024956134e-01,8.043444326442619752e-02,-5.216518976016654152e-02,-2.150467173038841384e-01,1.804344432644262031e-01,-1.521651897601665471e-01,5.242802720751000845e-01,1.564168930053710938e-02
2.123336999999999808e+00,-3.566822627072346874e-02,1.385376426374362591e-01,9.461860060691833496e-01,2.300146973218112484e-02,-3.996988603362106041e-02,9.382337432859211290e-02,1.184236038810298625e-01,9.721878730558050630e-02,-6.232228502631187439e-02,1.641494125897613732e-01,5.932205468645785663e-04,3.210467276768335654e-01,-2.118649607188198003e-01,9.142091255745660172e-02,5.452143104385942518e-02,-2.268371914724055249e-01,1.914209125574566073e-01,-4.547856895614058037e-02,5.304514658739698518e-01,2.632753849029541016e-01
2.148959000000000064e+00,-3.214945491617830775e-02,1.419848618957137987e-01,9.446952342987060547e-01,2.471167229388525691e-02,-3.956173012451080773e-02,1.024301713291404514e-01,1.231433953675061116e-01,8.922995131152686166e-02,-7.922679930925369263e-02,-2.590003355044836336e-02,-2.302630710407498754e-02,2.674311991841675229e-01,-1.471715866330053357e-01,2.826684688233391252e-02,-3.357621320183554192e-02,-1.452098676818334988e-01,1.282668468823339181e-01,-1.335762132018355475e-01,5.245582553620181665e-01,-1.373764276504516602e-01
2.172220999999999957e+00,-2.976592015448229628e-02,1.442013036914061852e-01,9.434141516685485840e-01,2.351682551155514014e-02,-3.926391385539829137e-02,1.077797553836710165e-01,1.138377971620211787e-01,9.658075531050161477e-02,-7.873206585645675659e-02,-7.797720548703789001e-02,2.741986697615286361e-03,2.531196385734719723e-01,3.763099956033250787e-02,-4.100015508548305460e-02,-3.448251688790454628e-02,2.299622537525305641e-02,5.899984491451695096e-02,-1.344825168879045518e-01,5.199306683207193247e-01,-3.982872962951660156e-01
2.200362000000000151e+00,-2.612697470117094148e-02,1.476091891990966298e-01,9.414567351341247559e-01,1.763812259903562232e-02,-4.084977331695616165e-02,1.155885758012793474e-01,1.064057854928504160e-01,1.000154298236478057e-01,-7.717820256948471069e-02,-2.576662238213892064e-01,-1.253165951222426910e-01,2.953329030686094869e-01,2.192448877864042189e-01,-1.693354934801855338e-01,-3.043163690230421548e-02,1.628659666431579722e-01,-6.933549348018552827e-02,-1.304316369023042210e-01,5.172190802543120691e-01,-5.529558658599853516e-01
2.223310999999999815e+00,-2.488707084852499057e-02,1.497068748262591342e-01,9.408587217330932617e-01,1.540375195372334360e-02,-4.152635565156370667e-02,1.182680613057258689e-01,1.176849549520479210e-01,9.558917500390261279e-02,-7.342894375324249268e-02,-2.356526761295070216e-01,-1.250151490901399431e-01,2.728040625155868093e-01,2.364513258838833176e-01,-1.258053550908342089e-01,-3.285031014738939992e-02,1.686822940801221693e-01,-2.580535509083419984e-02,-1.328503101473894055e-01,5.169329593403951817e-01,-5.625742673873901367e-01
2.250815999999999928e+00,-2.091386596808482781e-02,1.557140033003989732e-01,9.391132593154907227e-01,8.416673267396484678e-03,-4.320158402773599526e-02,1.264369065949026982e-01,1.157250510563277573e-01,1.024753106677262215e-01,-7.627623528242111206e-02,-1.694926459748857250e-01,-2.489729568161104176e-02,2.849420287387340323e-01,3.132569942010057229e-01,-2.055153442560591626e-01,-4.243102186090141892e-03,2.132569942010057173e-01,-1.055153442560591431e-01,-1.042431021860901474e-01,5.157537938462584126e-01,-6.516629457473754883e-01
2.272314999999999863e+00,-1.821623763798373499e-02,1.596466928177541489e-01,9.379496574401855469e-01,5.046334896729336161e-03,-4.272638741952516916e-02,1.320320508327545994e-01,1.303983592594664120e-01,9.842392339497950393e-02,-7.447510212659835815e-02,-1.363696692453832959e-01,5.261454724159642451e-03,2.904436983411171069e-01,3.053853657883134898e-01,-9.679862370144955153e-02,2.729439916176810976e-02,2.053853657883134842e-01,3.201376298550459229e-03,-7.270560083823189579e-02,5.157791014940232843e-01,-6.548741459846496582e-01
2.297693999999999903e+00,-1.396642641058144264e-02,1.653766356827846840e-01,9.361181855201721191e-01,3.882999660337410012e-03,-4.119823422288093617e-02,1.407655110053747105e-01,1.192371200987565188e-01,1.029571601633162276e-01,-7.439775019884109497e-02,3.893632540397927444e-02,5.619351291669532483e-02,3.256978251116542933e-01,2.603506203481316672e-01,1.144659220198433747e-01,-1.229066169265866093e-03,1.603506203481316617e-01,2.144659220198433802e-01,-1.012290661692658716e-01,5.260460148027301663e-01,-1.145908832550048828e-01
2.321568000000000076e+00,-9.448682423015527035e-03,1.702150766695491868e-01,9.343664050102233887e-01,8.139090792184952919e-03,-3.934427237712512238e-02,1.496115527247805499e-01,1.448682057322326078e-01,8.306995051365746729e-02,-6.955634057521820068e-02,2.212356881510887663e-01,8.090874890951829657e-02,2.742844212362907652e-01,-1.002961269738221473e-01,9.110311658098618759e-02,2.370188451400031815e-01,-2.002961269738221528e-01,1.911031165809861931e-01,1.370188451400031759e-01,5.326687945329725560e-01,2.534261941909790039e-01
2.347891999999999868e+00,-4.595729665027518084e-03,1.743273183136885840e-01,9.323553442955017090e-01,1.784325870425818028e-02,-3.836984253262709643e-02,1.589721641445824840e-01,1.364328465886250896e-01,9.669236476162375304e-02,-8.643238991498947144e-02,3.247897789722472006e-01,1.231367401791589877e-01,3.451441555976980657e-01,-1.899771716767464924e-01,8.802314993671112031e-02,2.617911511569587790e-01,-2.561596664346646457e-01,1.880231499367111259e-01,1.617911511569587735e-01,5.361460288001346219e-01,3.615971803665161133e-01
2.373826999999999909e+00,-1.065123543275923231e-03,1.770616002326895477e-01,9.308314919471740723e-01,2.420956770308741943e-02,-3.709449604707604209e-02,1.645655569120263451e-01,1.690022952037023851e-01,8.692998275346565384e-02,-8.637820184230804443e-02,2.394138909042548002e-01,1.105917328562854018e-01,2.458147829209389179e-01,-2.467163152289597872e-01,8.904587299641844589e-02,2.569214312370729503e-01,-2.604570933010542100e-01,1.890458729964184514e-01,1.569214312370729447e-01,5.298151627830668398e-01,-6.341338157653808594e-04
2.397743000000000180e+00,4.311365334695412173e-03,1.811345054876125071e-01,9.283224344253540039e-01,3.035627878860567078e-02,-3.510277099722425298e-02,1.706161262274921153e-01,1.635056108627715443e-01,9.610287110813189870e-02,-9.676048904657363892e-02,1.474045532992933061e-01,9.546552348496886720e-02,1.804797987210675081e-01,-2.811861074513842262e-01,9.230040802503569619e-02,2.995637392652953368e-01,-2.662591627606082922e-01,1.905423160850082120e-01,1.995637392652953590e-01,5.329669575768601897e-01,1.121646165847778320e-01
2.421307000000000098e+00,8.169709801977714098e-03,1.835204223397681189e-01,9.265956878662109375e-01,3.116865228003915314e-02,-3.392847377354213378e-02,1.741581003354926160e-01,1.801881872667664419e-01,1.005084269368615724e-01,-9.708253294229507446e-02,-1.328809718768272355e-03,4.613534186298828138e-02,1.912898414391301372e-01,-2.693240724192533242e-01,1.180244936486493923e-01,2.887284590765739067e-01,-2.508824343027085679e-01,1.910054315653003931e-01,1.887284590765739012e-01,5.213853580522431752e-01,-5.370977520942687988e-01
2.449573000000000000e+00,1.394467221463301966e-02,1.863350360147025819e-01,9.239494800567626953e-01,2.803336226147704752e-02,-3.417792418378073904e-02,1.780441694869177027e-01,1.738468650640609403e-01,9.880115510123185785e-02,-9.979610145092010498e-02,-1.825374470838862506e-01,-8.365021522433163659e-02,1.058626690535319215e-01,9.728075371157543505e-02,1.375690883568518597e-01,1.968285467339259409e-01,9.519914004339163904e-02,2.153665215067517014e-01,9.682854673392593536e-02,5.203865973994353800e-01,-6.209083795547485352e-01
2.473551000000000055e+00,1.775203966519228738e-02,1.883831265880996642e-01,9.222531914710998535e-01,2.332686255219146645e-02,-3.594601970144051251e-02,1.805514037844040409e-01,1.743480833338746094e-01,1.025491958441184653e-01,-9.678288549184799194e-02,-2.481316757426552666e-01,-1.600870938774835717e-01,8.509982025609043321e-02,1.590590786343773766e-01,1.242670676505471250e-01,1.311976824507185002e-01,1.226505789451272921e-01,2.094026904189057459e-01,3.119768245071849466e-02,5.207143088322802038e-01,-6.074386239051818848e-01
2.498352999999999824e+00,2.373522180156462449e-02,1.912259896953675264e-01,9.201370477676391602e-01,1.408640981263901797e-02,-4.041619665114581927e-02,1.849748745403103634e-01,1.767519248818707200e-01,9.242282562846723670e-02,-8.665046840906143188e-02,-2.694202843543871406e-01,-1.669212543412151029e-01,1.659154705060992274e-01,2.480090718823061702e-01,8.433400105073912689e-02,1.593076849878117263e-01,1.596165406531051267e-01,1.843340010507391324e-01,5.930768498781172071e-02,5.200483880927412317e-01,-6.198433041572570801e-01
2.523010000000000197e+00,2.783895865586441878e-02,1.928027033060705775e-01,9.187669754028320312e-01,1.057830007468607038e-02,-4.241980218709762163e-02,1.882543478508045265e-01,1.777393733467635129e-01,8.076312986234922275e-02,-8.034047484397888184e-02,-1.207012780246452949e-01,-1.246330033238837592e-01,1.646920269319150920e-01,2.425140314111617901e-01,4.656400470914967560e-02,8.102813049555850078e-02,1.425140314111617845e-01,1.465640047091496811e-01,-1.897186950444150824e-02,5.201414974011338010e-01,-6.030688881874084473e-01
2.551616000000000106e+00,3.411051040862955047e-02,1.945585034408681691e-01,9.171799421310424805e-01,1.206520870196838707e-02,-4.637232280419811836e-02,1.938994657753252415e-01,1.823209748544092623e-01,6.988761318640095144e-02,-6.132470816373825073e-02,2.073044267360342752e-01,-1.189986335175396981e-01,2.107877316536224677e-01,-1.639849800656087708e-01,6.328012940583818691e-02,1.469915523963898629e-01,-2.510853061477849035e-01,1.632801294058381925e-01,4.699155239638986431e-02,5.256687082341554573e-01,-2.420158386230468750e-01
2.575638000000000094e+00,3.848607861628357968e-02,1.955103989776786344e-01,9.162631034851074219e-01,1.626343049695401499e-02,-4.941677416430123593e-02,1.980691776566714246e-01,2.015738739239298083e-01,6.260935950238981362e-02,-6.461931020021438599e-02,2.351984657523416011e-01,-9.713232065099733359e-02,2.526134327312327121e-01,-2.067677367328061289e-01,6.658701501455271954e-02,1.755832493922921400e-01,-2.594499789390281586e-01,1.665870150145527251e-01,7.558324939229212058e-02,5.261547266699780900e-01,-2.404505610466003418e-01
2.600093999999999905e+00,4.529294147048722879e-02,1.967992535593159342e-01,9.148643612861633301e-01,2.445688730689711890e-02,-5.300230961314933431e-02,2.035869467863149485e-01,1.991594662978873054e-01,6.671628813795314750e-02,-6.145863980054855347e-02,2.638908599424807933e-01,-2.587751042490453110e-02,1.670093390545681622e-01,-2.663565237344207581e-01,7.064339265526975442e-02,2.180851872656798807e-01,-2.693422479690121274e-01,1.706433926552697600e-01,1.180851872656798751e-01,5.294370470349200053e-01,-6.222170591354370117e-02
2.627127999999999908e+00,5.000167175850803863e-02,1.977556622342104553e-01,9.139247536659240723e-01,2.713996156389684652e-02,-5.508617711488827950e-02,2.068366166534585382e-01,2.163221878247609531e-01,6.304502870202412235e-02,-6.866548210382461548e-02,1.210001780219562423e-01,-8.738576239131298773e-02,1.652637729891128504e-01,-2.875396739605702301e-01,6.565021476694826719e-02,2.203607708234232854e-01,-2.667514080779637142e-01,1.656502147669482727e-01,1.203607708234232798e-01,5.281399324528343042e-01,-1.740177273750305176e-01
2.648312999999999917e+00,5.443855063724149096e-02,1.984582400754800746e-01,9.127185940742492676e-01,2.690515757212954412e-02,-5.683899671343861648e-02,2.095208850829608505e-01,2.037234690766732692e-01,7.881666152495166167e-02,-7.856078445911407471e-02,-4.041225218957393561e-02,-1.115728139184004875e-01,1.797437765180782687e-01,-2.191791992923214916e-01,-9.360391532899846323e-02,9.160591950881559475e-02,-2.133442189408748524e-01,6.396084671001543188e-03,-8.394080491184405593e-03,5.238942445227484646e-01,-4.578887224197387695e-01
2.675880999999999954e+00,6.127880182288641953e-02,1.995722865907820498e-01,9.110351204872131348e-01,2.246032571574130970e-02,-6.086787572596796814e-02,2.125291935338133875e-01,2.242186046958633272e-01,6.614185717228683592e-02,-7.571682333946228027e-02,-1.816598168424297943e-01,-1.558846023091025046e-01,7.309785045937947090e-02,-1.025107323992989483e-01,-2.346645868417838177e-01,1.334373976366950432e-01,-1.097735015267351788e-01,-1.346645868417838121e-01,3.343739763669503068e-02,5.232044030533279377e-01,-4.996585845947265625e-01
2.700788000000000189e+00,6.586474923644099200e-02,2.004691369323218786e-01,9.098642468452453613e-01,1.734385439135690404e-02,-6.331625524457962229e-02,2.144073688169276792e-01,2.203310938589471690e-01,7.833364600657519161e-02,-6.846435368061065674e-02,-2.514259096626175194e-01,-1.613135693700750162e-01,6.607876241574012210e-02,1.041245060918668530e-01,-2.809730736177097343e-01,2.079341827847850932e-01,5.203719996233893696e-02,-1.809730736177097288e-01,1.079341827847850738e-01,5.208341075880779103e-01,-6.128340363502502441e-01
2.723365999999999953e+00,7.070941882654903365e-02,2.014362371942598207e-01,9.090105891227722168e-01,1.260152510312190048e-02,-6.524453265117990952e-02,2.166392279411648580e-01,2.328519099753400545e-01,7.082191238531285182e-02,-5.341787636280059814e-02,-1.562228313921988632e-01,-1.023103836670418293e-01,9.191485010215978690e-02,1.570045763700878005e-01,-2.850430006953497131e-01,1.286189179042246666e-01,8.302938282087213295e-02,-1.850430006953497353e-01,2.861891790422465068e-02,5.197482855819622882e-01,-6.232205033302307129e-01
2.749032000000000142e+00,7.789377408265249492e-02,2.033462131551925511e-01,9.078160524368286133e-01,6.710174816229028116e-03,-6.378401706098668633e-02,2.192894718367519591e-01,2.491107832246741705e-01,7.604797267211262091e-02,-3.900724649429321289e-02,-2.159312749236926843e-01,5.435459191120007444e-02,6.972809061498402849e-02,2.915953130279176353e-01,-1.008762376405979155e-01,2.306680139776235983e-01,1.915953130279176020e-01,-8.762376405979144288e-04,1.306680139776235927e-01,5.176874454239500656e-01,-6.906757354736328125e-01
2.776245999999999992e+00,8.516993569133628206e-02,2.054023765379989763e-01,9.070215225219726562e-01,4.217881230415831961e-03,-5.671346493522522181e-02,2.205900816741714898e-01,2.389065578750312613e-01,7.735575941827647906e-02,-1.900379732251167297e-02,-5.611342661993222458e-02,2.781227827213844095e-01,3.584751022128650905e-02,2.719979670178050979e-01,-2.986673129679652539e-02,3.276771713814621290e-01,1.719979670178050646e-01,7.013326870320348017e-02,2.276771713814620957e-01,5.155626361168633709e-01,-7.343425154685974121e-01
