timestamp,x,y,z,roll,pitch,yaw,vx,vy,vz,p,q,r,psp,qsp,rsp,pres,qres,rres,thrust_sp, thrust_res
0.000000000000000000e+00,-1.226323837959916903e-02,4.150057976844629022e-03,9.862342476844787598e-01,1.196711839934696577e-02,-2.579047380376620069e-03,-1.730652197130150369e-03,9.760775265292911951e-03,1.442131941289728943e-02,-1.451009884476661682e-02,3.612399698052019131e-02,-4.318583465545508537e-02,3.089015689569618583e-02,-7.412375071158128215e-02,-2.127564124463458828e-01,-2.406600727477080717e-02,-1.055890917778015171e-02,-1.961287736892700084e-01,-1.927084922790527413e-02,5.135311251523487774e-01,-2.889156341552734375e-02,-1.357217669486999512e+00,1.144472166384347673e+02,-1.831033229827880998e-02
2.302600000000000133e-02,-1.237389379627429169e-02,5.380549798376100569e-03,9.859505891799926758e-01,1.247513981441647317e-02,-2.512656651413980313e-03,-1.718204774761104749e-03,7.576643388536328854e-04,3.138849785013175971e-03,-5.088018719106912613e-03,3.664741435933840941e-02,-2.366367915359078936e-02,-1.056968629202848474e-02,-2.532591651549643830e-01,-1.979732383606778723e-01,1.896980322649325645e-01,-1.760258316993713323e-01,-1.730154991149902288e-01,1.944387495517730657e-01,5.053511023852603756e-01,-4.280661940574645996e-01,-8.391810655593872070e-01,-2.466140545123361605e+01,-1.831033229827880998e-02
4.737199999999999744e-02,-1.254002329926244726e-02,7.132145213326184299e-03,9.854934215545654297e-01,1.281249764687385564e-02,-2.497003379462015005e-03,-1.150408616608976668e-03,9.252886168768605091e-03,2.086884612152896043e-02,-1.285720895975828171e-02,-1.277532596050928726e-02,2.600955164636537323e-02,6.930252628828069070e-03,9.669790896098733046e-02,2.058167037584619774e-01,2.057026810947077400e-01,1.590610027313232311e-01,2.226427674293517955e-01,2.088657617568969727e-01,5.052559549913578918e-01,-4.670222401618957520e-01,-1.035803198814392090e+00,8.566876781590880796e+01,-1.831033229827880998e-02
7.698000000000000675e-02,-1.259493800761519490e-02,8.862786423062268479e-03,9.850257635116577148e-01,1.241261927451488278e-02,-1.675453158162643064e-03,-1.759400811294864779e-03,8.540016895565943553e-03,1.867773807711039027e-02,-1.843277551233768463e-02,-5.678128468149551411e-02,6.803755939499787908e-02,-2.217859963263071194e-02,8.437686193402642310e-02,1.915539062097367795e-01,2.106816548124387511e-01,1.473460078239440807e-01,2.049146175384521373e-01,2.155644536018371527e-01,5.122562562805932362e-01,-1.212265491485595703e-01,-5.698245763778686523e-01,-1.223976985587548860e+01,-1.831033229827880998e-02
9.985099999999999532e-02,-1.251541342816963123e-02,1.004636425400146776e-02,9.845944643020629883e-01,1.091030323193056643e-02,1.540467671936607275e-04,-3.359099032415497742e-03,8.478410191558125725e-03,1.877889647184631527e-02,-2.163614891469478607e-02,-8.092006520227325306e-02,9.484268848488447423e-02,-1.124842856840706784e-01,7.727448820752891301e-02,1.994790216772025504e-01,2.083356853153868204e-01,1.292628049850463867e-01,2.009002447128295787e-01,2.177370071411132701e-01,5.067577954164671494e-01,-4.294284582138061523e-01,-1.703584194183349609e+00,1.371570970249177606e+02,-1.831033229827880998e-02
1.223489999999999994e-01,-1.266353694263268326e-02,1.118720169621015281e-02,9.840490221977233887e-01,9.586716334547279103e-03,9.556941912254313110e-04,-4.618518706268209990e-03,1.312929781312076154e-02,1.976415427077616097e-02,-2.798539586365222931e-02,-3.750624368462812663e-02,4.313992575853500301e-03,-5.555813758060854785e-02,1.156621013546504373e-01,-1.642055882892576035e-01,1.885139230269309851e-01,1.574825406074523981e-01,-1.715995073318481445e-01,2.014661729335784912e-01,5.141761035864680363e-01,-6.436556577682495117e-02,-1.399575829505920410e+00,9.901452032200684528e+01,-1.831033229827880998e-02
1.490370000000000028e-01,-1.295066353733403779e-02,1.280830435448359651e-02,9.831268191337585449e-01,9.628879109401198080e-03,-1.493999430791426164e-03,-7.452797523839352692e-03,9.062204402773763046e-03,2.138434382844696391e-02,-2.882502600550651550e-02,5.201489452525756563e-02,-1.490988776337302812e-01,-9.965275893859690259e-02,-1.217374366942792219e-01,-2.282781044716874486e-01,1.478060099133781669e-01,-8.190958499908447543e-02,-2.155367374420165960e-01,1.686380088329315075e-01,5.106405110399739877e-01,-2.622074484825134277e-01,-1.294034123420715332e+00,1.000314398667733684e+02,-1.831033229827880998e-02
1.768099999999999949e-01,-1.325804533322159223e-02,1.431818044110788266e-02,9.821509718894958496e-01,1.178564269301472268e-02,-5.412247943740622347e-03,-1.075304392255683160e-02,1.765910856877279876e-05,1.402017523489304703e-02,-3.225995227694511414e-02,8.735227663972790213e-02,-1.002725816476877918e-01,-1.361340891022991828e-01,-2.166145140302623562e-01,-2.569686238746657914e-01,1.616524527735778705e-01,-1.576715111732482910e-01,-2.118138313293456976e-01,1.916200697422027477e-01,5.074999430577447068e-01,-4.487724304199218750e-01,-1.464610934257507324e+00,1.184338273022419656e+02,-1.831033229827880998e-02
1.994479999999999864e-01,-1.333620021126346970e-02,1.529476703228065115e-02,9.813059568405151367e-01,1.277418015100069588e-02,-5.722889754630866577e-03,-1.250462350138950747e-02,1.324045429768708204e-02,1.728160706297436969e-02,-4.312787950038909912e-02,4.163246843529098268e-02,1.688226298341467813e-02,-7.874265927924468944e-02,-1.134437064639170767e-01,1.526039087926492344e-01,1.279890400126416916e-01,-5.252864956855773926e-02,1.880826830863952526e-01,1.628786981105804499e-01,5.038864328209978760e-01,-6.889252066612243652e-01,-1.350874543190002441e+00,1.003747183442690414e+02,-1.831033229827880998e-02
2.245060000000000111e-01,-1.325916998418815926e-02,1.626002909113721112e-02,9.803870320320129395e-01,1.275928908278119861e-02,-3.503902749670606553e-03,-1.451254368611278218e-02,2.323208498973616462e-02,2.631216880449883250e-02,-5.825085192918777466e-02,-2.622083099043690316e-02,1.742560820399224053e-01,-1.142302442298496895e-01,-8.161744987929689388e-02,2.103437177077230602e-01,1.537673316575713101e-01,-2.818597555160522183e-02,2.254736602306365856e-01,1.943466782569885087e-01,5.056498552471070385e-01,-6.633082032203674316e-01,-1.203882098197937012e+00,1.850356712575749611e+02,-1.831033229827880998e-02
2.490900000000000059e-01,-1.297918239419334520e-02,1.779612404700393544e-02,9.786986112594604492e-01,1.045384424255309599e-02,1.897707185850583400e-03,-1.729519059369034537e-02,1.545769804716485944e-02,2.638165560378713526e-02,-7.087391614913940430e-02,-1.140762360238600504e-01,1.609285583821933596e-01,-6.725146004064085081e-02,9.657580581820295051e-02,2.303877374732684058e-01,1.602549397771175221e-01,1.354717254638671819e-01,2.178858518600463867e-01,2.087222814559936412e-01,5.145948831046758265e-01,-2.489816546440124512e-01,-1.178403735160827637e+00,9.731134435057246890e+01,-1.831033229827880998e-02
2.748149999999999760e-01,-1.283724652048752989e-02,1.882576790760045332e-02,9.774402976036071777e-01,8.314337715199810602e-03,4.488044459689088939e-03,-1.924377968153218044e-02,9.274632320793764484e-03,2.831273720294250409e-02,-6.644663959741592407e-02,-9.815733270117873999e-02,1.282043016409404879e-01,-1.254832302708048242e-01,1.309169191757759421e-01,2.375025108349598235e-01,1.599553211530736485e-01,1.537098169326782116e-01,2.118992328643798662e-01,2.139109075069427490e-01,5.121853702421604870e-01,-3.696513175964355469e-01,-1.262774348258972168e+00,1.074608893439955182e+02,-1.831033229827880998e-02
2.999339999999999784e-01,-1.275601313574446088e-02,2.033635337576476798e-02,9.755223989486694336e-01,6.250548225179124347e-03,3.471335586831880704e-03,-2.209317219394913573e-02,1.358439312231401151e-02,3.076178761338682968e-02,-7.421564310789108276e-02,-6.691212086398710956e-02,-9.911782600748189620e-02,-1.048371520400569051e-01,1.582154919596580611e-01,-1.923803461025815342e-01,9.979537763594401034e-02,1.648317575454711914e-01,-2.156362295150756891e-01,1.617144584655761663e-01,5.193061367071732937e-01,-3.117644786834716797e-02,-1.579223275184631348e+00,1.153008331903354531e+02,-1.831033229827880998e-02
3.244190000000000129e-01,-1.281203242360228443e-02,2.092464817453468934e-02,9.741603732109069824e-01,6.107772650746261592e-03,4.650896947611116161e-05,-2.392242511263902374e-02,3.269265739061829462e-03,2.444668415610232876e-02,-6.755726039409637451e-02,3.813459366216861990e-02,-2.438556912707059987e-01,-6.672284849340977264e-02,6.290842583307737490e-02,-2.207247929532892838e-01,-9.594291730808826579e-02,7.343716621398925504e-02,-2.129297733306884655e-01,-2.897747755050658972e-02,5.238206492023733674e-01,2.292441129684448242e-01,-1.124059796333312988e+00,1.020293794820288156e+02,-1.831033229827880998e-02
3.475090000000000123e-01,-1.298446781710385634e-02,2.173348502172178787e-02,9.720063209533691406e-01,7.925786122311134080e-03,-6.436829187237202987e-03,-2.713696870396151151e-02,1.058603415377705123e-02,3.015696870919524347e-02,-7.731737941503524780e-02,1.088125231597286552e-01,-2.086612582084320933e-01,-1.195582405135531268e-01,-8.189725799843650123e-02,-2.604139007036473941e-01,9.415139923502030550e-02,-6.591846942901610773e-02,-2.173246979713439886e-01,1.700114607810974121e-01,5.147751474235140456e-01,-3.106268644332885742e-01,-1.023147940635681152e+00,1.391730546792036876e+02,-1.831033229827880998e-02
3.739370000000000194e-01,-1.303629946832233003e-02,2.230592103621058600e-02,9.705322384834289551e-01,9.422695902717622904e-03,-8.547040934542060597e-03,-2.843293185627019867e-02,1.488096549493288928e-02,2.314596924452475002e-02,-8.506985753774642944e-02,3.922654679177048354e-02,-5.257426503813680124e-02,-1.882097084066997050e-02,-1.178166312504849433e-01,-2.706942479100196697e-01,8.894615927253737842e-02,-8.636283874511718750e-02,-2.162092208862304576e-01,1.683945715427398737e-01,5.167172529692374283e-01,-2.486114501953125000e-01,-5.734158754348754883e-01,1.173787543207717476e+02,-1.831033229827880998e-02
3.977660000000000085e-01,-1.290309417477653736e-02,2.319554852763908506e-02,9.681579470634460449e-01,1.099982350795708844e-02,-6.928447581073360340e-03,-2.948422366209436235e-02,1.012752947973414273e-02,2.861260422718149565e-02,-8.205767720937728882e-02,1.729858482514386175e-02,1.081722195920339913e-01,-3.839776946747899822e-02,1.080531951125247442e-01,1.765208196086757719e-01,9.481452524390363013e-02,1.439007282257080134e-01,2.249971926212310791e-01,1.771993160247802568e-01,5.099787223087531851e-01,-6.117892861366271973e-01,-8.581970930099487305e-01,-1.548941147522003803e+02,-1.831033229827880998e-02
4.240539999999999865e-01,-1.268780764015122603e-02,2.369830327205655132e-02,9.665113091468811035e-01,1.131856889977784358e-02,-3.382841646356826715e-03,-3.095428962151928337e-02,2.628567645537595657e-02,3.488711726660215229e-02,-8.031884580850601196e-02,1.694611236940137683e-02,2.131577295640831315e-01,-1.173915618945216982e-01,-2.496417250467396556e-02,2.142508119945723821e-01,8.782748044316468494e-02,8.132922649383544228e-03,2.263407826423644853e-01,1.744552552700042725e-01,5.097567642950614486e-01,-6.290105581283569336e-01,-1.474920392036437988e+00,8.217964081048866376e+01,-1.831033229827880998e-02
4.477999999999999758e-01,-1.222624663203742898e-02,2.428525004646831659e-02,9.641523957252502441e-01,1.006658867477011263e-02,3.829876742236226761e-03,-3.305733362747824422e-02,1.335085448857893480e-02,3.081005035163360620e-02,-7.979628443717956543e-02,-3.910472569637954421e-02,2.209181541887418887e-01,-6.619795841312985096e-02,-2.736746328366502015e-02,2.421176824020450091e-01,-1.203808409595135409e-01,1.784491539001464800e-03,2.194424092769622636e-01,-2.774276733398437292e-02,5.101503013956932842e-01,-6.210481524467468262e-01,2.569762468338012695e-01,8.714848731845705743e+01,5.139524936676025113e-02
4.734039999999999915e-01,-1.199436986631655100e-02,2.466310887832496093e-02,9.625993371009826660e-01,1.014476346089344949e-02,6.357798942712822310e-03,-3.466600156226127410e-02,2.016804645570185670e-02,3.287967261132342112e-02,-8.994467556476593018e-02,3.411413949372900378e-02,6.244049855909173524e-02,-7.745561806404430150e-02,1.521923374688048947e-01,7.188446991813554621e-02,-3.250240083395437019e-01,1.792623996734619141e-01,2.557545304298400671e-02,-2.277971506118774414e-01,5.092666812335078230e-01,-7.206241488456726074e-01,-1.368031859397888184e+00,9.445681705112737347e+01,5.139524936676025113e-02
5.001390000000000002e-01,-1.182181132536363685e-02,2.522180472015428040e-02,9.606192708015441895e-01,1.110915484535537380e-02,5.240644804459293482e-03,-3.604040876336687266e-02,6.473229077425272406e-03,3.114320056183434229e-02,-7.640732824802398682e-02,4.528199568822702248e-02,-1.199418575614805138e-01,-3.453227148270339442e-02,-1.788196597792451603e-01,-1.596143447350273359e-01,-3.072166681289673074e-01,-1.441698610782623236e-01,-1.869885921478271484e-01,-2.072166681289672741e-01,5.149477714218690938e-01,-3.778696656227111816e-01,-9.315711259841918945e-01,5.735806400812366945e+01,5.139524936676025113e-02
5.234459999999999669e-01,-1.180906661575244730e-02,2.573069928602840853e-02,9.592991471290588379e-01,1.164192536782998957e-02,2.635362610960090279e-03,-3.535078161754746928e-02,9.860340866964573472e-03,3.635028900709166844e-02,-8.086468279361724854e-02,1.303631322465481808e-02,-1.191501643377660957e-01,6.503984749029208257e-02,1.095131699489849397e-01,-1.783411067925969318e-01,-3.188766710140352179e-01,1.425780057907104492e-01,-1.932669997215270830e-01,-2.198341369628906139e-01,5.212215092909137093e-01,-6.936120986938476562e-02,-3.781763315200805664e-01,5.316768489571290246e+01,5.139524936676025113e-02
5.495710000000000317e-01,-1.180029999646585621e-02,2.674882509950137974e-02,9.574733972549438477e-01,1.185267181451589609e-02,-1.645212674873830494e-03,-3.231858761342149000e-02,1.530415484068748007e-03,3.423912756344865693e-02,-7.828194648027420044e-02,-7.471542843222285513e-02,-7.351817330806904860e-02,1.120338819630135874e-01,1.788365124564677833e-01,-2.351069917542060184e-01,-3.144333775200056080e-01,2.148104667663574274e-01,-2.153699398040771484e-01,-2.240169525146484264e-01,5.159104651904017347e-01,-3.583004474639892578e-01,-3.156791925430297852e-01,-1.184879104476374145e+01,5.139524936676025113e-02
5.773530000000000051e-01,-1.168791083866197768e-02,2.785408576779539389e-02,9.556048512458801270e-01,1.028391531025573020e-02,-2.444470497919182250e-03,-2.820682018749748679e-02,1.739776452051019833e-03,2.870009900494618210e-02,-8.046267926692962646e-02,-8.080880542025556390e-02,2.252773628144662255e-02,1.576748283163278141e-01,1.401757824351534953e-01,-2.503338909914341048e-01,1.165078888525584999e-01,1.690795183181762751e-01,-2.271300315856933372e-01,1.954076349735260065e-01,5.160668800024086345e-01,-3.720918893814086914e-01,-1.262107729911804199e+00,-1.004891854845692762e+02,5.139524936676025113e-02
5.984540000000000415e-01,-1.146698256534491381e-02,2.861835529586330765e-02,9.544072747230529785e-01,9.943290041404342222e-03,-6.808642188853575306e-04,-2.535765752810877419e-02,2.062119013953194954e-02,4.321585560555188388e-02,-7.589571923017501831e-02,-2.431528174073595630e-02,1.299541106265081625e-01,1.470702664062637499e-01,-1.490061093788408730e-01,1.953617542767413229e-01,-2.613379803398406254e-01,-1.354099094867706188e-01,1.923395633697509710e-01,-1.903229355812072754e-01,5.102092079494602306e-01,-6.778835058212280273e-01,-1.354349493980407715e+00,1.050015499597381989e+02,5.139524936676025113e-02
6.251189999999999802e-01,-1.137193034768068517e-02,2.935722343505416110e-02,9.533469676971435547e-01,1.090029734531804302e-02,2.009715717946836122e-03,-2.292158571304599157e-02,2.072991426999393899e-02,2.868396234833381006e-02,-6.331244856119155884e-02,1.041785872674032276e-01,1.427215217925334179e-01,4.552903656240959301e-02,1.167161522425977094e-01,2.368611084260347777e-01,-2.903872332299737291e-01,1.493667125701904352e-01,2.185233056545257402e-01,-2.261393308639526312e-01,5.104784459974197608e-01,-6.232982277870178223e-01,-1.557434678077697754e+00,1.394426559061224395e+02,5.139524936676025113e-02
6.477079999999999504e-01,-1.118445732438831837e-02,3.053469400741737338e-02,9.519609808921813965e-01,1.332199357223173668e-02,7.191005594039179272e-03,-2.116112076149321078e-02,3.151387085931958015e-02,3.542346314828987569e-02,-7.500267028808593750e-02,4.395467514195828401e-02,1.907971998850737927e-01,6.353870893478266724e-02,-1.204102062784063176e-01,2.860562995047319923e-01,-2.698823877562792628e-01,-8.015724420547484796e-02,2.256033360958099310e-01,-2.103633642196655329e-01,5.124262359462057326e-01,-5.775520801544189453e-01,-1.204120039939880371e+00,1.275192766343012210e+02,5.139524936676025113e-02
6.727699999999999791e-01,-1.115554973540828360e-02,3.131694970194895400e-02,9.510529041290283203e-01,1.485592482019987629e-02,8.718380748838905347e-03,-1.875933987334895553e-02,1.330875058954188346e-02,3.433821847958699186e-02,-6.569898128509521484e-02,1.210345766625926939e-01,3.861771880949938385e-03,1.407498335829495406e-01,1.059779600184411474e-01,-1.449128785663240382e-01,-2.808696629843717152e-01,1.575123310089111273e-01,-1.996861696243286133e-01,-2.280848979949950950e-01,5.093973364829205153e-01,-7.112384438514709473e-01,-1.262427926063537598e+00,1.463540970065016609e+02,5.139524936676025113e-02
7.013880000000000114e-01,-1.117825379318610791e-02,3.254787113712351299e-02,9.498232007026672363e-01,1.659742197864184574e-02,7.576427909031790975e-03,-1.442557780401454090e-02,1.741224263860980184e-02,4.613932423381759268e-02,-6.818380206823348999e-02,3.097661389563226286e-02,-1.148915739969559868e-01,1.595040369503755440e-01,5.273072446912246275e-02,-1.701203568294243906e-01,-2.621748074311205379e-01,1.051031112670898354e-01,-2.233722567558288630e-01,-2.214929580688476396e-01,5.124390140445505004e-01,-5.701924562454223633e-01,-1.267771601676940918e+00,8.154335404778862539e+01,5.139524936676025113e-02
7.245319999999999538e-01,-1.129311406341835210e-02,3.336101856451767489e-02,9.490379095077514648e-01,1.700452683419513902e-02,4.481007088966704188e-03,-1.120932369188209002e-02,7.424432304495003770e-03,3.500004235533053093e-02,-5.368479341268539429e-02,7.302066874774983118e-02,-1.642084806480655079e-01,1.530846907921141475e-01,-1.885185884514140736e-02,-1.912299320049692941e-01,-2.518654558627331785e-01,4.569422006607055248e-02,-2.161839365959167536e-01,-2.203487634658813366e-01,5.137186567572492590e-01,-4.527220726013183594e-01,-1.485977768898010254e+00,1.288454261635508828e+02,5.139524936676025113e-02
7.501079999999999970e-01,-1.188368986213765230e-02,3.436023543810810821e-02,9.477640986442565918e-01,1.654752398609721578e-02,1.523535475625781288e-03,-6.218016236521047360e-03,1.714989158215367640e-02,4.033578508954929059e-02,-6.569339334964752197e-02,-5.386422012467065659e-03,-2.379496003015015709e-02,1.075069559979057454e-01,1.103615041292435317e-01,-1.954273560505589147e-01,-1.812873131483698219e-01,1.653553962707519365e-01,-2.101152777671813909e-01,-1.637981414794921764e-01,5.213667807408762789e-01,-1.001411676406860352e-01,-1.390240073204040527e+00,1.132046549642477089e+02,5.139524936676025113e-02
7.711430000000000229e-01,-1.213851196681722290e-02,3.495641631653146481e-02,9.468183517456054688e-01,1.636721385114208241e-02,1.812872135995569067e-03,-2.720878673581539862e-03,1.482667720492576377e-02,3.181899217473850572e-02,-6.927355378866195679e-02,2.028204932397869448e-03,3.845663450122987354e-02,1.902108031260862919e-01,-1.266159612278739549e-02,1.426002439675261302e-01,-2.400504919662326334e-02,4.804698228836059432e-02,1.291344165802001953e-01,-1.631845235824585030e-02,5.130600429004149587e-01,-5.702564120292663574e-01,-1.244104027748107910e+00,9.918138867361942346e+01,5.139524936676025113e-02
7.990270000000000428e-01,-1.229966318970852554e-02,3.589203094432828062e-02,9.455291032791137695e-01,1.628103027866577637e-02,5.002517940522199780e-03,2.076550220369570605e-03,2.980262270135743477e-02,4.251627041888093178e-02,-7.335365563631057739e-02,8.011141027974648041e-03,1.283022731568665697e-01,1.481748725498578945e-01,-9.061528117416986494e-02,2.713971797825462939e-01,-1.551760919434174990e-01,-4.076390862464904924e-02,2.249562799930572565e-01,-1.607417106628417913e-01,5.122355228471369148e-01,-6.421172618865966797e-01,-7.964164018630981445e-01,8.877124464260370473e+01,5.139524936676025113e-02
8.218940000000000135e-01,-1.230681028423385830e-02,3.643307916502788041e-02,9.447146058082580566e-01,1.691129581379351154e-02,7.473680763603995914e-03,4.507835168116691542e-03,1.839299178493527392e-02,2.107108775966223813e-02,-5.232830345630645752e-02,7.769637363657677653e-02,8.981524771837208487e-02,7.820316290672695014e-02,8.447500168901342366e-02,2.767161281526923644e-01,-1.957821554423091470e-01,1.559000730514526201e-01,2.250817716121673584e-01,-2.081505060195922852e-01,5.139815211172072962e-01,-4.740422964096069336e-01,-1.413220286369323730e+00,-5.241281836505861769e+00,5.139524936676025113e-02
8.501699999999999813e-01,-1.214933459471944158e-02,3.655280760031863474e-02,9.435095787048339844e-01,1.811810899254422125e-02,8.722425550500290115e-03,7.257969012187381712e-03,2.673139454284714084e-02,3.161224343625433642e-02,-6.732934713363647461e-02,2.665733106077279937e-02,1.538518667679386435e-02,6.378214209766661091e-02,-1.264658338097806312e-01,2.812908354222815044e-01,-1.321252681184040267e-01,-5.859714746475219727e-02,2.130672276020049993e-01,-1.520693778991699108e-01,5.118920813238667655e-01,-6.560235619544982910e-01,-1.493678212165832520e+00,1.073401999013614017e+02,5.139524936676025113e-02
8.733570000000000499e-01,-1.211885185473104455e-02,3.662031277232590670e-02,9.426743388175964355e-01,1.877138972573365316e-02,6.672197072430385845e-03,9.839913250348768237e-03,1.503119616760188390e-02,2.233278941319928948e-02,-6.738267093896865845e-02,3.043108904161538619e-02,-1.705606617739773567e-01,1.672865043672563112e-01,5.681937033002255888e-02,-1.473365492986187242e-01,-1.651644760855642546e-01,1.373736977577209306e-01,-1.920856833457946777e-01,-1.924747467041015569e-01,5.274078007109049837e-01,1.710250377655029297e-01,-1.013311266899108887e+00,9.018538749893065187e+01,5.139524936676025113e-02
8.992649999999999810e-01,-1.217650469368160293e-02,3.675146260007217114e-02,9.414577484130859375e-01,1.934925274214182450e-02,7.805449002147302195e-04,1.400674855676679355e-02,1.170559137752519470e-02,2.538373192221936650e-02,-7.312019169330596924e-02,1.022895678788508442e-02,-2.778228069317191795e-01,1.351613105104864931e-01,7.852206686585229412e-02,-2.094230806622748853e-01,-6.513720457899539740e-02,1.590037822723388561e-01,-2.152184486389160101e-01,-1.043247699737548800e-01,5.322098211135516399e-01,3.997499942779541016e-01,-1.194069743156433105e+00,1.193282952155684882e+02,5.139524936676025113e-02
9.244010000000000282e-01,-1.219561651823947331e-02,3.684871925776571355e-02,9.406361579895019531e-01,1.923567985027756569e-02,-4.028208928640086839e-03,1.652513592535011580e-02,1.292580704167783923e-02,2.032117421644962993e-02,-6.369224935770034790e-02,-3.535002344375925976e-02,-2.104170349691166786e-01,8.941528536215642697e-02,7.290883402060970020e-02,-2.407133718040319059e-01,-9.083230393682137360e-02,1.568241834640502763e-01,-2.167695879936218095e-01,-1.372360110282897783e-01,5.315836570852627840e-01,3.932884931564331055e-01,-1.068363308906555176e+00,1.058475850016601782e+02,5.139524936676025113e-02
9.484000000000000208e-01,-1.207309548967526805e-02,3.686679350241094111e-02,9.393650293350219727e-01,1.816481355531630523e-02,-8.106807258835058150e-03,2.012929460854495298e-02,1.921069627184370660e-02,2.310919848929357187e-02,-6.594948470592498779e-02,-2.929723966438327332e-02,-7.166059229652385620e-02,1.014249440586951490e-01,6.596738931650940330e-02,-2.635584332214419567e-01,-1.295758567364481695e-01,1.400828361511230469e-01,-2.181441664695739635e-01,-1.861835718154907227e-01,5.270813252426466144e-01,1.266837120056152344e-01,-1.306897044181823730e+00,8.421088442813710628e+01,5.139524936676025113e-02
9.744749999999999801e-01,-1.179350005323313681e-02,3.685725609981340550e-02,9.384870529174804688e-01,1.748901091161298230e-02,-7.551699374579889934e-03,2.246956417317304625e-02,1.879851635021722797e-02,1.680351667598089724e-02,-5.632707476615905762e-02,-2.158547373306412762e-02,7.067290002928723613e-02,1.265462672807055600e-01,-1.525988701388634738e-01,1.764837037668027242e-01,1.265499529647087090e-02,-7.781978845596312921e-02,2.192678689956664984e-01,-5.047770738601684709e-02,5.131519717194127361e-01,-5.961605310440063477e-01,-3.717454671859741211e-01,8.017445436452383944e+01,5.139524936676025113e-02
9.981520000000000392e-01,-1.128475351963475343e-02,3.677207232652510149e-02,9.374231100082397461e-01,1.805914785438015452e-02,-3.548916570656368563e-03,2.561566807972808640e-02,3.634151004733063989e-02,2.277337468008323873e-02,-5.914323776960372925e-02,8.319151241065743385e-02,1.806231691275126672e-01,1.018147953897252100e-01,7.027467422412518594e-02,2.218119633482243946e-01,-8.817749660159812652e-02,1.433084249496459905e-01,2.241943001747131181e-01,-1.599161624908447266e-01,5.152281344186471213e-01,-5.067172050476074219e-01,-9.718962907791137695e-01,1.087766296649501072e+02,5.139524936676025113e-02
1.026248000000000049e+00,-1.084416845420820008e-02,3.669020407238582360e-02,9.369670152664184570e-01,1.864455863174792685e-02,7.986096792045316306e-04,2.742870136090083330e-02,2.228098379496408141e-02,5.707576510914569995e-03,-5.522105842828750610e-02,-1.747355862383015435e-02,2.048862186402857777e-01,9.009611152410973434e-02,-8.900276479415066000e-02,2.391306648212928876e-01,8.248642466632566395e-03,1.419246196746826172e-03,2.265247464179992454e-01,-6.848945617675780695e-02,5.134754897720283928e-01,-5.923913717269897461e-01,-4.975074529647827148e-01,-7.566440873857812832e+00,5.139524936676025113e-02
1.048456000000000055e+00,-1.029870915035559047e-02,3.672278461279731426e-02,9.364833235740661621e-01,1.915411362794016206e-02,3.443417863019382352e-03,2.905579781870971587e-02,3.220144385187523328e-02,1.834500376946598954e-02,-4.178405925631523132e-02,4.429738174956072277e-02,1.059028075812489117e-01,6.926441785851245037e-02,6.017641319257875654e-02,2.659962541257472335e-01,-1.002344295665834883e-01,1.414803743362426647e-01,2.256578385829925426e-01,-1.813686847686767634e-01,5.134262092702022162e-01,-5.493735074996948242e-01,-9.848893880844116211e-01,9.946882352446107234e+01,5.139524936676025113e-02
1.076175000000000104e+00,-9.516629706573203132e-03,3.692122964276704777e-02,9.360486268997192383e-01,1.993420374120376953e-02,2.749872954715737450e-03,3.168809456905033461e-02,2.343033896499694888e-02,1.367611377963313772e-02,-4.363821819424629211e-02,5.788034204056090315e-02,-1.258286368709505276e-01,7.694897227992900102e-02,-4.922222740963995424e-02,-1.798298097529172357e-01,7.195190618391680837e-02,4.218531847000121793e-02,-2.079996228218078669e-01,-1.662018299102782995e-02,5.303152416683306614e-01,3.500066995620727539e-01,-6.282898187637329102e-01,-1.018468426764602270e+02,5.139524936676025113e-02
1.100986999999999938e+00,-9.060985557110465966e-03,3.703520690012578054e-02,9.357776641845703125e-01,1.999100189519024615e-02,-2.131462855374799403e-04,3.327419548131282240e-02,1.405469199219393749e-02,3.263804958344891649e-03,-4.300081357359886169e-02,1.943779812920048630e-02,-1.652270462335140022e-01,1.089503107340057952e-01,2.253881789053313600e-02,-2.127254126558657532e-01,-8.798137095665153895e-03,1.215507388114929199e-01,-2.157854318618774303e-01,-1.019509077072143499e-01,5.309821666271358209e-01,3.827663660049438477e-01,-1.134802699089050293e+00,1.983486661764136159e+02,5.139524936676025113e-02
1.126041999999999987e+00,-8.685501066372438780e-03,3.712257565684546484e-02,9.356309771537780762e-01,2.002566689353021609e-02,-4.566168065879727678e-03,3.503034706302290968e-02,1.957205018405942451e-02,1.395246112762637582e-02,-4.874594137072563171e-02,1.754589170296052408e-02,-2.404128682160387442e-01,7.267200170794858860e-02,-1.093494809925324440e-02,-2.359158411828349844e-01,2.026611454155870240e-02,7.872226238250731867e-02,-2.169296622276306041e-01,-7.792861461639404019e-02,5.326023524242318175e-01,4.426114559173583984e-01,-8.398064374923706055e-01,1.056921572169073613e+02,5.139524936676025113e-02
1.150344000000000033e+00,-8.127363084567311782e-03,3.735166014011904317e-02,9.353790283203125000e-01,1.997443539555431025e-02,-9.551347836311618877e-03,3.637207468112076819e-02,3.005130960083407521e-02,1.695264822601412480e-03,-4.089863225817680359e-02,-1.021275855456475062e-02,-1.135857476181202225e-01,2.197445796773213333e-02,-1.664291620254516879e-02,-2.616851603413402061e-01,1.152086257934571700e-02,8.335708379745483676e-02,-2.178649663925170954e-01,-8.847913742065428855e-02,5.323143350708555710e-01,4.516341686248779297e-01,-1.092043995857238770e+00,8.208413427532437368e+01,5.139524936676025113e-02
1.177389999999999937e+00,-7.649338967289729535e-03,3.786868145868026170e-02,9.351513981819152832e-01,1.860155787220246423e-02,-8.482647773033091809e-03,3.765266368400963654e-02,2.675485736152228081e-02,4.318891756576641663e-03,-4.881769418716430664e-02,-7.617079000165645486e-02,1.224496820182512657e-01,2.931000236052807434e-02,8.037532460499799414e-02,1.805435381169285258e-01,3.112884759902954102e-01,1.676996111869812067e-01,2.210223913192748968e-01,2.112884759902954046e-01,5.145917968437770940e-01,-5.472818613052368164e-01,-8.357278108596801758e-01,8.722182305957548465e+01,5.139524936676025113e-02
1.202196000000000042e+00,-7.195024068322983940e-03,3.815382444607152979e-02,9.349650740623474121e-01,1.795974624824697025e-02,-5.737913482752876604e-03,3.861436814906074599e-02,4.155696697805227185e-02,1.307724283559239323e-02,-3.959880396723747253e-02,-2.961221871924497873e-02,1.451247864205380822e-01,4.699187022369598343e-02,1.027222480208133532e-01,2.155627989987090043e-01,2.786126971244812234e-01,1.792831420898437500e-01,2.255816459655761719e-01,1.786126971244811901e-01,5.126010133820197989e-01,-6.234195828437805176e-01,-2.893377542495727539e-01,3.338293547412542495e+01,1.288688182830810547e-02
1.225640000000000063e+00,-6.705672431820590765e-03,3.843070885890507299e-02,9.349762797355651855e-01,1.749907469110599176e-02,-1.494237394707331745e-03,3.909652966652865658e-02,4.217854702546428719e-02,4.103115470261864232e-03,-3.750346228480339050e-02,-4.004660212971897226e-02,2.436210768595235832e-01,9.658821807379246518e-03,6.387430088321910393e-02,2.426753294170119479e-01,2.864434063434601052e-01,1.450903773307800348e-01,2.265444695949554443e-01,1.864434063434600719e-01,5.124049878206280439e-01,-6.305413842201232910e-01,-4.932571649551391602e-01,1.626127476086917056e+02,1.033618450164794887e-02
1.250389999999999890e+00,-5.634525238648597015e-03,3.873167161597435709e-02,9.350884556770324707e-01,1.788113038130917029e-02,4.836015033431007026e-03,3.788722589830228332e-02,3.352601583122729462e-02,-2.312043123926940495e-03,-2.767572365701198578e-02,1.939216066951847742e-02,1.591687346966527139e-01,-5.231774360087649428e-02,-1.090468997307501853e-02,2.780905560805865262e-01,2.162382304668426514e-01,7.560514211654663363e-02,2.269924521446227972e-01,1.162382304668426458e-01,5.120916561210665519e-01,-6.125149726867675781e-01,-1.365951895713806152e+00,7.511789456723414560e+01,1.033618450164794887e-02
1.273857999999999935e+00,-4.389671175369412072e-03,3.887515714152135760e-02,9.353873729705810547e-01,1.968785912132298838e-02,5.397237146525846185e-03,3.508452992198804465e-02,3.302575711747267329e-02,-7.186420605050605108e-04,-2.611286193132400513e-02,7.882823139878344931e-02,-9.189876917058314998e-02,-8.616354198487161109e-02,-2.682036154105241210e-01,-1.454227172321558015e-01,2.798494370618825888e-01,-1.723289966583251842e-01,-2.018882989883422907e-01,1.819114029407501165e-01,5.185561761438501893e-01,-2.634311318397521973e-01,-1.556966900825500488e+00,9.216554813177656058e+01,1.033618450164794887e-02
1.299279999999999990e+00,-3.266875018047681652e-03,3.891550909258240099e-02,9.357425570487976074e-01,2.225274826596674443e-02,9.298282036360738800e-04,3.180625114584912511e-02,2.641536075411067552e-02,-8.860737676652737788e-03,-1.679958775639533997e-02,9.026867476097470699e-02,-1.820445919565213955e-01,-1.117059240160860889e-01,-2.622981607913971169e-01,-1.890355016161954782e-01,2.589979738597140146e-01,-1.622981607913970836e-01,-2.119567751884460505e-01,1.700691998004913164e-01,5.199744520905920098e-01,-1.527514457702636719e-01,-2.083102464675903320e-01,5.911797153080417644e+01,1.523995399475097743e-03
1.322818000000000049e+00,-2.568025431577025241e-03,3.895513712009454621e-02,9.359495639801025391e-01,2.300827679760808833e-02,-2.933124178890578193e-03,2.951108437655284092e-02,4.248663059460508484e-02,-2.853299202127378750e-03,-3.268153220415115356e-02,-2.276446082354039932e-02,-1.511617713664049345e-01,-9.562036405854466847e-02,-1.416810452938079834e-01,-2.026473045643428506e-01,2.572351009065041438e-01,-4.168104529380798479e-02,-2.144632458686828447e-01,1.746741592884063776e-01,5.278925883809666431e-01,2.099604606628417969e-01,-1.113061547279357910e+00,7.832488011841940079e+01,1.648418903350830009e-02
1.350012999999999908e+00,-1.400026222778534080e-03,3.906727257429857408e-02,9.358515739440917969e-01,2.020164997239137089e-02,-5.206426124940488620e-03,2.595005414093441362e-02,3.791134996284424574e-02,3.291781962186818202e-03,-3.669825941324234009e-02,-1.436471319468755614e-01,-4.329023780562327867e-02,-1.290595398624551360e-01,1.693519947004901161e-02,-2.216168473682336992e-01,2.542961448006382241e-01,1.129777193069457925e-01,-2.133997678756713867e-01,1.815894663333892656e-01,5.231984543117170761e-01,-6.667125225067138672e-02,-1.083779931068420410e+00,5.431394773279195221e+01,1.648418903350830009e-02
1.374530000000000030e+00,-6.019434281116099305e-04,3.915493608776261097e-02,9.355956912040710449e-01,1.595745185290260368e-02,-3.665221844770139015e-03,2.327367550000687332e-02,3.995101035009835516e-02,-2.464139538882999594e-03,-4.795561358332633972e-02,-2.392589146614826079e-01,1.131230530569356935e-01,-1.125616557719029825e-01,9.627389634376594396e-02,-1.119140837481135964e-01,2.840178949454117419e-01,1.699150085449218639e-01,-1.161109685897827037e-01,2.188697576522826982e-01,5.283063023812939463e-01,1.602001190185546875e-01,-1.782971620559692383e-01,1.951915341759802800e+02,1.648418903350830009e-02
1.398293000000000008e+00,7.693044917995278112e-04,3.928163504930867744e-02,9.351484179496765137e-01,1.023067133037699507e-02,1.007286844605825848e-03,1.894576610051516841e-02,5.496707265329153769e-02,6.530309146075012963e-03,-4.364258423447608948e-02,-1.639985428693834790e-01,1.728756403283980558e-01,-1.446548290642754309e-01,1.312542174160473696e-01,2.578279811932795429e-01,2.630595457188299457e-01,1.595777034759521540e-01,2.110986292362213024e-01,2.101734638214111384e-01,5.196536007771783705e-01,-2.998206019401550293e-01,-1.425102949142456055e-01,-5.030395733145580550e+01,1.648418903350830009e-02
1.423893000000000075e+00,1.766172605740830423e-03,3.927180520012943377e-02,9.349466562271118164e-01,8.023560937663931636e-03,4.892507794142852973e-03,1.578437177688496104e-02,5.823059173368525659e-02,-3.155580205769972519e-03,-3.858868777751922607e-02,-9.894959645250507585e-02,2.025392225385089784e-01,-1.525110408932673078e-01,-5.151280929308956619e-02,2.990039104965481198e-01,2.385928858351206161e-01,-2.905270457267761230e-02,2.260695040225982611e-01,1.945948898792266846e-01,5.140567367646924346e-01,-5.862492918968200684e-01,-5.730751752853393555e-01,1.072883587655610000e+02,1.648418903350830009e-02
1.447594000000000047e+00,2.790167087316981417e-03,3.923655978943484113e-02,9.348409175872802734e-01,7.489945004629371128e-03,8.398368218568874610e-03,1.268395855267150964e-02,5.480558825971039438e-02,-2.274400451322038542e-03,-3.093441016972064972e-02,2.406738695269187989e-02,9.531870448891242853e-02,-1.464956144752561362e-01,-7.371438296768204057e-02,3.189516656792409366e-01,1.793990732249606534e-01,-5.709060430526732843e-02,2.255724728107452171e-01,1.441340982913970892e-01,5.128059065933511240e-01,-6.280456185340881348e-01,-7.026380300521850586e-01,1.018343161095224190e+02,1.648418903350830009e-02
1.475977000000000094e+00,4.216889180091305291e-03,3.884517263684610783e-02,9.348309636116027832e-01,9.478802590292918426e-03,9.929852968074470709e-03,7.394571615939777437e-03,4.337001295052935607e-02,-9.572810263837114655e-03,-1.530889794230461121e-02,1.169466690002515241e-01,-4.012722694960677711e-02,-1.829530992617695584e-01,-1.525017438297789629e-01,2.675759521211523717e-01,1.906764194134928994e-02,-1.172534644603729220e-01,1.717188119888305720e-01,-1.357662677764892535e-03,5.152134339433100951e-01,-4.414837360382080078e-01,-1.077740073204040527e+00,1.269356642904803039e+02,1.648418903350830009e-02
1.498313999999999924e+00,5.535830025953067217e-03,3.847433086835888583e-02,9.349706768989562988e-01,1.178895989548273127e-02,5.916682050903565582e-03,2.608636740624910907e-03,5.365961173146165802e-02,-3.808471682229572219e-03,-1.311465725302696228e-02,6.272724857070796634e-02,-1.722280150583163361e-01,-1.813348950793509107e-01,-6.853245172358485293e-02,-1.293842365504184189e-01,1.714960483782999312e-01,-2.371684312820434432e-02,-2.096855163574218583e-01,1.644804418087005560e-01,5.169355167821969577e-01,-3.440499305725097656e-01,-1.112825036048889160e+00,9.028807939310179620e+01,1.648418903350830009e-02
1.524899000000000004e+00,6.344380899240308243e-03,3.832347900598670476e-02,9.350551962852478027e-01,1.180428135298116493e-02,1.453918135641441012e-03,4.460337441823750419e-04,3.930369450801968201e-02,-3.467305358591723976e-03,-2.381385117769241333e-02,-5.319384062689699877e-02,-2.382287623093293782e-01,-6.956683039979293104e-02,1.111220300035547226e-01,-1.714106490399761873e-01,1.257514737692706497e-01,1.565935134887695146e-01,-2.105280160903930664e-01,1.246425390243530162e-01,5.307522739016156121e-01,3.594365119934082031e-01,1.623808145523071289e-01,9.153995744531675882e+01,3.247616291046142439e-02
1.548836000000000102e+00,7.512257499721676848e-03,3.823614538161434345e-02,9.351004958152770996e-01,9.863676982208992999e-03,-5.883929247199048973e-03,-2.359805268906751442e-03,4.671440052652747754e-02,9.983142618392171208e-03,-2.569394558668136597e-02,-7.500973249977369028e-02,-2.377698965693340605e-01,-8.895317067981538262e-02,1.539688622768264625e-01,-2.122279373070105613e-01,1.534461918345632614e-01,1.762270689010620173e-01,-2.121994256973266657e-01,1.600535988807678112e-01,5.304970107091980802e-01,3.333759307861328125e-01,-1.178242564201354980e+00,9.317590386475069408e+01,3.247616291046142439e-02
1.575104000000000060e+00,8.251428732587556478e-03,3.800173844468821699e-02,9.350777864456176758e-01,7.652781737356892551e-03,-8.852544822413488390e-03,-4.952999147600441882e-03,4.234367240272726707e-02,-2.984932836662906527e-03,-2.011569961905479431e-02,-1.171441301483478054e-01,-9.707277824048969606e-02,-1.509235051832427121e-01,1.532714439702211051e-01,-2.409352350483082994e-01,1.611775411586872375e-01,1.730411767959594560e-01,-2.177591800689697155e-01,1.749847054481506181e-01,5.217100462633199598e-01,-1.270404458045959473e-01,-1.389979481697082520e+00,8.998613722046303565e+01,3.247616291046142439e-02
1.598813999999999957e+00,9.552481555090974741e-03,3.761800208941432772e-02,9.351000189781188965e-01,6.322608811322057674e-03,-8.802153152064562391e-03,-8.643759899619848225e-03,6.456326079899307735e-02,2.960923215290697016e-03,-2.346164733171463013e-02,-1.581252939761325013e-02,7.375859254101826967e-02,-9.026816560280778723e-02,3.813328184518492703e-02,2.182551679578954851e-01,1.767725351279606227e-01,4.264333248138427873e-02,2.223475277423858643e-01,2.009640991687774714e-01,5.118745121548102794e-01,-6.731024980545043945e-01,-3.218904733657836914e-01,-9.032217569743849594e+01,3.247616291046142439e-02
1.624708000000000041e+00,1.050992401695913063e-02,3.734843906601382352e-02,9.352328181266784668e-01,7.111247814157969568e-03,-7.106050048744538827e-03,-1.151675777028346101e-02,5.198852403028145219e-02,-6.241052693832371302e-03,-4.710901528596878052e-03,1.009622531763372660e-01,7.281195154598810171e-02,-1.623166677307413264e-01,1.807482252063770944e-01,2.161097441633941241e-01,4.097437666906704468e-02,1.983121633529663086e-01,2.211984872817993053e-01,7.320837378501891812e-02,5.103327597058262555e-01,-6.836968660354614258e-01,-1.265472054481506348e+00,5.724276016965009717e+01,3.247616291046142439e-02
1.647235999999999922e+00,1.200563292389898902e-02,3.684330039976713850e-02,9.356244206428527832e-01,1.029005347011438705e-02,-2.872181913343485604e-03,-1.586866141949016054e-02,5.968675045775187482e-02,-3.829680243813841749e-03,2.987643703818321228e-03,1.232591078798383061e-01,1.191577022925727203e-01,-1.849799821578103354e-01,1.681732506404782779e-01,2.570886171173227819e-01,-8.206479104616692943e-02,2.031485080718994085e-01,2.258670330047607422e-01,-3.753100633621215404e-02,5.109364782990740705e-01,-6.229135990142822266e-01,-8.196903467178344727e-01,1.837799546390464513e+02,3.247616291046142439e-02
1.674166999999999961e+00,1.282446717141085164e-02,3.634452134136743201e-02,9.359326958656311035e-01,1.307457490356984595e-02,-1.926228052545386760e-03,-1.851092435868874689e-02,5.296532943456616627e-02,-7.267871574415981327e-03,-5.587537772953510284e-03,1.323435673689868086e-01,2.493241324349894372e-02,-9.099786783392417588e-02,9.117942811439591622e-02,2.493681938210224325e-01,-2.082211682227760527e-02,1.475390553474426325e-01,2.178388416767120250e-01,3.112664222717284948e-02,5.103298062296001136e-01,-6.911634802818298340e-01,-1.370903134346008301e+00,9.858360368727073819e+01,3.247616291046142439e-02
1.696757000000000071e+00,1.352725019535879272e-02,3.591101013849809509e-02,9.363307952880859375e-01,1.648382270151814433e-02,-3.140491827686053838e-03,-2.029312502710568442e-02,3.782508301272451828e-02,-2.601274155391872320e-03,6.467720493674278259e-03,2.043020746193421611e-01,-1.365469254946408417e-01,-9.132964331597698271e-02,-2.582440279411620243e-01,-1.593193023672481168e-01,1.253672031214951299e-01,-1.837255775928497148e-01,-1.725628137588501032e-01,1.822495937347411998e-01,5.155513681765722112e-01,-3.659868240356445312e-01,-9.536126852035522461e-01,-1.064953669727333505e+02,3.247616291046142439e-02
1.725187000000000026e+00,1.437641193657839336e-02,3.519675924653120624e-02,9.368699193000793457e-01,2.174851414909494129e-02,-8.087447850961826390e-03,-2.149778560168100552e-02,3.905335916004590291e-02,-7.147665295354073758e-03,6.262727547436952591e-03,1.805332742554913994e-01,-1.966992208889644378e-01,-8.324084117604388378e-02,-2.906579971313476562e-01,-2.200624809704989637e-01,1.330282625588074530e-01,-1.906579971313476507e-01,-2.048358678817749079e-01,1.931364119052886852e-01,5.167464693133407838e-01,-3.034098744392395020e-01,-1.278755784034729004e+00,9.600077448281959391e+01,3.247616291046142439e-02
1.748574999999999990e+00,1.512295519510123941e-02,3.445648323855563661e-02,9.372432827949523926e-01,2.578894831757373718e-02,-1.458980829657496869e-02,-2.319461637265617104e-02,2.818205805077021037e-02,-1.612497539725142592e-02,4.381248261779546738e-03,9.918870888307554368e-02,-1.867706550250630981e-01,-8.748999574462425211e-02,-2.896190702915191761e-01,-2.815309192243564684e-01,1.172056881333843614e-01,-1.896190702915191706e-01,-2.158568143844604437e-01,1.817384004592895452e-01,5.185046957185350802e-01,-2.175797224044799805e-01,-1.017611861228942871e+00,8.435802036323751452e+01,3.247616291046142439e-02
1.774642999999999970e+00,1.560984612805304921e-02,3.352525604604659343e-02,9.372398257255554199e-01,2.504045411904705365e-02,-1.606938939132329658e-02,-2.504867649091303827e-02,3.838403988420691082e-02,-1.376486548494620715e-03,-1.576571911573410034e-02,-9.933328230546858983e-02,-2.913553102458434768e-02,-1.021631871982817824e-01,-1.027259826660156805e-02,-2.823974656247287829e-01,1.134764167441787708e-01,8.972740173339843750e-02,-2.166231393814086748e-01,1.831836640834808294e-01,5.219320262060797022e-01,-1.164362430572509766e-01,-9.939368963241577148e-01,1.061099598884370465e+02,3.247616291046142439e-02
1.797868999999999939e+00,1.648580828837480083e-02,3.231435083364823935e-02,9.367865324020385742e-01,1.937881891267125706e-02,-1.381096469496090329e-02,-2.793501833525958641e-02,5.081833254642046521e-02,-5.877302029204470486e-03,-2.280219085514545441e-02,-2.268151836524881226e-01,1.229559638748921047e-01,-9.781247127323472457e-02,7.913509887262611120e-02,-1.362395489523285375e-01,1.414645272551495192e-01,1.769196867942809948e-01,-9.422414302825928012e-02,2.194667458534240723e-01,5.275150315718070138e-01,1.528997421264648438e-01,-1.142384409904479980e+00,9.856475236516151028e+01,3.247616291046142439e-02
1.822173999999999960e+00,1.714408049095534139e-02,3.159854141316072867e-02,9.363247752189636230e-01,1.396211444372961324e-02,-9.794638338189054494e-03,-2.997984496536198334e-02,3.740250958793790714e-02,-4.666815354205839511e-03,-3.275942057371139526e-02,-2.821978955406960199e-01,2.393831666839102701e-01,-9.871474411103967062e-02,1.283176907853276760e-01,1.452673209400596466e-01,1.304095331728651885e-01,1.900545358657836914e-01,1.727652132511138805e-01,2.142434298992156871e-01,5.253593282992374824e-01,-1.028513908386230469e-02,-1.349775910377502441e+00,1.259365032375558258e+02,3.247616291046142439e-02
1.849534000000000011e+00,1.816725877147015028e-02,3.039218890985873056e-02,9.357213377952575684e-01,8.650071955723549408e-03,-3.055916861918861471e-03,-3.332186374384734501e-02,5.140492223459374593e-02,-2.895596442857382123e-03,-2.305137738585472107e-02,-1.099530646218942614e-01,1.979162673557253727e-01,-9.931026770391683522e-02,1.094712092668649883e-01,2.545680104892854567e-01,9.650286082690565093e-02,1.358794927597045954e-01,2.244853913784027044e-01,1.898874700069427546e-01,5.165106866756066228e-01,-4.569882154464721680e-01,-1.171295285224914551e+00,1.079036495267524316e+02,3.247616291046142439e-02
1.874671999999999894e+00,1.894840478747558329e-02,2.935952393537592797e-02,9.354388713836669922e-01,7.551493345542828993e-03,5.825254406905955307e-04,-3.573242940884018698e-02,3.919943844596535110e-02,-1.858495929781994391e-02,-3.355316352099180222e-03,3.380027639220845037e-02,1.312121189490872697e-01,-1.346561299482053331e-01,8.766470739232683218e-02,2.704453025210487027e-01,-1.083112716674804743e-01,1.202570199966430664e-01,2.269991755485534501e-01,-8.311271667480468750e-03,5.123103516944544911e-01,-6.080724000930786133e-01,-1.107768416404724121e+00,1.018272741844881324e+02,3.247616291046142439e-02
1.898697000000000079e+00,2.018218996874406035e-02,2.752108546746351303e-02,9.353725910186767578e-01,9.540556816226017714e-03,2.211554616114774774e-03,-3.937283564050433199e-02,3.216031479218674910e-02,-2.250354087719285551e-02,-5.251456983387470245e-03,8.703467517240021101e-02,-6.486659776336213719e-03,-1.346985464852546999e-01,-8.639501151787190580e-02,2.444759326909078934e-01,-7.208190560340882458e-02,-3.888151645660400252e-02,1.934182047843933105e-01,2.791809439659118444e-02,5.119968102567087342e-01,-6.359748244285583496e-01,-8.552502393722534180e-01,1.007942285630912238e+02,3.247616291046142439e-02
1.924741999999999953e+00,2.086431479425658250e-02,2.631382799516712029e-02,9.355139732360839844e-01,1.224292872267421749e-02,2.539269419776779557e-04,-4.076091378061610926e-02,3.711812103997514517e-02,-2.036358658027412685e-02,-9.651283035054802895e-04,1.363265025184882961e-01,-1.422856882640557985e-01,-4.175058266595344653e-02,-1.959044101351503919e-01,-1.470911540999729761e-01,6.437635421752921361e-03,-1.326717495918273981e-01,-1.906954050064086914e-01,1.064376354217529269e-01,5.214696053846991086e-01,-1.133196949958801270e-01,-1.416511178016662598e+00,9.212700537429017800e+01,3.247616291046142439e-02
1.948954999999999993e+00,2.173404737965494576e-02,2.456466256853880731e-02,9.357022643089294434e-01,1.596812347192178363e-02,-5.275156552293491785e-03,-4.144671231884648754e-02,2.272999097505952817e-02,-1.298338364816735424e-02,-4.360845196060836315e-05,8.666624051789638405e-02,-2.253079316118632713e-01,1.642880612319853537e-02,-1.268485295261071177e-01,-2.180934205469960419e-01,-1.319985389709472656e-01,-4.380546212196349820e-02,-2.141488552093505915e-01,-3.199853897094726701e-02,5.274094951989827251e-01,2.105631828308105469e-01,-6.693338155746459961e-01,-4.082968582051523043e+01,3.247616291046142439e-02
1.973127000000000075e+00,2.217504307442794489e-02,2.340065493139282735e-02,9.357909560203552246e-01,1.681200123329675347e-02,-9.292519726674886016e-03,-4.222060226680542788e-02,2.346148027022660482e-02,-2.328603115881115043e-02,4.436472430825233459e-03,1.810799476498302016e-02,-1.911900689725954949e-01,-6.968976904142676343e-02,-2.172827236070397905e-01,-2.417416773463051394e-01,1.543716192245482566e-02,-1.193435668945312389e-01,-2.150008678436279297e-01,1.154371619224548312e-01,5.253907659544734265e-01,1.156922578811645508e-01,-1.024793267250061035e+00,9.181649131424305210e+01,3.247616291046142439e-02
1.999373000000000067e+00,2.286843054777464371e-02,2.175222397292503676e-02,9.356978535652160645e-01,1.378414665358029811e-02,-1.168765175230213060e-02,-4.249691838155621182e-02,4.247593016444602826e-02,-7.588111453611138049e-03,-1.381537597626447678e-02,-1.805947413587595529e-01,3.602415999521397377e-02,1.373764835795620448e-02,1.112048935270854300e-01,-2.277047799415349849e-01,1.096706390380859375e-01,1.761441707611083873e-01,-2.003042936325073187e-01,2.096706390380859431e-01,5.272792323101945788e-01,1.417965888977050781e-01,-1.317996144294738770e+00,1.260013217327792461e+02,3.247616291046142439e-02
2.025192999999999799e+00,2.341812887503138055e-02,2.075383723502997185e-02,9.355898499488830566e-01,1.052231854724761627e-02,-1.052367621312488843e-02,-4.261063795542188032e-02,3.004645173425757668e-02,-1.473988201806891891e-02,-6.575592793524265289e-03,-1.615467310437908033e-01,5.923528025719622392e-02,-2.706241624242695237e-02,1.318248066140335628e-01,-2.104758943050885345e-01,1.185012578964233232e-01,1.843642473220825084e-01,-1.793319940567016657e-01,2.185012578964233287e-01,5.257950522502369273e-01,8.586084842681884766e-02,-3.898223638534545898e-01,5.249466537565652402e+01,3.247616291046142439e-02
2.050406999999999869e+00,2.409427356210563226e-02,1.978296857077575105e-02,9.354506134986877441e-01,6.431590583756392233e-03,-7.224449869179361272e-03,-4.324476821880216676e-02,3.224864181988774947e-02,-1.242384675325221288e-02,3.635965986177325249e-04,-2.451181001159665751e-01,2.441635957322981221e-01,-5.661660015755837216e-02,1.746565629435085643e-01,1.972318069498406878e-01,1.092513024806976152e-01,1.983655214309692216e-01,2.026424467563629206e-01,2.092513024806976207e-01,5.218599598945836693e-01,-1.040773391723632812e-01,-2.039110660552978516e-02,2.014749393821768138e+02,3.247616291046142439e-02
2.075117999999999796e+00,2.519860952307678009e-02,1.833011158849163352e-02,9.353561997413635254e-01,2.013910059562429907e-03,-1.544118574123176657e-03,-4.520851371063080992e-02,4.209800498981334377e-02,-1.273395292699610118e-02,5.415292456746101379e-03,-6.050302563089697550e-02,1.820697509899196487e-01,-6.862674476312201344e-02,1.586744799371934689e-01,2.667806494400688511e-01,9.640629291534422163e-02,1.550688743591308594e-01,2.266841411590576061e-01,1.964062929153442272e-01,5.140583306911572503e-01,-5.072128772735595703e-01,-1.284343123435974121e+00,9.298082683186596853e+01,3.247616291046142439e-02
2.097958999999999907e+00,2.650686306278219467e-02,1.670226435242434804e-02,9.353737235069274902e-01,1.991659692067362843e-03,3.543462985568623935e-03,-4.784507805099010719e-02,3.546180108052735674e-02,-2.345061954410409405e-02,7.381356321275234222e-03,3.314882109622981077e-02,1.824240803824473678e-01,-7.073278326618483158e-02,1.649656240827462872e-01,2.951443823529263377e-01,-2.877274513244628684e-01,1.709694385528564287e-01,2.272228181362151989e-01,-1.877274513244628906e-01,5.143890563066324528e-01,-4.843955636024475098e-01,-1.134374260902404785e+00,1.064490377995931567e+02,3.247616291046142439e-02
2.123734999999999928e+00,2.730293890659072145e-02,1.558896753678115643e-02,9.355821609497070312e-01,5.064787550857688739e-03,4.342444522184019107e-03,-4.988163662482707206e-02,4.394938297722228437e-02,-1.873099337491641869e-02,2.120579406619071960e-02,2.105912441964790938e-01,-2.327990568883737260e-02,-1.111607188194666807e-01,7.916217380130341486e-02,2.965381506516739374e-01,-2.349153995513915960e-01,1.002579689025878823e-01,2.153890013694763073e-01,-1.349153995513915905e-01,5.107916516437702725e-01,-6.232456564903259277e-01,2.469791173934936523e-01,-3.026405253304416476e+01,4.939582347869873186e-02
2.147981000000000140e+00,2.798095721491846571e-02,1.446158694219127662e-02,9.358865022659301758e-01,8.811331124208248225e-03,2.671620748500913578e-03,-5.057532021661106936e-02,2.390907295600842170e-02,-2.620481657002624379e-02,2.886607870459556580e-02,1.821615533344446147e-01,-1.277788113678497983e-01,3.830297837810327927e-03,-1.443411851615350738e-01,2.331609273386174574e-02,-1.045486688613891657e-01,-9.115512371063232144e-02,-3.076511621475219727e-02,-4.548668861389160156e-03,5.179083871815794993e-01,-2.125147581100463867e-01,-1.182835936546325684e+00,1.132250635694877019e+02,4.939582347869873186e-02
2.172413999999999845e+00,2.873620332630711163e-02,1.292081575698639934e-02,9.363973736763000488e-01,1.455931579099095999e-02,-2.720990025611547125e-03,-4.868013196780088259e-02,1.967530858587676276e-02,-2.121818454686207750e-02,2.780194394290447235e-02,1.324709435667077717e-01,-1.811125170323941713e-01,5.015754181962247399e-02,-1.170394415515884079e-01,-1.704698394022631236e-01,-8.531880378723144531e-02,-3.082060217857360632e-02,-1.891561031341552623e-01,1.468119621276855330e-02,5.231014018394644083e-01,6.386101245880126953e-02,-1.049276232719421387e+00,1.150420509830620119e+02,4.939582347869873186e-02
2.198593999999999937e+00,2.894130572096106219e-02,1.015758671204928208e-02,9.368671178817749023e-01,1.884405521153343852e-02,-1.002378035004203305e-02,-4.653879093156778474e-02,2.123301224884106136e-02,-2.999560412194548359e-02,2.989736758172512054e-02,7.622724498856708886e-02,-2.271589526931252490e-01,7.848144230754557082e-02,-1.956902384757995828e-01,-2.422794848982948723e-01,-1.430946230888366644e-01,-9.569023847579956332e-02,-2.157608270645141602e-01,-4.309462308883666576e-02,5.263007305319400420e-01,2.461121082305908203e-01,-1.525102972984313965e+00,1.188904937501490053e+02,4.939582347869873186e-02
2.228070999999999913e+00,2.918190882896924340e-02,8.457912747177545251e-03,9.370552897453308105e-01,1.904649743947202725e-02,-1.291855817268672268e-02,-4.578395223929797309e-02,2.105248599674150456e-02,-1.711074899442307368e-02,1.535889413207769394e-02,-2.507365962834873230e-02,-1.120656327977832545e-01,3.158329642489301342e-02,-6.456837654113770086e-02,-2.644650476098799330e-01,-2.673014283180236705e-01,3.543162345886230469e-02,-2.185970306396484431e-01,-1.673014283180236650e-01,5.265752677061239506e-01,2.019925117492675781e-01,-1.216717600822448730e+00,1.273030874866919788e+02,4.939582347869873186e-02
2.250871000000000066e+00,2.933158590791377918e-02,7.639803754090098223e-03,9.371095895767211914e-01,1.833317534464713391e-02,-1.340485759319220982e-02,-4.527259008094804832e-02,2.681739065489874632e-02,-7.066356680055041993e-03,9.753627702593803406e-03,-1.337182241761775969e-01,4.712302044640563625e-03,7.546344510846815512e-02,1.408761739730833573e-02,-2.515218272415570278e-01,5.705957412719725452e-02,1.140876173973083413e-01,-2.071116685867309404e-01,1.570595741271972601e-01,5.190634076260578489e-01,-2.296550273895263672e-01,-1.305428862571716309e+00,1.143861137661198342e+02,4.939582347869873186e-02
2.276269000000000098e+00,2.987197830674168456e-02,5.348019727476167710e-03,9.371747374534606934e-01,1.455891581117096933e-02,-1.193546522195987336e-02,-4.358180213157428207e-02,2.508318947449076838e-02,-1.582199254448849943e-02,1.527917291969060898e-02,-1.343700713900047305e-01,8.441130328303643460e-02,7.447963430517652583e-02,6.820769559420641892e-02,1.390079171423882487e-01,9.013809561729430042e-02,1.571248769760131836e-01,1.748529016971588079e-01,1.901380956172943060e-01,5.189888635756790825e-01,-2.138990163803100586e-01,-1.097492814064025879e+00,6.247395765873326212e+01,4.939582347869873186e-02
2.299176999999999804e+00,3.081412880333817342e-02,2.963393488745793766e-03,9.372589588165283203e-01,1.019293998607579722e-02,-6.308053537855462523e-03,-4.129278650110675131e-02,3.324086014245330317e-02,-1.497785424615508815e-02,2.499322779476642609e-02,-8.173764514702172579e-02,2.046664516242299725e-01,2.678178179494401095e-02,7.090420279887926780e-02,2.336989701121891805e-01,-4.392695426940929071e-03,1.312156677246093806e-01,2.251650810241699052e-01,9.560730457305907648e-02,5.132725340924465529e-01,-4.838353395462036133e-01,-1.478877425193786621e+00,8.481720715094830609e+01,4.939582347869873186e-02
2.322693000000000119e+00,3.204003468251631626e-02,4.655401339160563767e-04,9.374236464500427246e-01,7.543763762456786280e-03,3.237459830605082800e-04,-4.107261800451734307e-02,3.045908071707790696e-02,-2.593591001043394143e-02,2.668563835322856903e-02,-2.019361409087579162e-02,1.822281148378177840e-01,-3.638890075504786631e-02,7.235666873047114089e-02,2.767832645741362674e-01,-7.533401250839233398e-02,1.262158870697021318e-01,2.270199358463287354e-01,2.466598749160766463e-02,5.125183062991542915e-01,-5.185068845748901367e-01,-1.491002678871154785e+00,1.066662924567129238e+02,4.939582347869873186e-02
2.349717000000000056e+00,3.314809305384602833e-02,-2.086837235808712641e-03,9.375452399253845215e-01,8.063785902011783371e-03,2.933356867107050903e-03,-4.174749578663835420e-02,2.662226021636321729e-02,-3.069258880828669780e-02,3.670613840222358704e-02,6.944510265707720675e-02,3.297032031207745850e-02,-5.871859606181892288e-02,1.375146161069614736e-01,2.907307905110959600e-01,-2.708667278289794700e-01,1.987775087356567216e-01,2.255392849445342907e-01,-1.708667278289794922e-01,5.102015044260896914e-01,-6.030870079994201660e-01,-1.235783457756042480e+00,8.109971277062878414e+01,4.939582347869873186e-02
2.371989000000000125e+00,3.376056763568231062e-02,-3.785015412793519066e-03,9.376468062400817871e-01,9.591822551425167528e-03,1.675832390076070766e-03,-4.161371923418388796e-02,2.216291747690303515e-02,-3.339588744854508212e-02,2.346931770443916321e-02,3.030356104336473858e-02,-7.704163863035477788e-02,4.312546685007773162e-02,6.467194586118046873e-02,-1.314234987946315547e-01,-2.126820325851440374e-01,1.384460449218749833e-01,-1.859279394149780107e-01,-1.126820325851440319e-01,5.234102186702576098e-01,5.230140686035156250e-02,-9.736906290054321289e-01,9.987720053493613648e+01,4.939582347869873186e-02
2.398347999999999924e+00,3.465679976052074562e-02,-5.981311929892205344e-03,9.378223419189453125e-01,1.319379383095399018e-02,-3.792426727437625544e-03,-3.988229376198666049e-02,3.202265880055307420e-03,-3.939950963184030153e-02,2.528937719762325287e-02,8.198491666828675029e-02,-2.420711037638623164e-01,1.177536645351176803e-01,-3.223395347595216232e-02,-2.079375815756596135e-01,-1.961456060409546009e-01,6.776604652404784324e-02,-2.133880376815795732e-01,-9.614560604095458152e-02,5.258401076257707141e-01,1.905077695846557617e-01,-8.687626123428344727e-01,8.150107517682624803e+01,4.939582347869873186e-02
2.422795999999999950e+00,3.525024785589223747e-02,-7.291583890312176332e-03,9.378357529640197754e-01,1.559642974429442490e-02,-8.356818142494892854e-03,-3.774924059659798964e-02,1.383425869327765262e-02,-2.759628136733655035e-02,3.240336477756500244e-02,9.886777483361829100e-02,-1.963026205158475701e-01,8.895635066082513420e-02,-1.795525312423706110e-01,-2.269832918837378921e-01,-1.357039213180541992e-01,-7.955253124237060547e-02,-2.139891386032104492e-01,-3.570392131805420061e-02,5.236412563534732501e-01,9.758591651916503906e-02,-2.027083635330200195e-01,-8.384218569409792821e+00,4.939582347869873186e-02
