timestamp,x,y,z,roll,pitch,yaw,vx,vy,vz,p,q,r,psp,qsp,rsp,pres,qres,rres,thrust_sp, thrust_res
0.000000000000000000e+00,-1.901743441253296932e-02,-2.449426296160818819e-02,1.015716314315795898e+00,9.242896419996836366e-03,-2.283054117503402480e-03,-1.350000118120804095e-02,-1.424211738278964752e-02,1.364875315984619662e-02,-4.235806409269571304e-03,-6.114266051162733223e-02,1.765052204430255954e-03,-2.498628577338685239e-03,-1.904756010588192772e-01,1.657977618062948522e-01,-1.578593042966339732e-01,-1.258105874061584417e-01,2.043542861938476562e-01,-1.201306343078613198e-01,5.246314106630897145e-01,7.280700206756591797e-01,-6.654018163681030273e-01,8.871065403447651931e+01,0.000000000000000000e+00
2.316599999999999909e-02,-1.906917731595516100e-02,-2.495032289746783663e-02,1.015796542167663574e+00,9.205089184733108651e-03,-2.638795252357661880e-03,-1.330577444038410530e-02,-7.300466540798304822e-03,2.266756979988866424e-02,-8.091482333838939667e-03,-3.013984568624411900e-02,3.926177709032857566e-02,9.072082723341314339e-03,-1.869822091399702402e-01,1.730808051401400149e-01,-1.672209526813504266e-01,-1.276405692100524847e-01,2.063918530941009355e-01,-1.300315976142883134e-01,5.249539047041998918e-01,7.311310768127441406e-01,-5.656241178512573242e-01,-4.708449302465693620e+01,0.000000000000000000e+00
4.738900000000000057e-02,-1.912862370937402565e-02,-2.513807178606038487e-02,1.015832185745239258e+00,9.385248673437443512e-03,-2.614807146106068458e-03,-1.320122405132704603e-02,-9.922593881244943723e-03,1.738471909234674470e-02,-2.803892362862825394e-03,-6.422859298941504744e-03,2.700198971674840076e-02,1.207248662819947714e-02,-1.962415781867956899e-01,1.687206739995300575e-01,-1.614615162346285104e-01,-1.299450516700744462e-01,2.051275491714477373e-01,-1.245656490325927623e-01,5.245305995326746684e-01,7.297816276550292969e-01,-7.829204797744750977e-01,9.571170721676631388e+01,0.000000000000000000e+00
7.308800000000000019e-02,-1.935730996808791154e-02,-2.514611479367974758e-02,1.015956997871398926e+00,9.035867965218121953e-03,-2.569113116506649419e-03,-1.270719583387603172e-02,-1.153045423504719252e-02,2.066740968531304359e-02,-1.872114604339003563e-03,-3.273707170346907419e-02,-6.817952034081393477e-03,8.608158524171674250e-03,-1.834374529821766187e-01,1.675431444921777757e-01,-1.561708006804266580e-01,-1.228253602981567300e-01,2.048501193523406816e-01,-1.206612467765807994e-01,5.244533805134443671e-01,7.304608821868896484e-01,-9.425636529922485352e-01,9.494999769033731241e+01,0.000000000000000000e+00
1.024680000000000035e-01,-1.965870179865352937e-02,-2.497103856315375028e-02,1.016071557998657227e+00,6.408538628265505674e-03,-3.817899607972741194e-03,-1.063688540689225991e-02,-6.732868481361713002e-03,2.259743590482230988e-02,-6.659129867330193520e-04,-1.487679378082563675e-01,-4.466826325297486994e-02,9.366409922181670455e-02,-1.594843596363412219e-01,1.625138261319179767e-01,-1.539286410925955750e-01,-1.172087967395782360e-01,2.040526986122131181e-01,-1.242020130157470703e-01,5.243645859743789606e-01,7.316565513610839844e-01,-7.540360689163208008e-01,-1.145303400406338170e+02,0.000000000000000000e+00
1.235200000000000048e-01,-1.992009796485552306e-02,-2.469314362657903592e-02,1.016193032264709473e+00,3.434197603088081155e-03,-6.066158592369363944e-03,-9.319185159194103008e-03,-7.339427044655815434e-03,3.757869820334924782e-02,7.822467945516109467e-03,-1.365734595652517980e-01,-1.257899247097413742e-01,5.102228277939800660e-02,-9.536854045631512622e-02,1.462513389151658127e-01,-1.531765337048961173e-01,-8.455231189727782648e-02,2.039408683776855469e-01,-1.271475791931152288e-01,5.237812252796882895e-01,7.351655960083007812e-01,-9.209464788436889648e-01,9.397566437504582382e+01,0.000000000000000000e+00
1.521810000000000107e-01,-2.036786878354107308e-02,-2.410975859308309849e-02,1.016449451446533203e+00,-2.201932071333575092e-03,-1.059675942171423024e-02,-7.093628814372089121e-03,-1.683879192058881577e-02,2.955422752074998369e-02,1.313803903758525848e-02,-1.658604021162209119e-01,-1.886007747681657798e-01,5.474082937062149656e-02,-1.588442562262141686e-02,9.551923758661649833e-02,-1.005095890534193209e-01,-3.337864279747009000e-02,1.905943930149078258e-01,-8.061261177062988004e-02,5.230354975283256769e-01,7.181708812713623047e-01,-1.063637614250183105e+00,1.063235672245400281e+02,0.000000000000000000e+00
1.752819999999999934e-01,-2.072794171324849818e-02,-2.356493654025863804e-02,1.016624212265014648e+00,-6.362521658389676434e-03,-1.385170191324092137e-02,-5.489902056606399752e-03,-1.998415193172706564e-02,4.001828358219616105e-02,-3.940423193853348494e-04,-2.220224976633730085e-01,-1.313614490574277205e-01,9.092461800793810722e-02,3.664844672478127785e-02,8.562290072441100519e-02,-8.149352068226212165e-02,-1.797865033149719308e-02,1.856229007244110107e-01,-6.601256132125854492e-02,5.236694030786540610e-01,7.005387544631958008e-01,-1.292034745216369629e+00,1.022593792721398245e+02,0.000000000000000000e+00
2.014239999999999919e-01,-2.126837234958616277e-02,-2.257487489199687392e-02,1.016969084739685059e+00,-1.126148413919226404e-02,-1.896937722828639927e-02,-3.271487599194482232e-03,-9.029432315594020098e-03,4.054826975105797066e-02,1.416222937405109406e-02,-1.470528967446002033e-01,-2.056461771055644316e-01,8.070549408177532524e-02,8.871014688775627488e-02,6.620740890502929688e-02,-6.682361475946854701e-02,2.575814723968505859e-03,1.662074089050293024e-01,-5.737992525100707453e-02,5.224415159220962002e-01,6.944987773895263672e-01,-1.285693526268005371e+00,-2.581562545869572745e+01,0.000000000000000000e+00
2.227959999999999940e-01,-2.167107485109487711e-02,-2.184276048673181383e-02,1.017313718795776367e+00,-1.355940577395769314e-02,-2.185713551659640430e-02,-2.280383782089924483e-03,-2.695547292628523717e-02,4.661174085940465034e-02,1.972098089754581451e-02,-7.347382116545725372e-02,-1.449976918851290653e-01,2.437245644927938520e-02,2.112829923629760964e-01,-6.601083278656005859e-02,-2.187600857644320801e-02,1.112829923629760770e-01,3.398916721343994002e-02,-1.508059501647949184e-02,5.213439060745621578e-01,6.600656509399414062e-01,-9.479657411575317383e-01,9.389879742612650659e+01,0.000000000000000000e+00
2.504480000000000040e-01,-2.247831992158846534e-02,-2.059778174204179163e-02,1.017879724502563477e+00,-1.575640974805549502e-02,-2.604549302754088913e-02,-6.493373781658337649e-04,-2.042349223247607801e-02,4.642630567326106600e-02,1.915922947227954865e-02,-6.204941189211303498e-02,-1.224266585007290353e-01,5.270013074245579604e-02,2.263864755630493053e-01,-1.314438939094543513e-01,-6.067925949032026631e-03,1.263864755630492998e-01,-3.144389390945434570e-02,-3.698730468749999653e-03,5.211858928324792917e-01,6.534914970397949219e-01,-8.513053655624389648e-01,1.170171094645979082e+02,0.000000000000000000e+00
2.733920000000000239e-01,-2.320335385882357770e-02,-1.968979335220798904e-02,1.018346548080444336e+00,-1.523353190468494482e-02,-2.830764564152499219e-02,-3.643396859368168233e-05,-2.461783089341842284e-02,5.665362776835259490e-02,2.191368862986564636e-02,7.913978443139921271e-02,-8.844759133656755756e-02,7.190573511831752779e-03,2.285631418228149525e-01,-1.904164791107177956e-01,7.963670609679063261e-03,1.285631418228149470e-01,-9.041647911071777621e-02,8.582085371017456055e-03,5.207486786151990232e-01,6.444585323333740234e-01,-6.153968572616577148e-01,8.259754593485590135e+01,0.000000000000000000e+00
2.983149999999999968e-01,-2.392169557708601069e-02,-1.876029554850548384e-02,1.018851399421691895e+00,-1.344017173589135729e-02,-2.961149975329591122e-02,3.147067027828622248e-04,-2.665040859336068740e-02,5.530582158371908502e-02,2.581071853637695312e-02,9.844796616936923872e-02,-2.131420912863032577e-02,3.354914418819666261e-02,2.252679944038391002e-01,-2.231531620025634655e-01,2.179201375427375353e-02,1.252679944038390947e-01,-1.231531620025634738e-01,2.137774229049682617e-02,5.204253641498943761e-01,6.466183662414550781e-01,-7.633131742477416992e-01,9.486096617450620272e+01,0.000000000000000000e+00
3.244619999999999727e-01,-2.505280720978979650e-02,-1.723722500966249141e-02,1.019657492637634277e+00,-8.211485688096277144e-03,-2.868602033232803272e-02,8.268732875367673684e-05,-3.207503144203530110e-02,5.951987905614883334e-02,1.901671290397644043e-02,1.906694658459732461e-01,7.431036195251272680e-02,-1.642105956046872623e-04,1.983394450444173063e-01,-2.266895294189453236e-01,2.007966055545172893e-02,1.148495435714721596e-01,-1.266895294189453181e-01,2.002249360084533761e-02,5.208409812059491273e-01,6.472104787826538086e-01,-5.733190774917602539e-01,9.677730551974751450e+01,0.000000000000000000e+00
3.503299999999999748e-01,-2.579073654873930907e-02,-1.611159879085509450e-02,1.020202994346618652e+00,-4.094815836591135690e-03,-2.628873560576505675e-02,-1.649228029081102956e-04,-2.968685145328616576e-02,6.126527819620475324e-02,2.500473521649837494e-02,2.051598821187731458e-01,1.653505032590610602e-01,-4.116586571343681944e-02,1.606864549196999059e-01,-1.867684602737426647e-01,-4.541466773120727998e-04,1.022132635116577148e-01,-8.676846027374267301e-02,-2.868175506591796807e-05,5.204937537321694396e-01,6.565387248992919922e-01,-7.184504270553588867e-01,3.058739027325798077e+01,0.000000000000000000e+00
3.725959999999999828e-01,-2.634189268457558936e-02,-1.430413652286656803e-02,1.020894885063171387e+00,2.107370722795856924e-03,-2.068277679059704610e-02,-4.193515463028187279e-04,-3.407145579073220243e-02,6.789950084587355328e-02,1.414482574909925461e-02,2.208344983782798143e-01,2.098412426531501840e-01,9.795256060171540075e-03,8.489524569402787102e-02,-7.339001893997193493e-02,-2.145499077773812407e-02,6.031147241592407088e-02,2.660998106002807409e-02,-2.058527469635009627e-02,5.214428669647684922e-01,6.692360639572143555e-01,-1.120967268943786621e+00,9.798307296487571705e+01,0.000000000000000000e+00
4.025659999999999794e-01,-2.676310865558961805e-02,-1.301464010951170619e-02,1.021297812461853027e+00,6.310203970807980352e-03,-1.623162310325887425e-02,-7.970887676314017444e-04,-3.755188746107603753e-02,6.686218709117426606e-02,1.512393355369567871e-02,2.201928239169499146e-01,2.328946372155214495e-01,-1.792696374834832490e-02,-1.703343696528250226e-02,4.214030504226681795e-03,-1.207695841477166541e-02,-1.349562406539916992e-02,1.042140305042266873e-01,-1.023670434951782192e-02,5.216566951241428107e-01,6.880424022674560547e-01,-6.238874197006225586e-01,-9.763609252484988588e+01,0.000000000000000000e+00
4.251659999999999884e-01,-2.719601282590575902e-02,-1.171577836306110683e-02,1.021691322326660156e+00,1.006025056139009041e-02,-1.173693383228946452e-02,-7.358880018558956173e-04,-2.790511854718719445e-02,7.172647920304395242e-02,8.599455468356609344e-03,1.419212149458190797e-01,2.485258528881445217e-01,3.314681810218012004e-02,-8.350667702178607432e-02,8.714226484298703834e-02,-5.073900886540259197e-02,-6.070278882980346263e-02,1.871422648429870439e-01,-4.908421039581298967e-02,5.226130756568803104e-01,7.171480655670166016e-01,-9.160839319229125977e-01,-4.760053430701891131e+01,0.000000000000000000e+00
4.511580000000000035e-01,-2.792513493287157242e-02,-9.647167136474003868e-03,1.022240519523620605e+00,1.539797626515449804e-02,-6.235590442938310218e-03,-6.255920923207347259e-04,-3.833918232571791040e-02,7.197371235119269517e-02,1.788754947483539581e-02,1.867939663853538101e-01,1.498731984231510272e-01,3.994459629416927809e-02,-1.554491356657555778e-01,1.019973038541568122e-01,-4.677040937796789893e-02,-9.906116724014281394e-02,1.903659939765930120e-01,-4.543976783752440990e-02,5.219416563794668784e-01,7.214604616165161133e-01,-8.193002939224243164e-01,9.283172380228458564e+01,0.000000000000000000e+00
4.801489999999999925e-01,-2.868159562924658262e-02,-7.790778584738127649e-03,1.022780179977416992e+00,1.896893478237611855e-02,-2.254142583480334139e-03,-5.052309799641609925e-04,-3.542734689080978550e-02,7.596946567197702949e-02,1.253673154860734940e-02,1.153662641391447891e-01,8.043816808804910012e-02,3.295467387872644868e-03,-2.218395312525761054e-01,1.461184055973920870e-01,-5.785453821606267866e-02,-1.468452572822570856e-01,2.053457379341125377e-01,-5.677664279937744141e-02,5.224228657360323602e-01,7.302407026290893555e-01,-8.287972211837768555e-01,9.114457828483222102e+01,0.000000000000000000e+00
5.031849999999999934e-01,-2.925163940947545643e-02,-6.572461723865972300e-03,1.023158907890319824e+00,1.944766374058357061e-02,-1.042191799459635249e-03,-1.628723467324250476e-04,-5.105196271069271235e-02,7.477039805932068905e-02,7.046082057058811188e-03,-2.230704397732761329e-02,4.880412888599333643e-02,4.397658311060475417e-02,-2.038731888572570261e-01,1.343065199287337141e-01,-3.667394887623594973e-02,-1.251791059970855657e-01,1.993882477283477617e-01,-3.659341335296630721e-02,5.225610433532035248e-01,7.187590599060058594e-01,-9.253147840499877930e-01,9.500694097744771227e+01,0.000000000000000000e+00
5.253539999999999877e-01,-2.984805717751569734e-02,-5.295792241989268588e-03,1.023464441299438477e+00,1.847054316652827974e-02,-1.077741684733624083e-03,4.643851999035655907e-04,-4.402480931992441837e-02,8.221989492623965612e-02,8.317895233631134033e-03,-9.172715084114411999e-02,-4.489586082327612013e-03,2.625704437049648787e-02,-1.878510731834628911e-01,1.465902509049745450e-01,-4.496006292953197425e-02,-1.228917002677917397e-01,2.044874846935272050e-01,-4.659640789031982422e-02,5.225471244765282908e-01,7.258355617523193359e-01,-7.106775045394897461e-01,9.047741906708371573e+01,0.000000000000000000e+00
5.486250000000000293e-01,-3.080871622856659608e-02,-3.212989792014524140e-03,1.023721933364868164e+00,1.438663822981526424e-02,-3.208910462334069180e-03,1.325611180307450588e-03,-4.284631221479434648e-02,7.864164974168402766e-02,1.025312114506959915e-02,-1.883259885515295995e-01,-1.069433088483010552e-01,-6.057077435299024377e-03,-1.024825659843998371e-01,1.249165984527045303e-01,-4.278966290559364088e-02,-6.170695424079894464e-02,1.976084053516387884e-01,-4.685368537902832170e-02,5.222731415244445952e-01,7.213945388793945312e-01,-1.095741391181945801e+00,-6.865949991450186474e+01,0.000000000000000000e+00
5.753840000000000066e-01,-3.211162041830530750e-02,-6.329405506158752902e-04,1.023901104927062988e+00,8.301423951922086777e-03,-6.899081725920241936e-03,2.403559232177300380e-03,-3.919885435117560074e-02,8.701010441610715351e-02,6.045964080840349197e-03,-2.211143500757647151e-01,-1.483201492107611152e-01,6.610420523580007313e-02,-1.009287518641133023e-02,9.579434303467393441e-02,-3.826169985761052744e-02,-1.814669966697692732e-02,1.906535089015960749e-01,-4.535626173019408763e-02,5.224275646997027511e-01,7.151579856872558594e-01,-2.758442163467407227e-01,1.047797190758745245e+02,0.000000000000000000e+00
5.980290000000000328e-01,-3.308375556560306380e-02,1.283240240439528475e-03,1.023959875106811523e+00,4.671947792893997066e-03,-1.007008032716338874e-02,2.898738519862962236e-03,-5.231557800248458345e-02,8.451818168905275708e-02,1.102082896977663040e-02,-1.209296992181865121e-01,-1.691874337321496169e-01,-2.621174694077024574e-03,3.717213140591943410e-02,6.326595544815061256e-02,7.008542701306469044e-04,7.166075706481932900e-03,1.632659554481506181e-01,-7.799363136291503386e-03,5.215036127390065834e-01,6.865580081939697266e-01,-5.325759649276733398e-01,9.523967284322672811e+01,0.000000000000000000e+00
6.230210000000000470e-01,-3.452218424621338738e-02,4.121555570716229321e-03,1.024131536483764648e+00,-3.555989244947227934e-04,-1.438645562747242757e-02,3.566680086543977737e-03,-4.677607662907769942e-02,8.600386062787253316e-02,1.779085583984851837e-02,-1.559972294630116163e-01,-9.797148129395244487e-02,-3.289222725297202572e-03,1.465655414093705033e-01,-2.846915125846863348e-02,8.930694009601624489e-03,8.007559776306151511e-02,7.153084874153137207e-02,-1.364421844482421918e-03,5.207102550232381999e-01,6.732352972030639648e-01,-8.346213102340698242e-01,-9.376718651100952684e+01,0.000000000000000000e+00
6.476939999999999920e-01,-3.550956109830852997e-02,6.035305140796796454e-03,1.024275183677673340e+00,-2.427357970629125030e-03,-1.700972889309260161e-02,3.784747784625011428e-03,-3.802381854074100148e-02,8.725936953630272774e-02,1.012629736214876175e-02,-6.240948107633435132e-02,-1.403894522373307363e-01,1.374989633405032316e-02,1.787325412312383011e-01,-3.857587575912476557e-02,-6.193796958863927171e-03,9.654639959335327426e-02,6.142412424087523998e-02,-1.706281900405883650e-02,5.212480261472240972e-01,6.743624210357666016e-01,-8.627177476882934570e-01,9.703436651935011525e+01,0.000000000000000000e+00
6.732810000000000183e-01,-3.694210098428163391e-02,8.753536535702351531e-03,1.024542927742004395e+00,-4.096314563281318495e-03,-1.999167862532069684e-02,4.044993494804294959e-03,-5.753535216847702888e-02,8.906177778218030139e-02,1.715803891420364380e-02,1.695429588442247393e-02,-1.206399274249628367e-01,7.143654270440489597e-03,2.262689201898795410e-01,-1.490305662155151367e-01,1.407364269688935431e-02,1.297056555747985729e-01,-4.903056621551513811e-02,2.461159229278564540e-03,5.200945037212965083e-01,6.424250602722167969e-01,-7.119985818862915039e-01,9.140209690710921109e+01,0.000000000000000000e+00
6.986590000000000300e-01,-3.779566912655343142e-02,1.025682568619409353e-02,1.024616718292236328e+00,-4.052450696439734851e-03,-2.109863852282334307e-02,4.210454329585667545e-03,-4.558217732179738885e-02,8.441210160592690914e-02,1.221017166972160339e-02,9.253093798275572809e-03,-1.934439143540676864e-02,2.068549885160874194e-02,2.187426812626183659e-01,-1.348320960998535267e-01,5.757786375649653725e-03,1.253321528434753473e-01,-3.483209609985351424e-02,-6.294715404510498220e-03,5.206065841360744129e-01,6.530475616455078125e-01,-2.460221052169799805e-01,-8.366507035118303293e+00,0.000000000000000000e+00
7.244859999999999634e-01,-3.912363082564340733e-02,1.257597977764873289e-02,1.024773240089416504e+00,-1.287212688320401579e-03,-2.202480162462805424e-02,4.229860847928279891e-03,-4.244553864069582072e-02,9.023639476470446397e-02,1.867647655308246613e-02,1.419858663802219256e-01,-3.010390677368731532e-02,3.751794112580406071e-02,2.043921897114559239e-01,-1.435528874397277721e-01,1.834532735121864253e-03,1.215413331985473605e-01,-4.355288743972778043e-02,-1.045085191726684466e-02,5.201616054542165246e-01,6.571363210678100586e-01,-9.213584661483764648e-01,1.036053978216850595e+02,0.000000000000000000e+00
7.495640000000000081e-01,-4.002201016144230072e-02,1.415985610753798564e-02,1.024791479110717773e+00,2.056222388724406741e-03,-2.110499589464898129e-02,3.983167517133789047e-03,-5.432834990497359406e-02,8.614123352438257664e-02,2.093832939863204956e-02,2.039147537050917391e-01,1.909185813568888695e-02,-2.532192101741513254e-02,1.738344963948249278e-01,-1.737467646598815918e-01,1.708544922302185354e-02,1.154668092727661050e-01,-7.374676465988158625e-02,5.349487066268920898e-03,5.197761179781071883e-01,6.474235057830810547e-01,-7.120136022567749023e-01,8.929102203844166752e+01,0.000000000000000000e+00
7.755600000000000271e-01,-4.136343398220500983e-02,1.637449053437781479e-02,1.024770021438598633e+00,7.994906943996630405e-03,-1.776352252881152616e-02,3.866469328284679371e-03,-4.996100639810922839e-02,8.933571963178260633e-02,1.058012433350086212e-02,1.980183302381103017e-01,1.903494055493432924e-01,2.046159863665288417e-02,1.108853452557630737e-01,-1.051873922348022516e-01,-8.603917276635564271e-04,8.626155853271484653e-02,-5.187392234802246094e-03,-1.245689392089843750e-02,5.208164901076095532e-01,6.643096208572387695e-01,-7.201815843582153320e-01,9.425893281049377492e+01,0.000000000000000000e+00
8.038129999999999997e-01,-4.265956877433901145e-02,1.839004140348115060e-02,1.024604082107543945e+00,1.459696276305002573e-02,-1.341673384964270355e-02,3.455353204002033999e-03,-3.797817142499117227e-02,8.866278675692382261e-02,1.006047520786523819e-02,2.236962980797076728e-01,1.153451296250157382e-01,1.717208135299754662e-02,-3.688213659601176364e-02,2.809180617332457386e-02,-2.816507314172721904e-03,-1.922603845596313268e-02,1.280918061733245794e-01,-1.331638097763061454e-02,5.215576269296252621e-01,7.035719156265258789e-01,-4.282861948013305664e-01,7.790402435233072254e+01,0.000000000000000000e+00
8.257849999999999913e-01,-4.354298155712553464e-02,1.978877756652759265e-02,1.024504423141479492e+00,1.831883115635805220e-02,-9.778017739177302659e-03,3.237401916432528382e-03,-5.690127698779658821e-02,9.351786711407300556e-02,7.196178194135427475e-03,1.821109906459927319e-01,1.730717136577973880e-01,-2.042857500906387902e-02,-8.375515283132294042e-02,2.346740961074827991e-02,6.639395252735913119e-03,-4.727963805198669156e-02,1.234674096107482855e-01,-3.354585170745849523e-03,5.216614710522050613e-01,6.983892917633056641e-01,-6.353975534439086914e-01,9.007818767990730180e+01,0.000000000000000000e+00
8.488489999999999647e-01,-4.445656464831503757e-02,2.120181232482577435e-02,1.024299502372741699e+00,2.134402169482658637e-02,-6.771494534324684622e-03,3.366782803338941830e-03,-5.907568362453099325e-02,8.778732393949370549e-02,9.939688025042414665e-04,1.465519019077160534e-01,1.413419262274907828e-01,2.822348942991231846e-02,-1.441528375629641534e-01,6.872106790542600874e-02,-9.129852523438331674e-04,-8.382564783096313477e-02,1.687210679054260143e-01,-1.119847297668456927e-02,5.221784615752167458e-01,7.024585008621215820e-01,-6.294509172439575195e-01,2.694797520043546157e+01,0.000000000000000000e+00
8.744760000000000311e-01,-4.595823293800295473e-02,2.329371147604622147e-02,1.023988962173461914e+00,2.412787088580416878e-02,-3.647855325357385325e-03,3.095353813503819336e-03,-5.218095186647549177e-02,9.876631664849286341e-02,-1.587948063388466835e-03,5.071331072461679468e-02,1.022567419354756951e-01,-4.968344551202913406e-02,-2.093213883522953567e-01,1.004752499370142188e-01,-2.013534910402184699e-02,-1.423919320106506181e-01,1.947698414325713945e-01,-2.957382202148437292e-02,5.227078550528232448e-01,7.205570936203002930e-01,-6.425229310989379883e-01,8.718498101919243481e+01,0.000000000000000000e+00
8.996640000000000192e-01,-4.712278795754520216e-02,2.462422195117596607e-02,1.023689389228820801e+00,2.439769171523426677e-02,-2.825164016594605698e-03,3.031407439394373602e-03,-5.707163669185792709e-02,9.234082950622919672e-02,-2.797656226903200150e-03,-5.031503836423398268e-02,3.488306141987199127e-02,3.289385753510015026e-02,-2.114378387477577614e-01,9.610439243848389879e-02,-1.917755627159310750e-02,-1.371571540832519365e-01,1.911670804023742620e-01,-2.843095064163207730e-02,5.227125651481776547e-01,7.159097194671630859e-01,-7.796632051467895508e-01,9.212065329836207184e+01,0.000000000000000000e+00
9.248079999999999634e-01,-4.892609896291227889e-02,2.667868951252702278e-02,1.023214101791381836e+00,2.261380961344410662e-02,-3.053066710949625673e-03,2.955254443665011888e-03,-5.441524147638256842e-02,9.927282992156383212e-02,-7.359997369349002838e-03,-7.695045984580593801e-02,-5.172489804895703813e-02,6.298776809212271698e-03,-1.619533223992881410e-01,9.659555031778359335e-02,-2.161867697492183410e-02,-1.075096607208251981e-01,1.916783630847930797e-01,-3.064856529235839705e-02,5.230644083931046406e-01,7.156078815460205078e-01,-6.134606599807739258e-01,9.133583041178175677e+01,0.000000000000000000e+00
9.494169999999999554e-01,-5.014239136560108556e-02,2.816338075721877554e-02,1.022788286209106445e+00,1.938262126869251187e-02,-3.834346172396196906e-03,3.119115532432378997e-03,-6.031995903202021225e-02,9.356049140815236864e-02,-2.047696150839328766e-03,-2.010117044275430698e-01,-5.121349187620267279e-02,6.572720289958055608e-03,-8.152681927206600898e-02,8.381464481353759211e-02,-1.347722696033253412e-02,-4.392305016517639160e-02,1.838146448135375977e-01,-2.296836376190185616e-02,5.225588390903228575e-01,7.085070610046386719e-01,-1.757270872592926025e+00,1.102109420698960918e+02,0.000000000000000000e+00
9.761149999999999549e-01,-5.199946388536242498e-02,3.041500341255839318e-02,1.022087454795837402e+00,1.276507978076031440e-02,-6.337108976091743173e-03,3.498159652710911612e-03,-5.914522663136094482e-02,9.709106757739154048e-02,-9.112759493291378021e-03,-2.692486072678250686e-01,-6.392062484004150391e-02,2.721147517224744433e-02,2.916629640793786532e-04,7.271165847778318647e-02,4.091459804648822814e-03,-1.057548522949218646e-02,1.727116584777831920e-01,-6.421101093292236155e-03,5.227395331268842593e-01,6.880698204040527344e-01,-6.077636480331420898e-01,8.752869662879498946e+01,0.000000000000000000e+00
9.986960000000000282e-01,-5.332834527519310364e-02,3.173806061957916425e-02,1.021515130996704102e+00,8.445911188406419329e-03,-8.709008334892853753e-03,3.669933763536369770e-03,-5.691937576428456741e-02,9.702821615610432437e-02,-4.075161181390285492e-03,-2.115342000417704815e-01,-9.300780996445039139e-02,-1.297226528051992692e-02,6.604716616704175980e-02,2.724819779396056574e-02,1.976209794173870021e-02,2.627949714660644462e-02,1.272481977939605713e-01,8.804404735565185200e-03,5.222620044606270939e-01,6.807034015655517578e-01,-6.986948251724243164e-01,6.941091634585164627e+01,0.000000000000000000e+00
1.025808000000000053e+00,-5.534282762536556904e-02,3.366535154713249517e-02,1.020641922950744629e+00,3.589509426244802317e-03,-1.250200594943118304e-02,3.874864292142024980e-03,-5.977288145847627077e-02,8.775815879399358199e-02,1.931343809701502323e-03,-1.332094599894295128e-01,-1.488545714749060223e-01,-7.079488916652876100e-03,1.690851386368177334e-01,-7.441996932029724954e-02,1.048737104375386045e-03,1.035063385963439914e-01,2.558003067970275948e-02,-1.042052507400512661e-02,5.215602215378433160e-01,6.642096042633056641e-01,-6.923352479934692383e-01,9.107500597794647490e+01,0.000000000000000000e+00
1.055357000000000101e+00,-5.667852009139041219e-02,3.497978482717818693e-02,1.020072102546691895e+00,1.855749004433775683e-03,-1.436091611819012570e-02,3.738423313779977528e-03,-6.913069947675098970e-02,8.983860939379392785e-02,-1.586971455253660679e-03,-3.757675376148546936e-02,-6.439991186002196055e-02,-8.629771155351394565e-03,2.016168460483265812e-01,-1.350523948669433705e-01,5.216841339779243643e-03,1.204858660697936956e-01,-3.505239486694335799e-02,-5.903077125549316233e-03,5.215226686618031904e-01,6.464779376983642578e-01,-1.658011555671691895e+00,7.831664291028036473e+01,0.000000000000000000e+00
1.076155999999999890e+00,-5.798420710150101187e-02,3.627153852005563645e-02,1.019518136978149414e+00,1.119622043763963395e-03,-1.598536451622201149e-02,3.417710147825616784e-03,-5.769385883161867040e-02,9.228584426650890404e-02,-3.660256043076515198e-03,-5.101050278729133552e-02,-3.415317314233111412e-02,-2.820220877560713005e-02,2.089426615588697300e-01,-1.279496908187866266e-01,-3.259820443774374965e-03,1.201623558998107799e-01,-2.794969081878662109e-02,-1.347380876541137695e-02,5.218643849244958277e-01,6.556103229522705078e-01,-7.089353799819946289e-01,8.953326835773451364e+01,0.000000000000000000e+00
1.100562999999999958e+00,-5.962463337132939412e-02,3.767352832298891813e-02,1.018972992897033691e+00,1.598101998297535341e-03,-1.696313543393257461e-02,3.395620888466829856e-03,-5.483787770832861119e-02,9.222128555818878692e-02,2.112567191943526268e-03,5.693710225488989030e-02,-7.284446959982429637e-02,1.146938561136905989e-02,2.085921081643560826e-01,-1.378378868103027344e-01,-4.069893546232161707e-03,1.218601584434509250e-01,-3.783788681030273576e-02,-1.427400112152099609e-02,5.214768813892031174e-01,6.562857627868652344e-01,-6.863461732864379883e-01,9.071828568816421523e+01,0.000000000000000000e+00
1.129159000000000024e+00,-6.248707235691335765e-02,3.981935135599222464e-02,1.018236160278320312e+00,4.135506526986363132e-03,-1.655103430112969676e-02,3.022520328695073658e-03,-7.365900797445044945e-02,8.964914787311743793e-02,5.093063693493604660e-03,1.219633508351259527e-01,3.784263932977127709e-02,-2.403041007237975354e-02,1.918686208095116141e-01,-1.786195158958435170e-01,7.996725102111402333e-03,1.217979669570922741e-01,-7.861951589584349753e-02,-1.331555843353271441e-03,5.210942390741205577e-01,6.449334621429443359e-01,-1.428022503852844238e+00,1.218845805973576724e+01,0.000000000000000000e+00
1.149969999999999937e+00,-6.439803225731975667e-02,4.125905358621583668e-02,1.017706751823425293e+00,6.676196974144726383e-03,-1.513002303187871433e-02,2.987518627771763597e-03,-6.222789915554600981e-02,8.886636555817001293e-02,-8.306086063385009766e-03,9.935053412806572892e-02,1.299374305393598550e-01,3.218727484846481413e-02,1.621293114114125133e-01,-1.411092519760131780e-01,4.796631211700045500e-04,1.077628970146179144e-01,-4.110925197601317943e-02,-8.778655529022216450e-03,5.222457075470265941e-01,6.530511379241943359e-01,-7.497216463088989258e-01,3.526783545861716362e+01,0.000000000000000000e+00
1.175364999999999993e+00,-6.720793292995712320e-02,4.348117685962071821e-02,1.016852498054504395e+00,1.228963336466374484e-02,-1.251315078619685828e-02,2.853561098494961437e-03,-6.276798753364994099e-02,9.025028107186862381e-02,-2.848812378942966461e-03,2.294447116909623385e-01,8.514099452558528125e-02,2.242894269541827537e-02,9.418824402845138444e-02,-9.990426301956177590e-02,-1.424665408683252130e-02,7.305529117584227961e-02,9.573698043823242459e-05,-2.330635786056518485e-02,5.221205101656465342e-01,6.648513078689575195e-01,-6.922820806503295898e-01,9.356436404360600534e+01,0.000000000000000000e+00
1.199030999999999958e+00,-6.965324424105742707e-02,4.584420473214793207e-02,1.016069412231445312e+00,1.886302761405304201e-02,-8.117685177596145607e-03,2.261419128290562824e-03,-6.913927202460515287e-02,8.268341966703389445e-02,1.361836795695126057e-03,2.213702268260102357e-01,1.648333545031420155e-01,-3.505096795765375028e-02,-2.880192440664302439e-02,-4.783216118812561729e-02,-2.316640507901901111e-03,-2.886736392974853602e-03,5.216783881187438826e-02,-9.790742397308349262e-03,5.220790793423681908e-01,6.768968105316162109e-01,-1.291310429573059082e+00,8.249800958808130247e+01,0.000000000000000000e+00
1.225624999999999964e+00,-7.188297300284811342e-02,4.827575004982402607e-02,1.015306115150451660e+00,2.488183121821043245e-02,-2.848926362800874301e-03,2.032621085778831167e-03,-5.659089838470611478e-02,9.097535926273520035e-02,-2.681423444300889969e-03,1.427615215990311881e-01,2.041446158309505043e-01,-1.794290292250708130e-02,-1.497709285581013683e-01,7.700240612030029297e-02,-2.083831928409998063e-02,-9.450992345809935968e-02,1.770024061203002985e-01,-2.753916978836059432e-02,5.230408755669242460e-01,7.105994224548339844e-01,-7.241491079330444336e-01,9.861733116139225785e+01,0.000000000000000000e+00
1.250153999999999987e+00,-7.338828659626106532e-02,4.993785579293592847e-02,1.014762759208679199e+00,2.819071210804793490e-02,4.063034486678773760e-04,2.176047724862354565e-03,-5.848469174219306232e-02,8.577113077325965174e-02,-8.976065553724765778e-03,1.469898159648638514e-01,1.344543041663104899e-01,3.102797206215566692e-02,-2.256304575186792449e-01,9.386292197464359000e-02,-2.899421972301139544e-02,-1.448162198066711426e-01,1.909143626689910889e-01,-3.600611686706543108e-02,5.236180416433158236e-01,7.151505947113037109e-01,-6.967250108718872070e-01,9.125983772707618868e+01,0.000000000000000000e+00
1.273274000000000017e+00,-7.555210076813102804e-02,5.241329585422421777e-02,1.013705492019653320e+00,3.068977294890473662e-02,4.331269836205464685e-03,2.041490111560463096e-03,-6.774065422472672071e-02,9.086948849222807600e-02,-5.173125769942998886e-03,4.497543799377747703e-02,1.204905889965034588e-01,-1.637449383230262304e-02,-2.527892381151911616e-01,1.180084629048500228e-01,-2.881825747174038971e-02,-1.627960503101348877e-01,1.987217545509338268e-01,-3.536109924316405834e-02,5.235066805958025205e-01,7.196776866912841797e-01,-6.450461149215698242e-01,9.709405554250685100e+01,0.000000000000000000e+00
1.298799999999999955e+00,-7.708566979345810033e-02,5.403602171860061310e-02,1.012973546981811523e+00,3.039828946576232649e-02,5.493543446740245528e-03,2.109754635407319785e-03,-6.683311844492845211e-02,8.987564465857325602e-02,-1.519416738301515579e-02,-7.979334793260246805e-02,5.689524232103414236e-02,4.604758694935704583e-02,-2.495626788783621430e-01,1.299423430930066181e-01,-2.875710929393809900e-02,-1.611897110939025934e-01,2.022093594074249323e-01,-3.539943695068359375e-02,5.242923197107667299e-01,7.197632789611816406e-01,-5.939525365829467773e-01,1.013474670556730786e+02,0.000000000000000000e+00
1.323771999999999949e+00,-7.946825936419955883e-02,5.635758014648811071e-02,1.011704564094543457e+00,2.737162411815266885e-02,5.484719279706729012e-03,2.243305890488711974e-03,-6.801927227602179438e-02,9.064779433830927324e-02,-1.281200721859931946e-02,-1.258122628792965325e-01,-8.454795804376493557e-03,1.726943426000051782e-02,-1.904740591836989738e-01,1.248269330530590304e-01,-2.762379536987406153e-02,-1.245824217796325656e-01,2.002884328365325817e-01,-3.463032245635986467e-02,5.241667660576718735e-01,7.170178890228271484e-01,-1.016898274421691895e+00,3.609264910278790595e+00,0.000000000000000000e+00
1.348700999999999928e+00,-8.101539582881309154e-02,5.797025467372909913e-02,1.010851979255676270e+00,2.336415203600845925e-02,4.283201607010900247e-03,2.266168026988199698e-03,-5.650898242211685463e-02,9.139161744688757694e-02,-1.362334005534648895e-02,-2.708886996762837063e-01,-3.796297769332221406e-02,4.443284256469079950e-03,-1.064503897851504094e-01,1.250942051360676155e-01,-3.572880795749831112e-02,-6.859227418899535578e-02,2.003035962581634355e-01,-4.273703098297119279e-02,5.243344892870721585e-01,7.196772098541259766e-01,-5.947376489639282227e-01,8.320942843165148872e+01,0.000000000000000000e+00
1.375156000000000045e+00,-8.334886136659466760e-02,6.038311105005891855e-02,1.009759426116943359e+00,1.599229343954622698e-02,1.606225391007187753e-03,2.663041015810999751e-03,-7.069690825627143738e-02,9.054215596778630859e-02,-1.692364923655986786e-02,-2.706950100158259098e-01,-1.077530935467505280e-01,4.956154695884847083e-02,-3.586845657885117875e-03,8.630609512329101562e-02,-1.094225311486147698e-02,-1.484935283660888602e-02,1.863060951232910212e-01,-1.918058395385742118e-02,5.243826872398733574e-01,7.038276195526123047e-01,-7.467716932296752930e-01,8.988689457182275078e+01,0.000000000000000000e+00
1.399092000000000002e+00,-8.471463284074967626e-02,6.194980153509559162e-02,1.009078025817871094e+00,1.091438443211391503e-02,-9.350351193875283684e-04,2.849139644478295048e-03,-6.979022817019185643e-02,9.329738936773362967e-02,-1.584116369485855103e-02,-2.402372899754928737e-01,-1.312933632734803180e-01,1.175656923982361900e-02,5.681223949019634234e-02,7.020264863967895508e-02,6.019292182185598944e-03,8.632814884185791363e-03,1.702026486396789606e-01,-2.731311321258544662e-03,5.241112435081241028e-01,6.902163028717041016e-01,-1.011589765548706055e-01,-1.927981061172135924e+01,0.000000000000000000e+00
1.426998999999999906e+00,-8.655238493528237542e-02,6.411133197644117154e-02,1.008237242698669434e+00,4.519439554834060735e-03,-5.545208544946778062e-03,3.176121392045374529e-03,-6.595238295948978313e-02,8.450890758866877461e-02,-4.268251825124025345e-03,-1.774309633551792720e-01,-1.666637081206970294e-01,-4.880181882950122146e-02,1.718995426796815496e-01,-1.865103244781494973e-02,8.656517358734572287e-03,8.749265670776366910e-02,8.134896755218505582e-02,-9.559392929077148438e-04,5.230155044063840020e-01,6.736996173858642578e-01,-1.617070555686950684e+00,9.631475144877590822e+01,0.000000000000000000e+00
1.451853999999999978e+00,-8.769830745340148614e-02,6.552200176179277802e-02,1.007797837257385254e+00,2.072456454818036829e-03,-8.566513281507370792e-03,3.379852861252522021e-03,-6.075582747895778846e-02,8.447790953054733210e-02,1.866687438450753689e-03,-8.461781418176654579e-02,-1.358167627614637885e-01,2.685525021196260437e-02,2.207586288452148549e-01,-6.386502981185913919e-02,-1.372920972088863961e-03,1.207586288452148354e-01,3.613497018814086637e-02,-1.156507730484008720e-02,5.225895942103326863e-01,6.735848188400268555e-01,-1.366269946098327637e+00,1.225656272972361194e+02,0.000000000000000000e+00
1.476374999999999993e+00,-8.944167003648410830e-02,6.760948798623390987e-02,1.007402300834655762e+00,1.733267390761895855e-03,-1.197530415757785960e-02,2.864348073961703149e-03,-5.737142967683062783e-02,8.329068731474106868e-02,4.714217036962509155e-03,8.954984004892649341e-02,-1.377865576486614896e-01,-2.826755352397763987e-02,2.303961992263793834e-01,-1.113949179649353083e-01,8.326069267225906512e-04,1.303961992263793779e-01,-1.139491796493530273e-02,-8.002567291259764931e-03,5.222324986746775810e-01,6.645116806030273438e-01,-1.003761649131774902e+00,1.006157283993221085e+02,0.000000000000000000e+00
1.500094000000000038e+00,-9.043477545513781135e-02,6.894667955952071825e-02,1.007249474525451660e+00,2.882119484810260340e-03,-1.301851926999497699e-02,2.536983668381832986e-03,-5.941916649672254053e-02,7.951457661993625858e-02,9.302424266934394836e-03,6.179848385179444181e-02,-1.547593834579965091e-02,-1.347922708406745426e-02,2.287135137761946435e-01,-1.358161449432372936e-01,1.179667683028284668e-03,1.312980651855468750e-01,-3.581614494323730191e-02,-6.823110580444336111e-03,5.217741120382837217e-01,6.579642295837402344e-01,-8.363834619522094727e-01,8.617447502205655496e+01,0.000000000000000000e+00
1.527285000000000004e+00,-9.170553829935554346e-02,7.091360432658332102e-02,1.007159471511840820e+00,7.218281508267351820e-03,-1.306302738215947556e-02,2.315756330107616133e-03,-4.626540011406957142e-02,7.843561276402268023e-02,5.534055642783641815e-03,1.527031075195108001e-01,1.568651788733508787e-02,2.059745596003297041e-02,1.814431572509755952e-01,-9.819689393043518066e-02,-8.736602922468850868e-03,1.108690023422241183e-01,1.803106069564819249e-03,-1.626552343368530343e-02,5.223248911608899814e-01,6.735465526580810547e-01,-7.684284448623657227e-01,8.708987746518917561e+01,0.000000000000000000e+00
1.549195000000000100e+00,-9.212732560315770036e-02,7.155004416669044631e-02,1.007121086120605469e+00,9.046349808973962875e-03,-1.249699988419972208e-02,2.099934254165263837e-03,-5.189941372226593991e-02,7.847292468162984924e-02,8.285999298095703125e-03,1.700123136111448274e-01,5.581566232984733894e-02,-9.848498345607584886e-03,1.672920765015265265e-01,-1.056115388870239313e-01,-1.259807673317674473e-02,1.073868870735168457e-01,-5.611538887023925781e-03,-1.962776184082031319e-02,5.220627117289161623e-01,6.704499721527099609e-01,-4.453798532485961914e-01,8.659824044873165860e+01,0.000000000000000000e+00
1.573450000000000015e+00,-9.334530015496694810e-02,7.355492651338535470e-02,1.007019281387329102e+00,1.488273294970496492e-02,-9.878966178755499428e-03,1.919704671668090229e-03,-5.784081513798967900e-02,7.909390492436452202e-02,1.638912945054471493e-03,1.768201625224248286e-01,1.060141262497011211e-01,2.971333256566899977e-02,8.648698387970299439e-02,-8.398490548133850930e-02,-2.556538722376988648e-02,6.237541437149047435e-02,1.601509451866149972e-02,-3.226447105407714844e-02,5.226382623871534960e-01,6.750196218490600586e-01,-1.089882016181945801e+00,1.145315148331710589e+02,0.000000000000000000e+00
1.604511999999999938e+00,-9.456986951413927367e-02,7.555412930310106967e-02,1.006901144981384277e+00,2.147883196054953259e-02,-6.468246994134174699e-03,1.866213982786745678e-03,-4.918920508214882220e-02,8.167802575341436000e-02,4.868210293352603912e-03,2.337385169241306959e-01,1.063992149981882462e-01,-1.166850946356710363e-02,-3.041424016222044752e-02,1.424944400787352128e-02,-1.488045176296053443e-02,-1.557326316833496094e-02,1.142494440078735268e-01,-2.146328687667846749e-02,5.229285728266945821e-01,7.037439346313476562e-01,-9.270514249801635742e-01,5.552164812145526440e+01,0.000000000000000000e+00
1.622411000000000048e+00,-9.552445504340159599e-02,7.668815454780092411e-02,1.006831169128417969e+00,2.551307165958069043e-02,-3.948507662433931031e-03,1.788266607174958476e-03,-5.022956277172497402e-02,7.420433021363224968e-02,6.196764763444662094e-03,1.733026057193744474e-01,1.412987421537404420e-01,1.820272915089183111e-02,-1.200721679535968200e-01,5.380385518074035089e-02,-2.166764747309453051e-02,-7.385825514793395441e-02,1.538038551807403564e-01,-2.801667451858520438e-02,5.229353925764882449e-01,7.098423242568969727e-01,-1.320158839225769043e+00,1.011799293455218418e+02,0.000000000000000000e+00
1.649998000000000076e+00,-9.691247743703060302e-02,7.843042756279129668e-02,1.006721019744873047e+00,3.107802207734538386e-02,6.210133774375847793e-05,1.708950937451237393e-03,-5.599586678325499389e-02,7.396055021633264615e-02,-5.545495543628931046e-03,1.393362211272208828e-01,1.359020697899880337e-01,1.076542826518234533e-02,-2.196663801002060601e-01,7.563517689704893354e-02,-3.243588821226719293e-02,-1.395223617553710826e-01,1.756351768970489391e-01,-3.852406740188598494e-02,5.238985964317093291e-01,7.149051427841186523e-01,-6.787377595901489258e-01,9.850212636066166283e+01,0.000000000000000000e+00
1.676112999999999964e+00,-9.829662591516803716e-02,8.017392718721332023e-02,1.006605505943298340e+00,3.361745152081345445e-02,3.069944001411251122e-03,2.104601487884784003e-03,-4.652388114804840297e-02,7.713299127562565916e-02,2.466885140165686607e-03,2.539006393631553296e-02,9.128116369446402645e-02,2.957618832041980506e-02,-2.683274426917927058e-01,1.040946860160259779e-01,-4.488063006167328922e-02,-1.762058794498443659e-01,1.989464879035949540e-01,-5.185815095901489397e-02,5.235369593741762140e-01,7.270545959472656250e-01,-8.466953039169311523e-01,8.928217011327733132e+01,0.000000000000000000e+00
1.697778999999999927e+00,-9.922563129464763432e-02,8.138502160469364421e-02,1.006501436233520508e+00,3.336827390879392591e-02,3.810952313795690216e-03,2.256767097892768779e-03,-4.258355024304998071e-02,7.445919237438453075e-02,-6.983106955885887146e-03,-7.838850857584012122e-02,3.160693237203453243e-02,-9.168643873204198810e-03,-2.678186930653048692e-01,1.133547083585068338e-01,-4.857597893578012582e-02,-1.757475256919860673e-01,2.024259746074676403e-01,-5.590410232543945035e-02,5.242697151885971074e-01,7.291674613952636719e-01,-2.933903932571411133e-01,-8.782833702768344608e+01,0.000000000000000000e+00
1.726758000000000015e+00,-1.009454165097051354e-01,8.329919899962169583e-02,1.006196498870849609e+00,2.979752209443588609e-02,3.359735030570076830e-03,3.044935169707144521e-03,-5.726944436648898074e-02,7.578572070955726103e-02,-7.709837052971124649e-03,-1.874310640104868697e-01,-3.158838763325898247e-02,8.103925508465763261e-02,-1.891317180384353147e-01,9.057148694992064875e-02,-3.100559504417566004e-02,-1.235905408859252902e-01,1.905714869499206543e-01,-4.066210985183715820e-02,5.241545434967304073e-01,7.178832292556762695e-01,-1.139339327812194824e+00,1.176642698884566158e+02,0.000000000000000000e+00
1.748979999999999979e+00,-1.020632937351333980e-01,8.462916109669713083e-02,1.006007432937622070e+00,2.618650127029695934e-02,2.192075825614869800e-03,3.164639411082346889e-03,-4.859998854608243990e-02,7.377800187849428704e-02,-1.088242884725332260e-02,-2.016294461638904190e-01,-5.883486302135784024e-02,-1.652422281708253518e-02,-1.252457216142218721e-01,9.010750055313110352e-02,-3.570365181004991895e-02,-8.265110850334167480e-02,1.901075005531311091e-01,-4.560667276382446289e-02,5.244707649418862694e-01,7.219682931900024414e-01,-1.010841012001037598e+00,9.115956371987122964e+01,0.000000000000000000e+00
1.774607000000000046e+00,-1.037144873912201615e-01,8.659401598179605752e-02,1.005545496940612793e+00,1.870051522223223697e-02,-1.292399185333081846e-04,3.978170789317217113e-03,-5.315770464591616784e-02,6.799510333799879680e-02,-9.521382860839366913e-03,-3.141356880029543275e-01,-8.062405205085831916e-02,2.356258101677329714e-02,-1.667369584958018972e-02,7.752561569213867188e-02,-2.050176606727139444e-02,-2.025414705276489327e-02,1.775256156921386774e-01,-3.267996311187743724e-02,5.242610126069826570e-01,7.137286663055419922e-01,-8.592406511306762695e-01,8.067404855136442166e+01,0.000000000000000000e+00
1.800707000000000058e+00,-1.047828438575327675e-01,8.794271734064720847e-02,1.005229234695434570e+00,1.381528323509052109e-02,-2.045606147723866286e-03,4.665895082218858222e-03,-4.126822051875970315e-02,7.187053779730151470e-02,-4.176794085651636124e-03,-2.315128620866858111e-01,-1.294086465668924102e-01,1.887503921273316759e-02,2.177956088408439239e-02,7.943066358566283625e-02,-2.290010349934477191e-02,-1.913800835609436035e-02,1.794306635856628418e-01,-3.691878318786621233e-02,5.238993007668342194e-01,7.141797542572021484e-01,-7.395499944686889648e-01,-1.195810480733521075e+01,0.000000000000000000e+00
1.824848999999999943e+00,-1.063452516759812866e-01,8.982771094215957763e-02,1.004867911338806152e+00,7.605918849057939982e-03,-5.526435603943946617e-03,5.344565513854719098e-03,-5.380899531247580747e-02,7.006839541100043367e-02,4.626490408554673195e-07,-1.401546700485631070e-01,-1.505175555026692091e-01,1.804788908242242751e-02,1.506089994011763911e-01,-2.209770679473878341e-02,6.359873365033019699e-03,6.940448284149169922e-02,7.790229320526122214e-02,-9.598910808563232422e-03,5.231000328846584502e-01,6.854627132415771484e-01,-8.037225008010864258e-01,7.502889720234887250e+01,0.000000000000000000e+00
1.851390000000000091e+00,-1.073881287808730739e-01,9.107679506686079673e-02,1.004712462425231934e+00,4.625031483295507714e-03,-7.817074960534853290e-03,5.662942721743272588e-03,-5.150197232079110898e-02,5.977196016495751191e-02,-7.305379840545356274e-04,-1.286231873606920872e-01,-1.205725901445594550e-01,4.815927074261867891e-02,1.944070926923636700e-01,-5.932004451751709401e-02,1.399472649434907456e-02,1.006042957305908203e-01,4.067995548248291154e-02,-2.773761749267578125e-03,5.230610704851753612e-01,6.805410385131835938e-01,-8.385843038558959961e-01,1.223993941532163490e+02,0.000000000000000000e+00
1.873607999999999940e+00,-1.089233087822109175e-01,9.291326437300970187e-02,1.004612684249877930e+00,3.332322880903805604e-03,-1.096030404621961551e-02,6.083909912656261521e-03,-4.039625788748489599e-02,6.713170887255713593e-02,2.877211431041359901e-03,-1.364106082997938512e-03,-7.696832594799453420e-02,2.788154717727609269e-02,2.256363868713378851e-01,-7.726954817771912454e-02,2.046731542274610183e-02,1.256363868713378795e-01,2.273045182228088448e-02,2.446174621582031250e-03,5.228009650810712117e-01,6.805557012557983398e-01,-5.728925466537475586e-01,9.762642097698515897e+01,0.000000000000000000e+00
1.899737999999999927e+00,-1.098806964017637472e-01,9.411341976156079037e-02,1.004617452621459961e+00,4.369602587977116856e-03,-1.211076565734137134e-02,5.992191407608929259e-03,-4.137805451835016579e-02,6.024281783582702277e-02,1.216133311390876770e-02,8.174192510550019886e-02,-5.583464485303580443e-02,-9.370408058760052589e-03,2.271483171513269950e-01,-1.034219622611999567e-01,2.097773453333619947e-02,1.274705171585082952e-01,-3.421962261199951172e-03,3.144299983978271398e-03,5.219732100951115505e-01,6.733627319335937500e-01,-7.120965719223022461e-01,9.667492781427819182e+01,0.000000000000000000e+00
1.923256000000000077e+00,-1.108320807162670729e-01,9.529048012765964359e-02,1.004703521728515625e+00,6.556027127845867435e-03,-1.202168959511573654e-02,5.964188218298419747e-03,-5.077688425232775027e-02,6.367628478421659410e-02,3.996816463768482208e-03,1.567261332488145698e-01,-1.979275286485785920e-02,2.979543189185537757e-03,2.136510054348837173e-01,-1.291742086410522516e-01,1.685416540279256400e-02,1.232535123825073131e-01,-2.917420864105224609e-02,-1.075458526611328168e-03,5.224458750830793807e-01,6.667402982711791992e-01,-7.900518178939819336e-01,8.867220689963852465e+01,0.000000000000000000e+00
1.949065999999999965e+00,-1.123064069160815970e-01,9.706303652089205702e-02,1.004965424537658691e+00,1.101071405367761574e-02,-1.058529255521323265e-02,5.887210253195950677e-03,-4.303068805455341483e-02,6.440883305101172129e-02,1.326764747500419617e-02,1.767857248469513198e-01,8.875397253525114938e-02,1.055385623584058873e-02,1.549442198651202751e-01,-8.559977412223816751e-02,-4.041500687884357068e-03,9.143757820129394531e-02,1.440022587776183978e-02,-2.186915874481201033e-02,5.219749317509464470e-01,6.800386905670166016e-01,-6.951256990432739258e-01,9.183851184412718283e+01,0.000000000000000000e+00
1.976409000000000082e+00,-1.137567477739585831e-01,9.880190849211036019e-02,1.005279183387756348e+00,1.716206010527832754e-02,-8.629463457470176735e-03,5.720891364053198695e-03,-4.233582857188645382e-02,5.979636175564509437e-02,9.055664762854576111e-03,2.533354184555521860e-01,6.605886101349862927e-02,-3.745311674396249041e-02,5.374462712899398531e-02,-6.217942237854004461e-02,-1.795095486088110759e-02,3.250787258148193221e-02,3.782057762145996094e-02,-3.547114133834838867e-02,5.225020182516092460e-01,6.939043998718261719e-01,-1.163603067398071289e-01,-7.219155636640283369e+00,0.000000000000000000e+00
1.999427000000000065e+00,-1.146955699329615386e-01,9.993323985940429088e-02,1.005571246147155762e+00,2.144763645397071081e-02,-6.562702584761881397e-03,5.891278873552391673e-03,-4.830772958366801040e-02,5.886704255884490228e-02,8.033490739762783051e-03,2.265914368608222818e-01,8.134110893721556435e-02,3.503878940246718532e-02,-4.222993348439844224e-03,-5.235863924026489674e-02,-2.138625402953412552e-02,1.137650012969970616e-03,4.764136075973510881e-02,-3.949567079544067522e-02,5.226264269422583597e-01,6.980333328247070312e-01,-5.460766553878784180e-01,8.838008653902623735e+01,0.000000000000000000e+00
2.026292999999999900e+00,-1.162363931430685782e-01,1.017124613627900798e-01,1.006015062332153320e+00,2.776926129400817886e-02,-2.704540434392832537e-03,5.840871942393026546e-03,-3.640630792956491696e-02,5.525381162166615595e-02,9.035850875079631805e-03,2.216222313029927726e-01,1.225951195906803959e-01,-1.432945643241720184e-02,-1.393054480516396909e-01,5.343142151832580566e-02,-2.564091179103036161e-02,-9.177559018135070246e-02,1.534314215183258112e-01,-4.349205493927001814e-02,5.228612801889234163e-01,7.177724838256835938e-01,-1.359267115592956543e+00,1.062164015564625146e+02,0.000000000000000000e+00
2.050555000000000128e+00,-1.172704002082246844e-01,1.029431694339431325e-01,1.006374835968017578e+00,3.062650219966745260e-02,-9.485626495897570010e-05,6.024368647858825178e-03,-3.326998623398152999e-02,6.153001938135523041e-02,6.868409691378474236e-04,1.003922381347952669e-01,1.552629004685508185e-01,1.069801674839452807e-02,-1.870746767148327439e-01,7.960491776466369074e-02,-3.893539648327806052e-02,-1.277677774429321345e-01,1.796049177646636963e-01,-5.723265409469604353e-02,5.235540683336683543e-01,7.237184047698974609e-01,-4.518579244613647461e-01,1.049258714637344667e+02,0.000000000000000000e+00
2.075346000000000135e+00,-1.188066556459785317e-01,1.047754276313081212e-01,1.006842017173767090e+00,3.264939113687105599e-02,2.933802984850686357e-03,6.690407163727576413e-03,-3.929129567507469445e-02,5.563325245247697365e-02,2.864908892661333084e-03,3.712323585686534699e-02,4.093629513808532544e-02,6.144001470594009223e-02,-2.254024487507992891e-01,8.621014356613157514e-02,-3.410491809827912585e-02,-1.491711616516113170e-01,1.862101435661315807e-01,-5.415841341018676897e-02,5.233354199211397439e-01,7.226444482803344727e-01,-6.934899091720581055e-01,8.830010502384538995e+01,0.000000000000000000e+00
2.098930999999999880e+00,-1.198329228220012532e-01,1.060210109159042541e-01,1.007143974304199219e+00,3.211818086869307198e-02,4.161303629198087606e-03,6.913689822605329979e-03,-4.322567897726792285e-02,5.910951863775990023e-02,-2.697055169846862555e-04,-2.725232188388116913e-02,5.595642754060647234e-02,-1.076070525092415707e-02,-2.078240516156747708e-01,8.947727084159851074e-02,-3.118749788880974261e-02,-1.400848388671875056e-01,1.894772708415985163e-01,-5.181909799575805387e-02,5.235424721696558814e-01,7.225418090820312500e-01,-9.094833135604858398e-01,1.007220266333750089e+02,0.000000000000000000e+00
2.123826000000000214e+00,-1.214317132952674599e-01,1.083234215556527075e-01,1.007515311241149902e+00,2.801560561389090237e-02,3.941462435311349211e-03,7.780275063695444443e-03,-4.198100624586416363e-02,5.122139316937921599e-02,-6.269026547670364380e-03,-1.987096173222131779e-01,-4.234855169805254449e-02,3.005083857644145345e-02,-1.432187790336088007e-01,8.731237053871154785e-02,-2.819994393474480748e-02,-9.717471599578857144e-02,1.873123705387115534e-01,-5.115494728088378767e-02,5.239866593460729138e-01,7.247610092163085938e-01,-6.099098920822143555e-01,5.660756623721725589e+01,0.000000000000000000e+00
2.148261000000000198e+00,-1.224908608278401645e-01,1.099981019717093111e-01,1.007840394973754883e+00,2.417879548601429077e-02,2.891613407049131723e-03,8.385238085003609773e-03,-4.018998556709272446e-02,6.386855935109453375e-02,-4.084520973265171051e-03,-2.034119689534546194e-01,-4.294648444440527651e-02,7.555614927984020783e-03,-4.721489904674523036e-02,8.508383035659788929e-02,-2.862317192127637744e-02,-3.934357166290283064e-02,1.850838303565978948e-01,-5.329806804656982144e-02,5.238368021870778435e-01,7.259550094604492188e-01,-8.534265756607055664e-01,9.316132141087271634e+01,0.000000000000000000e+00
2.177569999999999784e+00,-1.240130528267827242e-01,1.124470359042070572e-01,1.008268475532531738e+00,1.776853339859319966e-02,6.415067253631168143e-04,8.939899582049253696e-03,-3.660257269363917376e-02,5.746951244931742392e-02,-2.883844135794788599e-04,-2.170005840311703127e-01,-7.036972105374522668e-02,1.184068525902957913e-02,5.369073912820709893e-03,7.347800135612486683e-02,-2.500223845597554506e-02,-2.368125915527343611e-02,1.734780013561248724e-01,-5.116599798202514648e-02,5.234726411298639137e-01,7.236400842666625977e-01,-1.272264361381530762e+00,3.749927875102783759e+01,0.000000000000000000e+00
2.200606000000000062e+00,-1.249805330568176803e-01,1.140208711297247823e-01,1.008697390556335449e+00,1.374257134305745254e-02,-1.117657736573907101e-03,9.402083762159190242e-03,-4.443219587173288798e-02,5.974682393777687450e-02,-6.203157827258110046e-03,-1.928692457512618252e-01,-9.515091503115610805e-02,4.969843841743096929e-02,4.422875853881648445e-02,4.758776426315305952e-02,3.838310994265594495e-03,-1.530130505561828544e-02,1.475877642631530651e-01,-2.367582321166991979e-02,5.235571342780673820e-01,7.059482336044311523e-01,-5.409036874771118164e-01,1.014677944982811937e+02,0.000000000000000000e+00
2.226858000000000004e+00,-1.267923094551801355e-01,1.164493718321950311e-01,1.009354710578918457e+00,9.103046454082185102e-03,-4.210724599212678498e-03,1.037498477974541089e-02,-3.953382121964668650e-02,5.732521560263176968e-02,-2.259914996102452278e-03,-1.302191093827184953e-01,-1.120814192705345824e-01,5.799037679201411027e-02,1.266790351035441964e-01,-1.486521959304810958e-02,4.681527399431253261e-03,3.695021867752074779e-02,8.513478040695189597e-02,-2.552154064178466589e-02,5.230566536997272031e-01,6.975440979003906250e-01,-7.763036489486694336e-01,9.977058811218141443e+01,0.000000000000000000e+00
2.248889999999999834e+00,-1.284294084553207205e-01,1.181462747269144131e-01,1.009868144989013672e+00,7.293046995527917124e-03,-6.390490396902759329e-03,1.078374178798431615e-02,-3.388668139833334730e-02,5.557368174836405106e-02,9.077552706003189087e-03,-6.673997339347663427e-02,-1.324563067478093936e-01,-2.303289404943483637e-02,1.765291452407836970e-01,-4.193997383117676475e-02,1.128526641792071405e-02,7.652914524078369141e-02,5.806002616882324080e-02,-2.008277177810668945e-02,5.221260912720194769e-01,6.949753761291503906e-01,-9.259449243545532227e-01,1.013964190214545624e+02,0.000000000000000000e+00
2.275459000000000120e+00,-1.307972578721484647e-01,1.206038568232075808e-01,1.010629892349243164e+00,6.267067985687333267e-03,-9.122754756057283032e-03,1.121112487940659035e-02,-4.007618450236439395e-02,5.844227648181345852e-02,1.239942107349634171e-02,2.417486424684239105e-03,-6.078640321889323267e-02,3.455529825473883238e-02,2.116546034812927246e-01,-1.110487699508667103e-01,2.584431349279088172e-02,1.116546034812927191e-01,-1.104876995086669957e-02,-6.876897811889648264e-03,5.215454326677764207e-01,6.800624132156372070e-01,-7.780016660690307617e-01,-5.186474434926292787e+01,0.000000000000000000e+00
2.297644000000000020e+00,-1.323214870862000070e-01,1.222258904791564682e-01,1.011136889457702637e+00,7.178809734701898683e-03,-1.020173938352209042e-02,1.115593387987242301e-02,-3.953797536984807182e-02,5.584918983512878604e-02,1.391970925033092499e-02,8.970913262256254017e-02,-6.797005353779982106e-02,3.173019258105549967e-03,2.129825472831726185e-01,-1.350859761238098200e-01,2.207452777408615285e-02,1.129825472831725991e-01,-3.508597612380981445e-02,-1.057566404342651263e-02,5.212900011489796093e-01,6.755509376525878906e-01,-1.139702916145324707e+00,9.828438676011082009e+01,0.000000000000000000e+00
2.325928999999999913e+00,-1.346971084675256669e-01,1.249619037662799137e-01,1.011920213699340820e+00,1.009066157277400781e-02,-1.029473472830799707e-02,1.099856803202924581e-02,-3.752943316322356754e-02,5.831540061923746326e-02,1.265020109713077545e-02,1.436642424168785570e-01,4.548279212767371987e-02,-4.866801108460076797e-02,1.927188666391241312e-01,-1.356953382492065430e-01,5.775313636703829218e-03,9.940946102142333984e-02,-3.569533824920654436e-02,-2.661033868789672643e-02,5.213673794998172628e-01,6.787002086639404297e-01,-1.319713711738586426e+00,9.157757129707600541e+01,0.000000000000000000e+00
2.350476000000000010e+00,-1.365153503116674771e-01,1.272417236260105777e-01,1.012393593788146973e+00,1.277513353854335502e-02,-9.545210535725656698e-03,1.129297503998733486e-02,-3.597746318361313284e-02,5.587133503857033556e-02,7.962969131767749786e-03,1.642664875779903944e-01,3.694579106146829439e-02,5.490191745638253740e-02,1.512837089725364015e-01,-1.144498825073242271e-01,-1.204422195533599860e-04,7.577100992202757956e-02,-1.444988250732421806e-02,-3.341771364212035855e-02,5.217210506633167544e-01,6.821732521057128906e-01,-8.146232366561889648e-01,1.109919332203520383e+02,0.000000000000000000e+00
2.376104999999999912e+00,-1.391264540849002640e-01,1.305655978752501833e-01,1.013026356697082520e+00,1.822093418494442549e-02,-6.883570038334063668e-03,1.124628093567376676e-02,-4.093841364968380664e-02,5.627563051287619994e-02,6.554255262017250061e-03,2.465346683782671799e-01,8.074027253775509227e-02,-8.073055447307971033e-03,7.707329932555817553e-02,-9.679606556892395020e-02,-1.515760817685334050e-02,3.341624736785888533e-02,3.203934431076049718e-03,-4.849423170089721402e-02,5.218789127160285979e-01,6.879854202270507812e-01,-9.116309881210327148e-01,1.857803258016464270e+02,0.000000000000000000e+00
2.400781999999999972e+00,-1.407921354043926709e-01,1.326814261730215327e-01,1.013430476188659668e+00,2.185431738410489530e-02,-4.454285835669313798e-03,1.143736015006923887e-02,-3.458917473132779724e-02,5.911949699873191716e-02,5.470647942274808884e-03,1.637133140272904186e-01,1.606176382776313138e-01,1.649656491767119079e-02,3.237128798977798039e-02,-2.835522890090942660e-02,-1.476196656066253166e-02,8.044731616973875912e-03,7.164477109909057895e-02,-4.861307144165039062e-02,5.222204931736005307e-01,7.047115564346313477e-01,-7.314544916152954102e-01,7.258612785701801329e+01,0.000000000000000000e+00
2.422654000000000085e+00,-1.424110144374146070e-01,1.347974609994150308e-01,1.013789892196655273e+00,2.575198614397186669e-02,-1.995234339607243612e-03,1.171334841701202403e-02,-3.176734388900738504e-02,5.923409095304740107e-02,5.702855065464973450e-03,1.965221574949161665e-01,1.022656779928197285e-01,1.647006242241485369e-02,-7.538204069040849165e-03,2.385527491569518210e-02,-3.974142305967376387e-03,-8.338057994842528950e-03,1.238552749156951877e-01,-3.858411312103271484e-02,5.223405217381495991e-01,7.143831253051757812e-01,-8.354083299636840820e-01,1.056068071730388880e+02,0.000000000000000000e+00
