timestamp,x,y,z,roll,pitch,yaw,vx,vy,vz,p,q,r,psp,qsp,rsp,pres,qres,rres,thrust_sp, thrust_res,wind_mag,wind_angle,wind_obs
timestamp,x,y,z,roll,pitch,yaw,vx,vy,vz,p,q,r,psp,qsp,rsp,pres,qres,rres,thrust_sp, thrust_res,wind_mag,wind_angle,wind_obs
timestamp,x,y,z,roll,pitch,yaw,vx,vy,vz,p,q,r,psp,qsp,rsp,pres,qres,rres,thrust_sp, thrust_res,wind_mag,wind_angle,wind_obs
timestamp,x,y,z,roll,pitch,yaw,vx,vy,vz,p,q,r,psp,qsp,rsp,pres,qres,rres,thrust_sp, thrust_res,wind_mag,wind_angle,wind_obs
0.000000000000000000e+00,-7.249959572131538590e-03,-1.556529632063432221e-02,9.924660921096801758e-01,3.490867252119709586e-03,-9.341468702710908900e-03,1.714479576750305156e-03,1.132046404524078738e-02,-1.377177911453795686e-02,-2.080393489450216293e-03,3.804193342505762798e-02,-2.248638959783199817e-02,-2.507703631267034494e-02,-2.693733039327518841e-01,1.697461910089344550e-01,-2.199000645737064497e-01,-2.257283615718769232e-01,2.258865712710883267e-01,-2.247038279684746287e-01,5.177062408317820719e-01,2.694659233093261719e-01,1.148416399955749512e+00,8.224820907956642202e+01,4.628228425979614147e-01
2.409700000000000036e-02,-7.229039417359952625e-03,-1.577108838170994745e-02,9.925449490547180176e-01,3.482421393169429606e-03,-9.494403004446372307e-03,1.385356921316471812e-03,8.374899112153166847e-03,-1.882629894324249625e-02,-3.439225489273667336e-03,2.214450892687002629e-03,-2.506350003176903690e-03,-3.253472798720807163e-02,-2.700944630391898804e-01,1.641438433961414645e-01,-2.205746511172774760e-01,-2.242239127415341926e-01,2.252952365923569511e-01,-2.244524300000974582e-01,5.034946372308259921e-01,-4.920781850814819336e-01,1.109759926795959473e+00,8.745179552892980723e+01,4.628228425979614147e-01
4.822699999999999904e-02,-7.238622312109182361e-03,-1.597530415153387146e-02,9.926115274429321289e-01,3.310663798077949794e-03,-9.655555747194455307e-03,1.298930141898413382e-03,-1.447192088688171313e-03,-8.885335117793477511e-03,-6.731122732162475586e-03,-4.730406641953924934e-02,1.256102918859135220e-02,1.488103259081994569e-02,1.714615262616749070e-01,1.536672315217749718e-01,2.162102116917973549e-01,2.076667787035639534e-01,2.233611720791406907e-01,2.125574397353847400e-01,5.046604581947095047e-01,-4.440678358078002930e-01,1.232311367988586426e+00,1.135162345338053456e+02,4.628228425979614147e-01
7.532300000000000106e-02,-7.246347661740167208e-03,-1.604546795576003437e-02,9.926152229309082031e-01,3.061374659072498353e-03,-1.011175221612492514e-02,1.899663623961211911e-03,4.175373310307169301e-03,-6.171292320925330244e-04,2.657459117472171783e-03,1.384182407977868970e-02,-3.666535762702327617e-02,5.477167210316396390e-02,-1.252797947751068119e-01,1.568155076345213450e-01,1.646701288566343457e-01,-9.574784077243622682e-02,2.235233051082382016e-01,1.593283932230472599e-01,5.015693752708657582e-01,-5.697230696678161621e-01,1.169584870338439941e+00,-8.189403645034458634e+01,4.628228425979614147e-01
1.000219999999999998e-01,-7.371917642152257984e-03,-1.585767832390340068e-02,9.925035834312438965e-01,9.020146045291593979e-04,-1.073978013470866522e-02,2.795838520683657791e-03,4.767788684438943473e-04,-7.965961855909383868e-03,2.870438387617468834e-03,-9.099725300440844600e-02,-3.267757819505999473e-02,-7.664271507834366504e-02,1.601654954676455522e-01,1.494168061967717509e-01,1.552339548932295532e-01,1.827758261301144216e-01,2.241450594812324504e-01,1.474325700944587592e-01,4.999542560880032571e-01,-6.542279124259948730e-01,1.586583018302917480e+00,5.154381425073154332e+01,4.628228425979614147e-01
1.270120000000000138e-01,-7.539840902121929152e-03,-1.559149696330739895e-02,9.921926856040954590e-01,-8.745554905843308134e-04,-1.404638670309088511e-02,1.268929392737927486e-03,6.602141651012025277e-03,-1.119422441300328697e-02,-1.777990348637104034e-02,-7.555533245998850844e-02,-1.742708913372138513e-01,-8.302188115736754137e-02,3.704914558596635044e-02,1.291362606458654194e-01,-1.905694269791290418e-01,4.946969875694098157e-02,2.199711077784675672e-01,-1.940508228104420585e-01,5.122489234125470192e-01,-8.880007266998291016e-02,1.346965432167053223e+00,8.653930274638361198e+01,4.628228425979614147e-01
1.498659999999999992e-01,-7.701384791770045715e-03,-1.538138618386911648e-02,9.918590188026428223e-01,-1.358310811314242944e-03,-1.675836886989290342e-02,-5.048527975981542681e-05,-6.629098359109049723e-03,-2.974571494271158363e-03,-1.629178412258625031e-02,4.917601204715869173e-02,-1.325913497602176361e-01,-7.461885696312743621e-02,-2.247633550540827363e-01,1.261610919423101218e-01,-2.236362059914442368e-01,-2.226442180236311019e-01,2.261610919423101274e-01,-2.234161404533052675e-01,5.236884175381109063e-01,5.298187732696533203e-01,1.333615183830261230e+00,9.210467065570423983e+01,4.628228425979614147e-01
1.732859999999999956e-01,-7.917519020846865499e-03,-1.517285125651669959e-02,9.914864301681518555e-01,-1.282582248880149772e-03,-2.039762838685010848e-02,-1.014457182317407558e-03,-3.494343994998305551e-03,1.990175863548632185e-03,-3.408077359199523926e-02,-1.542192425731085323e-02,-1.677190611497481887e-01,6.480759361649590482e-03,6.979210861558797496e-02,9.481305932553071858e-02,-1.165242936176005967e-01,6.948407480240507972e-02,1.948130593255307241e-01,-1.136082202206455533e-01,5.249756973828225703e-01,5.258734226226806641e-01,9.994729757308959961e-01,1.068064889196165979e+02,4.628228425979614147e-01
2.010629999999999917e-01,-8.283080657761360960e-03,-1.449014030399132374e-02,9.906603693962097168e-01,-1.999191522336566783e-04,-2.477365508324269605e-02,8.041658250792504958e-04,-1.858637765545156223e-02,4.530183540812603160e-03,-3.854995593428611755e-02,7.651215472302684215e-03,-9.058847487523660758e-02,1.195218762768548437e-01,1.272996514988168626e-01,1.087381165472465494e-01,2.069757516157282595e-01,1.323639438027561510e-01,2.087381165472465550e-01,2.047700136340650789e-01,5.180340274172808845e-01,1.271678209304809570e-01,6.156810522079467773e-01,6.972830157620380476e+01,4.628228425979614147e-01
2.236879999999999979e-01,-8.412812493995095245e-03,-1.360632759891258238e-02,9.900673627853393555e-01,-7.431998934924157396e-04,-2.725789363349528927e-02,2.354491655188306609e-03,-9.691354787939832419e-03,1.414957646595822564e-02,-4.439190775156021118e-02,-5.036232963014523195e-02,-1.008884216358698210e-01,4.200216586056938067e-02,1.997789747821878403e-01,2.804145796595622353e-02,-2.663811874013712055e-02,1.935118673242540444e-01,1.280414579659562291e-01,-3.320948684480946878e-02,5.229958750149892310e-01,3.669859170913696289e-01,6.367553472518920898e-01,9.360768793351138584e+01,4.628228425979614147e-01
2.497870000000000090e-01,-8.678466888043500846e-03,-1.222191779983233459e-02,9.891862273216247559e-01,-2.077699521332988190e-03,-3.048881443671080937e-02,3.444668938191730589e-03,-2.236176936774991048e-02,8.889894965839037835e-03,-2.627320960164070129e-02,-2.493287135161509002e-02,-1.515229128376322232e-01,-4.103416283901945710e-02,2.003356072393265297e-01,-1.810716242587212810e-01,-1.095378732613110223e-01,1.901697337640738394e-01,-8.107162425872127542e-02,-1.190596852561920244e-01,5.206371012708875812e-01,3.055417537689208984e-01,1.374863982200622559e+00,8.805308440232271039e+01,4.628228425979614147e-01
2.738450000000000051e-01,-8.922011039131209215e-03,-1.137047310155459706e-02,9.886902570724487305e-01,-1.971097120942934267e-03,-3.292150546515237863e-02,2.766389078966424719e-03,-2.091904298314963342e-02,1.805703515384360358e-02,-4.101967439055442810e-02,6.271220906536222051e-02,-1.231004924646546955e-01,-7.423385309125750398e-03,-9.677760836774626507e-02,-2.501016910952207906e-01,-1.619760472155975239e-01,-1.148874506520062566e-01,-1.501016910952207850e-01,-1.696636375094508764e-01,5.270824856328211183e-01,5.924550294876098633e-01,1.355469346046447754e+00,1.173062723532995761e+02,4.243438482284546120e-01
2.979919999999999791e-01,-9.568398862328415799e-03,-9.775427581891730708e-03,9.880564212799072266e-01,7.975551889354868607e-04,-3.604686617570695972e-02,3.270575431002731293e-03,-2.493314816343204093e-02,1.379314270089752534e-02,-3.473745286464691162e-02,1.391713346964765785e-01,-6.372175447604813692e-02,5.908347495544669092e-02,-2.208630331695918547e-01,1.316613491697801730e-03,-1.881800387215447623e-01,-2.172365686685496788e-01,1.013166134916978073e-01,-1.973948885381481833e-01,5.255051392462606330e-01,5.265083312988281250e-01,1.068216443061828613e+00,1.012790695413245743e+02,4.243438482284546120e-01
3.241470000000000184e-01,-1.009377961886013739e-02,-8.382711776582811233e-03,9.877207279205322266e-01,3.500643321171649069e-03,-3.595155557787066414e-02,4.170004249199221746e-03,-3.244131305491150530e-02,1.808866393825504099e-02,-3.019518591463565826e-02,1.132458099393808260e-01,6.377113015125063233e-02,2.117256590068595720e-02,-2.337315147733624032e-01,1.196220273257627975e-01,-2.100075300186812211e-01,-2.174870553790655137e-01,2.196220273257628031e-01,-2.219379849354847778e-01,5.192192702738537280e-01,2.006225585937500000e-01,1.104528307914733887e+00,9.811474535169521971e+01,4.243438482284546120e-01
3.511389999999999789e-01,-1.092950464933687381e-02,-6.177406373713276340e-03,9.871333837509155273e-01,4.950694009173470418e-03,-3.223579971152457091e-02,6.537402432354122439e-03,-4.012579232126195494e-02,3.312803867406716868e-02,-3.884865716099739075e-02,-4.814816993773599063e-02,1.581472089801504721e-01,8.565514522913747486e-02,-1.792217891826621001e-01,1.144113646753838198e-01,2.345339824248224014e-01,-1.663579600534840219e-01,2.144113646753838254e-01,2.158130166441877551e-01,5.222125899930046833e-01,3.230428695678710938e-01,1.370343089103698730e+00,9.034609501991188552e+01,4.243438482284546120e-01
3.759319999999999884e-01,-1.159487692428186160e-02,-4.590089134726034470e-03,9.867858290672302246e-01,3.982179703853283570e-03,-2.917233170421540400e-02,8.632966822113896654e-03,-3.919119366406974975e-02,3.793618731137504696e-02,-1.312462985515594482e-02,-3.272211221772912404e-02,1.027346779485337758e-01,1.200627455539502730e-01,-5.880799051109731820e-04,1.189653580944182165e-01,2.394754810488566033e-01,3.122429252156731609e-03,2.189653580944182221e-01,2.149483071050481142e-01,5.146241143484917568e-01,1.354110240936279297e-02,1.589933514595031738e+00,-3.595386648904241866e+01,4.243438482284546120e-01
4.040850000000000275e-01,-1.284804372678249179e-02,-1.940247216032827673e-03,9.864478111267089844e-01,3.113323599595394365e-04,-2.678300426410595847e-02,1.034253306294030672e-02,-5.182269481736073019e-02,3.657611762633661279e-02,-2.384839579463005066e-02,-1.447654582704874515e-01,7.798983713860238066e-03,-2.764761126167052802e-02,2.356689486822486634e-01,-2.021141763761151178e-01,2.482130302023047019e-01,2.155009310143880530e-01,-1.021141763761151261e-01,2.190794464669954811e-01,5.091723351433316003e-01,-3.227630853652954102e-01,9.434806108474731445e-01,1.146593964650012083e+02,4.243438482284546120e-01
4.258779999999999788e-01,-1.332730622450698475e-02,-8.972963333675997022e-04,9.863352179527282715e-01,-1.392144100070701399e-03,-2.713171062124342114e-02,1.015091590631733709e-02,-5.630139095682328704e-02,3.892759874731416270e-02,-2.060550265014171600e-02,-1.427242864208902173e-01,-4.232983098436741976e-02,-9.965653020953492078e-03,2.499143802652143143e-01,-2.750847078412172464e-01,2.372512364667993257e-01,2.157850261532696934e-01,-1.750847078412172408e-01,2.087111903831957160e-01,5.117814796043334002e-01,-1.734287738800048828e-01,1.050733447074890137e+00,9.590972123099415114e+01,4.243438482284546120e-01
4.509799999999999920e-01,-1.432696014833755374e-02,1.177522879800978455e-03,9.861702919006347656e-01,-4.535236905813869873e-03,-2.847554848287758844e-02,8.304001810778283144e-03,-5.231013857305222975e-02,4.568320276663803692e-02,-2.516255341470241547e-02,-1.594126183035746713e-01,-1.008688666235611348e-01,-1.519618222858146739e-01,2.725012582592352683e-01,-2.499492216963038194e-01,2.301281787667434353e-01,2.115022238617183248e-01,-1.499492216963038138e-01,2.068624372169433900e-01,5.126747865721318353e-01,-1.464168429374694824e-01,1.511080384254455566e+00,7.709715361510960463e+01,4.243438482284546120e-01
4.807939999999999992e-01,-1.601501345365085802e-02,4.203653289764412888e-03,9.858793020248413086e-01,-7.051092089811690326e-03,-3.091890293823795766e-02,5.271162964160636122e-03,-6.014597229661444722e-02,4.362976735671762751e-02,-2.642638608813285828e-02,-6.869326778141876533e-02,-5.614402821710480496e-02,-8.270804509745596778e-02,2.887109563957548919e-01,-2.915000350032551646e-01,2.210587768529875263e-01,2.119258777649175307e-01,-1.915000350032551868e-01,2.064251940679405761e-01,5.127849552662911981e-01,-1.488656401634216309e-01,8.399733304977416992e-01,-1.319909058612601882e+02,4.243438482284546120e-01
5.005770000000000497e-01,-1.655689893082371023e-02,5.174999286899777812e-03,9.857516288757324219e-01,-6.896354298941751934e-03,-3.147953918442025767e-02,3.896201602669790987e-03,-5.412009564058456457e-02,3.679568104426573366e-02,-2.374352701008319855e-02,-5.405449376542559824e-03,-6.313201852295231842e-02,-1.278772590044366664e-01,2.328613590616811779e-01,-2.586961380676739974e-01,6.378279885658535812e-03,1.614870572047004960e-01,-1.586961380676739641e-01,-4.378185535048648332e-03,5.174040846838146024e-01,1.068603992462158203e-01,1.149326205253601074e+00,1.590630436555227334e+02,4.243438482284546120e-01
5.303320000000000256e-01,-1.766202579280099633e-02,7.109191156816959539e-03,9.854733347892761230e-01,-5.108803445007269184e-03,-3.037877728963356283e-02,1.455263323549838006e-03,-5.654264974971649066e-02,4.399478793946573485e-02,-1.370195485651493073e-02,1.759001586089638525e-01,1.029716391121860974e-01,-1.314943860323840585e-01,-1.125800498207537720e-01,1.221641059648382321e-01,-2.130929793731483890e-01,-1.805673496532650690e-01,2.221641059648382377e-01,-2.171805390942892211e-01,5.245961809666745967e-01,5.324053764343261719e-01,1.350259661674499512e+00,8.790919280707805683e+01,4.243438482284546120e-01
5.531909999999999883e-01,-1.821606537893257632e-02,8.051505457526262136e-03,9.853577017784118652e-01,-3.681873018064506925e-03,-2.936846264625092573e-02,1.848071325563083178e-04,-5.773119331073243293e-02,4.604453689955766149e-02,-2.156987413763999939e-02,1.645139769014807574e-01,1.450755502650572515e-01,-1.061963149466026574e-01,-3.078319422672413930e-03,1.218933988142705260e-01,-1.751474295682046711e-01,-6.310039291063516964e-02,2.218933988142705316e-01,-1.757628220214922932e-01,5.266969612544202262e-01,6.133018732070922852e-01,1.353939414024353027e+00,1.131754217546000518e+02,4.243438482284546120e-01
5.824549999999999450e-01,-1.935527544051839771e-02,1.035580183566947240e-02,9.849394559860229492e-01,3.518933828317412295e-04,-2.607433424232818986e-02,-2.706433727564183656e-03,-4.636060188832681617e-02,4.235579458633654398e-02,-2.987589873373508453e-02,2.114597679719113499e-01,1.712784797013226501e-01,-1.451664390903122936e-01,-1.390755132797176774e-01,1.239628522180060977e-01,-2.265682713477464860e-01,-1.711971406252381367e-01,2.239628522180061032e-01,-2.192498249362517249e-01,5.269544185977571571e-01,5.908186435699462891e-01,1.152702450752258301e+00,6.573154808147914707e+01,4.243438482284546120e-01
6.052300000000000457e-01,-1.990222930404454693e-02,1.149527437661635246e-02,9.846975207328796387e-01,2.926292642980301423e-03,-2.373002746581143185e-02,-3.961938294994027387e-03,-5.053514672022694360e-02,4.957254520540081699e-02,-3.826413303613662720e-02,3.037844391442778846e-01,2.267394856016434201e-01,-1.567475497099033166e-01,-1.766770354908879515e-01,1.241670522904998741e-01,-2.336819996062519667e-01,-1.991714136951730774e-01,2.241670522904998797e-01,-2.229972220119898485e-01,5.259943660931307718e-01,5.015343427658081055e-01,1.068655610084533691e+00,9.789951926075895017e+01,4.243438482284546120e-01
6.292839999999999545e-01,-2.109037367243154701e-02,1.374961430685297387e-02,9.842179417610168457e-01,8.261250200553139564e-03,-1.839885149356912386e-02,-5.937354339153655403e-03,-6.220729587938256255e-02,4.491572490936009826e-02,-4.566990211606025696e-02,2.467679664002131457e-01,3.007906870793988219e-01,-3.923226119292168301e-02,-1.912283655700325047e-01,1.239856751411532731e-01,-2.347946141677113296e-01,-1.757277775455621527e-01,2.239856751411532787e-01,-2.187144335648651128e-01,5.266736020357297710e-01,5.041372776031494141e-01,1.071922421455383301e+00,7.801181156762270064e+01,4.243438482284546120e-01
6.522149999999999892e-01,-2.228648072238697056e-02,1.598660528912861090e-02,9.836743474006652832e-01,1.413336230337047979e-02,-1.277454692393042990e-02,-6.809451359207407961e-03,-6.071092148370382802e-02,5.269228961983105780e-02,-3.658485412597656250e-02,2.717058860090587613e-01,2.908216609940514896e-01,-3.359376509413614098e-02,-2.570484810696689326e-01,1.241693082921359326e-01,-2.363268206354807444e-01,-2.118734042704537857e-01,2.241693082921359381e-01,-2.179053855508119864e-01,5.243298079206403228e-01,4.076402187347412109e-01,1.224474787712097168e+00,9.651959565217376280e+01,4.243438482284546120e-01
6.781599999999999850e-01,-2.361742402716503902e-02,1.822451934816432875e-02,9.832150340080261230e-01,1.843271950135246667e-02,-8.062499722955918102e-03,-6.095492722657080975e-03,-6.500494993673426591e-02,5.397108041383777421e-02,-3.717613220214843750e-02,1.789955481606431420e-01,2.443701461077837367e-01,7.265606279546346635e-02,-2.899376914620310219e-01,1.235124354554228976e-01,-2.344122830552632930e-01,-2.182812581460375212e-01,2.235124354554229031e-01,-2.179827264359240901e-01,5.245467803470087453e-01,4.124245643615722656e-01,1.683231472969055176e+00,9.315226458003327537e+01,4.243438482284546120e-01
6.995540000000000092e-01,-2.492697396084652892e-02,2.009233509035042442e-02,9.827674031257629395e-01,2.164261531529678220e-02,-5.128214650466977886e-03,-4.869535078171338682e-03,-7.008882537567269477e-02,5.579860428998923566e-02,-2.810772322118282318e-02,1.831934823784796551e-01,7.421654213841488712e-02,7.418817838479502269e-02,-3.119664143701393333e-01,1.222561602286182936e-01,-2.327661679208567758e-01,-2.222352731541971937e-01,2.222561602286182991e-01,-2.197674064069320699e-01,5.224427042492060247e-01,3.299241065979003906e-01,1.339681744575500488e+00,-8.008172088616257156e+01,4.243438482284546120e-01
7.252709999999999990e-01,-2.693388719611805246e-02,2.220283971876336332e-02,9.823076725006103516e-01,2.345801423665985763e-02,-4.810978895265938249e-03,-2.477864294245568644e-03,-7.442191674721801431e-02,6.255179285133960487e-02,-1.008111145347356796e-02,3.428393105629873316e-02,-8.609940556599328387e-02,1.065685580487721745e-01,-2.926222960475876045e-01,1.139493936913476280e-01,-6.276383195818066585e-02,-1.981324451250745522e-01,2.139493936913476335e-01,-5.654075073311961436e-02,5.039367380528743112e-01,-5.905681848526000977e-01,1.489513278007507324e+00,9.864250723867293402e+01,4.243438482284546120e-01
7.503999999999999559e-01,-2.907124737807078099e-02,2.435406771513572155e-02,9.820812940597534180e-01,2.178387196621754326e-02,-7.052097767849430099e-03,7.781280833472070668e-04,-8.328406541135703611e-02,6.902834684058849202e-02,-1.420662738382816315e-02,-4.326746811601485387e-02,-9.498908066709224607e-02,1.025520247993602085e-01,1.012209251364447893e-01,9.044510850460946161e-02,2.151088460692806015e-01,1.788682161708865237e-01,1.904451085046094672e-01,2.120792883043681742e-01,5.042579307919682341e-01,-5.928558111190795898e-01,1.558604836463928223e+00,1.361350548382737315e+02,4.243438482284546120e-01
7.773790000000000422e-01,-3.129328077921519902e-02,2.649094452152624818e-02,9.820496439933776855e-01,1.728879219187346231e-02,-1.046453370209365907e-02,4.055052897192101824e-03,-8.481728326880891289e-02,5.882583274389036748e-02,-4.109499044716358185e-03,-2.123787329337650243e-01,-1.229855715771081409e-01,6.276126360061164144e-02,1.485568742234684159e-01,-8.447140373538923608e-02,2.329263253280915158e-01,2.041651831588748578e-01,1.552859626461077468e-02,2.207386576421369873e-01,5.023279983049732111e-01,-6.555926203727722168e-01,9.195278882980346680e-01,1.016939215711328046e+02,4.243438482284546120e-01
7.987450000000000383e-01,-3.334829582532201908e-02,2.865125413252652548e-02,9.821289777755737305e-01,1.294572833005856911e-02,-1.306312294700551213e-02,6.669843862123325806e-03,-7.814584113874178950e-02,6.364542392814373506e-02,-1.444638706743717194e-02,-2.522853665724210104e-01,-1.376220562976692430e-01,1.332813486788121671e-01,1.855265213213533049e-01,-1.546684665384686630e-01,2.392418873906956012e-01,2.059517158561815497e-01,-5.466846653846864357e-02,2.197758436431047901e-01,5.045784473065816345e-01,-5.793610215187072754e-01,8.214105367660522461e-01,-2.659873738288895595e+01,4.243438482284546120e-01
8.242800000000000127e-01,-3.646861872923496534e-02,3.191729033656129366e-02,9.822878241539001465e-01,5.142265476390152183e-03,-1.734303627315592067e-02,1.074692109947439356e-02,-8.308542911832837718e-02,7.028162113846522785e-02,-1.295200828462839127e-02,-3.362740162318550996e-01,-1.204609660151871320e-01,1.670111918562897646e-01,2.524955324328602702e-01,-2.921087178815244823e-01,2.540265488412946082e-01,2.150305197523837419e-01,-1.921087178815244489e-01,2.232581947308675541e-01,5.050112298771542996e-01,-5.519919991493225098e-01,1.144622445106506348e+00,9.646753595031992745e+01,4.243438482284546120e-01
8.502600000000000158e-01,-3.959304472415105941e-02,3.516347791525396144e-02,9.825682044029235840e-01,-3.731318108800038818e-03,-2.131426815417603038e-02,1.399539162285434735e-02,-9.325992049903938930e-02,7.024430062025625865e-02,8.014143444597721100e-03,-2.987006811781861559e-01,-1.289003801736275934e-01,1.276217231881263126e-01,3.136608909996842498e-01,-2.819189629200655745e-01,2.591460279184155668e-01,2.166360733806498295e-01,-1.819189629200655689e-01,2.195894444597840944e-01,5.053177165673552462e-01,-4.527962207794189453e-01,1.270625948905944824e+00,1.035813760463741318e+02,4.243438482284546120e-01
8.752119999999999900e-01,-4.274512220229851472e-02,3.837361121014346010e-02,9.827215671539306641e-01,-1.132588666750684349e-02,-2.549417980387391758e-02,1.394335735669827159e-02,-8.736975991164026845e-02,7.185263829681784453e-02,8.503403514623641968e-03,-1.016391941596021808e-01,-1.507474031883007382e-01,-5.448593124836105528e-02,3.163002946918235803e-01,-2.983900876803790014e-01,2.210836289649836528e-01,2.163002946918235747e-01,-1.983900876803789681e-01,1.820238417860568780e-01,5.028773656834476524e-01,-5.791908502578735352e-01,1.320429205894470215e+00,1.275717324871269227e+02,4.243438482284546120e-01
8.989859999999999518e-01,-4.602324428480779328e-02,4.076646912400617995e-02,9.827402830123901367e-01,-1.347879345436879539e-02,-2.943604145209621770e-02,1.157605303777908823e-02,-8.959721376616965050e-02,6.350738150305682006e-02,5.906642763875424862e-04,9.011536907479071601e-03,-9.022800905170604013e-02,-1.180605723530062517e-01,3.105372876403434956e-01,-3.158779797914141318e-01,2.338301897483352487e-01,2.105372876403434623e-01,-2.158779797914141263e-01,2.015793626994588084e-01,5.063093998169078125e-01,-4.303548932075500488e-01,1.036005139350891113e+00,1.294584766226945476e+02,4.243438482284546120e-01
9.227570000000000494e-01,-4.930943813300987799e-02,4.308705494853503487e-02,9.824482798576354980e-01,-1.096498305287104368e-02,-2.982203927398097143e-02,8.483960412139390783e-03,-8.608084737233055728e-02,7.081236548403384290e-02,-2.530401013791561127e-02,1.026179859268233630e-01,4.091178193620111786e-02,-7.575341880803218575e-02,3.877292211197287675e-02,1.029080350033534930e-01,-1.406962582599983747e-01,-6.122707788802712880e-02,2.029080350033534985e-01,-1.645256790584057049e-01,5.271982448624125128e-01,5.852713584899902344e-01,7.512606382369995117e-01,5.865918772425441574e+01,4.243438482284546120e-01
9.518760000000000554e-01,-5.355859302804754501e-02,4.618297481124065962e-02,9.813100695610046387e-01,-3.030278616094787131e-03,-2.407164545340823025e-02,3.245826380415373080e-03,-8.680658501854456033e-02,6.479906978589637656e-02,-3.970003500580787659e-02,2.770960097770059360e-01,2.031499106072040539e-01,-1.227100271069924559e-01,-1.087051576266725994e-02,1.090468015056046958e-01,-1.466291861578585265e-01,-1.060125922136820192e-01,2.090468015056047013e-01,-1.561871294434652446e-01,5.271038466605004746e-01,5.157997608184814453e-01,1.409009099006652832e+00,-9.048273466180528857e+00,4.243438482284546120e-01
9.747040000000000148e-01,-5.587344859681467324e-02,4.695884691858090432e-02,9.804915189743041992e-01,2.767766393718335775e-03,-1.932872810881036685e-02,4.481823281305974405e-04,-9.222357497434063855e-02,6.487150471193589563e-02,-4.320496693253517151e-02,2.894226420001123068e-01,2.398198585928971172e-01,-1.288143459118462342e-01,-1.343763677581447380e-01,1.193573363100065010e-01,-1.950046865746866698e-01,-1.934445376040440923e-01,2.193573363100065066e-01,-1.969841443301971196e-01,5.281609924695369607e-01,5.529472827911376953e-01,8.651002645492553711e-01,1.022012680226813615e+02,4.243438482284546120e-01
9.986000000000000432e-01,-5.933944530037631171e-02,4.807947348689979583e-02,9.788995385169982910e-01,1.278684431118203881e-02,-1.125961279175036189e-02,-3.315511738705367861e-03,-9.168345937695160375e-02,6.906622786070501507e-02,-5.795558169484138489e-02,3.728046983453784935e-01,2.652232403314314646e-01,-1.052271297142132883e-01,-2.244177465973127839e-01,1.241930725094941290e-01,-2.327557891642560717e-01,-2.222338340908379672e-01,2.241930725094941346e-01,-2.244459601139871807e-01,5.316891818919650126e-01,6.773990392684936523e-01,1.216473698616027832e+00,2.683168781472141262e+01,4.243438482284546120e-01
1.026319999999999899e+00,-6.295152133920206561e-02,4.926720306877865191e-02,9.769873619079589844e-01,2.241225836176160419e-02,-3.922669092126795931e-03,-4.182119810111517566e-03,-1.042447781068076978e-01,6.824059594138202900e-02,-6.055694445967674255e-02,2.952929529767849282e-01,1.884655436870424916e-01,1.200709734042727968e-02,-2.871273112560391305e-01,1.225010818850616745e-01,-2.291275108330068366e-01,-2.220223068476842865e-01,2.225010818850616801e-01,-2.184987175518725289e-01,5.299345698403252758e-01,5.586049556732177734e-01,1.914229512214660645e+00,5.619415537732388799e+01,3.828459024429321511e-01
1.049855999999999900e+00,-6.547006949464830028e-02,5.012371650029967540e-02,9.757665991783142090e-01,2.713169485820181651e-02,-1.302961407428693263e-03,-3.563999307161891394e-03,-1.086277203128317159e-01,6.641458440222808290e-02,-5.784210935235023499e-02,1.969421976473152147e-01,8.611164425801645650e-02,5.134676048983043140e-02,-3.201105362731882509e-01,1.215328853536012665e-01,-2.275054258729724832e-01,-2.239811933302041091e-01,2.215328853536012721e-01,-2.186394239720555188e-01,5.306224095223338599e-01,5.978970527648925781e-01,1.098009467124938965e+00,8.047566570692139010e+01,3.828459024429321511e-01
1.077979999999999938e+00,-6.966712025227730920e-02,5.051752610099945195e-02,9.739102721214294434e-01,2.991270277608140335e-02,-8.011237359264455904e-04,-1.282434274675781083e-03,-1.101011110960743861e-01,7.532746071574832059e-02,-7.014474272727966309e-02,-5.798774270853695317e-02,1.396693440328415636e-02,9.517548337806147618e-02,5.271990117976407819e-02,8.706246928017424835e-02,8.570851768525010461e-02,1.527199011797640837e-01,1.870624692801742539e-01,8.807563413939094310e-02,5.204364934134038112e-01,-1.735329627990722656e-02,1.083078503608703613e+00,4.991057941639809314e+01,3.828459024429321511e-01
1.102187999999999946e+00,-7.250863405902870096e-02,5.087191928318673950e-02,9.727690815925598145e-01,2.929601730365594126e-02,-2.296305229668282877e-03,7.810891198440916838e-04,-1.130636023755871855e-01,7.320991928776685032e-02,-3.786283358931541443e-02,-5.313741251031844220e-02,-1.121119633790656211e-01,1.206183756344780256e-01,7.181829413220883196e-02,-2.667223676767366269e-01,1.847223594340303698e-01,1.718182941322088375e-01,-1.667223676767366491e-01,1.811995577348798903e-01,5.090717967703987101e-01,-5.060960650444030762e-01,1.161500096321105957e+00,1.228161859567488534e+02,3.828459024429321511e-01
1.123833000000000082e+00,-7.535484081443907800e-02,5.128315387756808563e-02,9.717281460762023926e-01,2.583929499000083008e-02,-4.027670930704108088e-03,2.808954428571208695e-03,-1.152740795744182922e-01,6.910697262636307514e-02,-4.332165047526359558e-02,-2.471164621560261732e-01,-1.144286893652679965e-01,8.613426908419297146e-02,1.223906368044294785e-01,-2.889254803287912288e-01,2.255504451378978203e-01,2.059376849214388794e-01,-1.889254803287912232e-01,2.163473531133644212e-01,5.073895605555927002e-01,-6.246287226676940918e-01,1.225383639335632324e+00,8.786356031323319371e+01,3.828459024429321511e-01
1.153555000000000108e+00,-7.957817024406868556e-02,5.193000464083279144e-02,9.703849554061889648e-01,1.847454107924865682e-02,-7.587335184321197801e-03,6.570726712551433479e-03,-1.191691987995580904e-01,6.375498898280605731e-02,-3.479032590985298157e-02,-3.139615765036379291e-01,-1.385729573275091830e-01,1.224566390688493073e-01,1.703467940293277860e-01,-2.927788816824980489e-01,2.360947198515562506e-01,2.083680263204189254e-01,-1.927788816824980433e-01,2.164323288011360813e-01,5.087197466662298773e-01,-5.292370915412902832e-01,3.958256244659423828e-01,9.891632952249874222e+01,3.828459024429321511e-01
1.175105000000000066e+00,-8.241212624042902612e-02,5.285926176601704607e-02,9.696253538131713867e-01,1.303005828961564284e-02,-1.049525449022081780e-02,7.902062336484938498e-03,-1.088651273396036429e-01,7.233632461525464630e-02,-2.613655291497707367e-02,-2.197971212170141131e-01,-1.480147873905796607e-01,4.654632151266983181e-02,2.169617258950299887e-01,-2.944983756967659017e-01,2.391558398048068135e-01,2.108199971908592263e-01,-1.944983756967658961e-01,2.158588402902270609e-01,5.079867689749602011e-01,-5.396890640258789062e-01,9.699658155441284180e-01,9.021791968994742206e+01,3.828459024429321511e-01
1.198503000000000096e+00,-8.664086592327294167e-02,5.477053057665061397e-02,9.687919616699218750e-01,7.706120872362047514e-03,-1.408037510436699336e-02,6.775143102924818805e-03,-1.101120294650087816e-01,4.976792217762242981e-02,-2.127586491405963898e-02,-1.027110485104870546e-01,-3.248996700736257043e-02,-9.058593968333328306e-02,2.255156269001387104e-01,-2.724733480142421671e-01,2.333857361970033129e-01,2.024005696396667942e-01,-1.724733480142421338e-01,2.134741683834573411e-01,5.059085770252439440e-01,-6.360682249069213867e-01,1.016874670982360840e+00,8.712007373150980527e+01,3.828459024429321511e-01
1.222717999999999972e+00,-9.053947090831669653e-02,5.646620736594038653e-02,9.678524732589721680e-01,6.710070526994153448e-03,-1.289562305168812095e-02,4.329848903163568963e-03,-8.793699335193189137e-02,4.549759104505812085e-02,-3.498180955648422241e-02,3.064173639686048820e-03,8.434408888786125436e-02,-1.033687269464507591e-01,-1.827721538911835086e-01,1.164949240364896166e-01,2.174203157574389200e-01,-2.131292528882294257e-01,2.164949240364896221e-01,2.044856721589131121e-01,5.303856766116915589e-01,6.203641891479492188e-01,8.862525224685668945e-01,9.446519086304981272e+01,3.828459024429321511e-01
1.251260000000000039e+00,-9.503568955677789420e-02,5.852149632673950969e-02,9.661757946014404297e-01,1.070855882129552981e-02,-4.960503822159179066e-03,4.513201496481045183e-05,-9.159832197075733207e-02,4.811077242797325015e-02,-4.308097437024116516e-02,1.048560201988025381e-01,2.625884403487863672e-01,-8.019595182930522315e-02,-1.235789822756694356e-01,1.265555118729846107e-01,2.580240464483575524e-02,-1.317340596768913907e-01,2.265555118729846162e-01,2.486283128574658108e-02,5.325284202753458596e-01,6.948233842849731445e-01,7.154074907302856445e-01,1.181770395102061570e+02,5.162529706954955833e-01
1.276507999999999976e+00,-9.756143507938473680e-02,5.995620029548705265e-02,9.646913409233093262e-01,1.667579630841187904e-02,3.032612341405283019e-03,-3.652296733539062146e-03,-8.733463380727858605e-02,4.137575179837493788e-02,-3.952850028872489929e-02,2.687028208120009753e-01,2.828922010107103313e-01,-1.446427812295457416e-01,-2.600915283030885150e-01,1.246812829507156217e-01,-2.308031607971945121e-01,-2.246209079243127738e-01,2.246812829507156273e-01,-2.212584387715220424e-01,5.325473737419609277e-01,7.005310058593750000e-01,1.211680293083190918e+00,5.063793992149108902e+01,5.162529706954955833e-01
1.300948999999999911e+00,-1.000683407729542479e-01,6.140804394970629521e-02,9.631493091583251953e-01,2.032599018117492440e-02,8.461454252408850962e-03,-7.414112395097038899e-03,-8.920655882402106496e-02,4.119891294808942367e-02,-4.823191463947296143e-02,4.896491791330122301e-02,9.007408194369108390e-02,-1.229554376192563830e-01,-2.813214864834402418e-01,1.520181005743223845e-01,2.036504411532777947e-01,-2.235240689854854912e-01,2.342647466230091680e-01,2.238444565329126279e-01,5.335068658939642328e-01,7.082761526107788086e-01,1.242914795875549316e+00,1.170632815433872054e+02,5.162529706954955833e-01
1.324354999999999949e+00,-1.027201485151990334e-01,6.296005198120822877e-02,9.617294669151306152e-01,2.012443441193134328e-02,1.000787395659696877e-02,-8.505282293039817532e-03,-1.018652229428652078e-01,5.193784393791271714e-02,-4.588911309838294983e-02,-9.790751546908207925e-02,1.571593404165212010e-02,5.406036455069448271e-02,1.640783931029925757e-01,1.365162795104968296e-01,-1.578454547954707965e-02,2.109808031909933823e-01,2.208829611315589470e-01,7.426100795951491064e-03,5.121961557613086136e-01,-4.479141235351562500e-01,2.067237734794616699e+00,-8.428408356547213032e+01,5.162529706954955833e-01
1.351798000000000055e+00,-1.060014974764391799e-01,6.457737765820589781e-02,9.604916572570800781e-01,1.593117503355143474e-02,8.636204406514913501e-03,-8.395155506768503528e-03,-8.998675040094085420e-02,4.883692669789566759e-02,-3.162371367216110229e-02,-2.019569167958123190e-01,-5.980815034828523835e-02,-8.540360612467710541e-03,1.933900380051676859e-01,1.372349263459157198e-01,8.472847225245115632e-02,2.153302530196333497e-01,2.223453442109701861e-01,1.077091670659616057e-01,5.094446948856631296e-01,-5.458108186721801758e-01,1.257018923759460449e+00,7.823892901790395626e+01,5.162529706954955833e-01
1.374339999999999895e+00,-1.083137360207545169e-01,6.567744488565008254e-02,9.596748948097229004e-01,1.167567473376830353e-02,6.056955629917259998e-03,-9.525095250617399145e-03,-8.799156688569394202e-02,5.010456606965107973e-02,-2.079532481729984283e-02,-2.311779276050347220e-01,-1.603210392366939685e-01,-9.308873160801434121e-02,2.211358921302726543e-01,1.202157376589103599e-01,3.971338326607898317e-03,2.128416900104096454e-01,2.202157376589103654e-01,3.008301281694958362e-02,5.072480281779001565e-01,-6.260027289390563965e-01,1.161708235740661621e+00,6.746346548894094042e+01,5.162529706954955833e-01
1.399467999999999934e+00,-1.117585525712936761e-01,6.713932838014832760e-02,9.587174057960510254e-01,8.519986241638168034e-03,3.016624729297312513e-04,-1.067793235924963113e-02,-9.485399688821774533e-02,3.852980859959410226e-02,-1.142100524157285690e-02,-5.632400694684154552e-02,-2.225671207299069476e-01,-6.773472849725580003e-02,1.389396125299532381e-01,9.789278080989680109e-02,-1.934835903693494230e-01,1.181903299867562707e-01,1.978927808098968066e-01,-1.642485550427784657e-01,5.092637969638922346e-01,-4.888195991516113281e-01,8.348780870437622070e-01,1.627024553132506526e+02,5.162529706954955833e-01
1.422493999999999925e+00,-1.139782614545854916e-01,6.796470405060399400e-02,9.581261873245239258e-01,9.395513338479410601e-03,-3.984461953164375458e-03,-1.146610278969029117e-02,-9.013546289233165254e-02,3.950466443055927063e-02,-1.173727400600910187e-02,1.129708741090115071e-01,-2.059115260358885813e-01,-1.823716108962373378e-02,-2.049911313702766913e-01,1.210687399652857488e-01,-2.474195674243755971e-01,-2.233526160789298387e-01,2.210687399652857543e-01,-2.161402172911171538e-01,5.226254182919621849e-01,2.214401960372924805e-01,1.125764012336730957e+00,8.845097024223262849e+01,5.162529706954955833e-01
1.449931000000000081e+00,-1.171950959585161128e-01,6.794662754498630164e-02,9.572731852531433105e-01,1.372209342250999345e-02,-1.030765944325851002e-02,-1.154434190730380116e-02,-8.860772844494413381e-02,3.742870831640650320e-02,-5.935780238360166550e-03,1.988848720564206085e-01,-2.234701406372028298e-01,5.031793178754905005e-02,-2.330756348771405029e-01,1.223635332923833363e-01,-2.475373111104304802e-01,-2.220515564428262589e-01,2.223635332923833419e-01,-2.164366587175564072e-01,5.206577813024408918e-01,1.320477724075317383e-01,1.014029622077941895e+00,8.385283908165585842e+01,5.162529706954955833e-01
1.473368000000000011e+00,-1.192775356633993117e-01,6.758064119911466605e-02,9.565956592559814453e-01,1.643125665193889348e-02,-1.320596508737126307e-02,-1.044070707712974055e-02,-9.568005307960956995e-02,3.448106910144359966e-02,-1.436219923198223114e-02,8.481489866156234625e-02,-1.235400830308479581e-01,6.049294326868997346e-02,-2.514618984655388467e-01,1.180573333172200423e-01,-2.389894935948786714e-01,-2.208676079668292491e-01,2.180573333172200479e-01,-2.112521873637694669e-01,5.220897177424782543e-01,1.701653003692626953e-01,6.983958482742309570e-01,2.074458224527102743e+02,5.162529706954955833e-01
1.500277000000000083e+00,-1.223604568027787387e-01,6.718959675467493786e-02,9.554522633552551270e-01,1.731008696798269977e-02,-1.583225845530855658e-02,-7.568522158555079926e-03,-9.455104424184443412e-02,4.745939427682549505e-02,-3.147283196449279785e-02,-9.812782646762287231e-02,-4.178222780286676430e-02,1.177539906442289230e-01,1.826305146233189181e-01,-9.194572690614635779e-02,-1.266830423842671242e-02,2.081230296316370354e-01,8.054273093853646023e-03,6.782592444882469887e-03,5.138094915820431430e-01,-3.514738678932189941e-01,1.789509654045104980e+00,7.617149905803280774e+01,5.162529706954955833e-01
1.522737000000000007e+00,-1.244235446691753511e-01,6.708182513305083194e-02,9.545977115631103516e-01,1.555857243378347757e-02,-1.741278899692866311e-02,-5.198707091007115366e-03,-1.023834087621607464e-01,4.236812137883973900e-02,-1.089916750788688660e-02,-1.045279436635770526e-01,-9.397439384886539793e-02,1.237176350480812398e-01,1.896110427911179563e-01,-6.282107945412547523e-02,-7.686131496348010128e-02,2.087142434341220099e-01,3.717892054587453032e-02,-6.401840610620947170e-02,5.099832970688364941e-01,-4.807305335998535156e-01,8.550006151199340820e-01,1.374341704787885021e+02,5.162529706954955833e-01
1.548871000000000109e+00,-1.267901661790452050e-01,6.744565391633736140e-02,9.538093209266662598e-01,1.206303155620781081e-02,-1.905873783328093651e-02,-3.116225104736081164e-03,-9.286270319611905633e-02,4.584750982279578446e-02,-1.183948200196027756e-02,-1.838103506834391498e-01,-5.843597714552439815e-02,7.047707124387821154e-02,2.215321983967436792e-01,-7.054355812864558650e-02,2.015553089771021655e-02,2.136181779254480717e-01,2.945644187135441905e-02,2.731941457780123761e-02,5.076539001814789343e-01,-6.137206554412841797e-01,1.891047358512878418e+00,-6.378883737585241676e+01,5.162529706954955833e-01
1.573703000000000074e+00,-1.306492972321764978e-01,6.855994385334629460e-02,9.525653123855590820e-01,8.418871062466037197e-03,-2.174516768866152638e-02,-1.747611005673554985e-03,-1.040925639084328141e-01,3.719709843771520918e-02,-2.250307053327560425e-02,-1.116422833636928763e-01,-3.396873893318869825e-02,5.328969496438003967e-02,2.399898055804401964e-01,-2.109036565540612640e-01,4.956675268953714825e-02,2.147774755977809868e-01,-1.109036565540612584e-01,5.304884543621730258e-02,5.091486152904626250e-01,-5.857307910919189453e-01,1.224546313285827637e+00,8.634291431717824139e+01,5.162529706954955833e-01
1.601795000000000080e+00,-1.332259670204274382e-01,6.918324513587081892e-02,9.518275856971740723e-01,8.603524304031719486e-03,-2.305152154306000511e-02,-9.882231607496461123e-04,-9.717758645889050528e-02,3.694199602576915542e-02,-1.738179847598075867e-02,7.189267025167346559e-02,-1.664230183099262364e-02,2.017960629920858423e-02,-1.954527398966708351e-01,1.203388361005243989e-01,-2.078539727433987294e-01,-2.214115382939967347e-01,2.203388361005244045e-01,-2.065480721619799009e-01,5.251189684401457169e-01,2.864609956741333008e-01,1.139925837516784668e+00,7.748820926584951962e+01,5.162529706954955833e-01
1.626211000000000073e+00,-1.358140444644768408e-01,6.973000808989764099e-02,9.511181116104125977e-01,1.048980175277791291e-02,-2.378806381646647594e-02,-7.337677191889824257e-04,-1.009065707876597301e-01,2.045365584774409481e-02,-1.839564181864261627e-02,9.305554685543167281e-02,-4.816462566485067709e-02,2.360728983558579158e-02,-2.199523540055841331e-01,1.201583012725259969e-01,-2.052203988592344319e-01,-2.213324561407003788e-01,2.201583012725260025e-01,-2.046763187051781618e-01,5.267512827358306060e-01,3.650631904602050781e-01,8.903685808181762695e-01,1.127232085900318452e+02,5.162529706954955833e-01
1.652727999999999975e+00,-1.383346921299203891e-01,7.020749991263310064e-02,9.503358602523803711e-01,1.413929984130636759e-02,-2.325257654107670824e-02,-8.486686978719237828e-04,-1.047466944759548185e-01,2.841284901826128181e-02,-1.001079753041267395e-02,2.194566323868237523e-01,9.600922967609597236e-02,-4.367018572967727025e-02,-2.333841521494688653e-01,1.102744648290970020e-01,-1.658019976580807353e-01,-2.204350943066639423e-01,2.102744648290970075e-01,-1.653087141807648153e-01,5.210310087632299414e-01,8.104193210601806641e-02,6.536978483200073242e-01,9.733606280517874154e+01,5.162529706954955833e-01
1.678960999999999926e+00,-1.406405787598944690e-01,6.968760710900874511e-02,9.495171904563903809e-01,1.742421080406472353e-02,-2.200102613517662675e-02,-8.988743482007954810e-05,-9.557057588393164105e-02,2.702725775959786275e-02,-3.023678995668888092e-02,1.144009202735107866e-01,7.211566855831648415e-02,1.038268009826320420e-01,-2.572688347845143442e-01,1.111442331935823258e-01,-1.393522919833803941e-01,-2.204700468066539132e-01,2.111442331935823313e-01,-1.410988264707660478e-01,5.271389178289852540e-01,3.259315490722656250e-01,1.177576422691345215e+00,9.474826122301182352e+01,5.162529706954955833e-01
1.709600000000000009e+00,-1.429992100587444692e-01,6.930085384385835379e-02,9.485114812850952148e-01,1.978972119407690702e-02,-2.062065698289639037e-02,1.497469449525778984e-03,-1.175234966869231484e-01,2.287816018469670740e-02,-1.561617292463779449e-02,9.041780156352903497e-02,5.284208113175065807e-02,7.985419672295646087e-02,-2.770285878872330021e-01,1.069563247612448365e-01,-9.342161696544921956e-02,-2.222894732461149492e-01,2.069563247612448420e-01,-9.982837167835408032e-02,5.288740064539994012e-01,4.694845676422119141e-01,9.139057397842407227e-01,6.345669210670386207e+01,5.162529706954955833e-01
1.731822999999999890e+00,-1.442077121165897258e-01,6.913195427032380047e-02,9.479967355728149414e-01,2.001036037855788777e-02,-2.021969076256024955e-02,2.746395837228021719e-03,-1.168145428968373478e-01,3.127073190054526636e-02,-1.509887352585792542e-02,2.733925219356581060e-02,3.114804464910673337e-02,1.588089307097406699e-01,-2.626023931793633470e-01,-1.716724094276511070e-01,1.641765382553847241e-01,-2.140143242031567750e-01,-7.167240942765108758e-02,1.542091579042981497e-01,5.287701998469763742e-01,4.603934288024902344e-01,1.483614802360534668e+00,6.334697877806595301e+01,5.162529706954955833e-01
1.750499999999999945e+00,-1.454323607214605130e-01,6.900532308586920793e-02,9.475393295288085938e-01,1.942178361040374293e-02,-2.015191543865468837e-02,3.540531790346523877e-03,-1.090179438018972768e-01,3.055541323204713500e-02,-2.008955739438533783e-02,-1.135499511932740735e-01,-2.947322828718729540e-02,9.557645261786693047e-02,1.658395345071435045e-01,-2.020638500787778624e-01,-4.884034911185759081e-02,2.121314156375641302e-01,-1.020638500787778569e-01,-6.093765877466290198e-02,5.117105641906850577e-01,-4.849863052368164062e-01,9.011067152023315430e-01,7.302805475669617863e+01,5.162529706954955833e-01
1.775179000000000062e+00,-1.492579770412786055e-01,6.868257207591295377e-02,9.460864663124084473e-01,1.579651918469266586e-02,-2.101816296572023290e-02,6.681090388977128924e-03,-1.205335822700112358e-01,2.852389629691819140e-02,-1.646000705659389496e-02,-1.904129432377164033e-01,-3.992723330574800972e-02,1.403717442270538129e-01,1.915052025947985015e-01,-2.565295268488609892e-01,-3.320101908090920817e-03,2.151362922622561957e-01,-1.565295268488610114e-01,-2.406025937644414719e-02,5.108259152869378816e-01,-5.280987620353698730e-01,1.011822104454040527e+00,7.382498073848574904e+01,5.162529706954955833e-01
1.800586000000000020e+00,-1.530608760553015812e-01,6.898156823413077732e-02,9.448301196098327637e-01,9.289782307528873795e-03,-2.387558395438516001e-02,9.455389187336793455e-03,-1.269460964663350067e-01,3.670833912544221866e-02,-9.802149608731269836e-03,-2.345905544478063265e-01,-9.653305151219623848e-02,1.224951928817193114e-01,2.416747162518567971e-01,-2.561679730745641259e-01,1.304524476776161047e-02,2.153053572486629264e-01,-1.561679730745641204e-01,-1.519281454345486858e-02,5.095175225845556266e-01,-5.804182291030883789e-01,1.144765973091125488e+00,-5.270339254159753040e+01,5.162529706954955833e-01
1.824461000000000110e+00,-1.565387601926485350e-01,7.037930722965732300e-02,9.436832070350646973e-01,1.037719352246589850e-03,-2.683026208097460952e-02,1.049434981595931404e-02,-1.211919395265294297e-01,3.652780255006715660e-02,-1.159184903372079134e-04,-2.512332676716672042e-01,-9.446614532163354061e-02,-4.900040386206333531e-02,2.909186455030071672e-01,-1.551574431754139671e-01,9.766141701543337716e-02,2.108252247071393248e-01,-5.515744317541395464e-02,6.710906312430423015e-02,5.084634939574137480e-01,-6.052420735359191895e-01,9.099181890487670898e-01,9.263809476950389410e+01,5.162529706954955833e-01
1.849078999999999917e+00,-1.600231705629188983e-01,7.176699284932999690e-02,9.427947402000427246e-01,-5.991253789058324959e-03,-2.767136663393610085e-02,1.051746967128996957e-02,-1.350736200245707119e-01,2.596230143729405873e-02,6.764398887753486633e-03,-1.598989896339040317e-01,-2.692189456636012723e-02,-3.324475838148607809e-02,3.138806087637452391e-01,-2.725321930645040469e-01,1.862605578635120329e-01,2.138806087637452613e-01,-1.725321930645040414e-01,1.562838672591451150e-01,5.069491960046004220e-01,-6.654306650161743164e-01,9.028750658035278320e-01,6.942495921478518994e+01,5.162529706954955833e-01
1.874308000000000085e+00,-1.634943950213269270e-01,7.305346862662034924e-02,9.419047832489013672e-01,-8.044920762237913955e-03,-2.523835155048415047e-02,1.133656123759840817e-02,-1.181563491048258502e-01,2.906818881957982242e-02,7.306694984436035156e-03,-2.708282161638089856e-03,1.279636631873899977e-01,4.130856561018250023e-02,2.379852909704922859e-01,-1.282270421380630743e-01,2.496205478501390407e-01,1.379852909704922803e-01,-2.822704213806308260e-02,2.174896489690170132e-01,5.060868291586119172e-01,-7.139701843261718750e-01,1.835210919380187988e+00,9.837551514401712893e+01,5.162529706954955833e-01
1.897658999999999985e+00,-1.666039507739095760e-01,7.210809470431014945e-02,9.411887526512145996e-01,-4.378126458265113770e-03,-2.058729484774968199e-02,1.154730478773413616e-02,-1.304334836730885738e-01,2.515547771078531156e-02,1.048413570970296860e-02,2.230856404025091666e-01,1.929485667692313888e-01,2.259409241617298808e-02,-1.189722719071316381e-01,-3.003884484762420204e-01,1.982012481365768575e-01,-2.189722719071316437e-01,-2.003884484762420426e-01,1.652571468795414056e-01,5.163077316773716507e-01,-1.637937426567077637e-01,1.236518740653991699e+00,5.706705355325151885e+01,5.162529706954955833e-01
1.925140000000000073e+00,-1.708035948003464033e-01,7.082774909140253372e-02,9.402036666870117188e-01,6.269900630924474250e-03,-1.287228531454265301e-02,9.582208552233018040e-03,-1.242405421571623481e-01,2.244101292876854101e-02,4.464874509721994400e-03,3.408436576461069678e-01,2.238543722859634155e-01,-5.855535466129425937e-02,-1.841931375428995654e-01,9.679795862487888813e-02,-1.404131023932384537e-01,-2.226337214367272999e-01,1.967979586248788937e-01,-1.684427489545786139e-01,5.261142613085062480e-01,3.361495733261108398e-01,1.020707964897155762e+00,-7.250441830397714682e+01,5.162529706954955833e-01
1.948806999999999956e+00,-1.738636273921114472e-01,6.984726147451418565e-02,9.391984343528747559e-01,1.531607231916887364e-02,-6.803952656955658540e-03,6.278593968407353287e-03,-1.178191987166267163e-01,1.813950708940552034e-02,-4.752309527248144150e-03,2.641091582872143739e-01,1.937563713457541026e-01,-1.404169851122323009e-01,-2.502881417998198410e-01,1.218462506506729492e-01,-1.958389644227573057e-01,-2.260028724939606160e-01,2.218462506506729548e-01,-2.149421130814444802e-01,5.331029448504265300e-01,6.751804351806640625e-01,1.454362034797668457e+00,7.317060763486351505e+01,5.162529706954955833e-01
1.973829000000000056e+00,-1.767013135356278741e-01,6.851064515646075603e-02,9.378256797790527344e-01,2.011703852557849073e-02,5.477557893200923900e-04,4.194140835078297158e-03,-1.223776453600996655e-01,2.752439238059985888e-02,-3.198409453034400940e-02,4.068216415671482844e-02,2.800647402250959206e-01,3.096650673168116139e-02,-2.744243526002365097e-01,1.291528293234185665e-01,1.971441748538823591e-01,-2.256305441742440521e-01,2.291528293234185720e-01,1.838370667800726110e-01,5.353390765804029172e-01,6.798093318939208984e-01,1.013558506965637207e+00,8.355048709766690251e+01,5.162529706954955833e-01
1.998013000000000039e+00,-1.786615733273429207e-01,6.781452878677486640e-02,9.368777275085449219e-01,2.098597061863832075e-02,4.672094478332500245e-03,4.309466837317144083e-03,-1.209864768738813934e-01,3.183730514319241950e-02,-3.097563795745372772e-02,1.060663650460587359e-02,2.033113958956481726e-01,1.702470973972732091e-03,-2.778269488629218631e-01,1.303766422662029911e-01,2.297509141742552774e-01,-2.253537249478452242e-01,2.303766422662029967e-01,2.162573724521258123e-01,5.354337974611645956e-01,6.804568767547607422e-01,1.359615445137023926e+00,9.331550610119658984e+01,5.162529706954955833e-01
2.025173000000000112e+00,-1.816768883791973765e-01,6.687376658277779939e-02,9.356414675712585449e-01,1.830165912646027071e-02,7.297409019537681729e-03,5.062913992587292356e-03,-1.194508097504240751e-01,1.910764110258022369e-02,-7.158569525927305222e-03,-1.696732611615759112e-01,-4.889851331543688950e-02,-6.883422655107299115e-02,1.640028204923650867e-01,9.057231442147720135e-02,-1.921673461692126883e-01,2.093555087361582412e-01,1.905723144214772069e-01,-2.074981371471309177e-01,5.112817360013934831e-01,-5.432823300361633301e-01,1.716102957725524902e+00,1.050436649061605010e+02,5.162529706954955833e-01
2.047787000000000024e+00,-1.836828281778920824e-01,6.631065149970277739e-02,9.350396394729614258e-01,1.441801002527930489e-02,6.929136025766835516e-03,4.074853643958320504e-03,-1.176274868602165402e-01,3.072063825925437988e-02,-5.849466659128665924e-03,-1.796929421851704567e-01,-2.331225088730834796e-02,-6.015960859468923866e-02,2.002884016737930539e-01,9.243535627865334670e-02,-1.807280414810964464e-01,2.096679866504393974e-01,1.924353562786533522e-01,-1.932269364424005764e-01,5.106644368842145898e-01,-5.773528814315795898e-01,1.047870278358459473e+00,7.786435461363129207e+01,5.162529706954955833e-01
2.075381999999999838e+00,-1.870817182799238976e-01,6.590306371526166718e-02,9.343904256820678711e-01,7.728486483765398089e-03,3.324189797592858042e-03,1.972909064457128991e-03,-1.191797635016083601e-01,2.758120312135991375e-02,9.547009132802486420e-03,-1.582315909084814620e-01,-1.344987019421717833e-01,-3.475604696723207793e-02,2.415805053155782867e-01,-2.553988224743438673e-01,-6.337701265623540969e-02,2.116962534887928404e-01,-1.553988224743438895e-01,-6.982500480643472063e-02,5.074892219168962715e-01,-6.907682418823242188e-01,1.272703289985656738e+00,9.521306925640952556e+01,4.140191316604614480e-01
2.099419000000000146e+00,-1.907686794139886177e-01,6.562797183907871645e-02,9.342625141143798828e-01,4.361036012409833136e-03,-1.515443912448954933e-03,3.377319886997742771e-03,-1.224653973689672909e-01,1.736824952857743409e-02,1.538545265793800354e-02,-6.129305533283667916e-03,-1.884497050954379305e-01,5.729480435614967698e-02,1.992355154616602397e-01,-3.010321124296254092e-01,-4.388601728699635662e-02,1.545931929113814052e-01,-2.010321124296254036e-01,-5.418236897978888356e-02,5.161852315017839699e-01,-2.076721787452697754e-01,1.205101847648620605e+00,6.297781388361593002e+01,4.140191316604614480e-01
2.123895000000000088e+00,-1.931724103307239371e-01,6.536648437503182751e-02,9.343479275703430176e-01,4.768492783478747200e-03,-4.427796860587251970e-03,4.514204151949474664e-03,-1.192463221548376862e-01,1.176716688692872395e-02,1.934415474534034729e-02,5.517457226525237374e-02,-9.673135284743729356e-02,5.132072397400178759e-02,-1.611306857526947911e-01,-1.991625693351908866e-01,-1.200317553033191098e-01,-2.005384518169263941e-01,-9.916256933519089489e-02,-1.335721443697992505e-01,5.228538259070178995e-01,1.656062602996826172e-01,1.275165200233459473e+00,-6.716704893934071663e+01,4.140191316604614480e-01
2.150049999999999795e+00,-1.965361826612829210e-01,6.489626980469610784e-02,9.347521066665649414e-01,8.553533404622903208e-03,-5.225123779865059603e-03,5.486341535530181446e-03,-1.041659021704025995e-01,1.181901194121764975e-02,8.076829835772514343e-03,1.592425680634271534e-01,6.469039928209614765e-02,3.999270597852642994e-02,-2.069892776729654882e-01,1.168566874610842687e-01,-1.721953774968126571e-01,-2.225883279377113555e-01,2.168566874610842743e-01,-1.886684882526512841e-01,5.241677995812620283e-01,1.919491291046142578e-01,6.241337060928344727e-01,8.798152451038848199e+01,4.140191316604614480e-01
2.174570000000000114e+00,-1.981455223938561883e-01,6.392966100430474974e-02,9.349845051765441895e-01,1.172073220843476184e-02,-2.457782249453144274e-03,6.037530524993339753e-03,-1.048351644263977867e-01,6.272091716717848736e-03,1.926735974848270416e-02,1.341182900263042377e-01,1.794361880030366230e-01,2.003965191010425792e-02,-2.328026082709123978e-01,1.215725878269678373e-01,-1.801788049473301290e-01,-2.234013205243421396e-01,2.215725878269678428e-01,-1.982764724151198643e-01,5.316605593586972711e-01,6.434034109115600586e-01,1.980352997779846191e+00,-2.858619436531572688e+00,4.140191316604614480e-01
2.200595999999999997e+00,-1.996831235231061041e-01,6.306489136342154078e-02,9.353153109550476074e-01,1.311897278468256850e-02,2.013431896350503791e-03,7.187886051188696612e-03,-9.987632296720552749e-02,1.368091660127123896e-02,1.110007893294095993e-02,3.582933233831898240e-02,2.368782685947890265e-01,6.889121035454594255e-02,-2.387009693736646954e-01,1.204032571906586413e-01,-7.801429671539265864e-02,-2.266880404528666404e-01,2.204032571906586468e-01,-9.929640872741161972e-02,5.241292051862241896e-01,1.987251043319702148e-01,1.462188839912414551e+00,5.802243650869080938e+01,4.140191316604614480e-01
2.225213000000000108e+00,-2.019654245656166969e-01,6.199081753030517145e-02,9.358860254287719727e-01,1.239190179348270519e-02,7.371594570429129689e-03,9.436917848284709365e-03,-9.462841036130746619e-02,1.692354197103868377e-02,1.196340192109346390e-02,-5.652787272317200129e-02,1.136665589534470999e-01,8.710674964553832833e-02,-2.556354654801837323e-02,9.310205474424967931e-02,1.484299884856842278e-01,-1.986817088887914487e-02,1.931020547442496849e-01,1.210622301518682470e-01,5.077000684915787820e-01,-6.790635585784912109e-01,1.685123801231384277e+00,1.252881680211598763e+02,4.140191316604614480e-01
2.248063000000000144e+00,-2.035312624405380966e-01,6.133567871673170635e-02,9.365167617797851562e-01,1.029872228952726648e-02,8.582217063805908097e-03,1.079885131860569558e-02,-9.679860309912441396e-02,1.447052088472963738e-02,2.614804543554782867e-02,-1.405324540745788719e-01,9.450121777016092656e-03,3.492740754771005846e-02,2.162534531545805272e-01,2.809767619751396550e-02,6.094209668174455086e-02,2.103347418030495075e-01,1.280976761975139711e-01,2.987325201302976074e-02,5.063668536014989119e-01,-6.933587789535522461e-01,1.120599150657653809e+00,8.629379842685668223e+01,4.140191316604614480e-01
2.274601999999999791e+00,-2.057514663207956895e-01,6.081482608637801129e-02,9.376084804534912109e-01,4.657921779794484823e-03,7.862005901443813727e-03,1.206980110942201811e-02,-9.782439119040871323e-02,1.220522663947521715e-02,2.997690625488758087e-02,-2.097764756656707585e-01,-6.009506293785578379e-02,-3.920089476167069181e-03,2.545026885310043285e-01,-7.945554181802208515e-02,3.303641578569324611e-02,2.130880373879462941e-01,2.054445818197792387e-02,-1.383791646063755329e-03,5.069391060949403061e-01,-6.455559730529785156e-01,1.132110714912414551e+00,3.244379129343784030e+01,3.960705995559692383e-01
2.298275999999999986e+00,-2.071074405549750697e-01,6.056582083463861454e-02,9.385381937026977539e-01,1.562986949276785800e-03,5.714469406253419592e-03,1.155749725031141040e-02,-8.371080108954565002e-02,1.965647359951293999e-02,2.988473698496818542e-02,-1.257453311746927760e-01,-1.239611118376383325e-01,-2.656864431419958886e-02,2.832123102939163584e-01,-1.635710909042532024e-01,-7.312828033396348570e-03,2.155591792468811718e-01,-6.357109090425318298e-02,-4.022562756329868539e-02,5.062448525764999818e-01,-6.797648668289184570e-01,1.327233433723449707e+00,-9.396228403446177424e+01,3.960705995559692383e-01
2.324537999999999993e+00,-2.091121225635416414e-01,6.007428805626358753e-02,9.400590062141418457e-01,5.964217808502392595e-04,1.908325319195158798e-03,1.058426401787437854e-02,-8.854154423459779932e-02,6.269104919207273835e-03,3.795032203197479248e-02,4.028757648708634898e-02,-9.545589123639228180e-02,-5.618691519755417835e-02,-1.363194488851337538e-01,-2.015673514861898719e-03,-1.810211870145225499e-01,-1.984864086729399013e-01,9.798432648513810683e-02,-2.111689046553355820e-01,5.164681854246617743e-01,-9.909135103225708008e-02,1.407897591590881348e+00,1.003370976623206019e+02,3.960705995559692383e-01
2.351185000000000080e+00,-2.109586975051018498e-01,5.955902864126751822e-02,9.416480064392089844e-01,3.884591308748996594e-03,-7.400583233985180698e-05,1.028522222659100649e-02,-7.074814099410968449e-02,4.845589600457211703e-03,2.254914492368698120e-02,1.150198942587150885e-01,-3.917366284737280185e-02,-3.268069218155249950e-02,-1.880326166915290143e-01,1.216554597751089151e-01,-1.827820041820419072e-01,-2.291563216473543885e-01,2.216554597751089206e-01,-2.122589131559409481e-01,5.273987803928477103e-01,4.372349977493286133e-01,1.527053236961364746e+00,9.719448664406272087e+01,3.960705995559692383e-01
2.374617999999999896e+00,-2.122678110750009228e-01,5.880886791460235297e-02,9.425979256629943848e-01,7.657041097004099912e-03,4.821292785663899849e-04,1.111923422765426217e-02,-7.448835878743569061e-02,8.833003742762688890e-03,3.375545516610145569e-02,2.268535412206171831e-01,6.918473980361157516e-02,4.333442842150255631e-02,-2.052876941788085163e-01,1.202016542627935280e-01,-1.679609372427133818e-01,-2.254256372913752415e-01,2.202016542627935336e-01,-2.000002267172450443e-01,5.251645188042100010e-01,3.615573644638061523e-01,1.570463776588439941e+00,1.921443887117516525e+01,3.960705995559692383e-01
2.401187000000000182e+00,-2.141391446963806788e-01,5.786981373346251206e-02,9.441279768943786621e-01,1.065672725546670807e-02,2.900850174386571112e-03,1.308369900982686573e-02,-7.678359410818126618e-02,1.451359070189829452e-02,3.266140446066856384e-02,4.154005741240589938e-02,7.727877235398107614e-02,1.750253437609501292e-02,-2.230393871135240846e-01,1.199454996104300508e-01,-1.724058602218085656e-01,-2.277224341975623290e-01,2.199454996104300564e-01,-2.100646564922410697e-01,5.303821087974244231e-01,6.464052200317382812e-01,1.260863661766052246e+00,8.168064085010587405e+01,3.960705995559692383e-01
