timestamp,x,y,z,roll,pitch,yaw,vx,vy,vz,p,q,r,psp,qsp,rsp,pres,qres,rres,thrust_sp, thrust_res
0.000000000000000000e+00,-1.470861336291503715e-02,5.529856013836022266e-03,9.982033371925354004e-01,9.929356178281643214e-03,-5.243817553732155190e-03,1.321678234915669558e-03,1.995047127713483678e-02,-1.516612203229823590e-02,-1.367203891277313232e-02,-7.640701915802559918e-02,3.473371028980241221e-02,1.360756801706498702e-02,-1.965463214391039437e-01,9.234615156777764566e-02,7.198972432972967905e-02,-1.232100069522857611e-01,1.195408701896667480e-01,6.823881268501282016e-02,5.145094064819331070e-01,7.465839385986328125e-02,-1.687048673629760742e-01,-9.950776243291931777e+00,3.780245780944824219e-03
3.715100000000000346e-02,-1.493777360438902288e-02,5.272436776383788992e-03,9.982641339302062988e-01,9.839263046317889630e-03,-5.131924650523034259e-03,1.329553883935579491e-03,1.609734863182672032e-02,-2.162932453447340142e-02,-2.796421991661190987e-03,-2.481535952263994385e-02,9.849034644382090656e-03,-1.904407612880909539e-02,-2.833953486951112932e-01,-2.113029876091069431e-02,8.625875857359446841e-02,-2.074306190013885387e-01,1.150372624397277832e-02,8.247985839843749445e-02,5.138920443093814017e-01,8.460950851440429688e-02,-1.024469494819641113e+00,5.438644336064246687e+01,3.780245780944824219e-03
7.092299999999999993e-02,-1.513983234784039948e-02,5.008165057336175056e-03,9.983139038085937500e-01,9.811647091129265322e-03,-5.229803770702590171e-03,1.502298373636765409e-03,4.444232611684750811e-03,-2.038056147110506311e-02,2.949482994154095650e-03,3.220270226217936127e-02,-2.558814574475741510e-02,-4.262044220050293514e-03,-2.485571735081966438e-02,-1.381969853155516625e-02,-1.399219832562120791e-02,4.919822216033935269e-02,2.844799160957336287e-02,-1.827353239059448242e-02,5.141371933917677772e-01,1.206665039062500000e-01,-8.074282407760620117e-01,1.054877159946705376e+02,3.780245780944824219e-03
1.071219999999999950e-01,-1.578272036926725228e-02,4.207510596136604733e-03,9.985718727111816406e-01,9.276197245544766726e-03,-5.519389701003296622e-03,1.500947754946883742e-03,1.045161830427333849e-02,-2.740242411926122404e-02,5.218661390244960785e-04,-3.470049812562338992e-02,-9.967828604862422059e-03,-4.409666686075039421e-02,-2.866476399166817401e-01,-1.920595141336094158e-01,1.165013433387415143e-01,-2.096344113349914440e-01,-1.540490269660949596e-01,1.122438311576843262e-01,5.150501244633099995e-01,1.608812808990478516e-01,-6.590014696121215820e-01,6.245358320443911282e+01,3.780245780944824219e-03
1.419150000000000134e-01,-1.654112050911858700e-02,3.180266700962309200e-03,9.988205432891845703e-01,8.904276648150124748e-03,-5.516891083939379214e-03,1.634694602509652317e-03,1.021131831037668837e-02,-2.567639718483349237e-02,4.786516539752483368e-03,-2.591812224466573389e-02,-6.290220647448796498e-02,-9.594042126035866314e-03,-2.790305681496186296e-01,-2.127830646479778043e-01,-2.864004213661996978e-02,-2.061208963394164928e-01,-1.732119083404541071e-01,-3.327333927154541016e-02,5.079508085788765337e-01,-1.992343068122863770e-01,-9.833129644393920898e-01,1.115433207316688282e+02,3.780245780944824219e-03
1.765490000000000115e-01,-1.716588165399841187e-02,2.684400470322638021e-03,9.988717436790466309e-01,8.105359858553240135e-03,-5.276776048104725447e-03,1.936994645380673641e-03,7.642548781704218593e-03,-1.941718141926456614e-02,-1.001886744052171707e-02,-5.979483424795820068e-02,3.348370147754448078e-02,1.807818418072473440e-02,-1.621172873128707004e-01,9.972131716790338940e-02,7.544675314887148987e-02,-9.886568784713745117e-02,1.401690959930419755e-01,6.996674537658691129e-02,5.133289749099927413e-01,2.803409099578857422e-02,-8.423982858657836914e-01,-1.179968454595228877e+02,3.780245780944824219e-03
2.118549999999999878e-01,-1.787311431009292600e-02,2.679914766856634004e-03,9.988186955451965332e-01,6.962159117809840758e-03,-5.282359283451887322e-03,1.157584149462999616e-03,1.191057781254423187e-02,-1.548130072008272774e-02,-5.558388773351907730e-03,-5.726144526708906723e-02,-1.937129683165015118e-02,-3.434729304971310959e-02,-2.282402562870936291e-01,-2.042467160297987971e-01,1.533923312908260818e-02,-1.746075153350830078e-01,-1.671100616455078181e-01,1.205263137817382847e-02,5.166372907831132677e-01,2.222609519958496094e-01,-1.013677477836608887e+00,8.764246708979987943e+01,3.780245780944824219e-03
2.471599999999999908e-01,-1.872065082671155178e-02,2.915209206410587176e-03,9.985524415969848633e-01,1.382147939922551052e-03,-4.255239917896114221e-03,7.784706158071104561e-04,1.316004283857915257e-02,-1.011201468301188219e-02,-1.033105514943599701e-02,-1.273908195524166009e-01,3.033992534190454570e-03,8.897124200361797644e-03,-1.161526703710977354e-01,-8.325910804557180855e-02,-1.240018687762832750e-01,-1.026648402214050265e-01,-5.262869596481323242e-02,-1.261861324310302734e-01,5.129224785873659487e-01,2.934455871582031250e-03,-9.780806303024291992e-01,8.897296744955086467e+01,3.780245780944824219e-03
2.824369999999999936e-01,-1.913875269275813751e-02,3.292320654875905295e-03,9.983286261558532715e-01,-3.213197566699409723e-03,-3.131225043949692477e-03,-2.429903365412718226e-04,1.124327188059476984e-02,-5.531690210474869002e-03,-5.674835294485092163e-03,-1.928318874886219558e-01,8.527335840073528572e-02,-7.805251826306319751e-02,-2.456327446052816374e-02,1.561965015117700029e-01,-8.863250010602934104e-02,-4.407024979591369490e-02,1.815359830856323187e-01,-8.793343305587768277e-02,5.110496196986527018e-01,-7.975220680236816406e-02,-8.455156087875366211e-01,9.248935373994852682e+01,3.780245780944824219e-03
3.178489999999999926e-01,-1.911992609110179167e-02,4.473504379272662430e-03,9.977772235870361328e-01,-1.224873244161449500e-02,2.502347611305966169e-03,-1.056656257032110224e-03,1.272283692760276495e-02,1.931302641636584334e-03,-5.199780222028493881e-03,-2.473185680096341155e-01,2.113721666835699786e-01,-4.845174022674941100e-02,2.517155318905891503e-01,2.227601938331593423e-01,-1.383549831406524488e-01,1.673857927322387751e-01,2.100028216838836503e-01,-1.354280233383178544e-01,5.063038027249494588e-01,-3.321252465248107910e-01,-4.112793207168579102e-01,-4.498811330798867658e+01,3.780245780944824219e-03
3.543250000000000011e-01,-1.897206324269088557e-02,5.573709390932750189e-03,9.972879886627197266e-01,-1.975509178946063815e-02,6.855627042385403769e-03,-1.721754686645506549e-03,2.194380241131526840e-02,1.282732007276826333e-02,-1.326461881399154663e-02,-2.551086948095834250e-01,7.227480308198223902e-02,-4.485799374177025511e-02,3.132374048233032005e-01,2.647161540035121163e-01,-2.144556410296204196e-01,2.132374048233032227e-01,2.163369476795196367e-01,-2.098196268081664873e-01,5.051175381175871948e-01,-4.293758273124694824e-01,-8.353060483932495117e-01,-1.312177352774039107e+01,3.780245780944824219e-03
3.878780000000000006e-01,-1.926438155029796401e-02,7.267599267460165581e-03,9.968045949935913086e-01,-2.813458044410653558e-02,8.599122006601733759e-03,-2.432026595253448855e-03,2.049138939806575965e-02,2.823592369757062237e-02,-1.102414075285196304e-02,-2.671802325389439070e-01,3.877009007943719998e-02,1.079349797185973937e-02,3.180884122848510742e-01,2.759172853227608857e-01,-2.252699673002094283e-01,2.180884122848510687e-01,2.188817381858825517e-01,-2.187587499618530162e-01,5.045699914374041084e-01,-4.521101713180541992e-01,-8.158200979232788086e-01,9.355256830690939296e+01,3.780245780944824219e-03
4.240880000000000205e-01,-1.969211685196693706e-02,9.460342731620025036e-03,9.965690374374389648e-01,-3.580216856374567047e-02,1.221763626545646630e-02,-1.270481683982983053e-03,2.493569715316130281e-02,4.328515500879377698e-02,9.443274466320872307e-04,-2.176484317897401377e-01,8.692908730297328745e-02,5.757693686240028530e-02,3.208842754364013561e-01,3.074551784871932814e-01,-2.231293953115338347e-01,2.208842754364013505e-01,2.233617067337036188e-01,-2.201187372207641657e-01,5.016147047645354018e-01,-5.614490509033203125e-01,-1.015984892845153809e+00,-5.332330051066788457e+01,3.780245780944824219e-03
4.593200000000000061e-01,-1.990481557696757720e-02,1.144747640874619124e-02,9.965797662734985352e-01,-3.898000581142970628e-02,1.322788811101460738e-02,3.018122430148508536e-04,1.464183356443144075e-02,5.488918544328065530e-02,5.060704890638589859e-03,-8.407579392378851380e-02,-8.596558702673425326e-04,7.739528236978375497e-02,3.226092219352721946e-01,3.040684046335149215e-01,-2.226835118135425395e-01,2.226092219352722168e-01,2.225475311279296875e-01,-2.240905523300170954e-01,5.026955987082534216e-01,-4.884539246559143066e-01,-6.956707239151000977e-01,9.804940776209487296e+01,3.780245780944824219e-03
4.938730000000000064e-01,-2.033759301193577979e-02,1.613013431778370990e-02,9.968100786209106445e-01,-3.672091877947490646e-02,7.708548190511477216e-03,3.452377634614456434e-03,1.817868175336820324e-02,6.557229637654986287e-02,2.295771986246109009e-02,1.255698985838140658e-01,-2.159357392672483777e-01,6.986017806520425366e-02,2.981826305389404519e-01,-1.658657163729135298e-02,-1.848902533478511134e-01,1.981826305389404186e-01,-6.630356311798095426e-02,-1.948575496673583818e-01,5.021693895374852445e-01,-4.437177181243896484e-01,-3.966757059097290039e-01,-1.734852681257606166e+00,3.780245780944824219e-03
5.303170000000000384e-01,-2.069410467307936097e-02,2.023078717145128727e-02,9.971264600753784180e-01,-3.050348035066395569e-02,7.400336253120531893e-04,7.160743041505290320e-03,1.406601082691555545e-02,7.812833491135176556e-02,2.637375518679618835e-02,2.098376850491510681e-01,-2.507487208464734274e-01,1.373605525645711922e-01,2.968461036682129017e-01,-1.033223542375920068e-01,-1.627322956087319805e-01,1.968461036682128962e-01,-1.037333965301513589e-01,-1.827828168869018444e-01,5.031432687274052240e-01,-3.769207000732421875e-01,-1.485693693161010742e+00,-1.700997824108062417e+01,3.780245780944824219e-03
5.645510000000000250e-01,-2.115554675832407791e-02,2.596718197318771335e-02,9.974798560142517090e-01,-1.850503135893083462e-02,-1.047718381084505879e-02,1.290028441825319221e-02,5.286520353285204324e-03,8.826216660490651678e-02,2.409619465470314026e-02,3.179583628284837760e-01,-2.935789915415503715e-01,1.161617082291521302e-01,3.022306919097900169e-01,-2.290716904161624323e-01,-1.355877595407240233e-01,2.022306919097900391e-01,-1.500962018966674749e-01,-1.715956449508666826e-01,5.063366470170993505e-01,-2.154256105422973633e-01,-7.992728948593139648e-01,1.260749375116536442e+02,3.780245780944824219e-03
5.997820000000000373e-01,-2.152949172890462892e-02,3.016781698753116109e-02,9.976816177368164062e-01,-8.231098474793651504e-03,-1.927460946336134739e-02,1.739125383329118146e-02,7.154796645842220575e-03,9.687315241677815769e-02,2.054641209542751312e-02,3.289285768769310003e-01,-2.876710256622650452e-01,1.579786471234589651e-01,2.989561438560485729e-01,-2.855608701705932839e-01,-7.675873335615387982e-02,1.989561438560485673e-01,-1.855608701705932506e-01,-1.255969762802124079e-01,5.076552234697090382e-01,-1.582661271095275879e-01,-1.053657889366149902e+00,1.015923088468505284e+02,3.780245780944824219e-03
6.360810000000000075e-01,-2.214319869152280018e-02,3.570569511966510678e-02,9.977696537971496582e-01,5.778829378781085574e-03,-3.185722362462195534e-02,2.365708558504780318e-02,-1.641603710617516162e-03,1.007497663217830353e-01,9.898889809846878052e-03,3.024326503749804607e-01,-3.261964965353834067e-01,1.317408046996549620e-01,2.553814788402118952e-01,-2.998575091361999623e-01,4.649106329395136239e-02,2.019292831420898271e-01,-1.998575091361999567e-01,-2.069664001464843750e-02,5.049296618040924889e-01,-3.438760042190551758e-01,-1.022850394248962402e+00,9.341269286289670504e+01,3.780245780944824219e-03
6.715320000000000178e-01,-2.278293864775547684e-02,3.983781588489956199e-02,9.975960850715637207e-01,1.573059790906438174e-02,-3.984248954610247750e-02,2.813515186099948759e-02,-7.004220910688050382e-03,1.051961082140720760e-01,-2.983591984957456589e-03,2.797705681396489563e-01,-2.026763507710773182e-01,1.916459817822384615e-01,-1.056981819974118081e-01,-3.105886697769165150e-01,2.548322509563315519e-01,-9.997225999832153043e-02,-2.105886697769165095e-01,1.742288410663604681e-01,5.046407548925723185e-01,-4.112125635147094727e-01,-7.099899053573608398e-01,6.623455736290472373e+01,3.780245780944824219e-03
7.070509999999999851e-01,-2.317498802978047376e-02,4.589155398623263882e-02,9.970302581787109375e-01,2.829796336668577786e-02,-4.332501922999898447e-02,3.358139474241952221e-02,-1.174138591752827733e-02,1.023631856133597473e-01,-1.253170985728502274e-02,2.990199046521077042e-01,2.525040251048634235e-02,2.050603400824833611e-01,-1.851844377815483333e-01,-2.558938503265381081e-01,2.629862682813949304e-01,-9.868723154067993164e-02,-1.558938503265380748e-01,1.661426424980163574e-01,5.147828211662057729e-01,8.671820163726806641e-02,-1.165415883064270020e+00,1.050831229089956622e+02,3.780245780944824219e-03
7.423250000000000126e-01,-2.347381356766088320e-02,5.034068266147928572e-02,9.963013529777526855e-01,3.750179692574936996e-02,-4.076144108417167899e-02,3.733458816740443942e-02,-1.391649891922353000e-02,1.007366407982635825e-01,-1.358148828148841858e-02,3.411573951307010910e-01,1.822677310660420769e-01,1.300837885353619272e-01,-1.785900831222534402e-01,-1.424424886703491155e-01,2.231805920600891113e-01,-7.859008312225342074e-02,-4.244248867034911693e-02,1.231805920600891058e-01,5.155568383246856845e-01,1.201690435409545898e-01,-4.162470102310180664e-01,-9.722842585404850979e+01,3.780245780944824219e-03
7.760359999999999481e-01,-2.404913454585311597e-02,5.571717401487575466e-02,9.949096441268920898e-01,5.018745700914412078e-02,-3.336093005004547862e-02,4.173370742191356841e-02,-3.085030858828679071e-02,7.452707280202894302e-02,-2.148591168224811554e-02,3.699100404326898239e-01,2.403414025580676294e-01,7.317217393624379784e-02,-2.341996252536773793e-01,-1.535323500633239691e-01,2.692278981208801047e-01,-1.341996252536773737e-01,-5.353235006332397045e-02,1.692278981208801270e-01,5.117273751217984445e-01,-1.220295429229736328e-01,-7.567528486251831055e-01,-9.371238107310934140e+01,3.780245780944824219e-03
8.110579999999999457e-01,-2.405886206593061891e-02,5.952491164572964316e-02,9.938459992408752441e-01,5.959092750233720148e-02,-2.525891058284845947e-02,4.345203062667116201e-02,-9.690277541568254396e-03,7.239002686495006611e-02,-3.691901639103889465e-02,2.564832360821331370e-01,2.951682732450897073e-01,3.963796841999613074e-02,-2.819110453128814697e-01,-1.131271243095398060e-01,2.873175024986266979e-01,-1.819110453128814642e-01,-1.312712430953979527e-02,1.873175024986266923e-01,5.095961465469903695e-01,-3.026568293571472168e-01,-9.600909948348999023e-01,1.119415070999022248e+02,3.780245780944824219e-03
8.452479999999999993e-01,-2.407907072920859384e-02,6.393796677933134831e-02,9.919416308403015137e-01,6.792577672640411068e-02,-1.206808816255477979e-02,4.297564207861232638e-02,-2.917632108842644831e-02,5.945510700689704553e-02,-6.059028953313827515e-02,7.431299726046050602e-02,3.611221174653116428e-01,-1.065746672281402130e-02,-3.033205270767211914e-01,-9.889827370643616833e-02,2.930493116378783958e-01,-2.033205270767211859e-01,1.101726293563842643e-03,1.930493116378784180e-01,5.145163223455450074e-01,-1.447997093200683594e-01,-1.465563893318176270e+00,9.686303805420951107e+01,3.780245780944824219e-03
8.789249999999999563e-01,-2.412079787967484970e-02,6.682916901949451094e-02,9.900248646736145020e-01,6.824456717513975590e-02,-2.019831909540581449e-03,4.066875731614312539e-02,-1.021794646298900336e-02,4.770477215370504814e-02,-7.179785519838333130e-02,-5.581525395281807661e-02,3.364004337621404606e-01,-1.069938891253083280e-01,-3.091233611106872781e-01,8.465319003056331892e-03,3.024974286556244008e-01,-2.091233611106872448e-01,3.528878688812255721e-02,2.024974286556243952e-01,5.171759304751613051e-01,-5.774164199829101562e-02,-8.565877676010131836e-01,1.074896307800229351e+02,3.780245780944824219e-03
9.124919999999999698e-01,-2.459481415248259556e-02,7.058937376965329635e-02,9.881525039672851562e-01,6.482011727836269055e-02,6.953429464648719360e-03,3.834974473113970245e-02,-1.825249456266890904e-02,4.138062018975125628e-02,-6.953497231006622314e-02,-1.765715172139417921e-01,2.541020505492211923e-01,-7.292082842294050904e-02,-3.030334770679473655e-01,8.078900959932952541e-02,2.937777817249297985e-01,-2.030334770679473877e-01,5.939669609069823941e-02,1.937777817249297929e-01,5.147094891814322226e-01,-1.926022768020629883e-01,-7.011035680770874023e-01,5.344402068915327675e+01,3.780245780944824219e-03
9.501169999999999893e-01,-2.520498407346044925e-02,7.479528038341015650e-02,9.855532646179199219e-01,5.728177962835018233e-02,1.598463459434973366e-02,3.446685463609914374e-02,-1.018445909247553058e-02,3.117895972945091201e-02,-7.983939349651336670e-02,-2.307851663727432390e-01,2.094664864798686521e-01,-7.381955068169611389e-02,-2.957420885562896951e-01,2.404236685461715317e-01,2.716940851697337012e-01,-1.957420885562896617e-01,1.542877435684203991e-01,1.764441668987274114e-01,5.127081611786601378e-01,-3.550266623497009277e-01,-1.098780035972595215e+00,8.137322769594194938e+01,3.780245780944824219e-03
9.902760000000000451e-01,-2.546163546380699957e-02,7.824266962777585988e-02,9.828746914863586426e-01,4.724839684118808947e-02,2.253517147378181207e-02,2.937348522072775678e-02,-3.261231631937227225e-03,1.338673149596684119e-02,-8.275514841079711914e-02,-2.602422799263839348e-01,1.180086448635150193e-01,-1.153690651580438487e-01,-3.005027055740356334e-01,2.331725716590881403e-01,2.423903188985076784e-01,-2.005027055740356279e-01,1.331725716590881348e-01,1.617450177669525202e-01,5.127850871871025840e-01,-3.776923418045043945e-01,-9.877845048904418945e-01,9.266703428101723716e+01,3.780245780944824219e-03
1.027741000000000016e+00,-2.617283792646595691e-02,8.089756046346824325e-02,9.802848100662231445e-01,3.562873115339380836e-02,2.845224491800557587e-02,2.327469382609647849e-02,9.198035965392425961e-03,1.002606772985690890e-02,-7.890573889017105103e-02,-2.874162435436591334e-01,1.351577327896594238e-01,-1.679349890385157806e-01,-2.920136570930481068e-01,3.042241275310516579e-01,2.260371065991218786e-01,-1.920136570930481013e-01,2.042241275310516246e-01,1.625956714153289628e-01,5.132397583950170095e-01,-3.533736467361450195e-01,-7.387915849685668945e-01,6.726833381454284222e+01,3.780245780944824219e-03
1.063177999999999956e+00,-2.647926090157446191e-02,8.310080778791062439e-02,9.777249097824096680e-01,2.228167481127853525e-02,3.108345391695976900e-02,1.658466242645932620e-02,1.861926545483138726e-02,4.563423400974040041e-03,-7.841917872428894043e-02,-3.166896225278332255e-01,1.980045166700377876e-02,-2.024633553023736099e-01,-2.720762847398258688e-01,2.906996965408324973e-01,1.894808649951886526e-01,-1.882053494453430065e-01,1.906996965408325195e-01,1.443964362144470048e-01,5.138138795232711775e-01,-3.358503580093383789e-01,-4.188591241836547852e-01,-6.555823032374277659e+00,3.780245780944824219e-03
1.102497999999999978e+00,-2.654904666779074954e-02,8.419010720571845630e-02,9.758673310279846191e-01,1.219889086963699479e-02,3.058156374974685399e-02,1.137342277062116692e-02,1.720273117746018085e-02,2.127334854084496959e-03,-7.885942608118057251e-02,-3.609491744487714482e-01,-6.950803842686542611e-02,-1.305862414719577702e-01,-2.182461509049072879e-01,2.832667231559753418e-01,1.758725140232238748e-01,-1.994476675987243708e-01,1.832667231559753362e-01,1.449167847633361650e-01,5.158022192590518973e-01,-2.436426877975463867e-01,-1.320782303810119629e+00,5.275991577207396688e+01,3.780245780944824219e-03
1.144991000000000092e+00,-2.682786388949620626e-02,8.468633025982329199e-02,9.735184311866760254e-01,-8.149656947447912790e-04,2.570742759816524448e-02,4.498472309308735630e-03,3.214869825629341343e-02,1.093192588837489480e-02,-8.434031903743743896e-02,-3.704785996817293592e-01,-1.567395256091141664e-01,-1.403678367731003851e-01,3.261875179734700231e-02,2.502068877220153809e-01,-4.983664534994975553e-02,-4.052267074584960799e-02,1.502068877220153753e-01,-6.207607984542846263e-02,5.165674077927474572e-01,-2.392745018005371094e-01,-7.644263505935668945e-01,1.368505308142109129e+02,3.780245780944824219e-03
1.182337999999999889e+00,-2.669415826891913604e-02,8.532263222655309121e-02,9.711360931396484375e-01,-1.370552220185409890e-02,1.647701079693075776e-02,-2.003407131003815018e-03,4.023861980515799214e-02,1.059509261835298206e-02,-7.471910864114761353e-02,-3.384959574881525879e-01,-2.858781601126569316e-01,-1.196234034774965871e-01,2.474765062332153209e-01,1.181331634521484431e-01,-1.939407522722526311e-01,1.474765062332153154e-01,1.813316345214843750e-02,-1.884164571762085016e-01,5.150536639513445536e-01,-2.970030307769775391e-01,-1.151311039924621582e+00,1.639904240850399617e+02,-3.374097347259521346e-02
1.217695999999999890e+00,-2.641064164304019954e-02,8.680550001993860010e-02,9.687577486038208008e-01,-2.688719537363304726e-02,5.235190742795658991e-03,-8.063798704347237278e-03,3.496946926625602026e-02,2.954173121482436132e-02,-7.468818128108978271e-02,-3.447369563669036019e-01,-3.149284817188616747e-01,-9.987365051160224105e-02,3.126913785934448131e-01,-2.487232564266911305e-02,-2.417367917725129489e-01,2.126913785934448076e-01,-6.260297298431395652e-02,-2.192739844322204590e-01,5.133254265114940429e-01,-4.045053720474243164e-01,-1.312183022499084473e+00,7.556835237318566101e+01,-3.374097347259521346e-02
1.254212000000000105e+00,-2.612079066372000047e-02,8.837708489514940757e-02,9.669656157493591309e-01,-3.663894733815683397e-02,-4.077053857307610940e-03,-1.239724960643191765e-02,3.896187821031396603e-02,4.282135131072534878e-02,-7.085119932889938354e-02,-2.946230623786228464e-01,-2.981092661038260982e-01,-1.763881989749920831e-01,3.208173274993896262e-01,-1.975661348396556549e-01,-2.572716118728154422e-01,2.208173274993896484e-01,-1.788459062576293890e-01,-2.224724650382995661e-01,5.111756253232360159e-01,-5.166120529174804688e-01,-1.102308154106140137e+00,5.159257667876355313e+00,-3.374097347259521346e-02
1.289177000000000017e+00,-2.567344315429144486e-02,9.100875407999335642e-02,9.645798206329345703e-01,-4.814632291137532771e-02,-1.722954358638717487e-02,-1.746905372867412626e-02,3.915652429467728762e-02,5.983445949123773755e-02,-6.994431465864181519e-02,-2.203059548393702938e-01,-3.481817752175706548e-01,-1.292646626300825441e-01,3.238226532936095969e-01,-3.080152511596679910e-01,-2.757950877455669358e-01,2.238226532936096191e-01,-2.080152511596679576e-01,-2.261760950088500810e-01,5.095660454512349613e-01,-6.138828396797180176e-01,-9.080835580825805664e-01,9.213894454495935804e+01,-3.374097347259521346e-02
1.326254999999999962e+00,-2.517353208477194140e-02,9.291121506078663106e-02,9.624754786491394043e-01,-5.525086332652703186e-02,-2.983586320734921138e-02,-1.930746214838120062e-02,2.853273447103820207e-02,8.210455273063045623e-02,-5.593834072351455688e-02,-8.473446085565015939e-02,-3.053341699215199601e-01,7.835513021851930535e-03,3.249630212783813366e-01,-3.167613267898559681e-01,-2.833378672878526516e-01,2.249630212783813310e-01,-2.167613267898559626e-01,-2.277735471725463867e-01,5.074281152572274189e-01,-6.857190132141113281e-01,-1.010015606880187988e+00,1.263685127025591299e+02,-3.374097347259521346e-02
1.363313999999999915e+00,-2.499595575084985824e-02,9.449114098816865925e-02,9.612625837326049805e-01,-5.522600979105950214e-02,-3.867537015422262137e-02,-1.850062260019662286e-02,8.025458746000394342e-03,8.947166891267605005e-02,-4.099164530634880066e-02,8.040121727041750488e-02,-2.750159990957836698e-01,2.469186081527643961e-02,3.244940996170043723e-01,-3.207821369171142689e-01,-2.790732714017061245e-01,2.244940996170043945e-01,-2.207821369171142634e-01,-2.252476930618285966e-01,5.104187424173861620e-01,-4.770678877830505371e-01,-8.238061666488647461e-01,1.255213096982890875e+02,-3.374097347259521346e-02
1.399906000000000095e+00,-2.504292330150862528e-02,9.721937408352396282e-02,9.599990248680114746e-01,-4.867053476403096490e-02,-4.559369785041855749e-02,-1.564280353154313269e-02,-2.812257509444258778e-03,1.054453653128389068e-01,-3.027796000242233276e-02,2.656513120233187641e-01,-1.138743593181061886e-01,1.132968138269886127e-01,3.133363962173462136e-01,-3.109464406967162864e-01,-2.221062088680776092e-01,2.133363962173461803e-01,-2.109464406967163086e-01,-1.764867067337036188e-01,5.101042301014681035e-01,-4.608250260353088379e-01,-1.004857659339904785e+00,1.117345250472941558e+02,-3.374097347259521346e-02
1.434622000000000064e+00,-2.418395934267916769e-02,1.008824452318346637e-01,9.592021703720092773e-01,-3.824954320087776971e-02,-4.490595523264162559e-02,-1.193298911468148801e-02,-1.728829131488560577e-03,1.295999198256118090e-01,-3.079869225621223450e-02,3.101313239082265638e-01,1.125670396140068669e-01,1.313090652376789069e-01,2.476886153221130316e-01,-1.823272228240966908e-01,-1.780423930401227872e-01,1.476886153221130260e-01,-8.232722282409667136e-02,-1.437444448471069391e-01,5.183398989762180165e-01,-3.040236234664916992e-02,-1.389459490776062012e+00,1.837461930139790667e+01,-3.374097347259521346e-02
1.470020000000000104e+00,-2.377613255004088974e-02,1.040915283196280072e-01,9.587168693542480469e-01,-2.839617653367731628e-02,-3.943936923040758380e-02,-8.880059841088999706e-03,-9.317250018280893303e-03,1.400616856307544678e-01,-2.027409896254539490e-02,3.777112876935975194e-01,2.679551960402784538e-01,1.449192445887384495e-01,2.502515912055969238e-01,-1.874954104423523504e-02,-1.345827809468839176e-01,1.502515912055969183e-01,8.125045895576477051e-02,-1.095819354057312039e-01,5.167574192606058103e-01,-7.948559522628784180e-02,-1.246513724327087402e+00,1.021993419093354163e+02,-3.374097347259521346e-02
1.502448999999999923e+00,-2.353239343652857932e-02,1.075689145101935695e-01,9.582558274269104004e-01,-1.768706662807865981e-02,-3.097302715402694417e-02,-5.395138414768069560e-03,-7.861541226828288459e-03,1.476453300664386514e-01,-1.628530398011207581e-02,4.064027674836250270e-01,3.189382410745151275e-01,1.120745611602063097e-01,2.221758723258972223e-01,-3.394091129302986842e-03,-6.949044373693458176e-02,1.221758723258972168e-01,9.660590887069701871e-02,-5.484384298324584961e-02,5.162113969368408162e-01,-9.829175472259521484e-02,-4.220360517501831055e-01,-4.352062325914933894e+01,-3.374097347259521346e-02
1.536105000000000054e+00,-2.252221006374343498e-02,1.117717335303197584e-01,9.577963352203369141e-01,-2.854215285833338993e-03,-1.751726565131783708e-02,1.982746543681469819e-04,-1.726520374990654638e-02,1.470088559714503862e-01,-2.349887043237686157e-02,4.090498996741977478e-01,3.444188431500029846e-01,1.593546093144612430e-01,1.841486573219299205e-01,-2.822283506393433172e-02,-6.268118844091718871e-03,8.414865732192992887e-02,7.177716493606567383e-02,-7.578384876251220530e-03,5.190226427867618009e-01,1.902830600738525391e-02,-8.148378133773803711e-01,3.205643419013349416e+01,-3.374097347259521346e-02
1.568305999999999978e+00,-2.193364038646155451e-02,1.150407370770167442e-01,9.575790762901306152e-01,8.768670497714061915e-03,-7.202400983881807051e-03,4.340539800326749346e-03,-1.074290860380070801e-02,1.483735265078514054e-01,-1.205117721110582352e-02,4.475059846605895508e-01,3.027043331576231844e-01,1.643970149008870119e-01,1.725130558013915905e-01,-4.840161711639798248e-03,1.882380787916806270e-02,7.251305580139159879e-02,6.308476924896240512e-02,6.126379966735839323e-03,5.201655736511257011e-01,1.220254898071289062e-01,-1.180086493492126465e+00,9.554651909168954660e+01,-3.374097347259521346e-02
1.601501000000000063e+00,-2.134757336001389533e-02,1.183678136297459660e-01,9.574423432350158691e-01,1.967843025515829056e-02,3.136821954301538540e-03,8.034336441123991063e-03,-1.868497214342743420e-02,1.553493905917706364e-01,-1.573177799582481384e-02,3.313176544313449212e-01,3.662539346223829262e-01,7.796536550833751966e-02,1.606006475067380257e-01,8.065072975901764474e-02,5.595681383159740313e-02,9.699686765670775812e-02,8.762995004653929831e-02,3.337867856025695384e-02,5.163780059479593509e-01,-1.005030870437622070e-01,-8.760904073715209961e-01,9.693457062538705316e+01,-3.374097347259521346e-02
1.634991000000000083e+00,-2.056495306343558704e-02,1.239982433692057157e-01,9.574225544929504395e-01,3.261943890785978795e-02,1.246381311657884794e-02,1.280496007574129409e-02,-2.515654871449484950e-02,1.393251171699016744e-01,3.624781034886837006e-03,3.699034252964946701e-01,1.460573488032493039e-01,8.686561660838644505e-02,-3.144431034086756643e-02,1.738500979436026772e-01,1.134450205976659520e-01,-2.718436717987060287e-03,1.230261683464050210e-01,7.824241518974303644e-02,5.171974947063588957e-01,1.858818531036376953e-02,-9.777718782424926758e-01,9.565244166533811665e+01,-3.374097347259521346e-02
1.669067999999999996e+00,-1.996827223879601640e-02,1.279363320261195092e-01,9.576081633567810059e-01,4.164857657036066807e-02,1.588123653551432035e-02,1.539908105532541809e-02,-3.439201024679174306e-03,1.274273414152462536e-01,2.272072306368499994e-04,2.807475529718544971e-01,1.076730135391614218e-01,1.592377412006667700e-02,-2.206870333012554974e-01,2.689904152354690714e-01,1.873568586299635963e-01,-1.292999446392059382e-01,1.768232703208923173e-01,1.455947041511535534e-01,5.122870884400372304e-01,-2.585539817810058594e-01,-1.368919730186462402e+00,1.505659331581900346e+02,-3.374097347259521346e-02
1.703599000000000085e+00,-1.928415499358749480e-02,1.316477700157043795e-01,9.577975869178771973e-01,4.940037130220497480e-02,1.730105145800342470e-02,1.740895020050211087e-02,-2.756614428204428625e-03,1.218645182699880647e-01,-3.745172405615448952e-03,1.992192429067911330e-01,1.563373361520994237e-02,5.823172149066058179e-02,-2.847140789031982200e-01,2.637392906644629442e-01,2.195047499843964522e-01,-1.847140789031982422e-01,1.640071034431457575e-01,1.723912954330444336e-01,5.119054838031125154e-01,-2.961832284927368164e-01,-3.357621431350708008e-01,-1.009761028403103182e+02,-3.374097347259521346e-02
1.737862000000000018e+00,-1.906129807417240515e-02,1.365114174326278462e-01,9.580812454223632812e-01,5.828819937270493523e-02,1.806291644136637231e-02,1.902269560571293733e-02,2.760220837207348014e-03,1.003357851093581166e-01,1.845169812440872192e-03,1.725570758680075034e-01,2.184383592062160567e-02,1.583750900847233009e-02,-3.098520457744598500e-01,2.646316289901733398e-01,2.543903258101319897e-01,-2.098520457744598444e-01,1.646316289901733343e-01,2.030825436115264726e-01,5.064309635432144852e-01,-5.646145343780517578e-01,-1.356024384498596191e+00,7.602026500943037490e+01,-3.374097347259521346e-02
1.773058999999999941e+00,-1.891324805817852506e-02,1.397696592563799078e-01,9.584132432937622070e-01,6.471771190459604806e-02,1.806414086651875195e-02,1.936956585450350793e-02,1.649266635905431017e-02,9.230445214629308393e-02,-7.182682747952640057e-04,1.761236980545158592e-01,-6.413486382955128906e-03,3.081702115585913462e-02,-3.150448739528656228e-01,2.894012391567230003e-01,2.668470878778549937e-01,-2.150448739528655895e-01,1.894012391567230225e-01,2.149186313152313121e-01,5.057016244091077084e-01,-6.140081286430358887e-01,-1.107982039451599121e+00,-5.163971693686768560e+01,-3.374097347259521346e-02
1.810187999999999908e+00,-1.841366630226598522e-02,1.433814912517432649e-01,9.589114785194396973e-01,7.143517483106916199e-02,1.569278219092873350e-02,1.876775424253643645e-02,1.414284301356274164e-02,6.638903249666383566e-02,2.307627582922577858e-03,1.067579251168937760e-01,-1.327193518528523020e-01,-6.905410613821179495e-03,-3.094144165515899658e-01,2.136913299560546931e-01,2.639035020755443606e-01,-2.094144165515899603e-01,1.136913299560546875e-01,2.133813142776489202e-01,5.058777504142282222e-01,-5.916316509246826172e-01,-9.842537641525268555e-01,9.252299242161083725e+01,-3.374097347259521346e-02
1.853223000000000065e+00,-1.793260754827963668e-02,1.465275328021011236e-01,9.593389034271240234e-01,7.093435456741492562e-02,9.372021902605887078e-03,1.616973223982477725e-02,2.517720965883646703e-02,6.343846214793272265e-02,1.661484478972852230e-03,-9.478513798789317546e-02,-2.218297436412908219e-01,-6.717632464800783743e-02,-3.055000901222229004e-01,-7.890213003738680286e-02,2.366451345509558990e-01,-2.055000901222228948e-01,-1.474467515945434570e-01,1.927458465099334550e-01,5.078599520086942709e-01,-4.898668527603149414e-01,-9.056094884872436523e-01,1.097125841472952885e+02,-3.374097347259521346e-02
1.894050000000000011e+00,-1.732135714260302564e-02,1.490995802124537306e-01,9.596538543701171875e-01,6.326523013943659290e-02,1.540656183787181277e-04,1.191294827656884728e-02,2.361794221953110104e-02,4.417017504401090505e-02,2.342498628422617912e-03,-2.112011318359420797e-01,-2.264996450927827532e-01,-1.216019179519618604e-01,-3.050407886505127064e-01,-1.478620191361330882e-01,2.275509681733167977e-01,-2.050407886505127009e-01,-1.529003620147705023e-01,1.942736327648162675e-01,5.114083155460785735e-01,-2.985755801200866699e-01,-1.189592003822326660e+00,9.826016007912478756e+01,-3.374097347259521346e-02
1.931073000000000039e+00,-1.661172276032235606e-02,1.507123530940980838e-01,9.596420526504516602e-01,5.068495978009254083e-02,-1.111860760930682979e-02,6.484648866143001046e-03,2.076844501669208171e-02,2.933499304860678197e-02,-1.810743473470211029e-02,-3.139693513175880191e-01,-3.075501262164165306e-01,-1.761370239234205382e-01,-3.004058241844177468e-01,-2.421858416966393701e-01,2.090644283254467217e-01,-2.004058241844177135e-01,-1.711559057235717829e-01,1.898120462894439531e-01,5.150592995863859658e-01,-1.869008541107177734e-01,-9.638923406600952148e-01,1.998845298339393395e+01,-3.374097347259521346e-02
1.968283000000000005e+00,-1.599172502555741213e-02,1.513878672026532923e-01,9.591348767280578613e-01,3.723968197387406143e-02,-2.311915603517378237e-02,5.182793643760870992e-04,1.656718189592056717e-02,1.493338671261402149e-02,-2.467693947255611420e-02,-3.992800374235412342e-01,-2.709635923354627995e-01,-1.590103372596017306e-01,-2.720512449741363525e-01,-2.872409343719482533e-01,2.569123969161595314e-02,-1.720512449741363470e-01,-1.872409343719482477e-01,2.238355278968811105e-02,5.148365200156940213e-01,-2.295991182327270508e-01,-1.085703730583190918e+00,1.969479856229407631e+02,-3.374097347259521346e-02
2.003298000000000023e+00,-1.563813054238469974e-02,1.516576909791793604e-01,9.584227204322814941e-01,2.720529486155853424e-02,-3.128274998418523190e-02,-4.037602282051471099e-03,1.924265980911255003e-02,1.451563925930119542e-02,-3.448599204421043396e-02,-3.303423112441641885e-01,-2.535152916149753244e-01,-1.445875193262089187e-01,1.251094736039504163e-02,-2.970532059669494518e-01,-2.178051218358142138e-01,6.196192502975463728e-02,-1.970532059669494462e-01,-2.085471868515014482e-01,5.105310415272074076e-01,-5.048190951347351074e-01,-1.132727503776550293e+00,1.891079256633849468e+02,-3.374097347259521346e-02
2.041128000000000053e+00,-1.503356514633408247e-02,1.524460671150721647e-01,9.569312930107116699e-01,1.276083810413939680e-02,-3.687625164642005515e-02,-1.002981213289987766e-02,9.889997087948604326e-03,5.077156713070857773e-03,-5.037244781851768494e-02,-3.416256175665539629e-01,-6.420553892706669374e-02,-1.821042716770225889e-01,2.332226742073114090e-01,-2.760613441467285045e-01,-2.398708663286054921e-01,1.953568696975707952e-01,-1.760613441467284990e-01,-2.134558439254760631e-01,5.136679262524681544e-01,-4.105622768402099609e-01,-9.854518175125122070e-01,1.095143310764464957e+02,-3.374097347259521346e-02
2.074371000000000187e+00,-1.446172097284499115e-02,1.533403744785836464e-01,9.549162387847900391e-01,-1.240299473415145673e-03,-3.593270780368751360e-02,-1.602786148523877019e-02,8.538003755197299399e-03,1.024807843955062928e-02,-5.161601677536964417e-02,-3.390295529463057123e-01,9.120976625719973141e-02,-1.638809893105674098e-01,3.104640007019042747e-01,-6.904364228248596747e-02,-2.543179190872183471e-01,2.104640007019042969e-01,3.095635771751403809e-02,-2.103914380073547419e-01,5.184447364422085647e-01,-1.724283695220947266e-01,-1.148438811302185059e+00,9.966136655716373127e+01,-3.374097347259521346e-02
2.111032999999999937e+00,-1.425869872107099132e-02,1.538569218564995733e-01,9.538248777389526367e-01,-7.836347745942655318e-03,-3.300949305230393982e-02,-1.909525581291085516e-02,2.069283463082663248e-03,1.718741111172362307e-02,-6.363853812217712402e-02,-3.020176628032673616e-01,1.319570393202109670e-01,-1.645260022724364113e-01,3.145936012268066295e-01,1.796315908432005726e-02,-2.599127627072033153e-01,2.145936012268066240e-01,1.179631590843200628e-01,-2.070588111877441351e-01,5.195168113056221060e-01,-1.722884178161621094e-01,-9.281636476516723633e-01,1.010185866169478004e+02,-3.374097347259521346e-02
2.151152999999999871e+00,-1.376178917418017893e-02,1.546308052763668284e-01,9.509775042533874512e-01,-2.450551082331426170e-02,-2.218396720801885103e-02,-2.402911443885010975e-02,-4.512317873922957502e-03,3.239951594258926038e-02,-6.600819528102874756e-02,-3.030740353841028800e-01,2.415871326470007407e-01,-7.421896716559031604e-03,3.184315562248229980e-01,1.030537366867065319e-01,-2.720252242342628413e-01,2.184315562248229925e-01,2.030537366867065374e-01,-2.046650648117065430e-01,5.178601138137791660e-01,-2.885767817497253418e-01,-7.730113267898559570e-01,8.724980634460501960e+01,-3.374097347259521346e-02
2.187972999999999946e+00,-1.360746701859304360e-02,1.551273840941073401e-01,9.494857788085937500e-01,-3.135311866296067868e-02,-1.422457276258959347e-02,-2.371347618762811513e-02,-1.019410580969764939e-02,3.766911263027900025e-02,-5.694680660963058472e-02,-1.560437410716497553e-01,2.709668307383061858e-01,6.207161604797811066e-02,3.164420366287231667e-01,1.070050954818725364e-01,-2.184033350877980784e-01,2.164420366287231334e-01,2.070050954818725419e-01,-1.517980098724365234e-01,5.170625240589162841e-01,-3.071281909942626953e-01,-1.273319840431213379e+00,9.692015209604915071e+01,-3.374097347259521346e-02
2.237836999999999854e+00,-1.379070976046999249e-02,1.561744327993297432e-01,9.481968283653259277e-01,-3.108854013686394510e-02,-1.532110314068857448e-03,-2.054097270233488579e-02,-2.197860656446209288e-02,4.072734729787071128e-02,-1.648021303117275238e-02,9.513514968666747507e-02,1.676446361784487971e-01,6.959371199382662077e-02,2.917974710464477650e-01,1.522073333797267225e-01,-2.157002853631671130e-02,1.917974710464477595e-01,1.910465955734252930e-01,3.600717186927795271e-02,5.127699824790695748e-01,-3.859212398529052734e-01,-1.007745385169982910e+00,7.105094721840926297e+01,-3.374097347259521346e-02
2.285969999999999835e+00,-1.453529452655074293e-02,1.569102747309666368e-01,9.481395483016967773e-01,-2.094453393168912991e-02,4.972061776167047142e-03,-1.647487280320988207e-02,-2.457660339702925564e-02,4.208485082585547432e-02,4.873691592365503311e-03,3.377821163770060586e-01,3.731615866651503272e-02,9.485165854590980883e-02,2.649097204208373801e-01,1.506316366900864179e-01,-1.246743296568758319e-01,1.649097204208374023e-01,1.482276856899261419e-01,-7.854309082031249445e-02,5.167904082060180704e-01,-8.909553289413452148e-02,-7.597252130508422852e-01,7.774068037832986988e+01,-3.374097347259521346e-02
2.332333999999999907e+00,-1.550206273333596708e-02,1.583254886056186528e-01,9.489504098892211914e-01,-3.970291037814347064e-03,7.859832647929998473e-03,-1.031709034584069561e-02,-2.885290049060167811e-02,4.800557404565078401e-02,1.680967770516872406e-02,3.014207569123998898e-01,-4.914483991936326179e-02,1.184583580108710676e-01,2.688243865966796764e-01,1.480135462440617666e-01,-5.914654474857405919e-02,1.688243865966796708e-01,1.304280996322631780e-01,-3.017717599868774414e-02,5.170824056436302829e-01,-2.524542808532714844e-02,-5.592381954193115234e-02,-6.937979800399307351e+01,-1.118476390838623116e-02
2.376692999999999945e+00,-1.683262504149357630e-02,1.609353417178321921e-01,9.503197073936462402e-01,1.350713695664466397e-02,4.959778414325599627e-03,-3.557317818946867296e-03,-2.068284153780928017e-02,5.811307927367984072e-02,2.896121144294738770e-02,4.049827557623474350e-01,-1.426455007774690142e-01,1.186783987985602640e-01,2.411436263071063957e-01,1.478051723808502804e-01,-1.966740980614773912e-02,1.590646862983703669e-01,1.422989487648010087e-01,-9.657311439514159462e-03,5.179367342225467130e-01,7.243478298187255859e-02,-9.208773374557495117e-01,9.798952749364137560e+01,-1.118476390838623116e-02
2.420973000000000042e+00,-1.769440643613635206e-02,1.629189751192909319e-01,9.516979455947875977e-01,2.676869714466776490e-02,8.740888574765293129e-04,-4.327383165986453607e-04,-1.983486493700784264e-03,6.300537655954532856e-02,2.706828527152538300e-02,3.569671622810281497e-01,-1.003574886547919792e-01,6.024281888575123284e-02,1.078402509829077399e-01,1.285748789508452672e-01,9.728767830501323932e-02,1.074569463729858343e-01,1.360561251640319824e-01,9.841339588165283481e-02,5.185175153614144383e-01,1.003751754760742188e-01,-1.181620240211486816e+00,9.791880771497505975e+01,-1.118476390838623116e-02
2.471601000000000159e+00,-1.866248299812170094e-02,1.653064066206356431e-01,9.533443450927734375e-01,4.160665940694548148e-02,-5.965506938514497648e-03,2.243389900342272238e-03,-1.166927219002941371e-02,4.441926057807032979e-02,3.018666990101337433e-02,2.367370500328036254e-01,-1.049707742802532956e-01,6.068994195847664253e-02,-1.752788245677948109e-01,-7.099169526747554915e-02,1.592271870184180649e-01,-7.527882456779479148e-02,-8.408296108245848915e-03,1.520477950572967363e-01,5.177312368971981327e-01,7.692396640777587891e-02,-1.128325581550598145e+00,1.048317104758366725e+02,-1.118476390838623116e-02
2.523902999999999786e+00,-1.962808148022993082e-02,1.670408456846868284e-01,9.548993706703186035e-01,5.627436392546524696e-02,-1.377999797238094182e-02,5.079160243473387383e-03,-2.833735078104909419e-02,1.780360479553357717e-02,4.752640798687934875e-02,3.135951931223048272e-01,-1.130532140341223013e-01,9.883367738611313277e-03,-2.868996858596801758e-01,-2.416162729263305609e-01,2.236746954976853718e-01,-1.868996858596801702e-01,-1.416162729263305553e-01,2.073214352130889893e-01,5.059164237010984611e-01,-4.770218133926391602e-01,-1.052840352058410645e+00,1.012114643289197886e+02,-1.118476390838623116e-02
2.570875000000000021e+00,-2.089882906876239926e-02,1.686924937495540566e-01,9.566338062286376953e-01,6.965311789132000442e-02,-2.181969193011634722e-02,6.944235781604625631e-03,-2.465121906038849134e-02,1.506073158301279771e-03,3.820116072893142700e-02,3.062157819295289185e-01,-1.705853999903827189e-01,3.402616252684251968e-02,-3.143084287643432839e-01,-2.969337940216064675e-01,2.453215788952644860e-01,-2.143084287643432506e-01,-1.969337940216064342e-01,2.224901139736175371e-01,5.021835662567823988e-01,-7.033281326293945312e-01,-1.316898703575134277e+00,1.241894364705149485e+02,-1.118476390838623116e-02
2.610939000000000121e+00,-2.251994583478032080e-02,1.696194640511952123e-01,9.585226774215698242e-01,7.929098251791785734e-02,-2.914376886356584428e-02,5.769739064219397452e-03,-2.467557607505922387e-02,-1.999446852927967699e-02,3.493806347250938416e-02,1.370544108156198648e-01,-1.146219240763886038e-01,-9.920826257050173458e-03,-3.189145863056183083e-01,-3.108684062957763894e-01,2.463186388891455691e-01,-2.189145863056182750e-01,-2.108684062957763561e-01,2.254495918750762939e-01,5.017133477076082260e-01,-7.330359816551208496e-01,-1.303418040275573730e+00,7.393504240677133055e+01,-1.118476390838623116e-02
2.653433999999999848e+00,-2.339434948811669121e-02,1.699850036162856848e-01,9.598357677459716797e-01,8.175600162796785308e-02,-3.142057895718264326e-02,3.383386071970236140e-03,-3.658481998895272286e-02,-3.892378177946925061e-02,2.899962291121482849e-02,1.491543960335544716e-03,1.873967102505298124e-03,-4.816852263505751186e-02,-2.958704948425293080e-01,-2.439082026481628473e-01,1.970779891783440430e-01,-1.958704948425293024e-01,-1.439082026481628418e-01,1.823151826858520341e-01,5.074451492072060699e-01,-4.493690133094787598e-01,-2.966121435165405273e-01,6.815356731211151953e+01,-1.118476390838623116e-02
2.697687999999999864e+00,-2.380989449346383735e-02,1.702016289310207542e-01,9.609171748161315918e-01,7.629081478256012627e-02,-2.876237431965056324e-02,2.101387173336571141e-04,-3.055849955239317225e-02,-5.709578934683987028e-02,1.476105302572250366e-02,-1.766067343186414063e-01,1.234786131278309274e-01,-1.270262572141801771e-01,-3.085277140140533225e-01,-5.387165546417237161e-02,1.622793244329117646e-01,-2.085277140140533447e-01,4.612834453582763394e-02,1.572411239147186168e-01,5.090924141058171815e-01,-4.146268367767333984e-01,-9.676347970962524414e-01,1.040443945702092918e+02,-1.118476390838623116e-02
2.738522000000000123e+00,-2.427588312066844556e-02,1.695216105228316561e-01,9.614564776420593262e-01,6.624351480484728938e-02,-2.086115240862351783e-02,-4.153898943981490684e-03,-2.903591770575360970e-02,-7.948100250867155825e-02,8.885465562343597412e-03,-2.907533962373788916e-01,2.225238633094269725e-01,-1.379573501788406154e-01,-3.098808884620666282e-01,-6.249313354492188471e-02,1.659064642590828142e-01,-2.098808884620666504e-01,3.750686645507812084e-02,1.745550692081451472e-01,5.121161739828429260e-01,-2.757485508918762207e-01,-1.472275614738464355e+00,6.535729469609746900e+01,-1.118476390838623116e-02
2.804553999999999991e+00,-2.471544536000500752e-02,1.678167661197677019e-01,9.613816142082214355e-01,4.961758241533544694e-02,-6.488381450565405828e-03,-1.040961553841290507e-02,-2.805359703796758350e-02,-9.098076431179362433e-02,-1.680060103535652161e-02,-3.653823653789991521e-01,3.201681441878291290e-01,-1.599119684585638412e-01,-3.102739572525024525e-01,-5.826934662045060720e-02,1.595307983929114826e-01,-2.102739572525024470e-01,2.330460548400878698e-02,1.875990092754364069e-01,5.171549593314552773e-01,-1.103774309158325195e-01,-7.046085596084594727e-01,8.376810375481268522e+01,-1.118476390838623116e-02
2.845994000000000135e+00,-2.516084039223465477e-02,1.645034428469784316e-01,9.604310989379882812e-01,2.955283006553277234e-02,1.251083619558990279e-02,-1.828495888607989742e-02,-3.426186489604275687e-02,-1.067573839737588209e-01,-3.127958253026008606e-02,-3.209199542529317939e-01,3.115239553903542680e-01,-1.172566611669076664e-01,-2.953256845474243053e-01,2.431906720883086626e-01,8.041856553604809221e-02,-1.953256845474242998e-01,2.069850683212280107e-01,1.319270431995391846e-01,5.150975685281368177e-01,-2.849200963973999023e-01,-5.762070417404174805e-01,9.108656948821131039e+01,-1.118476390838623116e-02
2.896373000000000086e+00,-2.585192253571586690e-02,1.616462192072371240e-01,9.596038460731506348e-01,1.613294738257932057e-02,2.165501861014296203e-02,-2.313640012277154434e-02,-2.140647771123968535e-02,-1.063660594477519317e-01,-3.618369251489639282e-02,-3.181794388302589538e-01,1.855878789287982722e-01,-1.481437273865479354e-01,-2.284858727867249140e-01,3.154306471347808616e-01,-2.547644216704628151e-03,-1.884523987770080622e-01,2.154306471347808838e-01,6.283341050148009976e-02,5.135503599445763179e-01,-3.940050601959228516e-01,-6.752570867538452148e-01,9.668188777704243364e+01,-1.118476390838623116e-02
2.946495999999999782e+00,-2.647779149092529399e-02,1.578267271447131026e-01,9.583510160446166992e-01,-5.073842248717295739e-04,2.718909500697042070e-02,-2.913674636641280791e-02,-8.428162157419639283e-03,-1.003518564770794069e-01,-4.273847118020057678e-02,-3.007933366983748247e-01,1.340177481131618331e-01,-1.287375169906757599e-01,8.719444324919091438e-02,3.190566897392272949e-01,-1.754114432969497983e-01,1.708012819290161133e-02,2.190566897392272894e-01,-9.351217746734619141e-02,5.139488945473263959e-01,-4.077378511428833008e-01,-5.434669256210327148e-01,1.010920794524171384e+02,-1.118476390838623116e-02
2.988954999999999806e+00,-2.703179277452752091e-02,1.528343943928079374e-01,9.568868279457092285e-01,-1.840322207398194590e-02,3.056762428991710578e-02,-3.530786332906996755e-02,1.911192222987463272e-03,-8.820531665519699971e-02,-4.215340316295623779e-02,-3.045556756125493147e-01,7.914367089633936314e-02,-9.317773277289365108e-02,3.173464417457580455e-01,3.227570652961730957e-01,-3.112988603681650646e-01,2.173464417457580400e-01,2.227570652961730902e-01,-2.127217054367065430e-01,5.144303404158319104e-01,-3.898489475250244141e-01,-7.930675745010375977e-01,1.116082211891622933e+02,-1.118476390838623116e-02
3.031601999999999908e+00,-2.709051793583565002e-02,1.490033073986043732e-01,9.558629393577575684e-01,-3.162146070373352685e-02,3.041160150930344308e-02,-3.971666180370262561e-02,1.200009920401507064e-02,-7.957789844804630253e-02,-4.111224412918090820e-02,-2.938489089009362898e-01,-6.923637544791430565e-02,-8.207959144855689337e-02,3.202921509742736594e-01,3.209456443786621316e-01,-3.220983505249023215e-01,2.202921509742736816e-01,2.209456443786620983e-01,-2.220983505249023438e-01,5.162254605259875007e-01,-2.979267835617065430e-01,-1.003309607505798340e+00,9.611435369852773647e+01,-1.118476390838623116e-02
3.072001000000000204e+00,-2.716976742133061715e-02,1.455955808244436267e-01,9.550724029541015625e-01,-4.373761836023334904e-02,2.364127022387374488e-02,-4.240053410648087634e-02,1.846721614023875621e-02,-5.690328882609078931e-02,-3.532314300537109375e-02,-3.123883576914708304e-01,-2.282576429975335941e-01,1.425436949992718409e-02,3.220070481300353893e-01,3.101558506488800160e-01,-3.240783929824829213e-01,2.220070481300353837e-01,2.101558506488800104e-01,-2.240783929824829157e-01,5.120555688715607845e-01,-5.057046413421630859e-01,-1.075816988945007324e+00,8.209500110629386427e+01,-1.118476390838623116e-02
3.112880999999999787e+00,-2.783108639560539013e-02,1.417370761323764328e-01,9.546020030975341797e-01,-5.572131369884256169e-02,8.146105057630359525e-03,-4.325177033983265001e-02,2.203931693325409877e-02,-3.917303363993481641e-02,-6.124499253928661346e-03,-2.107959130031840933e-01,-3.636360920897608873e-01,1.414364847962020031e-03,3.225123763084411510e-01,-3.980400912845029338e-02,-3.255999565124511608e-01,2.225123763084411455e-01,-8.477268218994139792e-02,-2.255999565124511552e-01,5.080558762254716587e-01,-6.077417731285095215e-01,-7.599998712539672852e-01,1.283875302815932287e+02,-1.118476390838623116e-02
3.153465000000000185e+00,-2.831338894441131140e-02,1.395642896283091350e-01,9.546780586242675781e-01,-5.815615611008320696e-02,-7.060308136275006419e-03,-3.987619758149709565e-02,7.204709320837569299e-03,-1.658369765675935317e-02,9.382133372128009796e-03,3.718307134959591281e-02,-4.054482665385275575e-01,1.198605796019502345e-01,3.226724863052368164e-01,-2.773807579799628664e-01,-3.236075401306152122e-01,2.226724863052368109e-01,-2.105162143707275391e-01,-2.236075401306152344e-01,5.055754430434218349e-01,-6.799185872077941895e-01,-1.022301077842712402e+00,9.290916448709418773e+01,-1.118476390838623116e-02
3.193398999999999877e+00,-2.918384552963481163e-02,1.378577182940467771e-01,9.555681943893432617e-01,-5.180354036346387220e-02,-2.278527465597490753e-02,-3.413716469967967987e-02,2.137854823449674888e-04,-2.555049978904161499e-03,1.992237009108066559e-02,2.198368160797894155e-01,-3.683245025486686086e-01,2.005318651616933012e-01,3.216689825057983398e-01,-3.101624488830566628e-01,-3.094422111186312385e-01,2.216689825057983343e-01,-2.101624488830566295e-01,-2.126561164855957087e-01,5.075394857992029385e-01,-5.325808525085449219e-01,-1.083994984626770020e+00,-5.118495952683365857e+01,-1.118476390838623116e-02
3.236305999999999905e+00,-3.029997884993406582e-02,1.369744696229702741e-01,9.570297598838806152e-01,-4.018855485076597983e-02,-3.751069070188650656e-02,-2.773726687001384916e-02,-8.535632154854040643e-03,1.241169795791409979e-02,3.550921007990837097e-02,2.335119093426345771e-01,-3.634272722301220004e-01,1.780344866751701338e-01,3.207567811012267955e-01,-3.167862892150878906e-01,-2.921923315095257268e-01,2.207567811012267900e-01,-2.167862892150878851e-01,-2.133809566497802679e-01,5.057090833326235435e-01,-5.630180835723876953e-01,-8.021458387374877930e-01,1.384457351552457283e+02,-1.118476390838623116e-02
3.276857000000000131e+00,-3.166769519889665180e-02,1.366652782537401412e-01,9.587934613227844238e-01,-2.657658719546672141e-02,-5.042478093861157973e-02,-2.074216107017464242e-02,-2.537769807597811678e-02,2.447709610960135604e-02,5.350533872842788696e-02,3.592164526131381708e-01,-3.311766099081041026e-01,1.739565140543313793e-01,3.159143209457397350e-01,-3.165190339088440052e-01,-2.527477290716795277e-01,2.159143209457397294e-01,-2.165190339088439997e-01,-1.943082332611083818e-01,5.041060205424259255e-01,-5.695733428001403809e-01,-8.896526098251342773e-01,1.214458451035691979e+02,-1.118476390838623116e-02
3.318201999999999874e+00,-3.295106139959529806e-02,1.364505164687015992e-01,9.605788588523864746e-01,-1.373612082925555235e-02,-5.593369798308911456e-02,-1.361906034982945934e-02,-2.119274889775788623e-02,4.158823212417690762e-02,3.673340752720832825e-02,3.654723422596593552e-01,-5.329033259763372304e-02,1.924828972073849842e-01,2.867917895317077526e-01,-3.066415309906005970e-01,-1.415855158706367245e-01,1.867917895317077470e-01,-2.066415309906005915e-01,-1.043328523635864286e-01,5.125779625115756133e-01,-1.804884076118469238e-01,-1.671214938163757324e+00,6.485560364118168764e+01,-1.118476390838623116e-02
3.362665999999999933e+00,-3.490104288384458103e-02,1.367835086859337801e-01,9.625231027603149414e-01,1.827418889773615171e-03,-4.882247527688465816e-02,-4.551224672038813035e-03,-3.595789136417260751e-02,4.338554385006568315e-02,2.454796247184276581e-02,3.218958935854644987e-01,2.234604610616317266e-01,2.143994301079558684e-01,1.378201842308044434e-01,-8.045812249183655063e-02,1.805251421386654120e-02,3.782018423080444475e-02,1.954187750816345145e-02,2.875737547874450406e-02,5.202026002068304011e-01,1.872808933258056641e-01,-1.050022721290588379e+00,1.007296559546779235e+02,-1.118476390838623116e-02
3.403468999999999856e+00,-3.549163695590251688e-02,1.375107263234836286e-01,9.639610648155212402e-01,1.572031454395373187e-02,-3.699758224299576348e-02,2.880261019853407826e-03,-4.875983978332664587e-02,4.455279186807269143e-02,1.870072446763515472e-02,3.228448249607913101e-01,3.479040313208157653e-01,2.084802205379192863e-01,-3.272006292009634748e-02,-4.696943759918213723e-02,5.573339800976915420e-02,-8.584361672401427668e-02,5.303056240081786832e-02,4.508825540542602678e-02,5.209346544720427907e-01,2.082009315490722656e-01,-1.301467537879943848e+00,6.743925929852241552e+01,-1.118476390838623116e-02
3.447016000000000080e+00,-3.647931374960201867e-02,1.381433518997574050e-01,9.651337265968322754e-01,3.048537631132035991e-02,-2.347392576259910157e-02,1.041989339374868075e-02,-5.467678512846139288e-02,3.541291834946263400e-02,2.638958394527435303e-02,3.243797286437515304e-01,3.131749459558651472e-01,2.044733012901089608e-01,-1.404612346639140530e-01,-2.700062394142151156e-02,1.042187308240455357e-01,-9.166399240493773581e-02,7.299937605857849399e-02,7.253658771514892578e-02,5.208290211496749977e-01,2.373751401901245117e-01,-1.039067387580871582e+00,9.565527619384366176e+01,-1.118476390838623116e-02
3.492634999999999934e+00,-3.818232052727341119e-02,1.382924687888756887e-01,9.661013484001159668e-01,4.495332294058675821e-02,-9.637163407398618986e-03,1.739161451242603185e-02,-4.636101167099652975e-02,1.985849072078054584e-02,1.338209584355354309e-02,3.261920338516166584e-01,3.329116636772164739e-01,1.611215094949301763e-01,-2.474501490592956598e-01,-8.585526347160339633e-02,1.835434903880565627e-01,-1.474501490592956543e-01,1.414473652839660575e-02,1.331252932548522838e-01,5.197507924112177990e-01,1.314096450805664062e-01,-1.089304089546203613e+00,1.065088839171008033e+02,-1.118476390838623116e-02
3.538282999999999845e+00,-4.082224177812101423e-02,1.376234881335284543e-01,9.669830799102783203e-01,6.132054072397220834e-02,6.398606029209163992e-03,2.317259244534591867e-02,-4.488351728842284588e-02,3.554925018469973393e-03,1.483904849737882614e-02,2.355721678902523708e-01,2.727376990954672453e-01,3.824123941069149796e-02,-2.936730861663818248e-01,1.330701354755058075e-02,2.619056116852619964e-01,-1.936730861663818193e-01,2.933192253112792969e-02,1.967229723930358776e-01,5.059717347919575614e-01,-5.951427817344665527e-01,-3.319156169891357422e-02,1.094024525778416859e+02,-6.638312339782714497e-03
3.584020000000000206e+00,-4.356546562220027508e-02,1.362112834488889979e-01,9.675894379615783691e-01,7.058196415208219110e-02,1.488166795486045579e-02,2.548588934682797374e-02,-4.587060224592200836e-02,-1.577139052274477773e-02,1.587299443781375885e-02,1.500634398965597083e-01,9.123982077569145477e-02,6.420410044873689492e-03,-3.169544637203216553e-01,5.636648804844977129e-02,2.863103494645716784e-01,-2.169544637203216497e-01,1.980239152908325195e-02,2.156280040740966852e-01,5.038432658009331933e-01,-7.011215686798095703e-01,-1.090911269187927246e+00,8.115619843506478048e+01,-6.638312339782714497e-03
3.626603999999999939e+00,-4.609328057556678210e-02,1.349498291666726135e-01,9.679776430130004883e-01,7.039443917717143340e-02,1.843736344246815761e-02,2.587850219648376443e-02,-4.302039903223999623e-02,-3.510691994578826747e-02,1.980825141072273254e-02,-6.274548660417358925e-02,7.694915462648126148e-02,-9.123976747934914311e-03,-2.942643165588378906e-01,2.492121439343157330e-01,2.556485421345823239e-01,-1.942643165588378851e-01,1.892612636089325007e-01,1.842881977558135931e-01,5.074203702850973441e-01,-4.952104091644287109e-01,-9.151345491409301758e-01,8.801831873944735207e+01,-6.638312339782714497e-03
3.668521000000000143e+00,-4.817576512959544088e-02,1.330315122558771712e-01,9.682741761207580566e-01,6.524742680352367541e-02,2.063555236007963423e-02,2.456876312090821093e-02,-3.324901166596098967e-02,-5.318553433243738970e-02,1.464986521750688553e-02,-1.690777604090820951e-01,6.045681695445069559e-02,-6.370567914497526907e-02,-3.154954850673675759e-01,2.182139006813135773e-01,2.316254774584310117e-01,-2.154954850673675426e-01,1.387794792652130016e-01,1.641770660877227839e-01,5.068313244721086575e-01,-5.457782745361328125e-01,-6.951342821121215820e-01,7.907609164409407754e+01,-6.638312339782714497e-03
3.712397999999999865e+00,-5.005936433388399887e-02,1.304526610948913423e-01,9.684975147247314453e-01,5.633407245198574637e-02,2.382618015071291673e-02,2.156414813213517259e-02,-2.485062086874149229e-02,-7.291206054046794893e-02,1.346939615905284882e-02,-2.473633108978869066e-01,1.165166145512668144e-01,-1.144186462755429762e-01,-3.125038743019104004e-01,2.247142612934112660e-01,2.239220110230840111e-01,-2.125038743019103948e-01,1.247142612934112466e-01,1.650456368923187145e-01,5.073115615929394417e-01,-5.244598984718322754e-01,-1.107941269874572754e+00,9.115137432305638754e+01,-6.638312339782714497e-03
3.754941999999999780e+00,-5.180187843402946773e-02,1.264195280768594387e-01,9.684495329856872559e-01,4.160323828761906817e-02,2.587136961066582863e-02,1.562441379736056665e-02,-6.616109404570009664e-03,-8.481298961742411713e-02,-2.911044983193278313e-03,-3.363835242733938524e-01,-1.037477205734807506e-02,-1.651525466441984002e-01,-3.141275048255920410e-01,1.906432151794433816e-01,1.839478520644153015e-01,-2.141275048255920355e-01,9.064321517944336215e-02,1.416155040264129583e-01,5.126940897866251179e-01,-3.045148849487304688e-01,-8.935745954513549805e-01,-6.938989302358635314e+01,-6.638312339782714497e-03
3.796228000000000158e+00,-5.316702531059708942e-02,1.229902514121474638e-01,9.679986238479614258e-01,2.851112085550645131e-02,2.390761008812458677e-02,1.025607425904767264e-02,1.956894954429064845e-05,-9.268286756144492045e-02,-1.065024640411138535e-02,-3.478770249559011152e-01,-9.886762382679414873e-02,-1.168054364414158747e-01,-3.173198699951171875e-01,7.018685340881347656e-02,2.115853600926573819e-01,-2.173198699951171819e-01,-2.981314659118652205e-02,1.838012516498565563e-01,5.135016481748737593e-01,-2.956787347793579102e-01,-1.374689459800720215e+00,1.360401015484322045e+02,-6.638312339782714497e-03
