timestamp,x,y,z,roll,pitch,yaw,vx,vy,vz,p,q,r,psp,qsp,rsp,pres,qres,rres,thrust_sp, thrust_res
0.000000000000000000e+00,5.254149321510966780e-03,9.796119430689179033e-04,1.037533283233642578e+00,1.332602561708847409e-02,-6.704443349119681983e-03,2.143482814161501437e-02,-9.874776284553575187e-03,3.005032095865831435e-02,4.289960023015737534e-03,1.390031012621558391e-02,4.578814232581421978e-02,-2.668000493171443499e-02,-6.152499977210477977e-02,-4.749235841615878639e-02,6.019386997887343771e-02,0.000000000000000000e+00,-0.000000000000000000e+00,-0.000000000000000000e+00,5.088086060196403970e-01,0.000000000000000000e+00
2.490099999999999952e-02,4.930783111761908102e-03,1.819116811189014577e-03,1.037437677383422852e+00,1.320525150473511773e-02,-6.651850501336653565e-03,2.135164799764610599e-02,-1.150302484223058967e-02,2.550418108718709859e-02,-2.920184284448623657e-03,-2.794912471652793301e-02,-2.897098084693490797e-03,2.693981927063704776e-02,-6.830573024795452697e-02,-4.736400120984050888e-02,5.994703028035591741e-02,0.000000000000000000e+00,-0.000000000000000000e+00,-0.000000000000000000e+00,5.093186212252966971e-01,0.000000000000000000e+00
5.243600000000000344e-02,4.672849346425569407e-03,3.294783580737059049e-03,1.037221312522888184e+00,1.285850211400386620e-02,-6.429321841290525086e-03,2.142073800553023766e-02,-1.472884534757586475e-02,2.726628891353822734e-02,7.360920426435768604e-05,-6.430020230958138731e-03,-9.884145571290027868e-03,6.143321935039764564e-03,-6.283359714738502577e-02,-4.846063495006249638e-02,6.014589888693366859e-02,0.000000000000000000e+00,-0.000000000000000000e+00,-0.000000000000000000e+00,5.090773933106060856e-01,0.000000000000000000e+00
7.425400000000000056e-02,4.572013784333978613e-03,4.291492329261644041e-03,1.037067294120788574e+00,1.258888818707260687e-02,-6.458819916011604434e-03,2.127364459647718142e-02,-8.056632134673160847e-03,2.457454426869790792e-02,3.679485758766531944e-03,-2.848454926746265062e-02,-1.219468440376089355e-02,-3.278235545726484318e-02,-6.287841057194865080e-02,-4.286273375370267674e-02,5.970960991164198095e-02,0.000000000000000000e+00,-0.000000000000000000e+00,-0.000000000000000000e+00,5.087815350129639702e-01,0.000000000000000000e+00
1.008710000000000023e-01,4.453120071048349143e-03,5.793307243444071469e-03,1.036849498748779297e+00,1.258019276015210491e-02,-6.386955919336134713e-03,2.143829534811048099e-02,-1.357195709018595847e-02,2.844560835926533693e-02,7.431429345160722733e-03,9.414853382292687894e-03,8.776832637307661542e-03,4.082058225442265764e-02,-5.807431783437203704e-02,-4.791441942608062193e-02,6.019511242641661930e-02,0.000000000000000000e+00,-0.000000000000000000e+00,-0.000000000000000000e+00,5.084775182187082354e-01,0.000000000000000000e+00
1.240799999999999959e-01,4.383966236982138331e-03,6.747142786449632224e-03,1.036743402481079102e+00,1.287808298666480271e-02,-6.127353349351105649e-03,2.101005314834392124e-02,-6.240087410157001309e-03,2.459012521556668343e-02,8.347718976438045502e-03,2.284439867651319456e-02,-9.674700863546280977e-03,-4.963453827643311833e-02,-6.310743948040979656e-02,-3.953523035288892401e-02,5.896515263361890025e-02,0.000000000000000000e+00,-0.000000000000000000e+00,-0.000000000000000000e+00,5.083739071636426132e-01,0.000000000000000000e+00
1.550499999999999934e-01,3.811265006878342826e-03,7.586633548432503149e-03,1.036622405052185059e+00,1.286046718697097212e-02,-5.225797982832736110e-03,2.084065742594143344e-02,-1.301767461349193598e-02,2.647335510632116071e-02,1.102109206840395927e-03,-3.039681005110769427e-02,4.101343217282239773e-02,8.236571686014214008e-03,-6.011969878092163905e-02,-4.064340323436550773e-02,5.849848031360288525e-02,0.000000000000000000e+00,-0.000000000000000000e+00,-0.000000000000000000e+00,5.088877162124371134e-01,0.000000000000000000e+00
1.787950000000000095e-01,3.335940111317113425e-03,7.969854298681498112e-03,1.036558747291564941e+00,1.327598751642133749e-02,-4.639311062827111698e-03,2.064354066775608842e-02,-6.159062266030006921e-03,2.907795322072329741e-02,9.676933288574218750e-03,1.299793097791817655e-02,5.786046685309394894e-02,-3.881391527813892600e-02,-6.063271267833862666e-02,-3.051005855832437941e-02,5.791571037496567875e-02,0.000000000000000000e+00,-0.000000000000000000e+00,-0.000000000000000000e+00,5.082103235021487864e-01,0.000000000000000000e+00
2.038250000000000062e-01,2.811951738851389392e-03,8.340402301982009076e-03,1.036486506462097168e+00,1.308664609845667029e-02,-4.417161696268490090e-03,2.060811592714872909e-02,-4.951248726208407752e-03,3.137313088604234967e-02,1.145920483395457268e-03,-5.312846030368252592e-02,2.103401044369520440e-02,3.033296289485253733e-02,-5.757418337902679012e-02,-2.941792091802478831e-02,5.781314080686644763e-02,0.000000000000000000e+00,-0.000000000000000000e+00,-0.000000000000000000e+00,5.088161339369020597e-01,0.000000000000000000e+00
2.277619999999999922e-01,2.330520787063866759e-03,8.742280659256486050e-03,1.036413669586181641e+00,1.298551201800381485e-02,-4.401144884777163924e-03,2.051757798122677556e-02,-1.045984955273637426e-02,3.096138192878256437e-02,1.187377795577049255e-02,-8.744127901553860188e-03,-1.028265335163036816e-02,-1.447506340266548584e-02,-5.704182186750529626e-02,-3.434231652658758377e-02,5.757706398262690817e-02,0.000000000000000000e+00,-0.000000000000000000e+00,-0.000000000000000000e+00,5.079767963430352751e-01,0.000000000000000000e+00
2.509839999999999849e-01,1.825034696800642694e-03,9.164309564081053391e-03,1.036297798156738281e+00,1.249380518573516181e-02,-4.735488468865955980e-03,2.047398992339188872e-02,-1.801800922534044572e-02,2.381964260627456725e-02,8.938062819652259350e-04,-2.649548889867909748e-02,-8.150055889064655029e-03,6.205633866894494019e-03,-5.919817355616025650e-02,-4.232120283902338076e-02,5.747222580862476615e-02,0.000000000000000000e+00,-0.000000000000000000e+00,-0.000000000000000000e+00,5.087678738330219108e-01,0.000000000000000000e+00
2.816119999999999735e-01,9.336930314934778355e-04,1.069095106776433296e-02,1.036102533340454102e+00,1.224739036666226688e-02,-5.541992981154209019e-03,2.041599850108766212e-02,-1.588012128026443153e-03,3.252113114728452659e-02,8.781756274402141571e-03,-1.034119338348595332e-02,-2.154913739077976217e-02,-4.661788120206728512e-04,-4.850900087551999335e-02,-3.347605193256024403e-02,5.728843755977075514e-02,0.000000000000000000e+00,-0.000000000000000000e+00,-0.000000000000000000e+00,5.081537791834516149e-01,0.000000000000000000e+00
3.002389999999999781e-01,6.418881265691228763e-04,1.118122087702712320e-02,1.036046147346496582e+00,1.206615813478219279e-02,-5.883568409472905714e-03,2.049599769500565216e-02,1.112613577562906932e-03,3.350205994042361468e-02,7.063344586640596390e-03,-8.911029353771625708e-03,-4.037276825532885860e-02,3.301441498144062903e-02,-4.736475418217618583e-02,-3.612253823736260444e-02,5.752067651682124527e-02,0.000000000000000000e+00,-0.000000000000000000e+00,-0.000000000000000000e+00,5.082453756936006206e-01,0.000000000000000000e+00
3.302240000000000175e-01,-1.745884733965967874e-04,1.266867380229216335e-02,1.035807013511657715e+00,1.254861887983937767e-02,-5.945800908535137097e-03,2.012481015239786508e-02,-1.917383836154712418e-02,2.658955901614946937e-02,1.652841269969940186e-02,6.783482506014668068e-02,-1.945018408579436003e-02,-2.445404545562725185e-02,-5.486112107265414539e-02,-5.418389569579433462e-02,5.654427436283682162e-02,0.000000000000000000e+00,-0.000000000000000000e+00,-0.000000000000000000e+00,5.075079881917793356e-01,0.000000000000000000e+00
3.537219999999999809e-01,-7.158152057224670189e-04,1.361236832977329343e-02,1.035741806030273438e+00,1.292908057794256264e-02,-5.963755542133020171e-03,2.008108990504187119e-02,-7.626271873944038236e-03,2.705754034654812498e-02,9.136758744716644287e-03,-2.585712988919689620e-02,3.699035533212791799e-02,1.393671433423960063e-02,-5.540711642181269520e-02,-4.215235716927315246e-02,5.638513330020472614e-02,0.000000000000000000e+00,-0.000000000000000000e+00,-0.000000000000000000e+00,5.080212562378406682e-01,0.000000000000000000e+00
3.757449999999999957e-01,-1.356353041742681389e-03,1.495944157600233825e-02,1.035604715347290039e+00,1.346344448871580543e-02,-5.777436430458360306e-03,1.982387871922774991e-02,-1.158991240947693279e-03,3.749155631848085507e-02,1.077265292406082153e-02,7.546665749830747116e-03,4.874993788183853288e-02,-4.185240257565482624e-02,-4.940817204557210185e-02,-3.764578065977638305e-02,5.566479847981870011e-02,0.000000000000000000e+00,-0.000000000000000000e+00,-0.000000000000000000e+00,5.078681480601925369e-01,0.000000000000000000e+00
4.011170000000000013e-01,-2.153376480462374995e-03,1.664926745361924171e-02,1.035466551780700684e+00,1.333395103259453658e-02,-5.342248286280826264e-03,1.992354721753786251e-02,-1.052842672378440786e-02,3.651324477452837225e-02,4.206368234008550644e-03,-1.541948755810741006e-02,2.291621764722856502e-02,3.489579668441502441e-02,-4.955280185126371278e-02,-4.399087386428980617e-02,5.596747767131637907e-02,0.000000000000000000e+00,-0.000000000000000000e+00,-0.000000000000000000e+00,5.083305598279672655e-01,0.000000000000000000e+00
4.249169999999999892e-01,-2.926441233308429545e-03,1.836298479068674411e-02,1.035372972488403320e+00,1.352520293302038497e-02,-5.198911770633918294e-03,1.959578122839422676e-02,-1.691567448148417405e-02,2.801557512827696633e-02,1.711403205990791321e-02,1.456393458507539151e-02,5.142426286983681032e-03,-3.446746391129436315e-02,-5.615872045818644936e-02,-4.757569727025964812e-02,5.505758412173233918e-02,0.000000000000000000e+00,-0.000000000000000000e+00,-0.000000000000000000e+00,5.073243725616183308e-01,-0.000000000000000000e+00
4.537860000000000227e-01,-4.068364552192537016e-03,2.080021517030570741e-02,1.035246849060058594e+00,1.354522884038288424e-02,-5.348607416108874801e-03,1.963107504739491915e-02,-5.014182972078116626e-03,3.546354839201051878e-02,9.971790947020053864e-03,-1.715762775521862890e-02,7.436614088612801370e-03,-1.158639435821866986e-02,-4.738906196906077922e-02,-3.846506991055722441e-02,5.513241289137060797e-02,0.000000000000000000e+00,-0.000000000000000000e+00,-0.000000000000000000e+00,5.078257222257620551e-01,0.000000000000000000e+00
4.765229999999999744e-01,-4.817073156141244740e-03,2.239924928400300816e-02,1.035219907760620117e+00,1.422677448308465493e-02,-5.321515255784170506e-03,1.938309973413088194e-02,-3.486568333544086233e-03,3.367119042588742617e-02,1.975077018141746521e-02,7.081599831025925385e-02,-4.139512102167920704e-02,-2.500001388118368306e-02,-5.306415684452211318e-02,-3.934897913939114367e-02,5.444594815179437663e-02,0.000000000000000000e+00,-0.000000000000000000e+00,-0.000000000000000000e+00,5.070457518896389626e-01,-0.000000000000000000e+00
5.008569999999999967e-01,-5.485456840189069892e-03,2.378939392900242256e-02,1.035217285156250000e+00,1.500200078595398043e-02,-5.222529915313467441e-03,1.922074149764885220e-02,-1.740946698570655649e-02,3.194189354953503451e-02,1.795092597603797913e-02,6.884373564965971803e-02,7.507133764365983737e-03,6.476579385078426281e-03,-5.798648482399578613e-02,-5.082989700112553605e-02,5.405003667116470289e-02,0.000000000000000000e+00,-0.000000000000000000e+00,-0.000000000000000000e+00,5.071311697133573659e-01,-0.000000000000000000e+00
5.249840000000000062e-01,-6.143443489592910652e-03,2.503337210371071181e-02,1.035248994827270508e+00,1.584838231212387649e-02,-5.157705707249160554e-03,1.873685914188549795e-02,-1.178512042285746221e-02,2.895341481615141405e-02,1.594335027039051056e-02,2.656833739967090491e-02,1.329807758351875605e-02,-3.691483178151080263e-02,-6.479245199420104184e-02,-4.422306437105603255e-02,5.267139421993011217e-02,0.000000000000000000e+00,-0.000000000000000000e+00,-0.000000000000000000e+00,5.072292141046635949e-01,-0.000000000000000000e+00
5.510650000000000270e-01,-6.732795710017818597e-03,2.623583265832175188e-02,1.035274147987365723e+00,1.645406356853390192e-02,-4.773085300481483273e-03,1.852318896596649722e-02,-4.156056260525983585e-03,3.916380001375772968e-02,5.392565391957759857e-03,-5.343553329921444349e-03,5.925234982343825091e-02,-1.933415850802606625e-02,-5.909394423121511197e-02,-3.657237267220117549e-02,5.205443223633576810e-02,0.000000000000000000e+00,-0.000000000000000000e+00,-0.000000000000000000e+00,5.079789265606933224e-01,0.000000000000000000e+00
5.756949999999999568e-01,-7.310657313524807598e-03,2.744824184046761734e-02,1.035343766212463379e+00,1.686689364174496358e-02,-4.508253988761534714e-03,1.818398914021290835e-02,-1.152565647006254142e-02,3.374547885657423058e-02,1.689131371676921844e-02,9.876743436976314836e-03,1.400081093124942895e-02,-2.294122095024868704e-02,-6.649732851464479344e-02,-4.256166366968352349e-02,5.113212084021778736e-02,0.000000000000000000e+00,-0.000000000000000000e+00,-0.000000000000000000e+00,5.070653828131539420e-01,-0.000000000000000000e+00
6.051699999999999857e-01,-7.893283386714878072e-03,2.862656017483778195e-02,1.035375356674194336e+00,1.713958503132753664e-02,-4.400762865609086916e-03,1.813245381671624301e-02,-8.180952556844516693e-03,3.505087556694024692e-02,1.266910415142774582e-02,1.510930495372900598e-02,-1.219972755988633917e-02,2.234911371874433519e-02,-6.549204234741803909e-02,-3.839760992343081714e-02,5.097277197679445093e-02,0.000000000000000000e+00,-0.000000000000000000e+00,-0.000000000000000000e+00,5.073334449560504833e-01,0.000000000000000000e+00
6.303140000000000409e-01,-8.514901711666083770e-03,2.964712854057808405e-02,1.035407781600952148e+00,1.772572458318753472e-02,-4.574754333831032582e-03,1.751096355853731801e-02,-1.169994327891140350e-02,3.090386888722210929e-02,1.606459543108940125e-02,3.791964860613001448e-02,8.153771816139758835e-03,-6.570164091867881917e-02,-7.193323990090133568e-02,-4.345030622901939477e-02,4.926039519126179655e-02,0.000000000000000000e+00,-0.000000000000000000e+00,-0.000000000000000000e+00,5.070283726622547560e-01,-0.000000000000000000e+00
6.512590000000000323e-01,-8.842084756304715090e-03,3.008744919273256130e-02,1.035454154014587402e+00,1.807123305358952770e-02,-4.712136288400614603e-03,1.744332661591285749e-02,-1.144109483604992435e-02,3.234733742804030837e-02,2.251814305782318115e-02,6.443488214209265597e-02,-1.025569319738660508e-02,-4.740553984260912485e-02,-7.180315303376935687e-02,-4.387337971982044338e-02,4.908011675352330627e-02,0.000000000000000000e+00,-0.000000000000000000e+00,-0.000000000000000000e+00,5.064888053940689305e-01,-0.000000000000000000e+00
6.740329999999999933e-01,-9.765627189840069694e-03,3.136231780102327615e-02,1.035607695579528809e+00,1.925499753877983611e-02,-4.996477817849509506e-03,1.672737077911023995e-02,-7.757495863581844592e-03,2.679640549908685401e-02,2.000038139522075653e-02,4.005405485530669912e-02,-3.169364887974349468e-03,-5.284328563528806200e-02,-8.329947243121341161e-02,-4.345160769954119900e-02,4.707856971648799460e-02,0.000000000000000000e+00,-0.000000000000000000e+00,-0.000000000000000000e+00,5.066113502099252042e-01,-0.000000000000000000e+00
7.042629999999999724e-01,-1.061368718444017506e-02,3.255802852073352849e-02,1.035727500915527344e+00,1.997921435887778027e-02,-4.674180859950638478e-03,1.625072895011947516e-02,-1.166764017581827656e-02,3.106900067164513821e-02,7.910192012786865234e-03,7.949861576949781910e-04,6.406375687746162714e-03,1.545534907255625805e-02,-8.273843489214258162e-02,-4.563952054880846682e-02,4.577141476663598718e-02,0.000000000000000000e+00,-0.000000000000000000e+00,-0.000000000000000000e+00,5.074661566290870063e-01,0.000000000000000000e+00
7.289780000000000149e-01,-1.147860761585301620e-02,3.362444551269624243e-02,1.035934209823608398e+00,2.026476677226114048e-02,-4.392638350546596016e-03,1.580989978898550419e-02,-1.176560057530551089e-02,2.737100443477143846e-02,1.765485480427742004e-02,2.623797163348138076e-02,5.098704305824342670e-02,-2.602070522875559247e-02,-8.724595581062405403e-02,-4.403479569477101313e-02,4.452633287010715479e-02,0.000000000000000000e+00,-0.000000000000000000e+00,-0.000000000000000000e+00,5.066715962967033304e-01,-0.000000000000000000e+00
7.535169999999999924e-01,-1.210574645004746860e-02,3.421787153293810724e-02,1.036099672317504883e+00,2.013885892215259293e-02,-4.750929554501182039e-03,1.531905243869591260e-02,-1.611434427782476239e-03,2.716729314234547776e-02,8.662469685077667236e-03,-5.779381243494943060e-02,-1.337530414076349046e-02,-1.123970231845223058e-02,-8.563088070554529529e-02,-3.847838278483668717e-02,4.311959851207231020e-02,0.000000000000000000e+00,-0.000000000000000000e+00,-0.000000000000000000e+00,5.072879559379128711e-01,0.000000000000000000e+00
7.787490000000000245e-01,-1.299860657229541007e-02,3.502358013032402101e-02,1.036405205726623535e+00,2.032963980639075977e-02,-4.992368458364815353e-03,1.473761622233649149e-02,-1.534597154279148529e-02,2.068397677791950634e-02,1.597365923225879669e-02,2.847490865077413960e-02,-1.874217364019236873e-02,-1.272792368060555492e-02,-9.120401172592225436e-02,-5.360333434702723582e-02,4.157386251996497695e-02,0.000000000000000000e+00,-0.000000000000000000e+00,-0.000000000000000000e+00,5.066697920012875889e-01,0.000000000000000000e+00
8.009690000000000420e-01,-1.354902845254682929e-02,3.550583903785529960e-02,1.036607384681701660e+00,2.047088792153225686e-02,-5.003718915289834257e-03,1.417827095000312454e-02,-1.466083848456878336e-02,1.521799448092474305e-02,2.448199316859245300e-02,-9.820518791686770263e-03,1.714126170342787636e-02,-4.619059005481690461e-02,-9.509047916534162093e-02,-5.161900044432267409e-02,3.999267112692195258e-02,0.000000000000000000e+00,-0.000000000000000000e+00,-0.000000000000000000e+00,5.059596570478797073e-01,-0.000000000000000000e+00
8.261899999999999800e-01,-1.405371472609789375e-02,3.597682342132064309e-02,1.036828160285949707e+00,2.066624140159627546e-02,-4.852072852005395731e-03,1.359237190904982739e-02,4.758781455893104639e-03,2.567295357800720990e-02,1.381495315581560135e-02,4.645744710381214185e-03,2.772920049385520572e-02,-3.555445284352379970e-02,-8.669908056332201185e-02,-3.504830060416040671e-02,3.827159465195767440e-02,0.000000000000000000e+00,-0.000000000000000000e+00,-0.000000000000000000e+00,5.066943595051215388e-01,-0.000000000000000000e+00
8.498830000000000551e-01,-1.445917615235223219e-02,3.647219802829407276e-02,1.037112593650817871e+00,2.032847231931540766e-02,-4.180096116712217480e-03,1.290183400443756234e-02,-1.126043056893194852e-02,1.527430303532819472e-02,1.809247769415378571e-02,-1.442109969405146663e-03,-1.045958785506153656e-02,-2.497389471323067933e-02,-9.386540031284353047e-02,-4.724848206893401958e-02,3.639281971575741848e-02,0.000000000000000000e+00,-0.000000000000000000e+00,-0.000000000000000000e+00,5.062996680481325340e-01,0.000000000000000000e+00
8.795420000000000460e-01,-1.471454475610548158e-02,3.684408661547318442e-02,1.037356257438659668e+00,1.945176045095386302e-02,-3.944831836401485603e-03,1.205603327444237927e-02,-1.286975194749297949e-03,1.690508134850565378e-02,1.037404593080282211e-02,-7.761513813174314436e-02,3.607132827133604364e-02,-3.881836122956774243e-02,-8.500611218231018951e-02,-3.536747819243948182e-02,3.395472097142199219e-02,0.000000000000000000e+00,-0.000000000000000000e+00,-0.000000000000000000e+00,5.068127852126821375e-01,0.000000000000000000e+00
9.049519999999999786e-01,-1.485077232121612828e-02,3.709092602168594793e-02,1.037564277648925781e+00,1.898746293913144284e-02,-4.217424880100129059e-03,1.180431319747543562e-02,-4.823873907604546213e-04,1.842606974824450433e-02,1.876274496316909790e-02,-3.273346859083498678e-02,-1.877217328242058308e-02,-3.034118423845506840e-02,-8.053288947753604876e-02,-3.814759646205852228e-02,3.326340582346759556e-02,0.000000000000000000e+00,-0.000000000000000000e+00,-0.000000000000000000e+00,5.061176256187153166e-01,0.000000000000000000e+00
9.287680000000000380e-01,-1.496064355749049044e-02,3.727234487876988217e-02,1.037739515304565430e+00,1.853309894530796170e-02,-4.444145848841341007e-03,1.120890135992480552e-02,-6.352115514655218807e-03,1.067696701646532985e-02,1.967503689229488373e-02,-2.580119533507706925e-02,-3.239010089397678649e-02,-2.203200218517716025e-02,-8.382875377330141486e-02,-4.481569717083010163e-02,3.161896328547597612e-02,0.000000000000000000e+00,-0.000000000000000000e+00,-0.000000000000000000e+00,5.059805716250659335e-01,0.000000000000000000e+00
9.522960000000000313e-01,-1.516136487095527327e-02,3.719746842972401074e-02,1.038192391395568848e+00,1.838967058577599054e-02,-4.536674264343565355e-03,1.040630718701596180e-02,-2.110627527071665295e-03,1.154268763906169358e-02,1.816198229789733887e-02,-1.313541698471726651e-02,1.936258073375677485e-02,3.258437998021818712e-03,-8.093804418736043338e-02,-4.126966420513990957e-02,2.935470629747816140e-02,0.000000000000000000e+00,-0.000000000000000000e+00,-0.000000000000000000e+00,5.060066233572246830e-01,-0.000000000000000000e+00
9.735129999999999617e-01,-1.527608425609586554e-02,3.701701489227318675e-02,1.038532257080078125e+00,1.837191976819764483e-02,-4.301526017505663546e-03,9.612086473091974170e-03,1.226537412159427014e-03,8.219510900762979147e-03,2.008848637342453003e-02,-2.909193042015939881e-02,1.591888203236756574e-02,-8.536287121540835077e-02,-8.362521598147332202e-02,-3.783196176907296232e-02,2.710908536324158069e-02,0.000000000000000000e+00,-0.000000000000000000e+00,-0.000000000000000000e+00,5.057806302939144016e-01,-0.000000000000000000e+00
9.980740000000000167e-01,-1.539198397932101461e-02,3.673670257099292263e-02,1.038933277130126953e+00,1.783751039765335902e-02,-3.761780361373867621e-03,8.907320582254740771e-03,1.090677588173348317e-03,9.068879143758310987e-03,1.998243853449821472e-02,-4.012394321630452509e-02,-3.406200542727280938e-03,9.992856772689977587e-03,-7.894904065917138225e-02,-3.510028436057167911e-02,2.511902763462181554e-02,0.000000000000000000e+00,-0.000000000000000000e+00,-0.000000000000000000e+00,5.057031682031410957e-01,0.000000000000000000e+00
1.024356000000000044e+00,-1.551778648121013987e-02,3.649873831004714353e-02,1.039312958717346191e+00,1.693742263346977375e-02,-3.711844570229549944e-03,8.202324092878354733e-03,-5.713776741704703135e-03,8.615047692772510174e-03,1.654724590480327606e-02,-2.465870953763920487e-02,-3.200287921621206878e-03,-2.322445186527917482e-02,-7.357306715789928286e-02,-4.055113856736020095e-02,2.316403492492580263e-02,0.000000000000000000e+00,-0.000000000000000000e+00,-0.000000000000000000e+00,5.058793226415844169e-01,0.000000000000000000e+00
1.055048999999999904e+00,-1.524565062063353536e-02,3.620374406188717892e-02,1.039603710174560547e+00,1.556665276372920341e-02,-4.148939835303844248e-03,7.352426522605925996e-03,1.097936612140941459e-02,7.235911936365608567e-03,1.708752848207950592e-02,-7.847299594805580425e-02,-1.072005449854533405e-03,-5.344298003401654756e-02,-6.584588953225214980e-02,-2.855462534370489108e-02,2.071646502566376613e-02,0.000000000000000000e+00,-0.000000000000000000e+00,-0.000000000000000000e+00,5.057620886933535953e-01,0.000000000000000000e+00
1.077941999999999956e+00,-1.506412167402114421e-02,3.598039762769719013e-02,1.039765000343322754e+00,1.485047230572128854e-02,-4.592145242688472351e-03,7.164968745620781121e-03,5.773368920335259467e-03,1.381065515617880754e-02,1.168582774698734283e-02,-3.863623930609941248e-02,3.929436048017149845e-03,-3.482232242129242473e-03,-5.554857470706603406e-02,-3.811492076752195923e-02,2.023615225636482551e-02,0.000000000000000000e+00,-0.000000000000000000e+00,-0.000000000000000000e+00,5.061072495728887732e-01,0.000000000000000000e+00
1.101096000000000075e+00,-1.485537411104700771e-02,3.576334125113518614e-02,1.039918661117553711e+00,1.456246490117451414e-02,-5.013069655941171376e-03,6.329234704285147117e-03,-5.713539036464189425e-03,-3.108029169271007367e-03,1.667196489870548248e-02,-2.128299258691045137e-02,-2.304127158766852007e-02,-5.211917909928511644e-02,-6.850817804739757488e-02,-4.959071486971651510e-02,1.792054973079248992e-02,0.000000000000000000e+00,-0.000000000000000000e+00,-0.000000000000000000e+00,5.056662299861993670e-01,0.000000000000000000e+00
1.125227999999999895e+00,-1.463456550821088178e-02,3.552969735748086333e-02,1.040084719657897949e+00,1.445222944787170893e-02,-5.041215599601800434e-03,5.849249327673389232e-03,8.929388730794979995e-03,5.247519756596183242e-03,1.089214906096458435e-02,-3.419115346107773346e-02,5.522104134950273080e-02,-2.790147286911496757e-02,-5.848833649395659279e-02,-3.585522066525533014e-02,1.653200640649626907e-02,0.000000000000000000e+00,-0.000000000000000000e+00,-0.000000000000000000e+00,5.060389969144895028e-01,0.000000000000000000e+00
1.151459999999999928e+00,-1.410751830531669498e-02,3.515093350447626164e-02,1.040194511413574219e+00,1.442031854897258582e-02,-4.944642298058798957e-03,4.985858130178044689e-03,9.215689110280481794e-03,6.465812478882637139e-03,2.493861131370067596e-02,4.316485826628439770e-02,-2.153905248162819169e-02,-2.937723857055968280e-02,-5.849443843098769968e-02,-3.692887803962906224e-02,1.411853971359494642e-02,0.000000000000000000e+00,-0.000000000000000000e+00,-0.000000000000000000e+00,5.049177960301486356e-01,-0.000000000000000000e+00
1.176247999999999960e+00,-1.351733749058285292e-02,3.479533279058993206e-02,1.040325522422790527e+00,1.380060241437730366e-02,-4.769736639354871244e-03,4.071269946516631322e-03,-2.232189729188584822e-03,-1.533840341170499694e-03,2.268128655850887299e-02,-1.154022246618262477e-02,1.664574058864680753e-02,-5.867245569760831669e-02,-6.132879703795775239e-02,-4.501688403933873373e-02,1.157584608696371475e-02,0.000000000000000000e+00,-0.000000000000000000e+00,-0.000000000000000000e+00,5.050163028304768265e-01,-0.000000000000000000e+00
1.200865000000000071e+00,-1.293579155033516490e-02,3.446269433258403181e-02,1.040470600128173828e+00,1.267707670107346904e-02,-5.380300824384010028e-03,3.545054976598960295e-03,1.734345399633161269e-02,4.155202343868557961e-03,1.097296923398971558e-02,-5.840635519196887143e-02,-4.437266423402306398e-02,-1.149152204314738378e-02,-4.834901737667886279e-02,-3.075945121652259168e-02,1.004505191335963721e-02,0.000000000000000000e+00,-0.000000000000000000e+00,-0.000000000000000000e+00,5.058337240921344513e-01,0.000000000000000000e+00
1.224903999999999993e+00,-1.234667901063394094e-02,3.416487948676812797e-02,1.040642023086547852e+00,1.215951945705792507e-02,-6.219941205405588036e-03,3.067809036547464174e-03,-5.320813670458971953e-03,2.046805768222836538e-03,2.361235581338405609e-02,2.340861677377591155e-02,-2.275978080590362884e-02,9.537905351403690168e-03,-4.748106426320060358e-02,-5.755962674025783682e-02,8.800914177689522777e-03,0.000000000000000000e+00,-0.000000000000000000e+00,-0.000000000000000000e+00,5.048142620923731227e-01,0.000000000000000000e+00
1.250305000000000000e+00,-1.161129266605917358e-02,3.344373092428414018e-02,1.040868043899536133e+00,1.231329007132551598e-02,-6.966967545669611184e-03,2.177914730890684325e-03,1.687566800955259474e-02,3.839104779310241206e-03,1.184523757547140121e-02,3.907132786306130590e-02,-1.006579443904321268e-02,-7.188008296266359953e-02,-4.713981543572673405e-02,-4.025078475484680784e-02,6.248900617615127384e-03,0.000000000000000000e+00,-0.000000000000000000e+00,-0.000000000000000000e+00,5.056276916354450757e-01,0.000000000000000000e+00
1.275657999999999959e+00,-1.086000113174757226e-02,3.272331236013167194e-02,1.041126608848571777e+00,1.268429340853564034e-02,-7.035414084807012358e-03,1.416613878742367660e-03,4.780187546840741937e-03,-3.308315250707860328e-03,1.893322356045246124e-02,2.656466395923272328e-02,-2.434675777733024543e-02,-1.997652959712049175e-02,-5.598173271461562989e-02,-5.357551136193833274e-02,4.159920137466688317e-03,0.000000000000000000e+00,-0.000000000000000000e+00,-0.000000000000000000e+00,5.050194788540225410e-01,0.000000000000000000e+00
1.300108999999999959e+00,-1.013931261909607924e-02,3.207550284248229799e-02,1.041382193565368652e+00,1.285513821091736723e-02,-6.502255637921949827e-03,6.917691937853298612e-04,1.346088747778970141e-02,2.324481832066700032e-03,1.909936661832034588e-03,-4.091980444050388049e-02,5.053384687051613866e-02,-9.216198358129409907e-03,-5.178575810996909057e-02,-4.069010524693471992e-02,2.092491417203301562e-03,0.000000000000000000e+00,-0.000000000000000000e+00,-0.000000000000000000e+00,5.062340866379837490e-01,0.000000000000000000e+00
1.324980999999999964e+00,-9.230507446656471132e-03,3.163691123655424514e-02,1.041593670845031738e+00,1.248334732545002511e-02,-6.379164045644980519e-03,2.819014281272291811e-04,1.574044270359995293e-02,-2.033203485823463627e-04,7.327064406126737595e-03,-7.160780118823485176e-03,-3.449477247353786857e-02,1.445827128275247939e-02,-5.241232174157988560e-02,-3.872925817127684245e-02,9.303375108009603878e-04,0.000000000000000000e+00,-0.000000000000000000e+00,-0.000000000000000000e+00,5.057661598872493780e-01,0.000000000000000000e+00
1.350085999999999897e+00,-8.314604197331570967e-03,3.130791393492737829e-02,1.041816473007202148e+00,1.222484218912311613e-02,-6.682545133633865930e-03,-2.649575654383173884e-04,8.366579900439001863e-03,3.683043139920899947e-03,8.977224119007587433e-03,-1.573329749253514140e-02,-3.475120358088136345e-03,-3.483697681484074216e-02,-4.721759559780221854e-02,-4.654440826620912658e-02,-5.696121634198858530e-04,0.000000000000000000e+00,-0.000000000000000000e+00,-0.000000000000000000e+00,5.055787573970143001e-01,0.000000000000000000e+00
1.374646000000000035e+00,-7.401301851448961570e-03,3.096854721416145151e-02,1.041992902755737305e+00,1.196793623372864428e-02,-7.320118206687764584e-03,-7.107941350168456296e-04,1.818822236642449186e-02,-3.789954809723643497e-03,7.789121009409427643e-03,-3.957499169954475926e-02,-4.238461804452916398e-02,-5.323524951103995179e-02,-5.239379154543225003e-02,-4.089018700378029697e-02,-1.850432946569280368e-03,0.000000000000000000e+00,-0.000000000000000000e+00,-0.000000000000000000e+00,5.056059116443940571e-01,0.000000000000000000e+00
1.398617999999999917e+00,-6.501467088738758886e-03,3.066589107132923139e-02,1.042204260826110840e+00,1.215983789554080791e-02,-6.944929351999418188e-03,-1.201076516363031033e-03,1.725051441938053876e-02,4.695628242516102120e-03,9.672840242274105549e-04,-2.396436881667400251e-02,3.729296095776463843e-02,1.676726766933199844e-02,-4.564460506104946191e-02,-4.011489604731992981e-02,-3.213626732615437742e-03,0.000000000000000000e+00,-0.000000000000000000e+00,-0.000000000000000000e+00,5.060612557687107493e-01,0.000000000000000000e+00
1.423864999999999936e+00,-5.618844458968206765e-03,3.042751629091563007e-02,1.042455196380615234e+00,1.270511995369808488e-02,-6.197371753778657677e-03,-2.007332784667248404e-03,1.522189101149226328e-02,-9.627361139960936582e-04,1.171657070517539978e-02,3.853992064152973740e-02,3.048360381986668297e-02,-4.586557486677742684e-02,-5.507726598005736884e-02,-3.619780936945924538e-02,-5.488567912806885385e-03,0.000000000000000000e+00,-0.000000000000000000e+00,-0.000000000000000000e+00,5.051854238524742247e-01,-0.000000000000000000e+00
1.447332999999999981e+00,-4.744301598971157642e-03,3.024305590702900878e-02,1.042782306671142578e+00,1.259688586156266013e-02,-5.826258012930685126e-03,-2.640568723553338160e-03,2.023213565380772849e-02,5.941589715635726618e-04,1.196000445634126663e-02,-3.068446470419848929e-02,1.679959665034588476e-02,-3.679399098112447891e-02,-5.222279227398346491e-02,-2.876109793288984112e-02,-7.287411592714954089e-03,0.000000000000000000e+00,-0.000000000000000000e+00,-0.000000000000000000e+00,5.050915475779824693e-01,0.000000000000000000e+00
1.475729999999999986e+00,-3.576013355872114611e-03,3.015570648325908640e-02,1.043215990066528320e+00,1.202652547951740293e-02,-6.344151269288555994e-03,-3.220460914009848352e-03,6.399789692693317981e-03,-5.190526308239730609e-03,8.764110505580902100e-03,-6.334229186062449550e-03,-3.449712937172100952e-02,-4.780277057990035827e-02,-5.351256676818106489e-02,-4.352750631376353652e-02,-8.869080935521411746e-03,0.000000000000000000e+00,-0.000000000000000000e+00,-0.000000000000000000e+00,5.052477485059652107e-01,0.000000000000000000e+00
1.500220000000000109e+00,-2.591330946896303750e-03,3.030843551256997073e-02,1.043720364570617676e+00,1.193427300891754424e-02,-7.031494465552290407e-03,-3.847271325291501398e-03,2.368727180109961652e-02,1.943289747564572482e-03,5.265332758426666260e-03,-3.879869224851759113e-02,-4.866747783940144831e-03,-5.527819374597051083e-02,-4.591260631209578835e-02,-3.101870465290953657e-02,-1.066025145255167228e-02,0.000000000000000000e+00,-0.000000000000000000e+00,-0.000000000000000000e+00,5.054278356899004621e-01,0.000000000000000000e+00
1.524257999999999891e+00,-1.561581928349641771e-03,3.044907592168629579e-02,1.044304251670837402e+00,1.241692612451490360e-02,-7.356480488720729127e-03,-4.425088982625391409e-03,1.664161310517971171e-02,5.056402377290158956e-03,8.700293488800525665e-03,2.615495793665226221e-02,-2.278060617940553742e-02,5.008812721654634127e-03,-4.731841005457047833e-02,-4.083952659787930956e-02,-1.223607426018219480e-02,0.000000000000000000e+00,-0.000000000000000000e+00,-0.000000000000000000e+00,5.050765031036805741e-01,0.000000000000000000e+00
1.547894000000000103e+00,-8.738331475595886464e-04,3.056407618852957989e-02,1.044667124748229980e+00,1.255666136005790384e-02,-7.385196463950638446e-03,-5.153574352545042814e-03,9.306615893946103626e-03,-4.212915454981315880e-03,1.674468815326690674e-02,1.985704292708785970e-02,1.538567636081964417e-02,-6.618709882840495551e-02,-5.611881944108602915e-02,-4.553336023533834098e-02,-1.426857185039720477e-02,0.000000000000000000e+00,-0.000000000000000000e+00,-0.000000000000000000e+00,5.043863552409537654e-01,-0.000000000000000000e+00
1.572594000000000047e+00,1.188696626833484117e-04,3.073315031460103000e-02,1.045222282409667969e+00,1.219018890405932851e-02,-7.434293543418402095e-03,-5.575181799765349666e-03,2.950215023834962605e-02,8.678463163261316768e-03,8.023776113986968994e-03,-5.344991435412174002e-02,-1.365557641195427711e-02,-4.888371312611935332e-03,-4.142205795759493214e-02,-2.742468549396430422e-02,-1.550442579475364013e-02,0.000000000000000000e+00,-0.000000000000000000e+00,-0.000000000000000000e+00,5.049524444123748568e-01,0.000000000000000000e+00
1.599896999999999903e+00,7.298918950545650597e-04,3.077383537883290540e-02,1.045545101165771484e+00,1.223913593825286597e-02,-7.532028363466336529e-03,-5.947607449114933331e-03,2.094953955031285744e-02,4.672302293399308894e-03,1.208330411463975906e-02,5.394331917826319239e-02,-4.952053748180409304e-02,-2.924798640305667496e-02,-4.682504972754204103e-02,-3.765873241025959051e-02,-1.651347142769721277e-02,0.000000000000000000e+00,-0.000000000000000000e+00,-0.000000000000000000e+00,5.045668499368145543e-01,0.000000000000000000e+00
1.626273000000000080e+00,1.616026615566315376e-03,3.084507581110857918e-02,1.046099066734313965e+00,1.196892299319117156e-02,-8.303069722261025021e-03,-6.688313160984504790e-03,2.043912384152305264e-02,2.912320312554355695e-04,1.513256225734949112e-02,-2.524044164637982354e-02,-2.781824339161431681e-02,-5.614171240823169484e-02,-4.786350138450864294e-02,-4.115310220372400685e-02,-1.858062939330817898e-02,0.000000000000000000e+00,-0.000000000000000000e+00,-0.000000000000000000e+00,5.042380923011392513e-01,0.000000000000000000e+00
1.648690999999999907e+00,2.211823611454753497e-03,3.090412385201831216e-02,1.046501994132995605e+00,1.230777868459576561e-02,-8.594797531879860841e-03,-7.122352657929598152e-03,2.601248246491575516e-02,9.310892771135680784e-03,6.183727644383907318e-03,1.634967490304409243e-02,1.801455599935346263e-02,-3.494820434911156265e-02,-4.179803176486571875e-02,-3.797935473801083983e-02,-1.979422280878118112e-02,0.000000000000000000e+00,-0.000000000000000000e+00,-0.000000000000000000e+00,5.048314098521401450e-01,0.000000000000000000e+00
1.675154999999999950e+00,3.172389681066887200e-03,3.110870222461099496e-02,1.047068595886230469e+00,1.272337254152378777e-02,-8.915418939351660299e-03,-7.866768458125283914e-03,1.646635626939855698e-02,4.272535911903960378e-03,2.454743534326553345e-02,6.614778871587928544e-02,-2.118998598567147645e-02,-1.178506130377151434e-02,-4.963031403561150856e-02,-4.804787748238407985e-02,-2.184301710576580513e-02,0.000000000000000000e+00,-0.000000000000000000e+00,-0.000000000000000000e+00,5.033413294333891619e-01,-0.000000000000000000e+00
1.698547999999999947e+00,3.898896412402682102e-03,3.140023161134398305e-02,1.047495007514953613e+00,1.290725398505153561e-02,-8.981894046139471399e-03,-8.645623713163796964e-03,2.256844930885495981e-02,5.890494341495436988e-04,3.818080527707934380e-03,-2.062368728794034337e-02,5.196970351142651823e-03,-4.402268381956411097e-02,-5.288723917085605408e-02,-4.151402580658415664e-02,-2.405001145422119846e-02,0.000000000000000000e+00,-0.000000000000000000e+00,-0.000000000000000000e+00,5.048156044040327250e-01,0.000000000000000000e+00
1.723152999999999935e+00,4.638575878081617650e-03,3.170387241830503050e-02,1.047860741615295410e+00,1.324051730499113677e-02,-9.132873676087616133e-03,-9.005097861166211359e-03,2.507704272855503999e-02,9.903701013028051725e-03,1.225675921887159348e-02,3.751255254926401383e-02,1.243332240726301510e-03,-4.981887249210475987e-02,-4.636239109627979249e-02,-4.079984498269072224e-02,-2.504478812407229249e-02,0.000000000000000000e+00,-0.000000000000000000e+00,-0.000000000000000000e+00,5.041011955348464468e-01,0.000000000000000000e+00
1.749805000000000055e+00,5.705397059164969004e-03,3.213731537290686474e-02,1.048370003700256348e+00,1.309651473732858368e-02,-9.599950572373172619e-03,-9.773735462246690986e-03,1.584723645354189914e-02,2.465569811044595553e-03,1.397887431085109711e-02,2.726507652879585006e-02,-4.484591242804662758e-02,-6.903731480379438068e-02,-5.258171773592593828e-02,-5.105096808962649585e-02,-2.716785698112161862e-02,0.000000000000000000e+00,-0.000000000000000000e+00,-0.000000000000000000e+00,5.038717683845163053e-01,0.000000000000000000e+00
1.774205999999999950e+00,6.413840872996070044e-03,3.242223283828138403e-02,1.048710703849792480e+00,1.315137955144679224e-02,-9.920878199550342558e-03,-1.014185789823285333e-02,1.680285937123191659e-02,6.327287311881176282e-03,8.751078508794307709e-03,3.433268144267127148e-02,7.544558453317820167e-04,-4.116560249151764335e-03,-4.829889482124039013e-02,-5.047820993631745023e-02,-2.819259475398716575e-02,0.000000000000000000e+00,-0.000000000000000000e+00,-0.000000000000000000e+00,5.041852930339923988e-01,0.000000000000000000e+00
1.801495000000000068e+00,6.651158259069056902e-03,3.335930118749844825e-02,1.049188017845153809e+00,1.363284406359313410e-02,-1.056970815043367651e-02,-1.111702132279668298e-02,2.507126480220318518e-02,5.309027023833862852e-03,1.180612854659557343e-02,6.829809341655185273e-02,-5.318099217587314662e-04,-5.028134725242235786e-02,-5.198066703599278637e-02,-4.776456356648591667e-02,-3.092996004624665174e-02,0.000000000000000000e+00,-0.000000000000000000e+00,-0.000000000000000000e+00,5.038632080207821051e-01,0.000000000000000000e+00
1.823477999999999932e+00,6.837390383512757623e-03,3.395416768896974274e-02,1.049532532691955566e+00,1.400281054295632321e-02,-1.061574670929776865e-02,-1.164253038431728449e-02,2.199002442217569062e-02,7.441883374623005191e-03,9.372574277222156525e-03,2.088444931364290269e-02,-2.092986234005638629e-02,-1.038083930100392599e-02,-5.196281606999189617e-02,-5.169255429777706856e-02,-3.237697898198210744e-02,0.000000000000000000e+00,-0.000000000000000000e+00,-0.000000000000000000e+00,5.039641558241302333e-01,0.000000000000000000e+00
1.849750000000000005e+00,7.111833266591348519e-03,3.486755245238252338e-02,1.049861311912536621e+00,1.478158888703201036e-02,-1.051799247843665519e-02,-1.260167817764767939e-02,1.843319502329687776e-02,6.173876854871003864e-03,2.312567550688982010e-03,2.314350638055445719e-02,1.681238236410665179e-02,-2.862595145329971391e-02,-5.770948179625344510e-02,-5.333800842007690307e-02,-3.504784644902680935e-02,0.000000000000000000e+00,-0.000000000000000000e+00,-0.000000000000000000e+00,5.044189116619376412e-01,0.000000000000000000e+00
1.878476000000000035e+00,7.323406081108875011e-03,3.548159945585432212e-02,1.050045490264892578e+00,1.501246009095186587e-02,-1.043689229330757584e-02,-1.313643534539576940e-02,1.452761887254450449e-02,5.488711294650420666e-03,1.440190058201551437e-02,1.654601194389484706e-02,6.722798493909169955e-03,-6.112124542483136913e-02,-5.894034134663532487e-02,-5.527684568411106447e-02,-3.653335773915877827e-02,0.000000000000000000e+00,-0.000000000000000000e+00,-0.000000000000000000e+00,5.034367607133893863e-01,0.000000000000000000e+00
1.901469000000000076e+00,7.466970146986168753e-03,3.676752174425129693e-02,1.050212621688842773e+00,1.492180313907284263e-02,-1.059047268514601292e-02,-1.349301647939671334e-02,2.935880978188416465e-02,1.362255858631030922e-02,3.913468681275844574e-03,4.779050432285255300e-03,-2.284779661120536071e-02,1.867054451452162048e-02,-5.045484261138927923e-02,-4.332922303827387023e-02,-3.757535922706506382e-02,0.000000000000000000e+00,-0.000000000000000000e+00,-0.000000000000000000e+00,5.041643357858544006e-01,0.000000000000000000e+00
1.923154000000000030e+00,7.593168005746825724e-03,3.805277383003211750e-02,1.050399899482727051e+00,1.509485363005584092e-02,-1.076173132333146931e-02,-1.411329064955535451e-02,9.483951879085322778e-03,7.935768665111354175e-03,1.142330840229988098e-02,3.370402423011849974e-02,-4.713301036423124535e-02,-7.359893587143981342e-02,-5.661280309461235588e-02,-6.292827341323636858e-02,-3.922714925915921080e-02,0.000000000000000000e+00,-0.000000000000000000e+00,-0.000000000000000000e+00,5.035240248718306777e-01,0.000000000000000000e+00
1.948430000000000106e+00,7.823855823805304574e-03,3.983129759909753709e-02,1.050654411315917969e+00,1.555622655206907561e-02,-1.109587252557964199e-02,-1.483174559613731347e-02,2.424760471207211901e-02,8.961554635140089875e-03,7.346803322434425354e-03,-1.790766971755166151e-02,1.784808070200775672e-03,-3.321857272967939506e-02,-5.641290749488903772e-02,-4.970403339525174963e-02,-4.128980198763620990e-02,0.000000000000000000e+00,-0.000000000000000000e+00,-0.000000000000000000e+00,5.037586232621898974e-01,0.000000000000000000e+00
1.977020000000000000e+00,8.170317399908576597e-03,4.206229795959332690e-02,1.050938010215759277e+00,1.653005102974870397e-02,-1.073512924714870032e-02,-1.592623116372249292e-02,1.278946937780695882e-02,6.074055275060764175e-03,1.279580290429294109e-03,6.518429358608603813e-03,-1.669428693126573382e-02,-1.510667881472841853e-02,-6.384339431860248937e-02,-5.885382976344176453e-02,-4.430020724277455857e-02,0.000000000000000000e+00,-0.000000000000000000e+00,-0.000000000000000000e+00,5.041410297057391521e-01,0.000000000000000000e+00
1.999857999999999913e+00,8.224036851160384035e-03,4.263161134129437452e-02,1.050958633422851562e+00,1.696937976701056935e-02,-1.050567268097135631e-02,-1.638993422380141674e-02,1.568934409531413249e-02,9.178475191181487483e-03,1.150626596063375473e-02,3.619183787735716362e-02,1.946324868648553058e-02,-5.233816042345512676e-02,-6.296624610644302455e-02,-5.315670795234969659e-02,-4.561570019327865211e-02,0.000000000000000000e+00,-0.000000000000000000e+00,-0.000000000000000000e+00,5.033144409233991645e-01,0.000000000000000000e+00
2.022132000000000041e+00,8.304033659421370533e-03,4.318913115288428722e-02,1.050993204116821289e+00,1.695756182260800202e-02,-1.059445732450781108e-02,-1.681791828178824666e-02,2.366365365468345305e-02,1.509886498637425661e-02,-2.811651211231946945e-03,-3.028060241967123895e-02,1.727570222974255873e-02,-1.533989519854536340e-02,-5.795088333506082795e-02,-4.755578392629566248e-02,-4.683585714901017383e-02,0.000000000000000000e+00,-0.000000000000000000e+00,-0.000000000000000000e+00,5.043431773600963730e-01,0.000000000000000000e+00
2.048017000000000198e+00,8.392669322724186087e-03,4.398184799142099838e-02,1.050845146179199219e+00,1.713479620543222753e-02,-1.080381407053176979e-02,-1.735889892218689390e-02,5.531878808400136384e-03,7.574668994484994901e-03,-2.137794857844710350e-03,3.487247808284186373e-02,-3.406529194357458233e-03,-5.793241090666665337e-03,-6.569743207951887765e-02,-6.493478319208091654e-02,-4.826861218457784153e-02,0.000000000000000000e+00,-0.000000000000000000e+00,-0.000000000000000000e+00,5.042533348372850721e-01,0.000000000000000000e+00
2.074984999999999857e+00,8.478281605721367867e-03,4.469761610284975900e-02,1.050714492797851562e+00,1.742828973706933571e-02,-1.110607231384697080e-02,-1.807353056612370779e-02,2.555166725004169581e-02,1.243838644047361684e-02,1.146469614468514919e-03,2.301316216825815848e-03,9.098211911833771828e-03,-2.621573205942540064e-02,-6.144579482174787610e-02,-4.755676546551480810e-02,-5.034744881690261797e-02,0.000000000000000000e+00,-0.000000000000000000e+00,-0.000000000000000000e+00,5.039721911463197479e-01,0.000000000000000000e+00
2.097557999999999812e+00,8.616696354938195232e-03,4.528697975848933882e-02,1.050627112388610840e+00,1.765859741987978876e-02,-1.086357759699674297e-02,-1.867080601841220044e-02,1.897842367966985286e-02,7.541577942058902070e-03,-4.369733389467000961e-03,-9.578598663635581184e-03,4.189568563441827334e-03,-3.626955383430197077e-02,-6.731592874438428742e-02,-5.424868314661566299e-02,-5.198834951513142677e-02,0.000000000000000000e+00,-0.000000000000000000e+00,-0.000000000000000000e+00,5.043455086930358489e-01,0.000000000000000000e+00
2.123806000000000083e+00,8.862476085445696733e-03,4.613417585323827119e-02,1.050474643707275391e+00,1.779521211129644204e-02,-1.057953218526686001e-02,-1.924709205900976272e-02,7.992915687312845269e-03,6.510191882107409928e-03,-8.129686117172241211e-03,-2.851441078363621887e-02,1.347029450122435960e-02,7.528278800912982863e-03,-6.773020558154677073e-02,-6.031818414799548778e-02,-5.356681061938584065e-02,0.000000000000000000e+00,-0.000000000000000000e+00,-0.000000000000000000e+00,5.045979852473506666e-01,0.000000000000000000e+00
2.149080999999999797e+00,9.016271904417606092e-03,4.664075831129137206e-02,1.050266742706298828e+00,1.789010241915207217e-02,-1.061880033827544700e-02,-1.962947446476515090e-02,1.518274318010250437e-02,1.077276931218317663e-02,7.244388107210397720e-04,-6.060431611436743055e-03,1.859446474597853741e-02,-6.984818130563925920e-02,-6.390323812403163328e-02,-5.285305144127216276e-02,-5.466932592566947635e-02,0.000000000000000000e+00,-0.000000000000000000e+00,-0.000000000000000000e+00,5.039037362476415094e-01,0.000000000000000000e+00
2.177281999999999940e+00,9.228928822755722017e-03,4.738428769928512002e-02,1.049953222274780273e+00,1.758437941967635337e-02,-1.098630201836470199e-02,-1.995802766220267088e-02,1.288159967910420221e-02,1.499836051343240257e-03,-1.995504368096590042e-03,-3.063724323193815074e-02,-1.916106135820901460e-02,2.557090261433421063e-03,-6.962216841729168548e-02,-5.791341782998415955e-02,-5.557909541441402590e-02,0.000000000000000000e+00,-0.000000000000000000e+00,-0.000000000000000000e+00,5.040825505427923847e-01,0.000000000000000000e+00
2.201264000000000109e+00,9.249124737932386264e-03,4.806612707939206947e-02,1.049785494804382324e+00,1.782295857518405996e-02,-1.129089100663960288e-02,-2.035141165584097855e-02,8.820037614176202273e-03,1.101665631761589853e-02,-4.510683473199605942e-03,4.342885679355831807e-02,-1.228692162267526478e-02,-3.012821963620180774e-02,-6.131092121123168925e-02,-6.301574641333938798e-02,-5.663067367417323750e-02,0.000000000000000000e+00,-0.000000000000000000e+00,-0.000000000000000000e+00,5.042442316889430565e-01,0.000000000000000000e+00
2.226891999999999872e+00,9.298682365722035076e-03,4.895589111563035389e-02,1.049625873565673828e+00,1.815461854211017703e-02,-1.126644997288672734e-02,-2.112590906578026839e-02,1.662796685121160217e-02,1.912226486350929308e-03,1.908720238134264946e-03,1.847913457866311995e-03,1.867651571210432460e-02,-6.017525299490178448e-02,-7.145911126922466217e-02,-5.556506456118565085e-02,-5.885143015274718614e-02,0.000000000000000000e+00,-0.000000000000000000e+00,-0.000000000000000000e+00,5.037234344615352244e-01,0.000000000000000000e+00
2.249544000000000210e+00,9.337824859115703702e-03,4.951035276538849617e-02,1.049507975578308105e+00,1.830802125210615264e-02,-1.093106420903766640e-02,-2.142594778519391063e-02,1.101017504596379232e-02,8.074741578383870175e-03,-2.898318693041801453e-03,-1.590334005268309939e-02,6.060523516177358794e-02,1.536147408500801101e-02,-6.556786590031823958e-02,-5.926534548713725814e-02,-5.965657103783222892e-02,0.000000000000000000e+00,-0.000000000000000000e+00,-0.000000000000000000e+00,5.040506224745739949e-01,0.000000000000000000e+00
2.275989000000000040e+00,9.439462310493404451e-03,5.032864010736519400e-02,1.049253821372985840e+00,1.843846095275630467e-02,-1.037927276008643318e-02,-2.200040655928581224e-02,1.171706594602712342e-02,4.445614233788697245e-03,-1.081572030670940876e-03,2.210094706548903706e-02,-1.636366304330779189e-02,-1.826731120798276778e-02,-6.957379477608892360e-02,-5.408401122950805967e-02,-6.129859118665126338e-02,0.000000000000000000e+00,-0.000000000000000000e+00,-0.000000000000000000e+00,5.038865670282034470e-01,0.000000000000000000e+00
2.300235999999999947e+00,9.561654073396576303e-03,5.071015405308991475e-02,1.049121022224426270e+00,1.810683944830095843e-02,-1.024036931971306075e-02,-2.237903252223638617e-02,5.408771055959822431e-03,-1.239393625077620832e-04,2.000748179852962494e-03,-1.054236259562341647e-02,3.764116513426753879e-02,-3.658439446590793648e-02,-7.026871420251516731e-02,-5.832877418327075264e-02,-6.234434167828156736e-02,0.000000000000000000e+00,-0.000000000000000000e+00,-0.000000000000000000e+00,5.036151475940079392e-01,0.000000000000000000e+00
2.324012000000000189e+00,9.748561438556867242e-03,5.097723907725532078e-02,1.049018859863281250e+00,1.798181646530137845e-02,-1.044601945129342013e-02,-2.257158623224131411e-02,1.587787042089244122e-02,4.834469685671008779e-03,2.239814959466457367e-03,-1.778991670363502808e-02,-1.347669156102978411e-02,3.404175135541867830e-03,-6.409598154525696090e-02,-4.992910399721756098e-02,-6.292219353723071951e-02,0.000000000000000000e+00,-0.000000000000000000e+00,-0.000000000000000000e+00,5.035592587143885579e-01,0.000000000000000000e+00
2.349441000000000113e+00,1.002794658285077918e-02,5.129558265548897489e-02,1.048889398574829102e+00,1.835164520603502908e-02,-1.063767130922643744e-02,-2.319185841486004485e-02,2.414315593374665152e-03,8.456399275363361747e-04,7.559497375041246414e-03,6.455167864657332388e-02,-2.789972835041373139e-02,-5.087216864653641701e-02,-7.029456300540450064e-02,-6.365473439278653001e-02,-6.458468643971226886e-02,0.000000000000000000e+00,-0.000000000000000000e+00,-0.000000000000000000e+00,5.031132006286639369e-01,0.000000000000000000e+00
2.375964000000000187e+00,1.032574183927746463e-02,5.154172805596928669e-02,1.048732638359069824e+00,1.855427912673046978e-02,-1.070500337201085728e-02,-2.372103814647363862e-02,1.562089608129126062e-02,-2.598071481494575521e-03,6.587686482816934586e-03,-2.415246361558859994e-02,6.549274185589870623e-03,-6.218084691569981948e-02,-7.327424715806687971e-02,-5.082762538869567415e-02,-6.613816865829003078e-02,0.000000000000000000e+00,-0.000000000000000000e+00,-0.000000000000000000e+00,5.031460614162351908e-01,0.000000000000000000e+00
2.411795000000000133e+00,1.054486527708732233e-02,5.176459766242069716e-02,1.048547387123107910e+00,1.855164724608948656e-02,-1.020567239354464029e-02,-2.385658839024951128e-02,1.859098696049617944e-02,5.479854131350003071e-03,1.501720282249152660e-03,3.061221560580330153e-02,2.941271964467619474e-02,1.154367863822743263e-02,-6.574919605675730305e-02,-4.704136784127205262e-02,-6.652777340967080955e-02,0.000000000000000000e+00,-0.000000000000000000e+00,-0.000000000000000000e+00,5.034973429263042144e-01,0.000000000000000000e+00
2.427436999999999845e+00,1.067076876992958251e-02,5.190344660268990384e-02,1.048483848571777344e+00,1.832468791083398038e-02,-1.008420171687629541e-02,-2.403263663611321377e-02,1.045944807219180428e-02,2.105638495348397237e-03,-1.142874243669211864e-03,-2.511778094094914426e-02,2.579888305429047304e-03,1.416418048391233399e-02,-6.816012018133352224e-02,-5.321428315315823721e-02,-6.699409465040745415e-02,0.000000000000000000e+00,-0.000000000000000000e+00,-0.000000000000000000e+00,5.036531754015818318e-01,0.000000000000000000e+00
2.448531000000000013e+00,1.090716934348408967e-02,5.221164840863049689e-02,1.048302769660949707e+00,1.820066270042815237e-02,-9.761795918081572765e-03,-2.443752476857730116e-02,2.866906200334870883e-03,-6.945573151675952205e-03,5.104779731482267380e-03,4.019398279093487625e-02,-7.456836961392540770e-03,-3.411026275056817242e-02,-7.399981787722009763e-02,-5.585326846034262271e-02,-6.812621430280141333e-02,0.000000000000000000e+00,-0.000000000000000000e+00,-0.000000000000000000e+00,5.031441136883596510e-01,0.000000000000000000e+00
2.474203000000000152e+00,1.124055382198741078e-02,5.254748360739591034e-02,1.047996640205383301e+00,1.749179993134443445e-02,-1.009985969339877165e-02,-2.490399272074017567e-02,1.370048987364247753e-02,8.540715561335245152e-04,-1.490384340286254883e-03,-3.363368726469623954e-02,1.658542352984347960e-03,-5.362516370179534753e-02,-6.100236052920260388e-02,-4.780730041790927365e-02,-6.947018357990791815e-02,0.000000000000000000e+00,-0.000000000000000000e+00,-0.000000000000000000e+00,5.036222584520424483e-01,0.000000000000000000e+00
2.500243999999999911e+00,1.154393702699465021e-02,5.283624311268186879e-02,1.047641634941101074e+00,1.663951401629457788e-02,-1.049634977140234682e-02,-2.501901195448752446e-02,1.746694002122747315e-03,-4.638518902126511842e-03,4.169208463281393051e-03,-1.293619727303216456e-02,-3.568666389894004781e-02,4.452803220594634542e-03,-6.096800389741485054e-02,-6.153329621598165738e-02,-6.973872951994269931e-02,0.000000000000000000e+00,-0.000000000000000000e+00,-0.000000000000000000e+00,5.031715095578529473e-01,0.000000000000000000e+00
2.524858000000000047e+00,1.237590115938855609e-02,5.182791146439551244e-02,1.047343015670776367e+00,1.659617847444483721e-02,-1.106809285549115174e-02,-2.541028200015116312e-02,1.588959074183657685e-02,-4.386767261961410647e-03,-4.270232282578945160e-03,-1.728867317448491009e-02,1.005958899491577775e-02,2.191212220358972063e-02,-5.990532514918278650e-02,-5.115441204706830391e-02,-7.088663119614480035e-02,0.000000000000000000e+00,-0.000000000000000000e+00,-0.000000000000000000e+00,5.037884030385852974e-01,0.000000000000000000e+00
2.549066999999999972e+00,1.322625688560441493e-02,5.081355862593495143e-02,1.047032475471496582e+00,1.683796279722712258e-02,-1.090924463369558062e-02,-2.592787224462056450e-02,1.223787202050936711e-02,-6.356598325455956218e-03,5.387070588767528534e-03,4.132783011959905578e-02,1.967711782503499957e-02,-3.927372651587141168e-03,-6.361331033394090895e-02,-5.459620659117591507e-02,-7.231912983027316555e-02,0.000000000000000000e+00,-0.000000000000000000e+00,-0.000000000000000000e+00,5.030353987173254993e-01,0.000000000000000000e+00
2.574829999999999952e+00,1.404851251889100740e-02,4.981000645392347909e-02,1.046593070030212402e+00,1.688121104238953993e-02,-1.062244275159396345e-02,-2.659484351389074241e-02,9.766352584212411800e-03,-1.269767251351972340e-02,-1.304641773458570242e-05,-5.935869334825345485e-04,-5.091675383616636220e-03,-6.728987987051096575e-02,-6.942570858269458967e-02,-5.355788896356941664e-02,-7.420088496203375295e-02,0.000000000000000000e+00,-0.000000000000000000e+00,-0.000000000000000000e+00,5.034277419012975763e-01,0.000000000000000000e+00
2.600102000000000135e+00,1.423555158420295591e-02,4.931596675780385713e-02,1.046301245689392090e+00,1.640641850163099963e-02,-1.035986356247020623e-02,-2.645136123467950462e-02,1.088558554035859785e-02,-6.022267078706742931e-03,-5.580152850598096848e-03,-4.106190462836842997e-02,4.066816178524797903e-02,1.601686880565989651e-02,-6.005633504475475781e-02,-5.046514173964803535e-02,-7.380963636151355312e-02,0.000000000000000000e+00,-0.000000000000000000e+00,-0.000000000000000000e+00,5.038310694889618357e-01,0.000000000000000000e+00
2.622932000000000041e+00,1.410567915057715782e-02,4.905798124660439713e-02,1.045992374420166016e+00,1.613611397320935739e-02,-1.066977841658589554e-02,-2.675523067417362455e-02,9.220389307168721724e-03,-1.320939856832516884e-02,4.984125494956970215e-03,-2.079814899442776130e-02,-2.771498409292437112e-02,-3.013593471011878980e-02,-6.520422620633890831e-02,-5.384470972979561038e-02,-7.465819285852043352e-02,0.000000000000000000e+00,-0.000000000000000000e+00,-0.000000000000000000e+00,5.030101940253072224e-01,0.000000000000000000e+00
2.650560000000000027e+00,1.393519966549683700e-02,4.860285072755667068e-02,1.045608520507812500e+00,1.591137168944540409e-02,-1.109657757002668887e-02,-2.696999777690534117e-02,6.625234588552092289e-03,-9.231899049702195492e-03,1.603510463610291481e-03,-7.956948891295438642e-03,-3.437806736060395468e-02,-2.402957918724541592e-02,-5.956106496329659217e-02,-5.865512441386409870e-02,-7.523158831626375331e-02,0.000000000000000000e+00,-0.000000000000000000e+00,-0.000000000000000000e+00,5.032491555039722009e-01,0.000000000000000000e+00
2.673179000000000194e+00,1.379826639655013475e-02,4.827951194724718065e-02,1.045326590538024902e+00,1.589560254927394750e-02,-1.135680604749422784e-02,-2.708162072438402568e-02,8.188452208281108216e-03,-1.641922557205581501e-02,-3.277213079854846001e-03,2.628356160821993838e-03,-1.553870865523721348e-02,5.233816624964931011e-03,-6.610169886443215126e-02,-5.854800508253563823e-02,-7.555713469988989406e-02,0.000000000000000000e+00,-0.000000000000000000e+00,-0.000000000000000000e+00,5.035949418559259039e-01,0.000000000000000000e+00
2.697973999999999872e+00,1.366013423283922272e-02,4.779496033653395093e-02,1.044983148574829102e+00,1.614879037212243323e-02,-1.119224464365498051e-02,-2.753246312017210151e-02,1.163170223926062417e-02,-1.134937090018678547e-02,1.400670153088867664e-03,6.226564929878814110e-03,1.871626431313533692e-02,-2.998036298715752238e-02,-6.253805158627254168e-02,-5.498289170373935053e-02,-7.682401039538311327e-02,0.000000000000000000e+00,-0.000000000000000000e+00,-0.000000000000000000e+00,5.032273506994946466e-01,0.000000000000000000e+00
2.724686999999999859e+00,1.384160490357641202e-02,4.764238510888079564e-02,1.044606685638427734e+00,1.592556436647815307e-02,-1.128663478041258550e-02,-2.771444625429020370e-02,7.290332596044892975e-04,-1.782611293310246495e-02,5.783719243481755257e-04,-1.014045605966453281e-02,-4.798938649396063821e-02,-4.336166066101193595e-02,-6.741355050915345815e-02,-6.485054581054960909e-02,-7.730173610077273327e-02,0.000000000000000000e+00,-0.000000000000000000e+00,-0.000000000000000000e+00,5.032715364533567604e-01,0.000000000000000000e+00
2.748124999999999929e+00,1.394319853567373840e-02,4.751530739837678263e-02,1.044323921203613281e+00,1.561101187906184518e-02,-1.154346678973561247e-02,-2.742794118883074006e-02,-7.826119512137725762e-04,-1.478769827488355185e-02,3.643709933385252953e-03,9.739497948521136372e-03,9.905962421696263773e-03,2.260260668315882196e-02,-6.179435218910327154e-02,-6.605183436456255053e-02,-7.649087658967890224e-02,0.000000000000000000e+00,-0.000000000000000000e+00,-0.000000000000000000e+00,5.030179971295050123e-01,0.000000000000000000e+00
2.774405999999999928e+00,1.405705512892581159e-02,4.732826860361716986e-02,1.043876171112060547e+00,1.570345477807661566e-02,-1.223965639410851125e-02,-2.757294832292567222e-02,1.292871797969502752e-02,-7.809420211289220572e-03,-2.673862501978874207e-03,4.889478905677348275e-02,-4.213096770539964675e-02,-2.478763361795078071e-02,-5.683024626349985481e-02,-5.896549992151972619e-02,-7.691816396256040411e-02,0.000000000000000000e+00,-0.000000000000000000e+00,-0.000000000000000000e+00,5.034900709892385917e-01,0.000000000000000000e+00
