timestamp,x,y,z,roll,pitch,yaw,vx,vy,vz,p,q,r,psp,qsp,rsp,pres,qres,rres,thrust_sp, thrust_res
0.000000000000000000e+00,1.226972099920925312e-02,-2.666942212841792031e-02,9.934791922569274902e-01,7.461914583984650615e-03,-7.945291553592914724e-03,6.018211644455887833e-03,4.854932309026016753e-03,2.334326394616680414e-02,-1.908354088664054871e-02,-4.757837086909288971e-02,6.555840254738268258e-02,9.419917255667485320e-03,1.616142735665768715e-01,1.691201734948818425e-01,2.154476668572117559e-01,2.081311225891113170e-01,2.090922832489013616e-01,1.985298514366149736e-01,5.008224099587483824e-01,-6.906754970550537109e-01,-1.264798045158386230e+00,-5.128258342064064834e+01,0.000000000000000000e+00
2.483799999999999897e-02,1.220616521387626885e-02,-2.615944823721371576e-02,9.927349686622619629e-01,7.605652781137580039e-03,-8.340895975548656693e-03,6.676000956122037956e-03,8.045482869185237307e-03,1.641067616770625764e-02,-1.576673239469528198e-02,3.446797794859669806e-02,-7.543115128426509941e-02,4.070952266003297071e-02,1.488872314690307674e-01,1.678960988783136932e-01,2.175367841376427414e-01,2.050644636154174694e-01,2.085884571075439509e-01,1.987865209579467718e-01,5.006893390170052971e-01,-6.886561512947082520e-01,-1.131068348884582520e+00,7.188722875019645642e+01,0.000000000000000000e+00
4.664200000000000290e-02,1.220895963190242114e-02,-2.549862112880763032e-02,9.920272231101989746e-01,7.586122635102354218e-03,-8.432834557767776573e-03,7.046430071796602745e-03,-9.103511655444462489e-03,1.456308025915327951e-02,-1.506213750690221786e-02,-2.618029793329231664e-02,-3.904781575947354616e-02,-6.767389306459510936e-03,1.473243639501657098e-01,1.466497459320385277e-01,2.158190115751204563e-01,2.033944845199584794e-01,2.021608114242553766e-01,1.960108280181884766e-01,5.006573788089543342e-01,-6.914569735527038574e-01,-7.000917196273803711e-01,4.427645199270295251e+01,0.000000000000000000e+00
7.272699999999999998e-02,1.228361615493312083e-02,-2.435198372012141801e-02,9.908955693244934082e-01,7.697652055712711494e-03,-8.903025649150464460e-03,7.647937108057733385e-03,6.184140211812378697e-03,1.827037055190856504e-02,-3.233601525425910950e-02,-6.443384345155797610e-02,3.642305392826014621e-02,1.877888417653500452e-02,1.541304525681385651e-01,1.651022453796731626e-01,2.200016373997128738e-01,2.070718288421630748e-01,2.088040888309478649e-01,1.985192835330963079e-01,5.020772369340558150e-01,-6.917970776557922363e-01,-6.729584932327270508e-01,-1.035044066446172621e+02,0.000000000000000000e+00
9.670800000000000229e-02,1.236767819257533416e-02,-2.327977517544274969e-02,9.897814989089965820e-01,9.727815366107006589e-03,-1.149647965531341853e-02,6.031403963758864666e-03,6.515260567277100226e-04,1.419621504076275416e-02,-2.682912535965442657e-02,1.146475688577028446e-01,-1.555496225587917614e-01,-6.533180998322286881e-02,1.117274505399728224e-01,1.242797027004113875e-01,2.070937991242645382e-01,1.809826612472534013e-01,1.914006471633911133e-01,1.900787472724914384e-01,5.017966288487277771e-01,-6.910036802291870117e-01,-9.770656824111938477e-01,1.185466073858172109e+02,0.000000000000000000e+00
1.222530000000000006e-01,1.235845155812577076e-02,-2.269871298516603492e-02,9.889339804649353027e-01,1.221629973608940635e-02,-1.413845120249979104e-02,4.476937041527850880e-03,-5.828246753402288940e-03,7.420808395166372806e-03,-1.640025340020656586e-02,1.165475640690184361e-01,-1.413397298923335654e-01,-8.485284976120074929e-02,5.856791443574617395e-02,5.954185719430728219e-02,1.904650466589759839e-01,1.484998941421508678e-01,1.482028126716613825e-01,1.777274072170257624e-01,5.010988988928001264e-01,-6.911349296569824219e-01,-1.290208458900451660e+00,8.422469507063885885e+01,0.000000000000000000e+00
1.476129999999999942e-01,1.213952891305782045e-02,-2.184918239296582826e-02,9.876659512519836426e-01,1.658372717940226684e-02,-1.878832138162245258e-02,1.955457743810105811e-03,-1.889311593273280618e-02,1.125291667559198683e-02,-2.671121805906295776e-02,1.352682805088238349e-01,-1.080219287155633479e-01,-6.657821753588365199e-02,4.431267976760863703e-02,-4.141826629638672985e-02,1.754865551092520404e-01,1.443126797676086426e-01,5.858173370361327570e-02,1.695773005485534668e-01,5.020167218940403409e-01,-6.906638145446777344e-01,-5.115830898284912109e-02,-7.101152336651995256e+01,0.000000000000000000e+00
1.713399999999999923e-01,1.180619940339166715e-02,-2.130520818086617182e-02,9.866322278976440430e-01,1.925696427095676538e-02,-2.218099369650916586e-02,6.975220067497229126e-05,-1.230979923793893913e-02,6.544037379849080953e-03,-2.937890030443668365e-02,1.245915685114060284e-01,-1.238135287180986699e-01,-1.084193348341182528e-01,3.682677745819090687e-02,-5.979729890823364674e-02,1.667618973672759519e-01,1.368267774581909124e-01,4.020270109176635881e-02,1.660177230834960771e-01,5.024290993717057674e-01,-6.857697963714599609e-01,-1.070770621299743652e+00,6.751108556783425740e+01,0.000000000000000000e+00
1.973270000000000024e-01,1.118955723278588880e-02,-2.049005312617789565e-02,9.850276708602905273e-01,2.216737926802430161e-02,-2.545345216411942779e-02,-2.581108150537171197e-03,-1.399496380017656132e-02,9.991462809388770849e-03,-4.717397689819335938e-02,5.774675872426447004e-02,-5.931897148068054904e-02,-5.270841879761445359e-02,1.242822408676146073e-02,-1.251295804977416992e-01,1.568256462207076041e-01,1.124282240867614663e-01,-2.512958049774169714e-02,1.632843911647796631e-01,5.039428323528925002e-01,-6.858806014060974121e-01,-9.789236783981323242e-01,8.066561326773944529e+01,0.000000000000000000e+00
2.207850000000000090e-01,1.076277019845861375e-02,-1.999965362366137867e-02,9.838212132453918457e-01,2.347462448381081382e-02,-2.676880160794059549e-02,-4.324559618322610516e-03,-1.786127967912134323e-02,8.948014307953385676e-03,-4.312314093112945557e-02,1.934840715553001397e-02,-2.028783137339447429e-02,-7.586408756311802115e-02,-7.787227630615262131e-04,-1.624278426170349121e-01,1.450883887889860002e-01,9.922127723693847934e-02,-6.242784261703490656e-02,1.563304245471954235e-01,5.038404354741164992e-01,-6.830095648765563965e-01,-6.814135313034057617e-01,7.470136914107925463e+01,0.000000000000000000e+00
2.491899999999999948e-01,9.948171672714754138e-03,-1.901386742528552581e-02,9.817831516265869141e-01,2.444439681813073001e-02,-2.653727314684295457e-02,-6.810720480279485595e-03,-1.312298382042967511e-02,-2.418732325671759786e-03,-5.122962594032287598e-02,-1.044123859972627411e-02,5.174643801296278933e-02,-1.106170250941733435e-01,-2.720599174499511996e-02,-1.518959164619445856e-01,1.459368419189407684e-01,7.279400825500488559e-02,-5.189591646194458008e-02,1.641763865947723222e-01,5.046318930229409805e-01,-6.848941445350646973e-01,-1.259615063667297363e+00,1.009869150297664504e+02,0.000000000000000000e+00
2.799929999999999919e-01,9.225708224271357560e-03,-1.799441267929502430e-02,9.803714156150817871e-01,2.489535750917627396e-02,-2.510501533640074889e-02,-8.391436472441020714e-03,-1.419918045534854928e-02,3.746124214984309416e-03,-3.752827271819114685e-02,3.958849585573151475e-02,6.375766873360894094e-02,-8.756366377637149478e-02,-1.089093685150147039e-02,-1.147271156311035212e-01,1.370078665894480519e-01,8.910906314849853516e-02,-1.472711563110351562e-02,1.596521079540252630e-01,5.037700596396823549e-01,-6.845721006393432617e-01,-4.556797742843627930e-01,6.550053059318180715e+01,0.000000000000000000e+00
2.953760000000000274e-01,8.856525506623235192e-03,-1.754943326021207728e-02,9.797027111053466797e-01,2.485706382233486209e-02,-2.401127696327121086e-02,-9.271574395185080281e-03,-8.255921085334743878e-03,3.227522174234200448e-03,-5.067513510584831238e-02,9.853087923238438781e-03,1.035716635405554420e-01,-5.702202971473450954e-02,-1.604406833648681918e-02,-7.684686779975891113e-02,1.454907922051255353e-01,8.395593166351318637e-02,2.315313220024108748e-02,1.706656873226165827e-01,5.047767140843135714e-01,-6.896619200706481934e-01,-1.040057301521301270e+00,4.677058436059231639e+01,0.000000000000000000e+00
3.222479999999999789e-01,7.740728932445671562e-03,-1.623519238242033397e-02,9.775096178054809570e-01,2.459719437508567016e-02,-1.949081929736595775e-02,-1.163317475386078936e-02,-2.693794549249144132e-02,-4.960759175708910444e-03,-5.447842180728912354e-02,3.586451361170765045e-02,1.168797079183905435e-01,-8.355375689881912316e-02,-1.820489168167115090e-02,-3.578205108642579235e-02,1.401514610484663748e-01,8.179510831832885465e-02,6.421794891357421320e-02,1.720393002033233643e-01,5.052488590347373743e-01,-6.923733353614807129e-01,-8.069804906845092773e-01,8.070451119506267901e+01,0.000000000000000000e+00
3.477580000000000116e-01,6.582395430170142128e-03,-1.513762901846527932e-02,9.753728508949279785e-01,2.398105304514465755e-02,-1.455853577155497014e-02,-1.415792264092959052e-02,-2.338690647196852920e-02,-2.663449268636958623e-03,-5.613447725772857666e-02,-7.458709464293926221e-03,1.929721579071683180e-01,-1.337267360812415817e-01,9.431052207946766242e-03,6.093118190765378639e-02,1.377681755595452362e-01,1.094310522079467718e-01,1.609311819076537919e-01,1.769033074378967285e-01,5.054935298311206138e-01,-6.984355449676513672e-01,-4.408270120620727539e-01,1.030104132128960828e+02,0.000000000000000000e+00
3.732349999999999834e-01,5.710498858922111870e-03,-1.453889005500111006e-02,9.739595055580139160e-01,2.386249329422033758e-02,-1.136022186703167236e-02,-1.567621477277590311e-02,-2.188702814711984690e-02,-6.753176746739602936e-03,-5.351301282644271851e-02,2.383873466430210669e-02,1.177293053382961335e-01,-6.030627879735693531e-02,5.123138427734361122e-03,1.059985655837780427e-01,1.373819300907216379e-01,1.051231384277343667e-01,1.906358242034912054e-01,1.808797001838683971e-01,5.054632900699089770e-01,-6.992548704147338867e-01,-1.369575858116149902e+00,9.675872740520507875e+01,0.000000000000000000e+00
3.986790000000000056e-01,4.822992296853680430e-03,-1.402313426445600877e-02,9.726026058197021484e-01,2.356395625434348079e-02,-8.967517635546373711e-03,-1.753309749442011692e-02,-3.534584647306285993e-02,-1.532839591718160137e-02,-4.397443681955337524e-02,2.495443551934682647e-02,7.350612846865045569e-02,-1.091960038168374586e-01,8.667230606079087685e-03,1.127941829898590903e-01,1.290850186198808647e-01,1.086672306060790932e-01,1.933833003044128362e-01,1.778221428394317627e-01,5.049104182554734477e-01,-6.997971534729003906e-01,-6.041234731674194336e-01,-3.439652188657697707e+01,0.000000000000000000e+00
4.307119999999999838e-01,3.425576045276435434e-03,-1.338998491727679679e-02,9.705818295478820801e-01,2.283324777455435564e-02,-6.393518262627795323e-03,-2.015592354577527834e-02,-2.783467445398528708e-02,-1.681128966295945826e-02,-5.085174739360809326e-02,-5.128553802570209874e-02,5.655956758336652679e-02,-9.689737195184490448e-02,3.287863731384274568e-03,1.482761709774298997e-01,1.258454388251091516e-01,1.032878637313842801e-01,2.051809072494506780e-01,1.820386290550231878e-01,5.056353826723994915e-01,-7.006495594978332520e-01,-1.068693518638610840e+00,1.045858117128851639e+01,0.000000000000000000e+00
4.508969999999999922e-01,2.944207977659700926e-03,-1.323545808503137633e-02,9.699873328208923340e-01,2.285445188018277521e-02,-6.461391639996483249e-03,-2.116098597262939737e-02,-2.813570081811075929e-02,-1.886973527566740416e-02,-5.008774623274803162e-02,-2.869011833307729895e-02,3.303236144112738776e-02,-1.164125195046802896e-01,1.516962051391596011e-03,1.459177491090427603e-01,1.225501761168616699e-01,1.015169620513916016e-01,2.049628615379333330e-01,1.815508246421813909e-01,5.057032371472730548e-01,-7.004270553588867188e-01,-1.315659880638122559e+00,9.090144404094728259e+01,0.000000000000000000e+00
4.732339999999999880e-01,1.972923167999679397e-03,-1.294376936227228762e-02,9.687501788139343262e-01,2.273527511257185038e-02,-6.461778733588774415e-03,-2.285613296089779659e-02,-3.082344034101121635e-02,-1.061716823063481134e-02,-6.083708256483078003e-02,-5.322778510543998975e-02,2.321453609716510325e-02,-7.315313407687872027e-02,1.274232864379881702e-02,1.432964022698737516e-01,1.171049860314029301e-01,1.127423286437988226e-01,2.052148818969726507e-01,1.808274149894714411e-01,5.066747566093564581e-01,-7.010147571563720703e-01,-1.212527394294738770e+00,8.574118148148929208e+01,0.000000000000000000e+00
4.968040000000000234e-01,1.024713763809665702e-03,-1.272816248211285431e-02,9.675365090370178223e-01,2.286506374463174313e-02,-7.799177675178903257e-03,-2.470190580726460208e-02,-3.406371666647124014e-02,-1.515420729322172061e-02,-5.713258311152458191e-02,-1.492938986384518066e-02,-3.068491365160552070e-02,-9.345641281494480868e-02,9.600818157196031044e-03,1.265759500783916192e-01,1.088178670620946753e-01,1.096008181571960366e-01,2.000097334384918213e-01,1.776666641235351562e-01,5.065911914839064112e-01,-7.001340985298156738e-01,-6.036399602890014648e-01,-1.403533660092952573e+02,0.000000000000000000e+00
5.256880000000000441e-01,-4.347331404028861217e-04,-1.240546459732533996e-02,9.657798409461975098e-01,2.246419819911273444e-02,-1.072044521286175112e-02,-2.768806921166415413e-02,-4.510735510098682483e-02,-2.789552524272325557e-02,-5.103870108723640442e-02,-3.798119572689571261e-02,-9.885475243793499789e-02,-1.474166331957889597e-01,-3.051877021789564659e-03,5.502343773841855690e-02,9.685485398123047651e-02,9.694812297821044089e-02,1.550234377384185624e-01,1.739838480949401911e-01,5.064481231377303549e-01,-6.950315237045288086e-01,-1.104381680488586426e+00,8.965518723441924465e+01,0.000000000000000000e+00
5.495250000000000412e-01,-1.394248139536948677e-03,-1.232196956596929432e-02,9.646036624908447266e-01,2.230429892254625832e-02,-1.333952706622110185e-02,-2.932060884058037414e-02,-3.683331730219666783e-02,-1.687090754009340846e-02,-5.529901012778282166e-02,5.255293155521141395e-03,-1.337602107809842122e-01,-7.246538575493458034e-02,6.934237480163571443e-03,3.931910395622251198e-02,8.664857968682684874e-02,1.069342374801635770e-01,1.393191039562225175e-01,1.682751595973968339e-01,5.069596019911455365e-01,-6.938010454177856445e-01,-1.381765246391296387e+00,9.006967043401229489e+01,0.000000000000000000e+00
5.715240000000000320e-01,-2.407357152824939062e-03,-1.226376883688101369e-02,9.634069800376892090e-01,2.216007132564946219e-02,-1.630302091694701971e-02,-3.137064573637367293e-02,-4.099192491870338323e-02,-3.405051235530569265e-02,-4.865762591361999512e-02,1.568246890276167940e-02,-1.903423423092155398e-01,-1.232871048075698805e-01,-5.770878791809083003e-02,-9.202613234519958774e-02,7.246407983304956058e-02,4.229121208190917552e-02,7.973867654800414345e-03,1.598005950450897272e-01,5.068417449066559000e-01,-6.830202341079711914e-01,-6.461926698684692383e-01,6.469585234668426210e+01,0.000000000000000000e+00
5.963690000000000380e-01,-4.120021195051144260e-03,-1.213214623168636271e-02,9.616492390632629395e-01,2.155333513133727424e-02,-2.055717632345066548e-02,-3.393263521987243542e-02,-4.404135708822301543e-02,-2.723713225792160145e-02,-4.817163944244384766e-02,-3.259134458134682610e-02,-1.261483034584285901e-01,-8.152086865021355988e-02,-7.109619379043580212e-02,-1.955406785011291615e-01,5.428661452341737581e-02,2.890380620956420690e-02,-9.554067850112914206e-02,1.486611843109130748e-01,5.072164341562693801e-01,-6.724887490272521973e-01,5.593131780624389648e-01,-1.695123690667122318e+01,0.000000000000000000e+00
6.218460000000000099e-01,-6.162793661766216222e-03,-1.182888242156200295e-02,9.599977135658264160e-01,2.123186299942636870e-02,-2.473479082715090982e-02,-3.649676857060867724e-02,-4.961965967787575899e-02,-2.466782542347582124e-02,-5.058010667562484741e-02,-4.578482338720488154e-02,-4.643071101421042401e-02,-4.389178417637887297e-02,-9.088631868362427590e-02,-2.396329760551452748e-01,3.893043398857115589e-02,9.113681316375731381e-03,-1.396329760551452692e-01,1.389304339885711614e-01,5.077415748920801608e-01,-6.653231978416442871e-01,-2.543674707412719727e-01,9.125316463225708219e+01,0.000000000000000000e+00
6.523069999999999702e-01,-8.259567629313476975e-03,-1.160832606678799221e-02,9.583519697189331055e-01,2.052852690503649893e-02,-2.769043821499628244e-02,-3.875888170194043830e-02,-4.466457596644700379e-02,-2.864076301437261732e-02,-5.190625041723251343e-02,3.018801885372868199e-02,-1.211025736614006892e-01,-8.576587697306210789e-02,-1.269942879676818903e-01,-2.586539864540099987e-01,3.591414690017699640e-02,-2.699428796768188477e-02,-1.586539864540099931e-01,1.359141469001770020e-01,5.081472888740562466e-01,-6.602354049682617188e-01,-1.231589198112487793e+00,9.021909448248466390e+01,0.000000000000000000e+00
6.751019999999999799e-01,-9.662205418670882784e-03,-1.153872047953135443e-02,9.573456645011901855e-01,1.919737329593861758e-02,-2.812799736532456407e-02,-4.029946932070091470e-02,-6.155765597716059134e-02,-4.449577104649324322e-02,-5.016133934259414673e-02,-8.445533613740131840e-02,1.794425544641557388e-02,-9.532062483502173889e-02,-2.199198126792907826e-01,-2.810468196868896595e-01,1.197337508201598566e-02,-1.199198126792907632e-01,-1.810468196868896540e-01,1.119733750820159912e-01,5.082998062350021495e-01,-6.543243527412414551e-01,-1.127025485038757324e+00,8.795886194272239322e+01,0.000000000000000000e+00
7.028290000000000370e-01,-1.107310265100569166e-02,-1.148069647200656608e-02,9.563118219375610352e-01,1.787959094283321157e-02,-2.718004859012013164e-02,-4.150367070964568195e-02,-4.292675173528165411e-02,-2.694923570158060458e-02,-5.870771035552024841e-02,-6.367541681664551367e-02,4.525873760216138353e-02,-8.658862994808198821e-02,-1.222688972949981800e-01,-2.615919709205627441e-01,3.178890943527221125e-02,-2.226889729499816756e-02,-1.615919709205627386e-01,1.317889094352722168e-01,5.090030065943653703e-01,-6.594853401184082031e-01,-1.586345314979553223e+00,1.212983813193886249e+02,0.000000000000000000e+00
7.243600000000000039e-01,-1.234852196565005070e-02,-1.157294793057456195e-02,9.553138017654418945e-01,1.619764586119571206e-02,-2.467054369261667546e-02,-4.252940544136445816e-02,-4.890363037822973574e-02,-3.575842987522766941e-02,-5.015911906957626343e-02,-9.076361618712854018e-02,1.446447990301533704e-01,-6.155883667233882917e-02,-1.236730694770813016e-01,-2.527631759643554910e-01,2.354404926300047995e-02,-2.367306947708129952e-02,-1.527631759643554576e-01,1.235440492630004855e-01,5.085161404521009176e-01,-6.604837775230407715e-01,-1.167741179466247559e+00,7.433937594525775694e+01,0.000000000000000000e+00
7.468930000000000291e-01,-1.360192123155770129e-02,-1.164482748444177831e-02,9.543080925941467285e-01,1.397342258476095243e-02,-2.090327566901217793e-02,-4.345079613660754458e-02,-6.144321046692934052e-02,-3.562796346735194047e-02,-5.170521140098571777e-02,-6.570929784863260847e-02,1.416701989580089471e-01,-5.083574725065806432e-02,-1.242943763732910212e-01,-2.412809610366821178e-01,2.771692276000975452e-02,-2.429437637329101562e-02,-1.412809610366821123e-01,1.277169227600097601e-01,5.087051040835228743e-01,-6.655974388122558594e-01,-1.047625660896301270e+00,8.749263322997731507e+01,0.000000000000000000e+00
7.721280000000000365e-01,-1.546236753050171664e-02,-1.181509675767826104e-02,9.528368711471557617e-01,1.003071711683364668e-02,-1.336789605010602067e-02,-4.483291871039340321e-02,-4.071001981370726136e-02,-2.206488405512908174e-02,-4.455519467592239380e-02,-9.081857632902505528e-02,2.431823562650765325e-01,-5.179952670243449103e-02,3.267870466978969879e-02,-6.962455511093140759e-02,4.592037796974179908e-02,1.205019950866699219e-01,3.037544488906860143e-02,1.459203779697418046e-01,5.080673868039129459e-01,-6.811235547065734863e-01,-1.187546133995056152e+00,8.214276461915976313e+01,0.000000000000000000e+00
7.972909999999999719e-01,-1.729075876560148828e-02,-1.195977151313027537e-02,9.515584111213684082e-01,4.895504557844767950e-03,-4.998699874887213568e-03,-4.616142723772417855e-02,-6.233914589141513474e-02,-2.975885093681490332e-02,-3.689972311258316040e-02,-1.491622069383534144e-01,2.959508915816850827e-01,-6.705552645296244951e-02,1.471912139196611125e-01,7.937182130621769915e-02,8.956233263015744850e-02,2.112277865409850908e-01,1.677589237689971757e-01,1.895623326301574540e-01,5.074818020493544468e-01,-6.917311549186706543e-01,-1.267084002494812012e+00,9.524524627758945883e+01,0.000000000000000000e+00
8.228590000000000071e-01,-1.900473211218134048e-02,-1.230966505603165069e-02,9.505356550216674805e-01,-1.182913468238581218e-04,3.234372236623483943e-03,-4.743710776247857253e-02,-4.364247031103347246e-02,-2.513254978593916847e-02,-4.895977303385734558e-02,-1.777373071066335186e-01,3.063715266943344839e-01,-9.254028372781115952e-02,1.963502081165320878e-01,1.999370861272583844e-01,1.124336004257202037e-01,2.232965469360351507e-01,2.179605782032012773e-01,2.124336004257202093e-01,5.087201772885150408e-01,-6.823102831840515137e-01,-9.733673334121704102e-01,8.434910696637064120e+01,0.000000000000000000e+00
8.483910000000000062e-01,-2.059341570830220888e-02,-1.262501415863589299e-02,9.497675299644470215e-01,-4.387933844066189450e-03,1.069247225843961147e-02,-4.869831837556458376e-02,-4.089232376031727567e-02,-2.067240170885627573e-02,-3.432303294539451599e-02,-1.151234090535313698e-01,2.294208599333642518e-01,-2.760174284987536655e-02,2.279486864936936530e-01,2.480292326935416569e-01,1.118937253952026201e-01,2.253075957298278642e-01,2.191742420196533259e-01,2.118937253952026256e-01,5.077059082869185280e-01,-6.855162978172302246e-01,-1.226851344108581543e+00,8.811500689733804847e+01,0.000000000000000000e+00
8.732680000000000442e-01,-2.211361381369030682e-02,-1.298970114303021200e-02,9.495205283164978027e-01,-6.380448138797989964e-03,1.581722027767695771e-02,-5.032116830518879730e-02,-4.696869323659869089e-02,-2.344049893309673935e-02,-4.093464091420173645e-02,-7.758760261738810449e-02,1.980331905364935141e-01,-1.328670211569424331e-02,2.376658817995090101e-01,2.771149202609270445e-01,1.098634898662567139e-01,2.258791923522949219e-01,2.209034264087677002e-01,2.098634898662567194e-01,5.082515056719523194e-01,-6.884284019470214844e-01,-1.212512135505676270e+00,1.207451769777526209e+02,0.000000000000000000e+00
8.979819999999999469e-01,-2.384863503553858941e-02,-1.348353688766186151e-02,9.495724439620971680e-01,-4.360790588635864683e-03,1.573306412061081794e-02,-5.245358934628824993e-02,-3.799660586625329406e-02,-2.027521885876387708e-02,-1.972889341413974762e-02,1.505773158739481810e-01,-8.535374621522155703e-02,-5.682663815311632394e-02,2.257689787476721277e-01,2.825968919498476617e-01,1.085095822811126542e-01,2.246112942695617509e-01,2.206614911556243896e-01,2.085095822811126598e-01,5.067928268445868190e-01,-6.850427985191345215e-01,-7.908471822738647461e-01,9.519544736835089793e+01,0.000000000000000000e+00
9.239000000000000545e-01,-2.564260818615673315e-02,-1.406960963040205029e-02,9.498678445816040039e-01,4.951018234872421164e-04,1.172063337071893585e-02,-5.491222636535827983e-02,-5.277447571805821136e-02,-2.685063639538710217e-02,-9.286090731620788574e-03,2.009194433913788769e-01,-2.180893029091401647e-01,-6.492798256834232673e-02,1.844709960742411115e-01,2.403812605235716438e-01,1.080298244953155351e-01,2.215253233909606767e-01,2.189964473247527910e-01,2.080298244953155407e-01,5.060718232732492883e-01,-6.840792894363403320e-01,2.500194311141967773e-01,-2.290775011296461106e+00,0.000000000000000000e+00
9.487929999999999975e-01,-2.737059029133448451e-02,-1.469262587306533266e-02,9.503633975982666016e-01,6.799540550955210892e-03,4.979391639468477848e-03,-5.724739691329606972e-02,-3.500501843905391708e-02,-1.640097718054159270e-02,5.241342354565858841e-03,2.587171801145229377e-01,-2.957756256563965347e-01,-1.079150864711246049e-01,1.401880182719928980e-01,2.061069217456521496e-01,9.219754934310911421e-02,2.085160732269286943e-01,2.146221041679382269e-01,1.921975493431091198e-01,5.049838546251904647e-01,-6.839788556098937988e-01,-1.158921599388122559e+00,1.914043445453699519e+02,0.000000000000000000e+00
9.738769999999999927e-01,-2.910220216527477713e-02,-1.545352692691212733e-02,9.509744048118591309e-01,1.328430030474915362e-02,-3.477840195067916085e-03,-5.968901380223123887e-02,-3.484786386497228799e-02,-2.431064666965940604e-02,4.642607644200325012e-03,2.091834925996043371e-01,-2.994114791510519846e-01,-1.122389926981255948e-01,4.179716110229436676e-04,1.155393556545585981e-01,5.216600894927977961e-02,1.004179716110229492e-01,1.828807711601257158e-01,1.521660089492797852e-01,5.050559527284065320e-01,-6.825087070465087891e-01,-1.099850535392761230e+00,8.198209807931355897e+01,0.000000000000000000e+00
9.991449999999999498e-01,-3.088365985040654113e-02,-1.650152626619849627e-02,9.515081644058227539e-01,1.935944386661053035e-02,-1.151010088324433411e-02,-6.234268988737949602e-02,-3.811920059312218917e-02,-3.288177520753742672e-02,-2.686504274606704712e-03,1.269362705799357560e-01,-2.603776330420619067e-01,-1.153754948863374152e-01,-9.814008474349976419e-02,-1.159461975097656333e-01,2.610527276992796741e-02,1.859915256500243967e-03,-1.594619750976562431e-02,1.261052727699279730e-01,5.058762896885918847e-01,-6.687840819358825684e-01,-1.062730431556701660e+00,1.077007929084030451e+02,0.000000000000000000e+00
1.023255000000000026e+00,-3.204981688468166307e-02,-1.717957077673297472e-02,9.517570137977600098e-01,2.283409517806126235e-02,-1.652740067965474680e-02,-6.372261599095974116e-02,-3.528990553841516303e-02,-2.208799046632286059e-02,-2.966098720207810402e-03,1.485738268727139211e-01,-2.745174391669021330e-01,-8.050439244217977297e-02,-1.161738991737365778e-01,-2.033257007598877064e-01,9.399062395095816869e-03,-1.617389917373657227e-02,-1.033257007598876870e-01,1.093990623950958224e-01,5.060239167260172088e-01,-6.635067462921142578e-01,-1.133330225944519043e+00,9.100715487873156917e+01,0.000000000000000000e+00
1.050049999999999928e+00,-3.379554646681693503e-02,-1.817597574570133101e-02,9.521140456199645996e-01,2.530581255345762046e-02,-2.206756090429595751e-02,-6.541510458279944928e-02,-3.538955106445752091e-02,-1.930868667683458342e-02,-7.766319438815116882e-03,6.083187292282522113e-02,-1.498276908265843144e-01,-5.400882261063804507e-02,-1.416917204856872614e-01,-2.631966114044189675e-01,7.808208465576033097e-04,-4.169172048568725586e-02,-1.631966114044189342e-01,1.007808208465576089e-01,5.064672568060136770e-01,-6.604512333869934082e-01,-1.082030653953552246e+00,9.603429022107684432e+01,0.000000000000000000e+00
1.078727999999999909e+00,-3.486755595492222609e-02,-1.882137714350761923e-02,9.522163867950439453e-01,2.454595199374201564e-02,-2.287863625691022307e-02,-6.622925389314940348e-02,-4.545999700776436059e-02,-2.016287490240743080e-02,-2.387221157550811768e-02,-9.788674460525007004e-02,4.237622849633612687e-02,-2.220077210890892064e-02,-1.867645800113678090e-01,-2.697380900382995716e-01,1.427560448646544855e-02,-8.676458001136778952e-02,-1.697380900382995661e-01,1.142756044864654541e-01,5.077380211807971389e-01,-6.602314114570617676e-01,-1.485701918601989746e+00,1.300946950835028986e+02,0.000000000000000000e+00
1.100351999999999997e+00,-3.589281313869974871e-02,-1.869914620093623969e-02,9.522709846496582031e-01,2.282592427998149029e-02,-2.182787551080012101e-02,-6.694660301087287935e-02,-2.523978790339101441e-02,-1.522539770921180549e-02,-2.495271526277065277e-02,-1.030400495951301898e-01,1.360060038659710591e-01,-3.552131513426658865e-02,-1.134897589683532826e-01,-2.533853411674499290e-01,-3.557008504867564813e-03,-1.348975896835327183e-02,-1.533853411674499512e-01,9.644299149513244074e-02,5.078246353514578315e-01,-6.629351377487182617e-01,-9.600530862808227539e-01,-4.447534880888101227e+00,0.000000000000000000e+00
1.123482000000000092e+00,-3.690877944124051901e-02,-1.864777771931469888e-02,9.522472023963928223e-01,2.009103828313401480e-02,-1.893362702697998223e-02,-6.735259538145375868e-02,-3.352043712252779362e-02,-1.840738876457059803e-02,-2.836603671312332153e-02,-1.455415156316659520e-01,1.871300937020262956e-01,-5.159363173541540656e-03,-1.194052100181579590e-01,-2.347960233688354548e-01,7.337534427642816715e-03,-1.940521001815795690e-02,-1.347960233688354492e-01,1.073375344276428223e-01,5.081548339573556117e-01,-6.630643606185913086e-01,-9.488891363143920898e-01,7.155815706617440242e+01,0.000000000000000000e+00
1.147624999999999895e+00,-3.787396750508986026e-02,-1.860032244569507359e-02,9.522035121917724609e-01,1.704563594487923731e-02,-1.487149182623404009e-02,-6.782785932267097750e-02,-4.073646243510497394e-02,-2.498139389215888601e-02,-1.575381308794021606e-02,-1.230465909537609565e-01,1.941023457710319977e-01,-2.671485440190969618e-02,-1.178055763244628962e-01,-2.107276678085327204e-01,7.748484611511216591e-03,-1.780557632446289062e-02,-1.107276678085327148e-01,1.077484846115112221e-01,5.072580597194097374e-01,-6.642772555351257324e-01,-9.464448690414428711e-01,9.634093156386455803e+01,0.000000000000000000e+00
1.171904000000000057e+00,-3.882362980820146248e-02,-1.858215488763682519e-02,9.522215723991394043e-01,1.369766782314941859e-02,-9.527624610665474947e-03,-6.814979375553416319e-02,-2.556635517145827360e-02,-1.627901231988966232e-02,-2.115927822887897491e-02,-1.565467105411152970e-01,3.225737141476797687e-01,-3.025246494819179219e-02,-9.626686573028578331e-03,-3.004444837570191540e-02,4.178734421730040394e-02,9.037331342697142722e-02,6.995555162429809015e-02,1.417873442173004095e-01,5.074374309043774289e-01,-6.791486144065856934e-01,-1.119918942451477051e+00,9.535651688935813297e+01,0.000000000000000000e+00
1.200256999999999907e+00,-4.003649212486044134e-02,-1.863760135884427044e-02,9.522145390510559082e-01,8.975500140377368555e-03,-1.609652801562333480e-03,-6.850023287785567128e-02,-3.352177856546236651e-02,-2.273653321718497461e-02,-2.357900142669677734e-02,-1.591122014712762212e-01,2.943811942962437089e-01,6.506972969239601529e-03,9.218161226887905402e-02,1.367408121879792327e-01,8.366910815238950971e-02,1.852490901947021484e-01,2.002331972122192438e-01,1.836691081523895153e-01,5.076033959207989499e-01,-6.837947368621826172e-01,-1.177984833717346191e+00,8.131697425793771572e+01,0.000000000000000000e+00
1.220555000000000057e+00,-4.058278808656014952e-02,-1.875078636707892127e-02,9.523864388465881348e-01,6.548273036471563904e-03,3.948701648966768118e-03,-6.887941040318897035e-02,-3.084742230704875382e-02,-1.699918632197545618e-02,-1.865726336836814880e-02,-1.071387325697417819e-01,3.390091181358292904e-01,-3.993965280385696620e-02,1.380475163830192642e-01,1.890405545978676716e-01,9.413669705390928510e-02,2.105355262756347656e-01,2.138372898101806585e-01,1.941366970539092907e-01,5.072293404883875256e-01,-6.866633296012878418e-01,-6.557189226150512695e-01,6.853189832042768614e+01,0.000000000000000000e+00
1.250640999999999892e+00,-4.157200664139453633e-02,-1.894918875735627714e-02,9.529696106910705566e-01,2.341664112768859600e-03,1.245011900520820447e-02,-6.964571914636838446e-02,-2.288792096734593509e-02,-1.744000338841724188e-02,3.418695880100131035e-03,-1.210903911776443041e-02,8.449753210891368382e-02,-3.098876067541530416e-02,1.674061091420758485e-01,2.549326519811848102e-01,1.004695892333984375e-01,2.147097945213317927e-01,2.191482782363891602e-01,2.004695892333984431e-01,5.057279875213472886e-01,-6.786144375801086426e-01,-7.675691843032836914e-01,9.021216184047710840e+01,0.000000000000000000e+00
1.271236999999999950e+00,-4.204646771479667033e-02,-1.908951925243334083e-02,9.534733295440673828e-01,1.539532719723544357e-03,1.417927410663222254e-02,-7.051217286916040827e-02,-3.022768428130245474e-02,-3.079515810655129512e-02,-4.031729418784379959e-03,-4.029511322862684014e-02,4.288780576386821280e-02,-6.592497610487793591e-02,1.638892427538167218e-01,2.600662231472311015e-01,1.013154327869415228e-01,2.172916889190673884e-01,2.197574436664581354e-01,2.013154327869415283e-01,5.062450962276281441e-01,-6.815823316574096680e-01,-6.251128911972045898e-01,8.271587896222636971e+01,0.000000000000000000e+00
1.295230000000000103e+00,-4.303102951856491165e-02,-1.949203736417098182e-02,9.542817473411560059e-01,3.153837732498560986e-03,1.268237170822983373e-02,-7.193388124175321974e-02,-2.105413211303136869e-02,-2.645408646721038662e-02,5.324601661413908005e-03,3.245233590945782037e-02,-9.839398389377282395e-02,-7.716041369370610359e-02,1.532739453609314739e-01,2.569153366409120953e-01,9.871646165847777765e-02,2.118198037147522028e-01,2.193605840206146185e-01,1.987164616584777832e-01,5.055963282683916260e-01,-6.774794459342956543e-01,-6.764186620712280273e-01,9.314332386240972994e+01,0.000000000000000000e+00
1.323306000000000093e+00,-4.450828932892777340e-02,-2.010699864056816194e-02,9.553420543670654297e-01,6.506405416745530274e-03,7.405358594471334044e-03,-7.326803740519484409e-02,-2.196220884962389250e-02,-2.492979731972364693e-02,-1.288704457692801952e-03,5.621684480103412290e-02,-1.878680827448113710e-01,8.362500779300752543e-03,1.248427631582188363e-01,2.161304060751257083e-01,9.386236071586606666e-02,2.047978162765502763e-01,2.163020968437194824e-01,1.938623607158660722e-01,5.060046304185387145e-01,-6.802146434783935547e-01,-6.590684652328491211e-01,1.100030584323175873e+02,0.000000000000000000e+00
1.345831000000000000e+00,-4.544111404147135880e-02,-2.048611434294020026e-02,9.560747146606445312e-01,9.603043580803785617e-03,2.399886758626124106e-03,-7.446273892627475188e-02,-3.231934948342663622e-02,-2.693499780335571053e-02,9.522132575511932373e-03,1.728670431159979870e-01,-3.105979503230223426e-01,-8.973207910698903500e-02,7.086762189865111750e-02,1.663412945751763239e-01,7.731729745864868164e-02,1.708676218986511230e-01,2.082400202751159557e-01,1.773172974586486872e-01,5.051507468356667419e-01,-6.816523075103759766e-01,-1.022985339164733887e+00,9.910716500790890393e+01,0.000000000000000000e+00
1.371259999999999923e+00,-4.676079884069755249e-02,-2.116686592095146091e-02,9.570606946945190430e-01,1.422336080129169185e-02,-5.506941435717394029e-03,-7.603111561046101141e-02,-2.010922371427575905e-02,-2.900283635172504551e-02,1.610445231199264526e-02,1.248896353023267181e-01,-2.728361729339403019e-01,-8.401739370571581489e-02,-2.591499090194702981e-02,4.720343100363419420e-02,3.913270831108092707e-02,7.408500909805297574e-02,1.307990312576294001e-01,1.391327083110809326e-01,5.047076217893126104e-01,-6.762682199478149414e-01,-9.294008016586303711e-01,9.151351095285046711e+01,0.000000000000000000e+00
1.399073999999999929e+00,-4.774450891428182880e-02,-2.239606397055650400e-02,9.579129815101623535e-01,1.797418325494552771e-02,-1.286606582416083278e-02,-7.748601603873614407e-02,-1.999951773719063977e-02,-2.706326412719688851e-02,5.977183580398559570e-03,6.907946335846538999e-02,-2.328471382297579162e-01,-4.226371498033265617e-02,-1.189131140708923340e-01,-1.595403194427490179e-01,-7.830697298049929533e-03,-1.891311407089233190e-02,-5.954031944274901927e-02,9.216930270195007602e-02,5.056338372448534457e-01,-6.658858060836791992e-01,-6.070135831832885742e-01,7.298064641366711669e+01,0.000000000000000000e+00
1.422995000000000010e+00,-4.831711951994823590e-02,-2.336659012226167259e-02,9.584622979164123535e-01,1.995936542841661443e-02,-1.714707590040909224e-02,-7.816767932973299471e-02,-1.968732861251014377e-02,-2.863807198741301699e-02,9.761588647961616516e-03,9.071171519005774564e-02,-2.430052152229926488e-01,-3.966022176994159903e-02,-1.583880603313446156e-01,-2.381917357444763295e-01,-3.958866000175476768e-02,-5.838806033134460310e-02,-1.381917357444763239e-01,6.041133999824523787e-02,5.054419096210844842e-01,-6.605334281921386719e-01,-6.282366514205932617e-01,5.509445393981681605e+01,0.000000000000000000e+00
1.445972000000000035e+00,-4.884251537603954973e-02,-2.435371516728327204e-02,9.589090347290039062e-01,2.054960478544146443e-02,-1.996223810994046666e-02,-7.872575887727997768e-02,-2.218998952380638393e-02,-3.129178794169188565e-02,1.204118016175925732e-03,-1.358060630930276597e-02,-7.710336943528088571e-02,-3.243574938065939967e-02,-1.653568863868713490e-01,-2.648012161254882924e-01,-4.239580631256104071e-02,-6.535688638687132956e-02,-1.648012161254882868e-01,5.760419368743896484e-02,5.061338455658799251e-01,-6.581319570541381836e-01,-4.423347711563110352e-01,1.103157035113857489e+02,0.000000000000000000e+00
1.471591000000000093e+00,-4.954813663597696510e-02,-2.574117967802515283e-02,9.592133164405822754e-01,1.949257280466970207e-02,-2.080744401294465362e-02,-7.867204328554157355e-02,-1.177338502204857557e-02,-1.976888190422760802e-02,-8.599971421062946320e-03,-4.999615552633498300e-02,3.369555087016385536e-02,3.113021737411822421e-02,-1.470768988132476751e-01,-2.556354284286498912e-01,-4.237524271011353094e-02,-4.707689881324767650e-02,-1.556354284286498857e-01,5.762475728988647461e-02,5.068445977758130327e-01,-6.602465510368347168e-01,-1.044659733772277832e+00,9.038332638107762307e+01,0.000000000000000000e+00
1.498812999999999951e+00,-4.979994226959899573e-02,-2.705103751542501864e-02,9.592749476432800293e-01,1.537299035052821887e-02,-1.656442530340385133e-02,-7.822537077258172322e-02,-1.466394480807047679e-02,-2.576273323549012687e-02,1.049419399350881577e-03,-1.216209114134910729e-01,1.587994555637650684e-01,9.281112404431357543e-03,-1.322252035140991100e-01,-2.154368400573730413e-01,-4.235584139823914129e-02,-3.222520351409911832e-02,-1.154368400573730358e-01,5.764415860176086426e-02,5.061636712226463830e-01,-6.600714325904846191e-01,-1.055716156959533691e+00,9.673432313930061355e+01,0.000000000000000000e+00
1.522404000000000091e+00,-4.983101632851349300e-02,-2.793175905252611585e-02,9.593683481216430664e-01,1.195620468649770222e-02,-1.213352523659216864e-02,-7.793550454222043788e-02,-2.633693825151385906e-03,-2.281190529898017780e-02,-1.667610183358192444e-02,-1.777676094168846865e-01,2.827636733334597530e-01,-4.759129123256591854e-04,-4.594150781631470282e-02,-7.037003040313721813e-02,2.980563044548034668e-02,5.405849218368530273e-02,2.962996959686279089e-02,1.298056304454803522e-01,5.072931311437467450e-01,-6.726260781288146973e-01,-8.496221303939819336e-01,6.640152816735486851e+01,0.000000000000000000e+00
1.548569000000000084e+00,-4.983818280444909238e-02,-2.880818792982484805e-02,9.593855738639831543e-01,8.886297523213031527e-03,-7.515171650125385128e-03,-7.711849649654503591e-02,-1.170508622444100741e-02,-2.675870441410155981e-02,-1.043096650391817093e-02,-1.147534249076151563e-01,1.854657145196064727e-01,4.714692490341177572e-02,-2.070077657699585794e-02,3.039280170993863273e-03,4.119870662689206764e-02,7.929922342300414762e-02,9.959979057312011441e-02,1.411987066268920732e-01,5.067933513513549482e-01,-6.771324276924133301e-01,-6.902376413345336914e-01,7.961246639961518667e+01,0.000000000000000000e+00
1.572667999999999955e+00,-4.984860742606589401e-02,-2.969858349026600897e-02,9.594234228134155273e-01,5.535339068311332517e-03,-2.354706318978827539e-03,-7.683446523604517409e-02,-2.068608269808883474e-02,-3.033531940131978244e-02,-1.442378107458353043e-02,-1.827716423160548331e-01,2.428020040635739951e-01,-3.073851524614163583e-02,9.992130740189424098e-02,1.274631509976208166e-01,8.314920663833616499e-02,1.848110675811767412e-01,1.959154307842254639e-01,1.831492066383361705e-01,5.070832802244993331e-01,-6.803596019744873047e-01,-4.317957162857055664e-01,9.305197691244998737e+01,0.000000000000000000e+00
1.598775000000000057e+00,-4.984602802839380176e-02,-3.103616893032875787e-02,9.594604969024658203e-01,2.256540182362394738e-03,3.910885460861823759e-03,-7.656522650832360555e-02,3.862032565987925416e-03,-3.463579681727245452e-02,-9.521082043647766113e-03,-9.656235365819455796e-02,1.719453978277681316e-01,1.467266228036035250e-02,1.424616042807808625e-01,2.097423714866329392e-01,1.014192521572112871e-01,2.094413995742797907e-01,2.164774060249328447e-01,2.014192521572112926e-01,5.068764824342019137e-01,-6.739754080772399902e-01,-8.671640157699584961e-01,6.346808486223944357e+01,0.000000000000000000e+00
1.623459999999999903e+00,-4.995065860210678305e-02,-3.258624043511514773e-02,9.597105383872985840e-01,7.388526981443934447e-04,7.124968807768139456e-03,-7.674184965553565441e-02,-1.657170199440504213e-02,-2.544769818943346668e-02,-1.626410521566867828e-02,-8.114545742236642378e-02,1.307009566112108945e-01,2.688278976315163979e-02,1.631819306374916179e-01,2.120457868482012453e-01,1.059685647487640381e-01,2.150725364685058538e-01,2.179598271846771296e-01,2.059685647487640436e-01,5.073297564224212852e-01,-6.787158846855163574e-01,-8.123105764389038086e-01,4.212251427189899999e+01,0.000000000000000000e+00
1.647502999999999940e+00,-5.007775845545267557e-02,-3.415215070309891160e-02,9.600639343261718750e-01,1.896125886541123956e-03,5.923663872323681190e-03,-7.726643465695157142e-02,-5.730015028893071724e-03,-3.418797217691489643e-02,3.649165621027350426e-03,1.083103581901894985e-01,-1.311546015370634588e-01,-2.196749632756436407e-02,1.403470174242946178e-01,2.146143033209618189e-01,9.917572736740110084e-02,2.086019754409789984e-01,2.168594419956207109e-01,1.991757273674011064e-01,5.059321831782048751e-01,-6.743288040161132812e-01,-1.017841458320617676e+00,8.186068463662741124e+01,0.000000000000000000e+00
1.671575000000000033e+00,-5.018077768064722194e-02,-3.521291819328052630e-02,9.604674577713012695e-01,4.045988785107372705e-03,3.511959684957544070e-03,-7.823463268409878990e-02,-1.092789025656761004e-02,-3.646731438982222379e-02,1.187378074973821640e-02,1.204509130779459342e-01,-1.649690851910069755e-01,-7.712273507818304119e-02,1.170511815008772188e-01,1.899337196788161430e-01,9.009952545166013960e-02,2.009629726409911943e-01,2.139864385128021074e-01,1.900995254516601451e-01,5.052832016627075706e-01,-6.760431528091430664e-01,-7.253106832504272461e-01,8.673601902466914737e+01,0.000000000000000000e+00
1.695411000000000001e+00,-5.026518317147857240e-02,-3.630454518032009276e-02,9.608628153800964355e-01,6.860026378432070374e-03,1.528643249224526102e-04,-7.880703923102587438e-02,-9.883678271633564508e-03,-2.796486297028063367e-02,3.883026074618101120e-03,1.288370226449470080e-01,-1.724537391029366540e-01,-5.521325258398408460e-04,7.015324391034209739e-02,1.629997065363648356e-01,8.122488260269164484e-02,1.656761169433593750e-01,2.081556379795074518e-01,1.812248826026916504e-01,5.058344093593376556e-01,-6.785486340522766113e-01,-8.077269792556762695e-01,8.999838374964487286e+01,0.000000000000000000e+00
1.722714000000000079e+00,-5.101119095364597955e-02,-3.743655374384693979e-02,9.613654613494873047e-01,1.123504722266090335e-02,-6.095242024647173906e-03,-8.029423382810292609e-02,-1.458587455049619938e-02,-3.411933543519109907e-02,8.354296907782554626e-03,1.473928348211323014e-01,-2.386405408983513221e-01,-6.269688490282540605e-02,-4.294598102569580772e-02,3.445823021453141288e-02,3.465154170989989679e-02,5.705401897430419783e-02,1.248214423656463512e-01,1.346515417098999023e-01,5.055465861689443230e-01,-6.758657693862915039e-01,-7.796255350112915039e-01,8.580373235390825926e+01,0.000000000000000000e+00
1.747425000000000006e+00,-5.171353092982672317e-02,-3.854648683173025892e-02,9.618245959281921387e-01,1.498849164408870213e-02,-1.229774094188118561e-02,-8.159080737629316460e-02,2.974582810851551188e-03,-3.017412790148172805e-02,2.087750472128391266e-03,6.946320460267238484e-02,-1.966145486754123928e-01,-6.462730673907679524e-02,-1.128713488578796387e-01,-7.981641292572022595e-02,1.377193927764891468e-02,-1.287134885787963832e-02,2.018358707427978307e-02,1.137719392776489202e-01,5.061930565608692145e-01,-6.661235690116882324e-01,-1.472894072532653809e+00,5.026132329065658411e+01,0.000000000000000000e+00
1.770251000000000019e+00,-5.215620343647498630e-02,-3.927929074026288714e-02,9.619437456130981445e-01,1.663291988343801667e-02,-1.578143072447812933e-02,-8.198093586432163293e-02,-1.471919438828268520e-02,-2.693326255432773944e-02,-7.397124543786048889e-03,3.604972885877427702e-02,-1.177790716914418473e-01,2.463230882770563179e-02,-1.419490873813629150e-01,-2.039955377578735463e-01,-3.851586580276489952e-02,-4.194908738136291643e-02,-1.039955377578735268e-01,6.148413419723510603e-02,5.069913992319677876e-01,-6.634976863861083984e-01,-6.193407773971557617e-01,9.921926890275631195e+01,0.000000000000000000e+00
1.797944999999999904e+00,-5.282762097228868581e-02,-4.006833937922386207e-02,9.620136022567749023e-01,1.751241204598017950e-02,-1.941825427400489801e-02,-8.276834404652838595e-02,-5.703492191388005381e-03,-2.984572998332904806e-02,-8.041693828999996185e-03,2.484066431062826805e-02,-1.095091693994631327e-01,-3.466466866047764744e-02,-1.620522260665893666e-01,-2.424342393875122126e-01,-5.616079568862916011e-02,-6.205222606658935408e-02,-1.424342393875122070e-01,4.383920431137084545e-02,5.070951478460052897e-01,-6.624594926834106445e-01,-1.054354548454284668e+00,9.607739554492879108e+01,0.000000000000000000e+00
1.821587999999999985e+00,-5.328637821923055962e-02,-4.022505470646653425e-02,9.619650244712829590e-01,1.623693941154633405e-02,-1.937520197605557826e-02,-8.287124169634191295e-02,-3.920527003872704280e-03,-3.270147649528686029e-02,-1.117807067930698395e-02,-1.106810698583033797e-01,6.550197136813731835e-02,-8.690807635164920705e-03,-1.657987713813781627e-01,-2.392904400825500433e-01,-6.196781396865845559e-02,-6.579877138137817105e-02,-1.392904400825500377e-01,3.803218603134154996e-02,5.073790102108982625e-01,-6.625366210937500000e-01,-8.830751180648803711e-01,9.320760277268873040e+01,0.000000000000000000e+00
1.848819999999999908e+00,-5.370575720704020423e-02,-4.034524935932997519e-02,9.617553949356079102e-01,1.374550299179840354e-02,-1.768992747558617573e-02,-8.237397322806143396e-02,2.439812687829723270e-03,-2.176140581615571348e-02,-1.954978145658969879e-02,-1.052279907476623283e-01,5.802767684197767534e-02,2.450643621600859592e-02,-1.195639252662658719e-01,-1.861587047576904186e-01,-3.884795904159546454e-02,-1.956392526626586983e-02,-8.615870475769042691e-02,6.115204095840454102e-02,5.080533038172754257e-01,-6.633344292640686035e-01,-7.511736154556274414e-01,8.773442875678493635e+01,0.000000000000000000e+00
1.875323999999999991e+00,-5.429195284825245882e-02,-4.048503793553061975e-02,9.614272117614746094e-01,8.780354739446978238e-03,-1.234198611656944777e-02,-8.140766474986804724e-02,-6.935455519033649485e-03,-2.101072119959799048e-02,-1.995094120502471924e-02,-1.568190022011586859e-01,2.175842075215338733e-01,3.522564723956033567e-02,-5.118426084518433450e-02,-9.600853323936463235e-02,1.128660440444945179e-02,4.881573915481567105e-02,3.991466760635375803e-03,1.112866044044494573e-01,5.079693864078421717e-01,-6.737927198410034180e-01,-1.203219056129455566e+00,6.021386172275438042e+01,0.000000000000000000e+00
1.895898000000000083e+00,-5.462850462418514241e-02,-4.056050037219812582e-02,9.612808823585510254e-01,5.327611692088338353e-03,-7.326730188000230015e-03,-8.080195668112961915e-02,2.760435174112309958e-03,-1.654901952908055182e-02,-2.427547238767147064e-02,-1.815908841009399033e-01,3.054485740326237098e-01,3.703520916241627436e-02,6.329114076842654035e-02,7.634828058978612719e-02,6.563897728919981800e-02,1.450877308845519853e-01,1.645946502685546875e-01,1.656389772891998236e-01,5.082081642367691776e-01,-6.817111372947692871e-01,-7.262159585952758789e-01,8.739563088338479702e+01,0.000000000000000000e+00
1.922387999999999986e+00,-5.469258869306573012e-02,-4.072706621910227726e-02,9.610750079154968262e-01,7.995697367809927441e-04,-1.850920663746258299e-04,-8.014104612234687619e-02,-2.826906982937167547e-03,-2.340358283115980334e-02,-1.659936085343360901e-02,-1.370082446413145860e-01,2.367079134149102093e-01,4.889490285204780434e-02,1.529331112753848088e-01,1.656883036263173126e-01,9.834102392196653053e-02,2.128851771354675348e-01,2.127051472663879228e-01,1.983410239219665361e-01,5.077776433311637083e-01,-6.780417561531066895e-01,-7.259005308151245117e-01,8.114059145281130725e+01,0.000000000000000000e+00
1.946404000000000023e+00,-5.462892384421503406e-02,-4.085032684637021627e-02,9.609815478324890137e-01,-1.584422278036578830e-03,3.885326754873519306e-03,-8.003665878921634169e-02,-4.452929855998733269e-03,-1.414119640040193207e-02,-8.544954471290111542e-03,-1.257558435769590144e-01,2.298699641396337312e-01,-4.083591575252026179e-02,1.797314054243313586e-01,1.945200790595815743e-01,1.065291106700897161e-01,2.167684078216552679e-01,2.160373091697692927e-01,2.065291106700897217e-01,5.072572022514082457e-01,-6.763788461685180664e-01,-8.532212972640991211e-01,9.474906035514470659e+01,0.000000000000000000e+00
1.970695000000000086e+00,-5.454584651709155907e-02,-4.109711659236862935e-02,9.611827135086059570e-01,-2.388983546715479217e-03,6.183026324281248876e-03,-8.080095742614128163e-02,4.829673923704357399e-03,-2.815122999673896897e-02,9.315849281847476959e-03,3.958801853150102634e-02,-5.712323004055603996e-03,-5.832308138138641435e-02,1.693291356126111757e-01,2.192145006928755135e-01,1.061675131320953258e-01,2.139270544052123968e-01,2.176054894924163707e-01,2.061675131320953314e-01,5.060549410608398135e-01,-6.702085137367248535e-01,-1.832751035690307617e-01,-1.519145915758494780e+01,0.000000000000000000e+00
1.997718000000000105e+00,-5.447115726867361035e-02,-4.137209739374129308e-02,9.616230130195617676e-01,-5.974474918584404522e-04,5.000543465181639391e-03,-8.218377057799253205e-02,-7.079879681808869639e-03,-2.422875903296625028e-02,1.268455758690834045e-03,5.319820644696321432e-02,-8.145846426833278087e-02,-7.770752526466843946e-02,1.616334187275437761e-01,1.988786309781499229e-01,1.031439483165740856e-01,2.136797904968261719e-01,2.162124931812286210e-01,2.031439483165740911e-01,5.065745653846566166e-01,-6.747636198997497559e-01,-8.326519727706909180e-01,9.821116030201910974e+01,0.000000000000000000e+00
2.021345999999999865e+00,-5.460458772102047553e-02,-4.218454500731988466e-02,9.619539976119995117e-01,2.035714389602765080e-03,2.052600001706039734e-03,-8.294521324803388884e-02,-1.901449336281408470e-03,-2.105461541261758815e-02,1.108587067574262619e-02,1.305084525306859644e-01,-1.914009837629126187e-01,-2.969245595967674387e-02,1.377512593113607298e-01,1.816669179500997600e-01,9.352193474769590620e-02,2.051402091979980524e-01,2.130877375602722168e-01,1.935219347476959117e-01,5.058170523534482044e-01,-6.759055256843566895e-01,-5.718022584915161133e-01,7.100569721515792310e+01,0.000000000000000000e+00
2.046707000000000054e+00,-5.467817464870169952e-02,-4.295236686936243498e-02,9.624025225639343262e-01,5.374505628449971657e-03,-1.659048727746803564e-03,-8.413344588840340754e-02,-6.532147530295939405e-03,-2.576339424945162798e-02,2.302586473524570465e-02,1.800743896338312944e-01,-2.193899095303178115e-01,-1.030496182489413354e-01,4.261130324542310166e-02,1.349993064975370805e-01,6.179578304290769819e-02,1.366579413414001354e-01,1.953548848628997858e-01,1.617957830429077037e-01,5.048850970895264467e-01,-6.770915389060974121e-01,-9.267438650131225586e-01,9.434205621269282460e+01,0.000000000000000000e+00
2.071677000000000213e+00,-5.476735528985228474e-02,-4.410253983814806100e-02,9.630042314529418945e-01,1.031965724456243745e-02,-7.314618158236863010e-03,-8.570212568727375579e-02,2.456257166749381115e-03,-2.286354689379837060e-02,1.798488944768905640e-02,1.246920777323771296e-01,-2.034843404717476545e-01,-4.508435203521789919e-02,-2.886488437652588723e-02,4.637109842389058878e-02,3.443882465362546608e-02,7.113511562347411832e-02,1.365576982498168945e-01,1.344388246536254716e-01,5.053071695249718998e-01,-6.731078624725341797e-01,-1.141412854194641113e+00,-1.044701953932570575e+02,0.000000000000000000e+00
2.095505999999999869e+00,-5.478990827058747431e-02,-4.482154136489052698e-02,9.633658528327941895e-01,1.344380479221346340e-02,-1.108989199731458264e-02,-8.693495156109323774e-02,-3.093061188760124966e-03,-2.688350327297476389e-02,1.350493077188730240e-02,1.749871336247795783e-01,-2.582325647391373047e-01,-7.186268105316472032e-02,-9.739303588867187500e-02,-7.623981237411499301e-02,-4.060065746307378598e-03,2.606964111328124913e-03,2.376018762588500907e-02,9.593993425369262695e-02,5.057863004797501505e-01,-6.654633879661560059e-01,-5.079053640365600586e-01,7.728430762855712999e+01,0.000000000000000000e+00
2.123969000000000218e+00,-5.482753043333555426e-02,-4.524815727401783338e-02,9.638742208480834961e-01,1.637097456322590683e-02,-1.561496739426071478e-02,-8.833124010796251924e-02,6.702985311093553542e-03,-1.330559394844353996e-02,6.869321223348379135e-03,3.561418506611716689e-02,-9.147609689910828068e-02,-4.666991919985581661e-02,-1.222130537033081082e-01,-1.380359768867492620e-01,-8.475303649902357628e-03,-2.221305370330810616e-02,-3.803597688674926341e-02,9.152469635009764792e-02,5.063592862811752138e-01,-6.604486107826232910e-01,-1.381951212882995605e+00,1.169284536091711431e+02,0.000000000000000000e+00
2.149199999999999999e+00,-5.480457638538727833e-02,-4.529929143867360286e-02,9.642690420150756836e-01,1.685029113586028124e-02,-1.788269188790780895e-02,-8.911312221789227661e-02,-3.246116147944957345e-03,-2.175825599883483494e-02,9.029519744217395782e-03,-1.437294886579208557e-02,-2.600992996542684024e-02,-2.989327215924087941e-02,-1.622870087623596302e-01,-2.218312978744506891e-01,-4.672557115554810264e-02,-6.228700876235961775e-02,-1.218312978744506836e-01,5.327442884445190291e-02,5.062422552727785519e-01,-6.582632064819335938e-01,-6.999021768569946289e-01,3.414685115165633533e+01,0.000000000000000000e+00
2.173471999999999849e+00,-5.474727564773391314e-02,-4.528776982964321379e-02,9.644359946250915527e-01,1.547944810415820792e-02,-1.756542915798275928e-02,-8.948308666537080347e-02,7.264429560058452071e-03,-1.521080857317104809e-02,-1.278445823118090630e-03,-6.097444084813352649e-02,1.273275315489382810e-02,-1.125064983256886773e-02,-1.257056832313537542e-01,-1.763718605041503795e-01,-2.775863409042358954e-02,-2.570568323135375907e-02,-7.637186050415038785e-02,7.224136590957641602e-02,5.070162203080347263e-01,-6.589062809944152832e-01,-4.862154722213745117e-01,8.992905732956924680e+01,0.000000000000000000e+00
2.198557999999999790e+00,-5.466908600262371937e-02,-4.526339343974952051e-02,9.646190404891967773e-01,1.345250264792740430e-02,-1.582583781894775221e-02,-8.987313484632580840e-02,8.980594530021708544e-03,-1.471463022038997474e-02,6.482654716819524765e-03,-1.147281300030941892e-01,1.447466903625552748e-01,-5.226847194817044878e-02,-1.141439139842987116e-01,-1.324010848999023493e-01,-2.461733818054200051e-02,-1.414391398429870605e-02,-3.240108489990234375e-02,7.538266181945800504e-02,5.064153496732217707e-01,-6.607670187950134277e-01,-7.801352739334106445e-01,9.031360381003013060e+01,0.000000000000000000e+00
2.227616999999999958e+00,-5.423243913522533821e-02,-4.526702674854395092e-02,9.647942185401916504e-01,8.984228483713840169e-03,-1.111875863912215046e-02,-8.979410257761269443e-02,1.212594928918724405e-02,-1.144170220397663050e-02,5.809214897453784943e-03,-1.477799953552104972e-01,1.800591776232187968e-01,-1.175661922296595586e-03,-3.295024633407593606e-02,-1.205898523330689587e-02,2.115352153778074507e-02,6.704975366592406949e-02,8.794101476669310968e-02,1.211535215377807506e-01,5.063091439673488292e-01,-6.697270870208740234e-01,-8.549965620040893555e-01,5.775528048949492899e+01,0.000000000000000000e+00
2.252086999999999950e+00,-5.362580893792716352e-02,-4.536526476433701965e-02,9.649186134338378906e-01,5.885536325477508900e-03,-7.109060875866823892e-03,-8.965961522196348732e-02,1.357894326212146126e-02,-1.178874285229672587e-02,1.477215997874736786e-02,-9.805008917812091385e-02,1.575101925055198415e-01,-9.309135701203629515e-03,-3.744216778020448277e-03,6.751280197692841045e-02,4.784665107727048561e-02,8.566031455993651511e-02,1.503235280513763317e-01,1.478466510772704912e-01,5.055690084113707572e-01,-6.739448904991149902e-01,-5.943793058395385742e-01,8.250520177727732118e+01,0.000000000000000000e+00
2.276654999999999873e+00,-5.302607029346323442e-02,-4.545044841110482819e-02,9.651454687118530273e-01,2.891913942171982221e-03,-3.169399277007878268e-03,-8.999613779226328658e-02,1.906885131173153766e-02,-1.709136475365079580e-02,9.582444094121456146e-03,-1.804760402057334623e-01,2.245069416512251448e-01,-4.340050692484709316e-02,1.076850668524281102e-01,1.546590235766250043e-01,8.727174401283263605e-02,1.821719884872436412e-01,2.067486405372619684e-01,1.872717440128326416e-01,5.059173472816562711e-01,-6.764460206031799316e-01,-6.278823614120483398e-01,6.420354597168807231e+01,0.000000000000000000e+00
2.300409000000000148e+00,-5.242810424766804200e-02,-4.559076642771309890e-02,9.653371572494506836e-01,9.079428086717351680e-04,-9.225163117054790973e-05,-9.022944255045921291e-02,1.127916734046965214e-02,-5.009342373177313665e-03,1.377601455897092819e-02,-8.882060479257462490e-03,1.023584243229890556e-01,3.043334397665192845e-03,1.542451219708590449e-01,1.729938504367462548e-01,9.340080618858337402e-02,2.067133784294128418e-01,2.122827529907226618e-01,1.934008061885833796e-01,5.056170480121374711e-01,-6.759266853332519531e-01,-6.476820707321166992e-01,7.386012206176546613e+01,0.000000000000000000e+00
2.322633000000000170e+00,-5.182429737153189386e-02,-4.568755636102562329e-02,9.655886888504028320e-01,-7.260695534919717415e-04,2.156933071806532709e-03,-9.106381311679850876e-02,1.650771338994780476e-03,-1.955640196480084442e-02,2.776727266609668732e-02,-4.761989058851553991e-02,8.441585718957805851e-02,-4.668551274329534734e-02,1.538482287159701478e-01,1.835046010287028906e-01,9.309303164482116144e-02,2.101638078689575251e-01,2.133893787860870195e-01,1.930930316448211670e-01,5.046050537303451433e-01,-6.737967133522033691e-01,-1.037103772163391113e+00,1.222351554244342111e+02,0.000000000000000000e+00
2.351755999999999958e+00,-5.139867582919972755e-02,-4.596152964223864518e-02,9.660671353340148926e-01,-1.734922768939054210e-03,2.926573767839668605e-03,-9.235535676339681754e-02,1.393578993463442592e-02,-8.138042548237483034e-03,2.455068007111549377e-02,-8.274458884940388489e-03,-1.242471107440686106e-03,-1.014800125730734859e-01,1.749489040848564436e-01,2.013193925416879304e-01,1.016039133071899303e-01,2.132158041000366266e-01,2.155124902725219782e-01,2.016039133071899359e-01,5.048458379076764535e-01,-6.719445586204528809e-01,-9.695142507553100586e-01,-1.311314768183758304e+02,0.000000000000000000e+00
2.375728000000000062e+00,-5.125725217027789909e-02,-4.619973744588993375e-02,9.663739800453186035e-01,-8.407910393628442768e-04,1.518971336387897608e-03,-9.339868542047104205e-02,7.487636303736569521e-03,-1.320119974484343546e-02,2.840379066765308380e-02,9.151160698997429233e-02,-1.192862768563016929e-01,-1.188456618640193994e-02,1.598702176045614376e-01,1.833093477373351765e-01,9.376106262207029030e-02,2.103661537170410101e-01,2.132608115673065019e-01,1.937610626220702958e-01,5.045027035003288862e-01,-6.741089224815368652e-01,-8.054598569869995117e-01,8.878463864356609747e+01,0.000000000000000000e+00
2.399452000000000140e+00,-5.112440737520773659e-02,-4.642474608701188665e-02,9.668368697166442871e-01,9.502640975083864912e-04,-7.884399582789303196e-04,-9.510995166302942116e-02,9.612643523738764739e-03,-1.093781035820598491e-02,3.236769139766693115e-02,6.957275199364429397e-02,-1.364513228836462533e-01,-1.139332522108697093e-01,1.344206620388025131e-01,1.661970297055790913e-01,8.436805605888364479e-02,1.939788579940795732e-01,2.089479088783263994e-01,1.843680560588836503e-01,5.041292548181719457e-01,-6.762444376945495605e-01,-7.742806673049926758e-01,8.059380748899511104e+01,0.000000000000000000e+00
