timestamp,x,y,z,roll,pitch,yaw,vx,vy,vz,p,q,r,psp,qsp,rsp,pres,qres,rres,thrust_sp, thrust_res
0.000000000000000000e+00,-3.969918741434875966e-04,1.666558412191381996e-02,1.023994088172912598e+00,1.297404248527573960e-02,-9.061528837148724591e-03,-1.095699948662491596e-02,4.140031556980106774e-05,-3.060140994244380658e-02,-9.356843307614326477e-03,-2.224052956267327796e-02,-4.828678624690387750e-02,-3.455594815773232326e-02,-1.295137117668336002e-01,4.982692257648504292e-02,-1.878221090312442998e-01,-3.096925020217895438e-02,1.090199232101440457e-01,-1.572803735733032116e-01,5.244877943678101229e-01,7.329734563827514648e-01,-4.294635057449340820e-01,1.196991608271218439e+02,0.000000000000000000e+00
2.369100000000000025e-02,-1.379530193875239607e-04,1.525303592353898126e-02,1.023890495300292969e+00,1.191901447822006632e-02,-9.273806716080690293e-03,-1.052381347287566042e-02,-1.054547750081587200e-03,-2.777256451608472315e-02,-2.096404507756233215e-02,-8.794387205477399716e-02,2.001766386277003748e-02,5.163319019535261151e-02,-3.070722176925048674e-01,1.555150503159505038e-01,1.836421250110539249e-01,-2.212773084640502763e-01,2.168503582477569469e-01,2.129680216312408447e-01,5.248228960649801156e-01,7.050935029983520508e-01,-1.209557414054870605e+00,1.336567206979345883e+02,0.000000000000000000e+00
4.871999999999999942e-02,2.080002348400540471e-04,1.319236039253142943e-02,1.023785591125488281e+00,1.138211525462772336e-02,-1.034420976277594661e-02,-1.009027962102030003e-02,6.859302778116747532e-03,-3.095928673414764798e-02,-1.499164011329412460e-02,1.823391174876061796e-02,-7.288641015004540535e-02,3.041726073738926575e-02,-2.516499959299243749e-01,7.249199889254570595e-02,5.695575692407840729e-02,-1.650407373905181940e-01,1.339354634284972978e-01,8.508335351943970004e-02,5.250371810808256434e-01,7.403287887573242188e-01,-1.133409857749938965e+00,9.635396356480094937e+01,0.000000000000000000e+00
7.242600000000000426e-02,4.494823369335040637e-04,1.181860884891489973e-02,1.023714423179626465e+00,1.098600835113555836e-02,-1.053749047813945516e-02,-1.050190713997675544e-02,-6.056801318859128015e-03,-4.044934872708169649e-02,-6.037637591361999512e-03,-2.474324699676849412e-02,-2.946370750877685962e-02,-7.527238645183097210e-02,5.125445178694787440e-02,1.325702533784116066e-01,-2.454009006422049888e-01,1.435885190963745173e-01,2.066923677921295166e-01,-2.161198854446411133e-01,5.245265691285807552e-01,7.484996318817138672e-01,-1.135715126991271973e+00,8.494557372620951696e+01,0.000000000000000000e+00
9.656299999999999606e-02,6.784961838436391005e-04,1.048800725833811710e-02,1.023565530776977539e+00,9.610386909581632511e-03,-1.126179683075911875e-02,-1.144934507206384067e-02,7.327030093337757663e-03,-3.515948971740656681e-02,-1.315341424196958542e-02,-7.885331861931484110e-02,-5.050020168030022044e-02,-3.022082193402990044e-02,1.183318387877932421e-02,1.492378639173946309e-01,-2.535167686689829836e-01,9.030296802520751398e-02,2.151700794696807806e-01,-2.215604066848754772e-01,5.250893789527670830e-01,7.509375810623168945e-01,-1.398393034934997559e+00,1.023603226378834421e+02,0.000000000000000000e+00
1.217010000000000036e-01,8.549650934833149044e-04,8.460003732353043454e-03,1.023195862770080566e+00,6.025789108890493122e-03,-1.339197369942524141e-02,-1.219025960249805335e-02,2.227616440290319311e-04,-2.530846198889322510e-02,-1.448094937950372696e-02,-6.978787511625342277e-02,-1.124570470544805079e-01,3.003794377733669599e-02,-2.236820289337368983e-01,-4.365215691372675844e-02,-1.758974196701143800e-01,-1.743448376655578613e-01,4.373062849044799527e-02,-1.418488740921020341e-01,5.247745657780880091e-01,7.276043891906738281e-01,-4.704931974411010742e-01,1.901476170588442756e+02,0.000000000000000000e+00
1.491460000000000008e-01,7.853527387361661097e-04,6.553163076793796019e-03,1.022842764854431152e+00,3.329423857028385083e-03,-1.665520977456891316e-02,-1.024965547961952453e-02,-1.312819726132096951e-02,-2.769780930577684167e-02,-1.802865602076053619e-02,-6.379553342169741459e-02,-1.069883871738309539e-01,4.060239897543999055e-02,-2.200963016415338480e-01,-1.917763948440551758e-01,-3.324574116688126801e-02,-1.835662364959716741e-01,-9.177639484405517023e-02,-4.573416709899902170e-03,5.245727446064161192e-01,7.014269828796386719e-01,-1.051493048667907715e+00,9.443136776627990514e+01,0.000000000000000000e+00
1.723339999999999872e-01,6.239980529666828632e-04,5.258522799833862185e-03,1.022660493850708008e+00,2.165780381042186915e-03,-1.953305415298167702e-02,-8.168364474770926573e-03,-7.653100174183024261e-03,-2.860046173269427741e-02,-2.266862615942955017e-02,-8.950334841897174265e-02,-1.073890212153279233e-01,1.488775183581582118e-01,-2.168577567838930742e-01,8.681693077087401789e-02,1.970262729936647916e-01,-1.866734683513641413e-01,1.868169307708740234e-01,2.199063241481780950e-01,5.253485206697492416e-01,7.245500087738037109e-01,-1.527496933937072754e+00,1.215443091106441074e+02,0.000000000000000000e+00
1.981249999999999956e-01,4.736679575984914319e-04,3.505680850831624073e-03,1.022201061248779297e+00,-4.822517898775257467e-04,-2.172828974114215939e-02,-6.129223438457877260e-03,-1.492496149430289250e-02,-2.302635390523753364e-02,-2.207546494901180267e-02,-9.671226168408542101e-02,-3.161624173866523640e-02,5.979557462212395369e-02,-1.767951023008643152e-01,9.359231591224670410e-02,1.918304394544585456e-01,-1.672178328037261796e-01,1.935923159122467097e-01,2.090718448162078857e-01,5.254426459205296940e-01,7.302035093307495117e-01,-7.644277811050415039e-01,5.649061290805912705e+01,0.000000000000000000e+00
2.215729999999999922e-01,5.323426763420770636e-04,2.480441691132726032e-03,1.021747469902038574e+00,-3.778418116201427354e-03,-2.130365901278574725e-02,-6.351694484270272063e-03,1.516145220557567536e-04,-2.675624578224721981e-02,-2.599233575165271759e-02,-1.997967145422023250e-01,5.406701226823374534e-02,-3.400104852307266751e-02,-1.771170857467577464e-01,1.141508221626281738e-01,4.421158345775691445e-02,-1.844822287559509111e-01,2.141508221626281794e-01,6.218411922454833429e-02,5.227151076096946403e-01,5.646815299987792969e-01,-1.814606249332427979e+00,1.484962765566494340e+02,0.000000000000000000e+00
2.486740000000000061e-01,5.587021728610854767e-04,1.124716003439818089e-03,1.020768284797668457e+00,-9.877089571735239368e-03,-2.110309723484427025e-02,-8.219421355698178569e-03,-1.747673241263030669e-02,-1.319842571522621653e-02,-4.587977752089500427e-02,-2.189880041725980608e-01,-1.696618978871832981e-02,-6.067769150299896774e-02,2.065690608096625580e-01,1.173101246356964000e-01,-5.827667648492968616e-02,1.489976406097412165e-01,2.173101246356964056e-01,-3.490852117538451732e-02,5.259390385708019311e-01,6.560643911361694336e-01,-9.313808679580688477e-01,1.017432765180753194e+02,0.000000000000000000e+00
2.722999999999999865e-01,4.605086156200064048e-04,3.091006483456070516e-04,1.019996643066406250e+00,-1.397794612185715608e-02,-2.239613530452921886e-02,-9.444037045414884271e-03,-2.231703048519354665e-02,-1.548596679127798789e-02,-4.239574447274208069e-02,-2.153168086618729993e-01,-1.605092094071874573e-02,-5.879185197844437327e-02,2.649466245382214313e-01,1.176479756832122803e-01,1.417476630519079184e-01,1.850894808769225908e-01,2.176479756832122858e-01,1.687326550483703447e-01,5.253312487721418789e-01,6.325683593750000000e-01,-8.200949430465698242e-01,8.964958647929982760e+01,0.000000000000000000e+00
2.957589999999999941e-01,2.205601017026382975e-04,-3.683960610013237852e-04,1.019214391708374023e+00,-1.774164845620991582e-02,-2.452437634105408826e-02,-9.891462135309175494e-03,-1.080378759725435928e-02,-6.521700596998016193e-03,-5.819634720683097839e-02,-2.158515453868419531e-01,-1.028054823779435412e-01,1.507471858007752852e-02,2.748069643974304088e-01,3.386331200599668190e-02,1.951998007628630016e-01,1.748069643974304033e-01,1.338633120059966874e-01,2.235451698303222712e-01,5.278153319624712125e-01,7.005077600479125977e-01,-8.494604825973510742e-01,1.025059627615556224e+02,0.000000000000000000e+00
3.202590000000000159e-01,4.332770888849108034e-05,-2.246330075512795611e-03,1.018048882484436035e+00,-1.940649671959956968e-02,-2.922272537414083438e-02,-1.037724764074688007e-02,-4.238792269091928855e-02,-1.915355314350686983e-02,-3.973761945962905884e-02,3.978578414385491174e-02,-2.089400394594317090e-01,-6.947758825291926003e-03,1.647587895393371471e-01,-3.064638972282409668e-01,1.842431644051810979e-01,6.475878953933715543e-02,-2.064638972282409612e-01,2.143506824970245195e-01,5.264707239746599932e-01,6.941440105438232422e-01,-9.480830430984497070e-01,9.536389349366174883e+01,0.000000000000000000e+00
3.477879999999999860e-01,-3.449476563158390945e-04,-4.095287757528228920e-03,1.017001867294311523e+00,-1.575147382298909896e-02,-3.463620372509113032e-02,-1.262279911248316393e-02,-2.140590163400332355e-02,-9.808972671487453318e-03,-4.284186288714408875e-02,2.326497779192757409e-01,-2.018816412104925129e-01,-9.240083917496687282e-02,3.373467824068495519e-02,-2.609751701354980358e-01,1.754121649048204501e-01,-6.048313379287719588e-02,-1.609751701354980302e-01,2.116209626197814997e-01,5.270660633647846760e-01,7.091374397277832031e-01,-6.880806684494018555e-01,6.566905868076268860e+01,0.000000000000000000e+00
3.716889999999999916e-01,-6.653221522617388996e-04,-5.258394815325152447e-03,1.016267895698547363e+00,-1.154796224507530569e-02,-3.668631487428686277e-02,-1.464655026750750003e-02,-3.643219898869513862e-02,-1.725421414246914448e-02,-5.143334716558456421e-02,2.058073216096805991e-01,-8.290456078436736487e-02,-8.024909371804879454e-02,6.872765159042990013e-04,-2.841259598731994407e-01,7.624126641876888266e-02,-5.804527401924133162e-02,-1.841259598731994629e-01,1.180527806282043457e-01,5.274489541147867611e-01,6.912543773651123047e-01,-1.070467829704284668e+00,9.882802883690881401e+01,0.000000000000000000e+00
3.953200000000000047e-01,-9.486561094006840198e-04,-6.323686692446425957e-03,1.015437245368957520e+00,-6.889314130361015934e-03,-3.608772783441649423e-02,-1.707376580279168152e-02,-3.186720908533997171e-02,-8.226419158100274631e-03,-4.576435312628746033e-02,2.091782564284205004e-01,1.266191673472292500e-01,-1.192405073716946706e-01,8.903739005361978320e-02,9.156907200813291237e-02,-1.663276477341115167e-01,5.284681320190429826e-02,1.915690720081329179e-01,-1.180704116821288951e-01,5.265764408613805569e-01,6.613848209381103516e-01,-1.032894492149353027e+00,9.564531777803378532e+01,0.000000000000000000e+00
4.201039999999999774e-01,-1.008307362860353046e-03,-7.982570505970581001e-03,1.013934731483459473e+00,-1.531472351758504571e-03,-3.081782011579980995e-02,-2.047749339457378276e-02,-2.626115576903212748e-02,-7.442659762539299406e-04,-6.351643800735473633e-02,1.555812536419773906e-01,2.231146449951004196e-01,-6.729868779197717421e-02,1.768519205655696702e-01,1.138383448123931885e-01,-2.524937780838230061e-01,1.718120813369750921e-01,2.138383448123931940e-01,-1.950509190559387152e-01,5.284194631347916005e-01,6.834316253662109375e-01,-7.809845209121704102e-01,9.783456416175212667e+01,0.000000000000000000e+00
4.476140000000000119e-01,-1.037893484876512657e-03,-9.496990045060446986e-03,1.012368679046630859e+00,2.106776503845819541e-03,-2.321090165953165751e-02,-2.173082130914749666e-02,-4.113108514956623912e-02,1.771414670458692489e-03,-6.190515309572219849e-02,1.433696513445969767e-01,2.126040542472154571e-01,1.989791425734810035e-02,1.594570325592011839e-01,1.240818798542022705e-01,-2.801918635753484210e-01,1.785205006599426270e-01,2.240818798542022761e-01,-2.193973302841186468e-01,5.287746943430144952e-01,7.004117965698242188e-01,-1.005990147590637207e+00,7.623244483599683008e+01,0.000000000000000000e+00
4.706529999999999880e-01,-1.333600942350766970e-03,-1.038467311448390898e-02,1.011364102363586426e+00,4.917040663741493317e-03,-2.009221496347701752e-02,-2.105795535497739096e-02,-3.971113333897302589e-02,4.122840996153259718e-03,-5.474018678069114685e-02,1.517692031969506694e-01,1.178195675182496516e-01,3.952194112111074437e-02,-2.437617515119753497e-01,1.205105900764465165e-01,-2.631179992183878547e-01,-2.073172330856323242e-01,2.205105900764465221e-01,-2.043012857437133678e-01,5.287116193319301161e-01,7.191677093505859375e-01,-7.740739583969116211e-01,9.759553486155836310e+01,0.000000000000000000e+00
4.994029999999999858e-01,-2.140692201892922114e-03,-1.169080726813192042e-02,1.010087728500366211e+00,9.846974889694560737e-03,-1.966159292454539020e-02,-1.852330967206931162e-02,-6.899689569222901275e-02,-5.974860219673802826e-03,-4.719945415854454041e-02,1.749631364369267916e-01,-6.361934146564691972e-02,5.299450258961899141e-02,-2.852365099664908588e-01,-2.885733842849731723e-02,3.995229623787276141e-02,-2.070779263973236139e-01,7.114266157150268832e-02,9.151757955551147183e-02,5.285564811475448321e-01,7.331323623657226562e-01,-8.412972688674926758e-01,4.897770534936857700e+01,0.000000000000000000e+00
5.236929999999999641e-01,-3.464686441110282657e-03,-1.146384765356182542e-02,1.009340405464172363e+00,1.252389879495650199e-02,-2.111570514521665665e-02,-1.607083491669035122e-02,-6.554212243676756089e-02,7.425051873710677812e-03,-6.250910460948944092e-02,6.471668438368441412e-02,-2.938795139782813398e-02,1.686443513966869590e-01,-2.848004613237038463e-01,8.100597858428953968e-02,6.229054324291917466e-02,-2.017111122608184759e-01,1.810059785842895452e-01,1.068022906780242837e-01,5.296832944104155061e-01,7.288308143615722656e-01,-8.109046220779418945e-01,6.667667550787965070e+01,0.000000000000000000e+00
5.476499999999999702e-01,-5.498251884636075337e-03,-1.094795224120275953e-02,1.008028745651245117e+00,1.268797026602715323e-02,-2.362146269883225180e-02,-1.352235667504704010e-02,-7.384175173653299840e-02,4.757677451523792400e-03,-5.828439071774482727e-02,-4.967698152470284567e-02,-1.143737068885183478e-01,5.974117106655546516e-02,-2.475781224264215208e-01,-3.188334226608276478e-01,1.168152796366334900e-01,-1.596208333969116044e-01,-2.188334226608276423e-01,1.541441917419433538e-01,5.277278046826332503e-01,6.307694911956787109e-01,-1.285356402397155762e+00,7.325614209383958553e+01,0.000000000000000000e+00
5.723460000000000214e-01,-6.830025908868204640e-03,-1.049343414451263910e-02,1.006989955902099609e+00,9.676456023133470780e-03,-2.451368181142332681e-02,-1.348473141812082943e-02,-6.099296975041194196e-02,9.593649402330147596e-03,-5.975711345672607422e-02,-1.994405882502901795e-01,-1.248497356880630231e-02,-4.837673689041991493e-02,-2.676849506395065359e-01,-6.101607680320740579e-02,-2.509152759364311480e-01,-2.039463043212890458e-01,3.898392319679259976e-02,-2.135785460472106878e-01,5.288416916250366917e-01,6.792687177658081055e-01,-1.303259491920471191e+00,5.508143559925877497e+01,0.000000000000000000e+00
5.971300000000000496e-01,-8.242058091723862903e-03,-9.981883077974288906e-03,1.005800127983093262e+00,5.231446780241040886e-03,-2.561823826888431910e-02,-1.371742660434194065e-02,-6.038901601702095778e-02,2.101835478420277514e-02,-6.827857345342636108e-02,-1.851414137702591944e-01,-4.803416675490313620e-02,-1.117900345253526259e-02,-1.887216899360609768e-01,-2.624564290046692006e-01,-1.136816295288848172e-01,-1.625994801521301325e-01,-1.624564290046691950e-01,-7.557059526443481168e-02,5.287644022879360861e-01,6.335005760192871094e-01,-1.040781378746032715e+00,-1.341632031305531392e+01,0.000000000000000000e+00
6.218770000000000131e-01,-1.047056225856072068e-02,-8.555081755242843061e-03,1.003831982612609863e+00,-2.770031314252861636e-03,-2.475633545405964142e-02,-1.457141966764160558e-02,-7.286394789382089066e-02,1.860877022621084884e-02,-7.374320179224014282e-02,-2.486245265755416822e-01,6.322862701452405809e-02,-1.442060295490900194e-02,-1.651609212668368187e-01,1.145702838897705023e-01,-2.318078100975564104e-01,-1.882182240486144909e-01,2.145702838897705078e-01,-1.909163475036620983e-01,5.305770101570003172e-01,6.995918750762939453e-01,-5.970557928085327148e-01,-7.068456904114060535e+01,0.000000000000000000e+00
6.453740000000000032e-01,-1.207011909226445891e-02,-7.366542302910034958e-03,1.002476572990417480e+00,-8.405760507794450553e-03,-2.224609569745594762e-02,-1.357587027320146002e-02,-6.234383207987243686e-02,2.932912589872162593e-02,-7.459880411624908447e-02,-2.837544119725370906e-01,1.810373464224822870e-01,5.918619358077106818e-02,-9.265130032793614245e-02,1.189290881156921387e-01,-9.864711528027964027e-02,-1.620458006858825628e-01,2.189290881156921442e-01,-6.038045883178710938e-02,5.309134614016135512e-01,7.058565616607666016e-01,-1.301359772682189941e+00,1.679428086709162358e+02,0.000000000000000000e+00
6.708410000000000206e-01,-1.448605692459461677e-02,-5.499774056212194430e-03,1.000487685203552246e+00,-1.568371112133677345e-02,-1.767790339253338949e-02,-1.195406738304565647e-02,-8.754778390123907350e-02,2.791808732826514539e-02,-7.662499696016311646e-02,-2.404132424891958220e-01,1.284088129373377740e-01,7.565668182721067836e-02,1.988887548446655329e-01,1.208773374557494951e-01,-1.919147337808681242e-02,9.888875484466552734e-02,2.208773374557495006e-01,1.482884287834167376e-02,5.313848437888379905e-01,7.114479541778564453e-01,-9.466277360916137695e-01,8.039200954996708504e+01,0.000000000000000000e+00
6.996820000000000261e-01,-1.714307674475329391e-02,-3.559637401155125221e-03,9.986158013343811035e-01,-2.072699020602677272e-02,-1.502250333902721557e-02,-9.573886008414807247e-03,-7.601689910047515486e-02,3.652933063812124903e-02,-6.176532059907913208e-02,-1.119129689935701027e-01,1.905124396948399551e-02,1.282448880288770410e-01,3.153945446014404519e-01,1.239407241344451793e-01,-1.506729237337283145e-01,2.153945446014404186e-01,2.239407241344451849e-01,-1.232701420783996471e-01,5.310380573162333251e-01,7.408149242401123047e-01,-1.162670731544494629e+00,4.979801789887628161e+01,0.000000000000000000e+00
7.235749999999999682e-01,-1.873281037664275075e-02,-2.449353532693846966e-03,9.974862933158874512e-01,-2.260145586502422532e-02,-1.543001245511277375e-02,-9.000230605052875546e-03,-9.658784924189972587e-02,3.653702510508665541e-02,-5.375657975673675537e-02,-4.806210783297420325e-02,-7.960414055312933779e-02,-1.860207795763057712e-02,2.994576454162597434e-01,-3.126517534255981445e-01,1.893845999575682060e-01,1.994576454162597656e-01,-2.126517534255981390e-01,2.153397560119628962e-01,5.295999583344815909e-01,6.858096122741699219e-01,-1.044199347496032715e+00,9.747799413613161335e+01,0.000000000000000000e+00
7.488550000000000484e-01,-2.131298647231123777e-02,-7.400405381475042834e-04,9.959423542022705078e-01,-2.245142614618149055e-02,-1.888585885873483861e-02,-7.620669014837411735e-03,-9.098502181355556939e-02,3.999743630628571633e-02,-4.435719549655914307e-02,5.204366854638092094e-02,-1.261631549886924053e-01,4.868470006621744561e-02,2.330130338668823242e-01,-2.196005582809448242e-01,1.662768773157593805e-01,1.330130338668823187e-01,-1.196005582809448187e-01,1.884079813957214300e-01,5.294951015810044348e-01,7.088208198547363281e-01,-1.081065535545349121e+00,1.493133174455446976e+02,0.000000000000000000e+00
7.725030000000000507e-01,-2.310970894430078651e-02,3.809647634445698984e-04,9.949831366539001465e-01,-1.953943627041346970e-02,-2.209508805399096332e-02,-7.120907615362251711e-03,-9.513398831486029328e-02,4.588778326922601097e-02,-5.430578067898750305e-02,2.148075217207683074e-01,-1.602381230922835520e-01,6.073319303920644494e-03,1.613105058670044056e-01,-1.958350777626037820e-01,1.527244056134035299e-01,6.131050586700439314e-02,-9.583507776260376254e-02,1.733832120895385798e-01,5.303099739028065418e-01,7.071347236633300781e-01,-1.153964161872863770e+00,1.005038089195822835e+02,0.000000000000000000e+00
7.963519999999999488e-01,-2.482591057670728574e-02,1.509083356295328783e-03,9.940726757049560547e-01,-1.533144151119998980e-02,-2.354419102637117511e-02,-8.401807681760197627e-03,-9.820725416765362092e-02,3.510566452326592535e-02,-4.714447259902954102e-02,2.221341417202120916e-01,-2.166555420745793978e-02,-9.479697021531804935e-02,1.749017596244812067e-01,-9.672269821166992743e-02,1.252520317908671632e-02,7.490175962448120117e-02,3.277301788330078125e-03,3.666354417800903043e-02,5.290040963612914204e-01,6.576825380325317383e-01,-1.207060456275939941e+00,5.748426541341799378e+01,0.000000000000000000e+00
8.216839999999999700e-01,-2.762433737046603860e-02,3.208372371045406773e-03,9.924672842025756836e-01,-7.689690560228975950e-03,-2.098653300077701900e-02,-1.077811044320221498e-02,-8.083057748231674278e-02,5.463899909543241257e-02,-6.574522703886032104e-02,2.676348577576869170e-01,1.515516631341695397e-01,-5.929016964768992620e-02,1.765565250394805497e-01,1.046485066413879172e-01,-8.281136552686133023e-02,8.691365718841552457e-02,2.046485066413879228e-01,-5.256375074386596818e-02,5.311138451886258105e-01,6.899013519287109375e-01,-1.134381890296936035e+00,9.535019213418669892e+01,0.000000000000000000e+00
8.483209999999999917e-01,-3.089012087941107529e-02,4.826457352001045642e-03,9.907079935073852539e-01,-7.200846988647611590e-05,-1.536661518473980692e-02,-1.300483503715328150e-02,-8.517332566320338916e-02,5.242171931541670521e-02,-6.157870963215827942e-02,2.568945853911976385e-01,1.951604133630159277e-01,-3.109147022693075843e-02,2.170247079428372083e-01,1.216893315315246415e-01,-1.976542220030656216e-01,1.804986476898193248e-01,2.216893315315246471e-01,-1.614573955535888727e-01,5.318915790293704537e-01,7.383248805999755859e-01,-1.139644742012023926e+00,9.296814317057724963e+01,0.000000000000000000e+00
8.712269999999999737e-01,-3.314433732471776251e-02,5.955377748169415723e-03,9.895611405372619629e-01,5.194470828200927620e-03,-1.152959982799006688e-02,-1.377559303567053514e-02,-8.785690337713820963e-02,5.289425033752047367e-02,-5.525266379117965698e-02,2.489910905090801374e-01,1.800612825219960744e-01,-4.568362293352366127e-02,1.721909275005435447e-01,1.228091537952422929e-01,-2.057419554124342853e-01,1.683980584144592341e-01,2.228091537952422985e-01,-1.675509095191955455e-01,5.316224154933458790e-01,7.405788898468017578e-01,-1.119333148002624512e+00,9.925805754705281458e+01,0.000000000000000000e+00
8.945149999999999491e-01,-3.546856903382290815e-02,7.059965410220555952e-03,9.884466528892517090e-01,1.078758464668004048e-02,-9.366189754623555075e-03,-1.339112608401572119e-02,-1.041447676250809445e-01,5.855737015660939654e-02,-5.011682957410812378e-02,3.293478195109942330e-01,5.897645584506985145e-02,7.062194096116346242e-02,-2.375864961678093301e-01,8.548694849014282227e-02,-3.763184314618747001e-02,-2.102209925651550293e-01,1.854869484901428278e-01,-7.401466369628906467e-04,5.310749251384230263e-01,7.226867675781250000e-01,-1.094007372856140137e+00,9.875643479402874902e+01,0.000000000000000000e+00
9.220580000000000442e-01,-3.927568681144712887e-02,8.621556136356348793e-03,9.869583845138549805e-01,1.929930712455692893e-02,-8.578444392979722721e-03,-1.200014453839151271e-02,-1.040739561640150745e-01,5.593468359372900239e-02,-5.057804659008979797e-02,2.780409537833040123e-01,-1.460828683998911717e-03,6.413092241037274266e-02,-3.015363342414516534e-01,7.316541671752929688e-02,5.116859349487599962e-03,-2.171947896480560247e-01,1.731654167175293024e-01,3.785512447357177596e-02,5.313292852265883992e-01,7.257708311080932617e-01,-8.887013196945190430e-01,9.373808307495610848e+01,0.000000000000000000e+00
9.475120000000000209e-01,-4.200455215724861052e-02,9.434510374621505810e-03,9.860326051712036133e-01,2.462661273265538686e-02,-9.498615903590357235e-03,-1.098919856357537944e-02,-9.571723167230516971e-02,4.815182443646322946e-02,-3.871687129139900208e-02,2.290173050811394606e-01,-6.001343095463804178e-02,4.742738537424070339e-02,-3.147921741008758434e-01,5.118846893309436652e-05,8.900295258236746998e-02,-2.147921741008758378e-01,1.000511884689330999e-01,1.187463462352752602e-01,5.306932726257244104e-01,7.317192554473876953e-01,-3.234461545944213867e-01,8.606876418427226838e+01,0.000000000000000000e+00
9.721910000000000274e-01,-4.599627683091499220e-02,1.075016264347511234e-02,9.844596385955810547e-01,2.709895523327745040e-02,-1.058881751892304379e-02,-1.040357457327858830e-02,-1.124870407460305394e-01,5.216018250973324111e-02,-5.143965035676956177e-02,-5.067223330132119424e-02,-9.007978580142989022e-03,5.307848099414117123e-03,-1.832792282104492299e-01,-1.475591421127319391e-01,-1.314461577827204519e-01,-8.327922821044921042e-02,-4.755914211273193359e-02,-1.036291122436523438e-01,5.308374330929354068e-01,6.789517402648925781e-01,-1.033032536506652832e+00,5.907902579215676298e+01,0.000000000000000000e+00
9.992779999999999996e-01,-4.864579345679411609e-02,1.174109358104400737e-02,9.832481741905212402e-01,2.507558010232957546e-02,-1.169611823800287276e-02,-1.052959279519414572e-02,-9.796761960835123628e-02,5.851258645839860217e-02,-5.426960065960884094e-02,-1.326135844581754764e-01,-5.260707790840301462e-02,-3.259095884978881891e-02,-1.451280415058135986e-01,-2.488758325576782282e-01,-1.827547195508689715e-01,-4.512804150581360002e-02,-1.488758325576782227e-01,-1.545045375823974609e-01,5.311044102360834573e-01,6.745097637176513672e-01,-1.177959084510803223e+00,-7.553659882373426626e+01,0.000000000000000000e+00
1.022331000000000101e+00,-5.128877750587053364e-02,1.279932273489683969e-02,9.818418622016906738e-01,2.018153081951400835e-02,-1.256242768595705606e-02,-1.080279233513570247e-02,-1.038013940836760990e-01,6.367809393616534475e-02,-6.440111249685287476e-02,-2.787290501528300601e-01,-4.970990232349945664e-02,1.853592765803722953e-02,-1.670891030330812210e-01,-1.626769661903381403e-01,-1.368656370986349180e-01,-8.650031089782714289e-02,-6.267696619033813477e-02,-1.077728033065795815e-01,5.320347458298947396e-01,6.753896474838256836e-01,-1.072036623954772949e+00,8.425670816727871681e+01,0.000000000000000000e+00
1.049207000000000001e+00,-5.346705872891163031e-02,1.418618130415985265e-02,9.803466796875000000e-01,1.456457518570049292e-02,-1.317609424284227337e-02,-1.057876958479759578e-02,-1.109298833874902551e-01,5.762566560418760919e-02,-5.795228108763694763e-02,-2.304404785349810081e-01,-5.760945598983015919e-02,2.003013622568605365e-02,-1.044274315806229397e-01,-2.352916955947876032e-01,-1.027762806472504314e-01,-5.593893527984619002e-02,-1.352916955947875977e-01,-7.410203218460083285e-02,5.313781179533639820e-01,6.548023223876953125e-01,-7.113651037216186523e-01,3.774428105165078051e+01,0.000000000000000000e+00
1.076392999999999933e+00,-5.565492492590813634e-02,1.553426549496447068e-02,9.788945913314819336e-01,8.272806072550507872e-03,-1.291020552275568001e-02,-9.746495808403093583e-03,-1.054499531742183194e-01,5.927965385504533474e-02,-6.605467200279235840e-02,-3.228515113630362476e-01,7.516352367385810418e-02,5.194740016428742863e-02,-1.677601905989739572e-01,1.087896406650543102e-01,-8.180066389430894203e-02,-1.633961498737335205e-01,2.087896406650543157e-01,-5.518544912338256558e-02,5.326066410689264119e-01,6.802735328674316406e-01,-7.206617593765258789e-01,9.298894792678910903e+01,0.000000000000000000e+00
1.101053000000000059e+00,-5.782530993658983876e-02,1.684243919977446158e-02,9.774901270866394043e-01,3.236986283356198171e-03,-1.188810100480219845e-02,-8.558704518037699854e-03,-9.126555083649513789e-02,6.134188934610008970e-02,-7.102908939123153687e-02,-2.294499454659183202e-01,5.978983085546261261e-02,8.077248609690591830e-02,-1.256671960894860662e-01,1.125382959842681774e-01,-7.292026520983162230e-02,-1.565346837043762040e-01,2.125382959842681829e-01,-4.939599037170409879e-02,5.333607805309639183e-01,6.922161579132080078e-01,-1.037206053733825684e+00,8.529215801526348173e+01,0.000000000000000000e+00
1.123445000000000027e+00,-5.994895746968204736e-02,1.816383204124368336e-02,9.761497974395751953e-01,-1.255702144314629724e-03,-9.703093317701583231e-03,-7.802310759013274775e-03,-1.123379652714512483e-01,4.987200305065050271e-02,-6.390675157308578491e-02,-2.251510814604993638e-01,1.266407741112044461e-01,1.082231951614665531e-02,-9.235103370994721117e-02,1.194674432277679221e-01,-5.485338989396044279e-02,-1.440907716751098633e-01,2.194674432277679277e-01,-3.323071002960204662e-02,5.328753764809592841e-01,6.831378936767578125e-01,-1.164957165718078613e+00,9.133401358146252846e+01,0.000000000000000000e+00
1.147936000000000067e+00,-6.201549592572537517e-02,1.944342878449556791e-02,9.747594594955444336e-01,-4.519446336188396446e-03,-6.618563677037503368e-03,-6.928081040944447481e-03,-9.486906144746988512e-02,6.210337463257885326e-02,-5.878640711307525635e-02,-1.325909751000007852e-01,1.731028811744888818e-01,4.473507913877662612e-02,-1.324315683174716596e-01,1.211894214153289573e-01,-2.525939897530637968e-03,-2.178864955902099498e-01,2.211894214153289628e-01,1.673519611358642578e-02,5.336672367081644053e-01,7.377126216888427734e-01,-1.427131772041320801e+00,1.142930473160365246e+01,0.000000000000000000e+00
1.174414999999999987e+00,-6.379808476144861740e-02,2.021447506236089334e-02,9.733763933181762695e-01,-7.216564215351126653e-03,-3.700610682874083679e-03,-6.700719662313337800e-03,-1.003297898624149476e-01,5.439249912773560375e-02,-5.030597001314163208e-02,-6.889479508822063392e-02,1.151299410235167853e-01,-1.729620546784012627e-02,-1.253634792358291339e-01,1.237631440162658691e-01,7.589374861535679029e-02,-2.212632000446319580e-01,2.237631440162658747e-01,9.464271068572997769e-02,5.333198554717188955e-01,7.425284385681152344e-01,-1.292077183723449707e+00,7.750533938028790715e+01,0.000000000000000000e+00
1.200418999999999903e+00,-6.533669303373448867e-02,2.053891394719938382e-02,9.720510244369506836e-01,-9.822133638426086555e-03,-1.543851967503506728e-03,-6.244771492764534561e-03,-1.115033078238386877e-01,5.891431248763329132e-02,-6.307142972946166992e-02,-1.634402265339326421e-01,8.895479612920476065e-02,6.305462760378191533e-02,2.187329530715943771e-02,1.235427200794219915e-01,-6.000393673914029141e-02,-7.812670469284056785e-02,2.235427200794219971e-01,-4.247717857360839427e-02,5.340170957530431251e-01,7.200975418090820312e-01,-1.189829707145690918e+00,7.530979556215481807e+01,0.000000000000000000e+00
1.221913000000000027e+00,-6.694954228815805375e-02,2.097393560172108873e-02,9.707464575767517090e-01,-1.156424179251641475e-02,-1.142024052469547968e-03,-6.189776482813920920e-03,-1.038456387636704226e-01,6.482795031029230104e-02,-5.342688784003257751e-02,-8.162773030394505913e-02,1.491676813350039689e-02,-3.113316846386510531e-02,2.751652717590332142e-01,1.225354433059692161e-01,1.420456206045666303e-01,1.751652717590332087e-01,2.225354433059692216e-01,1.594441652297973466e-01,5.334705955269458677e-01,7.190220355987548828e-01,-2.793115377426147461e-01,-1.913547505418064887e+01,0.000000000000000000e+00
1.247484999999999955e+00,-6.941969063795852546e-02,2.181019719173094354e-02,9.688495993614196777e-01,-1.493159099341555100e-02,-2.934703081705958283e-03,-6.022111355416037010e-03,-1.067719319951768858e-01,6.320214775237752158e-02,-4.206610098481178284e-02,-1.027549019888921583e-01,-1.345339724739829657e-01,-2.230626315039516486e-02,2.646745085716247781e-01,-2.026529312133789062e-01,1.718822931464924209e-01,1.646745085716247448e-01,-1.026529312133789007e-01,1.889321923255920244e-01,5.324515481813522078e-01,6.964371204376220703e-01,-1.306808829307556152e+00,8.797817088750601044e+01,0.000000000000000000e+00
1.272550999999999988e+00,-7.207555172331416016e-02,2.295268496701500724e-02,9.669783711433410645e-01,-1.937114302261396317e-02,-6.076750972192179745e-03,-6.755405097667807786e-03,-9.768595902428973965e-02,7.627237305863150685e-02,-5.283359810709953308e-02,-2.170951558453327046e-01,-8.016839565247871335e-02,-5.746015512981834245e-02,3.082536458969116211e-01,1.031419098377227561e-01,1.576417601043409999e-01,2.082536458969116155e-01,2.031419098377227617e-01,1.768569231033325084e-01,5.338756602971885812e-01,7.205390930175781250e-01,-1.255168795585632324e+00,9.482971122886422677e+01,0.000000000000000000e+00
1.295438000000000089e+00,-7.412547499110769267e-02,2.396254003817523473e-02,9.657171368598937988e-01,-2.178377517709029557e-02,-9.432057712728258991e-03,-6.988751312943609906e-03,-9.398968876156907348e-02,8.067457443547002005e-02,-5.835522711277008057e-02,-1.057992873958267660e-01,-2.030343282796401583e-01,3.156845979904181893e-02,2.890997409820556530e-01,-2.554901957511901966e-01,1.853637192400465483e-01,1.890997409820556474e-01,-1.554901957511901911e-01,2.053531765937805231e-01,5.342265230750457006e-01,7.083570957183837891e-01,-1.223745942115783691e+00,8.240962011003216503e+01,0.000000000000000000e+00
1.320052999999999921e+00,-7.718652336058180741e-02,2.562276024062896604e-02,9.641261696815490723e-01,-2.343895921826948808e-02,-1.463057018356073158e-02,-8.592595898682123257e-03,-1.089356406900037905e-01,8.265040126362414863e-02,-4.180248454213142395e-02,4.926407701305057091e-02,-1.980219877482186086e-01,-9.657512044285730679e-02,2.668414831161499134e-01,-2.840582251548767201e-01,1.718419138544571290e-01,1.668414831161499079e-01,-1.840582251548767145e-01,1.964982748031616211e-01,5.332505544937876651e-01,7.089384794235229492e-01,-1.069138407707214355e+00,-3.026162696211516234e+00,0.000000000000000000e+00
1.344672000000000089e+00,-8.019554733710619610e-02,2.732092136626270221e-02,9.626936912536621094e-01,-2.042055500861019585e-02,-1.879886399083918747e-02,-1.188251147362064976e-02,-9.467242224384685156e-02,7.430608898191182199e-02,-4.120411351323127747e-02,1.969212031096985449e-01,-1.082439718464779238e-01,-1.447354902147496292e-01,2.316863775253295843e-01,-1.911684274673461914e-01,1.045396044808200864e-01,1.316863775253295787e-01,-9.116842746734618586e-02,1.383335709571838212e-01,5.328111404704387599e-01,6.783320903778076172e-01,-1.013333439826965332e+00,9.730859861452611881e+01,0.000000000000000000e+00
1.369567999999999897e+00,-8.329960540369764355e-02,2.959013152553478104e-02,9.613848328590393066e-01,-1.399121054833428815e-02,-2.004640294292103775e-02,-1.568382374111724001e-02,-1.011766019065619832e-01,8.238275314570837893e-02,-4.217397421598434448e-02,2.131097523044269970e-01,2.280360650654224275e-02,-1.231330863965437866e-01,1.982320070266723744e-01,6.009336709976195734e-02,-7.437198347579496160e-02,9.823200702667235495e-02,1.600933670997619629e-01,-3.034522533416747839e-02,5.328503479290425116e-01,6.666159629821777344e-01,-1.201322674751281738e+00,9.624881280252860449e+01,0.000000000000000000e+00
1.394994000000000067e+00,-8.641706449315361693e-02,3.218850190300390213e-02,9.601097702980041504e-01,-5.054431071986623114e-03,-1.821550762895984832e-02,-2.006492617468368447e-02,-8.995122603763887337e-02,8.622979355996049367e-02,-4.628225415945053101e-02,3.350631497157478544e-01,9.815720343407755011e-02,-1.191195226712525590e-01,1.428098440170288141e-01,1.003812015056609885e-01,-7.843433785009899795e-02,4.280984401702880859e-02,2.003812015056609941e-01,-2.265293598175048898e-02,5.336900828439645750e-01,6.875233650207519531e-01,-5.057138204574584961e-01,8.476229926021056826e+01,0.000000000000000000e+00
1.420077000000000034e+00,-8.939379875276615151e-02,3.489630273428018931e-02,9.588021636009216309e-01,3.550448119594729404e-03,-1.242843646238767086e-02,-2.432147694432596277e-02,-9.231446185723311826e-02,9.124852109087989993e-02,-3.997565805912017822e-02,3.203237399525130091e-01,1.936306001948659428e-01,-1.235547199641780641e-01,2.247495820656040810e-01,1.186951637268066351e-01,-1.151131457924583906e-01,1.624654769897460882e-01,2.186951637268066406e-01,-4.780132770538329801e-02,5.339824892539928314e-01,7.187761068344116211e-01,-8.607512712478637695e-01,9.981436962476118424e+01,0.000000000000000000e+00
1.446901999999999910e+00,-9.262660462576928488e-02,3.766191198289541020e-02,9.575449228286743164e-01,1.186552268267903644e-02,-6.769291907554375598e-03,-2.655320057820221083e-02,-1.016570310790887999e-01,9.169157395592848758e-02,-4.679705575108528137e-02,2.920664264709160185e-01,1.592149060030280394e-01,-4.948931321753365087e-02,1.123854122046447496e-01,1.220175981521606223e-01,-4.732830699648202938e-02,1.031506776809692355e-01,2.220175981521606279e-01,2.598304152488708357e-02,5.350727563642068141e-01,7.418682575225830078e-01,-1.346005201339721680e-01,8.289572467326198080e+01,0.000000000000000000e+00
1.471514999999999906e+00,-9.628269001010873740e-02,4.033100732717677384e-02,9.563450217247009277e-01,1.935292915628873678e-02,-4.254364640343455406e-03,-2.751959100101577377e-02,-1.102035070106392040e-01,8.946081822570954578e-02,-3.445873409509658813e-02,2.506931562140709002e-01,3.293074304954191067e-02,-5.793614939959196991e-02,-2.575365458741943891e-01,1.126949548721313255e-01,1.011173268073023712e-01,-2.181937158107757624e-01,2.126949548721313310e-01,1.768794715404510554e-01,5.340950872304736086e-01,7.275183200836181641e-01,-1.152067303657531738e+00,1.369931178433240859e+02,0.000000000000000000e+00
1.495654000000000039e+00,-1.000729382177023979e-01,4.295175449505037740e-02,9.552427530288696289e-01,2.611487214796184148e-02,-5.502267124408488641e-03,-2.763794889945200492e-02,-1.039787016524369723e-01,8.464104300119926205e-02,-3.605139628052711487e-02,2.039483336574968997e-01,-1.298554079845637976e-01,-2.255131764472817144e-02,-2.205326122931060284e-01,-2.683241009712219460e-01,-1.179515323390799286e-02,-1.358657956123351940e-01,-1.683241009712219127e-01,6.400047540664673129e-02,5.336187626763301273e-01,6.868627071380615234e-01,-6.833254098892211914e-01,5.223859475348357506e+01,0.000000000000000000e+00
1.520035000000000025e+00,-1.038998185695594045e-01,4.546075640567077275e-02,9.540173411369323730e-01,3.084007353696459688e-02,-8.281184347592063233e-03,-2.837070225086783803e-02,-1.157391217174981585e-01,8.065226331015652728e-02,-4.580436646938323975e-02,3.332382173186627938e-02,-6.424296253938859003e-02,-3.615250635149928893e-02,-1.861137509346008356e-01,-3.034795284271240012e-01,-9.034457202504887763e-02,-8.611375093460083008e-02,-2.034795284271240234e-01,-1.297860145568847587e-02,5.344802915685451516e-01,6.855185031890869141e-01,-7.009636163711547852e-01,1.021874642103687592e+02,0.000000000000000000e+00
1.547825999999999924e+00,-1.065732845655421868e-01,4.705332870548720875e-02,9.530426859855651855e-01,3.124793136610565583e-02,-1.043260759328035192e-02,-2.949135420186507414e-02,-1.042210682783590026e-01,9.411701765309396506e-02,-6.309298425912857056e-02,-2.444026515754526424e-02,-7.562832287050899605e-02,-6.478328543169940834e-02,-1.614889621734619252e-01,-2.808483362197876088e-01,-2.304362232317873072e-01,-6.148896217346191267e-02,-1.808483362197876032e-01,-1.500899076461791881e-01,5.355911462450543281e-01,6.692357063293457031e-01,-5.812228918075561523e-01,8.950697212942996828e+01,0.000000000000000000e+00
1.572375999999999996e+00,-1.106025606413666984e-01,4.939527220855288725e-02,9.512956738471984863e-01,2.670246424594168236e-02,-9.903008275550240214e-03,-3.062395205804782639e-02,-1.102885676968509698e-01,8.224365356207560818e-02,-6.184695661067962646e-02,-2.355691557520805668e-01,8.624106320047295049e-02,-5.969403324636463060e-02,-1.948041888965436064e-01,9.839116334915160023e-02,-1.680539315319500848e-01,-1.079950332641601562e-01,1.983911633491516058e-01,-8.430211544036865512e-02,5.356539392295913693e-01,6.649308204650878906e-01,-6.382888555526733398e-01,9.018143964959038783e+01,0.000000000000000000e+00
1.595677000000000012e+00,-1.131613641816835852e-01,5.097642385802054338e-02,9.499783515930175781e-01,2.170085453244231452e-02,-6.558769000845066088e-03,-3.040871281150712979e-02,-1.046680185275279396e-01,9.599645384963055583e-02,-7.673474401235580444e-02,-3.110916566054869881e-01,2.643555686250843029e-01,3.141518346970931935e-02,-1.847496880592861268e-01,1.218017160892486406e-01,-2.043111611135411954e-01,-1.438749611377715953e-01,2.218017160892486461e-01,-1.208129525184631348e-01,5.377329955709325704e-01,7.091884613037109375e-01,-7.027460336685180664e-01,9.084109931963021722e+01,0.000000000000000000e+00
1.624457999999999958e+00,-1.168952143093527907e-01,5.327043145896947357e-02,9.480367302894592285e-01,1.467866689291422340e-02,4.567478489729825952e-04,-2.927864655038153394e-02,-1.115944470921994142e-01,7.826586594396914287e-02,-6.446922570466995239e-02,-2.022832839682305595e-01,2.062528956167202221e-01,5.545092218628940028e-02,-2.149017597267496027e-01,1.230660915374755804e-01,-2.504780472413458137e-01,-2.055691838264465388e-01,2.230660915374755859e-01,-1.695248007774352861e-01,5.376327611383079352e-01,7.385132312774658203e-01,-5.016301870346069336e-01,-1.098510798930956298e+02,0.000000000000000000e+00
1.647534000000000054e+00,-1.194117221208897822e-01,5.488972782346363682e-02,9.468778371810913086e-01,1.117707654795145090e-02,4.341995311549329273e-03,-2.824498196255761928e-02,-1.039628860457046111e-01,8.619210813882369204e-02,-5.110327526926994324e-02,-1.414053943021538473e-01,1.634206130195292039e-01,3.220909396382912182e-02,-1.915232745643007939e-01,1.239543139934539684e-01,-2.645404542706665807e-01,-2.154104769229888972e-01,2.239543139934539739e-01,-1.862450838088989258e-01,5.369889337016934272e-01,7.457840442657470703e-01,-4.427222013473510742e-01,1.098729023474938202e+02,0.000000000000000000e+00
1.671740000000000004e+00,-1.233639342032755853e-01,5.748750061684453072e-02,9.453426599502563477e-01,6.543460817940871359e-03,6.211004174708989467e-03,-2.595425934161360235e-02,-1.120221450853936956e-01,8.332595183510767278e-02,-4.396331310272216797e-02,-9.235012535165454395e-02,-1.407054871240477796e-02,7.026229706998234070e-02,1.184229058897889597e-01,8.689966797828674316e-02,-2.029868359982098525e-01,6.560736894607543945e-02,1.868996679782867487e-01,-1.309571385383605790e-01,5.361650151368164696e-01,7.167207002639770508e-01,-8.495746850967407227e-01,4.054070734692115963e+01,0.000000000000000000e+00
1.696098000000000106e+00,-1.259864633373720955e-01,5.922370848657884657e-02,9.445007443428039551e-01,2.778853832019737360e-03,5.935339330758182541e-03,-2.395673849999727101e-02,-1.100764959104240520e-01,7.728921913064357163e-02,-4.776363819837570190e-02,-2.362941659360259516e-01,-2.283141010024032982e-02,1.041485743071181302e-01,1.688231879285430614e-01,9.633263945579528809e-02,-2.228256916842446256e-01,9.412779808044433039e-02,1.963326394557952936e-01,-1.562700033187866266e-01,5.365400753356567298e-01,7.140957117080688477e-01,-7.895706892013549805e-01,1.057301194083142946e+02,0.000000000000000000e+00
1.722180000000000044e+00,-1.299367465282129652e-01,6.197055548974532424e-02,9.432882070541381836e-01,-2.980970738106978636e-03,3.622688597408885158e-03,-2.022158880202754375e-02,-1.004838490100989357e-01,8.662375229203786442e-02,-4.492197185754776001e-02,-2.234809302863673408e-01,-7.859734158444148244e-02,1.447701998622732966e-01,2.416094779968261663e-01,6.749803423881528541e-02,-2.046550969935243269e-01,1.416094779968261608e-01,1.674980342388152910e-01,-1.484642744064330888e-01,5.366751009200035893e-01,7.227587699890136719e-01,-8.035677671432495117e-01,3.600167781323250438e+01,0.000000000000000000e+00
1.744633000000000100e+00,-1.325973263247753886e-01,6.358026936687802277e-02,9.425766468048095703e-01,-5.887202320846935191e-03,1.405498159972706773e-03,-1.789372334100880479e-02,-1.202806885344886584e-01,8.205907392500567943e-02,-4.200091212987899780e-02,-1.140932396570431689e-01,-1.505388755975770876e-01,1.279931797150368755e-01,2.520969152450561745e-01,-5.526347160339355885e-02,-2.229338433551789067e-03,1.520969152450561412e-01,4.473652839660644670e-02,4.747990965843200406e-02,5.361447390686508996e-01,6.958611011505126953e-01,-5.847800970077514648e-01,1.001776400659574904e+02,0.000000000000000000e+00
1.772863000000000078e+00,-1.366634178085114060e-01,6.562325419650648362e-02,9.416107535362243652e-01,-6.917998264803592971e-03,-2.684111873786809710e-03,-1.401833969167942152e-02,-9.822184219948736084e-02,8.218526954784199923e-02,-4.109158739447593689e-02,6.177507893803874800e-02,-1.598339209063472099e-01,1.768265625289529297e-01,2.423720121383667048e-01,-1.613898634910583552e-01,-8.968543230533704280e-02,1.423720121383666992e-01,-6.138986349105834961e-02,-5.081849098205565990e-02,5.360640405586704071e-01,6.874012947082519531e-01,-7.223011255264282227e-01,9.453674392479486244e+01,0.000000000000000000e+00
1.797612999999999905e+00,-1.393064223316316241e-01,6.697306421890847350e-02,9.410886168479919434e-01,-5.421814727714679809e-03,-5.139484627517232340e-03,-1.227120241490148485e-02,-1.118356390848946613e-01,7.766539964064785029e-02,-3.161477670073509216e-02,1.130517239077416247e-01,-1.269638905080719693e-01,3.801805592355828739e-02,2.377958059310913141e-01,-2.284440159797668513e-01,2.272936636901292523e-02,1.377958059310913086e-01,-1.284440159797668457e-01,5.658284425735473494e-02,5.355679977179712559e-01,6.896739006042480469e-01,-6.365207433700561523e-01,1.035042085691313218e+02,0.000000000000000000e+00
1.824958999999999998e+00,-1.430738149539437232e-01,6.892841748889221021e-02,9.402514100074768066e-01,-3.527477379486658677e-04,-7.393945314594807527e-03,-1.073918322388893280e-02,-9.137328942218142513e-02,7.302536108888996180e-02,-3.441967070102691650e-02,2.288947078194715212e-01,-6.144381557537204053e-02,2.595890783378888844e-02,1.166815519332885798e-01,-5.435679554939270436e-02,-3.527860797735145326e-02,1.668155193328857422e-02,4.564320445060730119e-02,-5.945134162902832205e-03,5.358262151181706345e-01,6.860618591308593750e-01,-6.564990282058715820e-01,9.873134067901811761e+01,0.000000000000000000e+00
1.846092999999999984e+00,-1.452712251059343485e-01,6.980773055926887960e-02,9.397648572921752930e-01,3.279953590396176774e-03,-6.732106150562744418e-03,-9.448309837384033863e-03,-1.038663552742827567e-01,7.480247971493325654e-02,-4.456768929958343506e-02,1.659042822305841491e-01,4.137500823798972299e-02,6.976349756890566634e-02,-2.773583038675722645e-02,1.043959856033325195e-01,-6.995281041254033938e-02,-1.101115822792053250e-01,2.043959856033325251e-01,-4.447052478790283064e-02,5.372834983225028838e-01,7.181012630462646484e-01,-6.039718389511108398e-01,9.988142159184320690e+01,0.000000000000000000e+00
1.871310000000000029e+00,-1.481086687764560095e-01,7.047841109796308678e-02,9.388652443885803223e-01,1.042172231466493605e-02,-3.307430324231308560e-03,-8.592366755213248428e-03,-8.096151524428850388e-02,8.172744057521459660e-02,-5.436997115612030029e-02,2.615010335568070943e-01,1.294216856619709588e-01,5.337424251584354379e-02,-5.026366145088350529e-02,1.204901337623596191e-01,-1.487744631269242723e-01,-9.220658540725708285e-02,2.204901337623596247e-01,-1.258553266525268555e-01,5.385022529982101958e-01,7.386264801025390625e-01,-8.549445867538452148e-01,6.985016581137517733e+01,0.000000000000000000e+00
1.896673000000000053e+00,-1.499164787312536329e-01,7.099145525781096200e-02,9.383283257484436035e-01,1.474775651482802298e-02,-2.707795823162495452e-04,-7.968822718566101124e-03,-1.026075440804669614e-01,6.968198592671759339e-02,-4.021701216697692871e-02,1.717343221590227897e-01,1.299778314605700702e-01,2.304175704408143593e-02,1.916994088312360678e-01,1.247612655162811113e-01,-6.637383665699961299e-02,1.872344970703125056e-01,2.247612655162811168e-01,-4.533973932266235213e-02,5.378549976615918382e-01,7.501282691955566406e-01,-1.003759264945983887e+00,1.157544670342510216e+02,0.000000000000000000e+00
1.922002999999999906e+00,-1.527064703787171518e-01,7.182901050073246807e-02,9.374514222145080566e-01,1.954365886913498121e-02,2.361911771032731977e-03,-6.242227122243476124e-03,-8.270335473060208553e-02,7.428238886220042692e-02,-4.845174401998519897e-02,6.638955563435369744e-02,7.500047910947434116e-02,6.614845030484699240e-02,-2.241780172694281814e-01,1.224217712879180908e-01,-2.411880571448126453e-01,-2.038515150547027532e-01,2.224217712879180964e-01,-2.249674916267394853e-01,5.383859336285168329e-01,7.390267848968505859e-01,-8.443466424942016602e-01,9.664566045368468394e+01,0.000000000000000000e+00
1.944757000000000069e+00,-1.545642551935570985e-01,7.243882532668505236e-02,9.368994235992431641e-01,2.154337676309376129e-02,2.204391326386945238e-03,-4.434513430176163090e-03,-9.438243894005077239e-02,7.894337062073279732e-02,-4.620636627078056335e-02,8.497732810035500683e-02,-7.648296769107797155e-02,1.142357355098625876e-01,-1.319949224538061183e-01,-1.896758317947387917e-01,-1.459426224328792820e-01,-1.027440726757049561e-01,-8.967583179473877231e-02,-1.349968671798706110e-01,5.374464002511463168e-01,6.869215965270996094e-01,-1.186013340950012207e+00,1.376996462714485574e+02,0.000000000000000000e+00
1.973062000000000094e+00,-1.574101860098707506e-01,7.371166387902598760e-02,9.361243844032287598e-01,2.423503411923187342e-02,7.911261233384259128e-05,-1.830329950581018094e-03,-9.600221880490478199e-02,6.816388289893132724e-02,-3.889237344264984131e-02,1.057263678363599413e-01,-7.310340899148634608e-02,1.179885348735587453e-01,-2.061359389827309152e-01,-2.107463359832763561e-01,-1.552792830330642360e-01,-1.521440327167510875e-01,-1.107463359832763644e-01,-1.518207907676696611e-01,5.369024471933909748e-01,6.776840686798095703e-01,-7.616688013076782227e-01,8.836606416066020131e+01,0.000000000000000000e+00
1.996764999999999901e+00,-1.592863091129685105e-01,7.457268688572508963e-02,9.356639981269836426e-01,2.420600171098030023e-02,-1.556408290746436052e-03,1.796729028480052032e-04,-7.742715842961526984e-02,7.003670156973429428e-02,-4.702306538820266724e-02,-8.288488714116658274e-02,-4.096848965152617705e-02,8.694957869969026365e-02,-5.559837210029142107e-02,-6.510331630706787942e-02,-1.347059970737535251e-01,-5.874860286712646658e-03,3.489668369293212613e-02,-1.368749141693115234e-01,5.378012797584846849e-01,6.887921094894409180e-01,-4.396635293960571289e-01,6.707954055569452123e+01,0.000000000000000000e+00
2.021558999999999884e+00,-1.619115026420927528e-01,7.594872674691632852e-02,9.348734617233276367e-01,2.135527336303505441e-02,-1.018531159664215480e-03,3.534820812623199349e-03,-9.318698450107641695e-02,6.256456609942180613e-02,-3.916170075535774231e-02,-1.626198667435939660e-01,5.885356294582951703e-02,1.430614730502418330e-01,-1.783588298010506112e-01,1.051153004169463889e-01,-7.564210049636477251e-04,-1.430480360984802135e-01,2.051153004169463945e-01,-1.228398084640502930e-02,5.370048817032184729e-01,6.662155389785766602e-01,-3.939174413681030273e-01,6.746264586624053550e+01,0.000000000000000000e+00
2.047505999999999826e+00,-1.635125334381837270e-01,7.693483040354227864e-02,9.342424869537353516e-01,1.846677412747316574e-02,1.513221113229601400e-03,5.560662834451063005e-03,-7.491917841809254963e-02,8.078295958070977334e-02,-3.843449801206588745e-02,-1.152376103641326449e-01,1.664447275671842308e-01,6.278692252594735013e-02,-2.192734001859313331e-01,1.213629424571990856e-01,-9.844419777488980228e-02,-2.193075299263000377e-01,2.213629424571990911e-01,-1.153791189193725530e-01,5.385062385100586324e-01,7.449481487274169922e-01,-7.664254903793334961e-01,-1.877743824543587081e+01,0.000000000000000000e+00
2.073195000000000121e+00,-1.659999748602515035e-01,7.870076477442267127e-02,9.332973957061767578e-01,1.424438577689804246e-02,5.847038824297712267e-03,8.178969438896642463e-03,-8.007534903528756853e-02,5.979206174684647407e-02,-3.944858536124229431e-02,-8.127349732772413959e-02,7.635391726317150574e-02,3.197779844636667451e-02,-2.042744302014592728e-01,1.218846321105956920e-01,-9.575414172440735450e-02,-2.148208558559417669e-01,2.218846321105956976e-01,-1.196370363235473577e-01,5.387188200137162930e-01,7.438027858734130859e-01,-1.203317523002624512e+00,9.881333026981495493e+01,0.000000000000000000e+00
2.101234999999999964e+00,-1.676334278017988233e-01,7.980935342839551305e-02,9.327167868614196777e-01,1.141241453438966887e-02,7.399219666857970168e-03,9.503289772978193439e-03,-7.829602714511432748e-02,6.479959998691353640e-02,-3.852086141705513000e-02,-1.515637478009760619e-01,8.558503689964021277e-02,8.014267210820573417e-02,-1.542537771882483422e-01,1.226382076740264726e-01,-9.878567452025613371e-02,-1.914301156997680609e-01,2.226382076740264782e-01,-1.262592315673828069e-01,5.385717660600145562e-01,7.313867807388305664e-01,-1.184492468833923340e+00,7.744960503666061413e+01,0.000000000000000000e+00
2.124473000000000056e+00,-1.692730513482133270e-01,8.098037535921689956e-02,9.321638941764831543e-01,8.735975521250854969e-03,7.514188651511100048e-03,1.111702011424911193e-02,-6.764192124989243382e-02,6.483915810568958993e-02,-4.257478937506675720e-02,-1.270743026245087226e-01,-1.028696654624220927e-02,9.756475236350695135e-02,1.394030868244180987e-01,1.104440987110137939e-01,1.037861168806375328e-01,8.424088954925536277e-02,2.104440987110137995e-01,7.191492319107055387e-02,5.382299111924047086e-01,6.892154216766357422e-01,-7.336503267288208008e-01,1.036015729157498555e+02,0.000000000000000000e+00
2.148277000000000214e+00,-1.708909894232730486e-01,8.219178318394308735e-02,9.316446781158447266e-01,5.256286305034638812e-03,6.549169575400970444e-03,1.265789710832201063e-02,-7.715838486626067083e-02,7.297858317332817091e-02,-3.649284318089485168e-02,-1.853977979896354322e-01,-6.997404249832085699e-02,6.791704013388909222e-02,2.413954396490242682e-01,7.042348384857177734e-02,-1.455046163004899418e-01,1.556267738342285156e-01,1.704234838485717829e-01,-1.817085742950439453e-01,5.386947665996490997e-01,7.304458618164062500e-01,-8.929053544998168945e-01,9.682255552299884016e+01,0.000000000000000000e+00
2.176930000000000032e+00,-1.732952854706805157e-01,8.399236984394488348e-02,9.308559298515319824e-01,-1.003626004698360708e-03,4.026402677554941079e-03,1.528956234123854049e-02,-7.103524033218115707e-02,5.954368709994584813e-02,-3.652636706829071045e-02,-2.449904113881344603e-01,-9.493318915195601837e-02,8.008568944141182533e-02,2.466248512268066351e-01,5.855649709701538086e-02,-9.649010425870688246e-02,1.466248512268066295e-01,1.585564970970153864e-01,-1.398487329483032171e-01,5.386533534481373620e-01,7.204335927963256836e-01,-8.569759130477905273e-01,1.215499645072768828e+02,0.000000000000000000e+00
2.199432999999999971e+00,-1.748245546913934079e-01,8.520514212958335554e-02,9.303547143936157227e-01,-4.246655868170219096e-03,1.462156911221645927e-03,1.595931633340771927e-02,-6.836556277663638492e-02,7.909166127165012661e-02,-4.364036768674850464e-02,-9.923387278267833955e-02,-1.092127095785206947e-01,1.746492893647431238e-02,2.515628337860107422e-01,-1.637217402458190918e-01,1.304582179649378948e-01,1.515628337860107366e-01,-6.372174024581908625e-02,8.518509864807129184e-02,5.389991399438424091e-01,7.029111385345458984e-01,-8.891195058822631836e-01,9.576576133385779599e+01,0.000000000000000000e+00
2.226843999999999824e+00,-1.763530155761346419e-01,8.637061820866107076e-02,9.298241734504699707e-01,-5.808788514249321570e-03,-1.685757517442709741e-03,1.703653270818497600e-02,-7.011385278963755407e-02,6.630909750593286245e-02,-2.691163681447505951e-02,-5.481200493997769041e-02,-1.597370925391705943e-01,7.929703116806902097e-02,2.506451249122619851e-01,-1.769388079643249567e-01,1.380241283539828112e-01,1.506451249122619518e-01,-7.693880796432495117e-02,8.979910612106323242e-02,5.378033300776237091e-01,6.960251331329345703e-01,-8.114484548568725586e-01,1.094551952986125229e+02,0.000000000000000000e+00
2.253013999999999850e+00,-1.778710507176544109e-01,8.753630046119112440e-02,9.293031692504882812e-01,-5.377508115886202138e-03,-4.461715400763788253e-03,1.876952407045116844e-02,-8.269845024113886556e-02,6.406343783741064168e-02,-3.473192825913429260e-02,4.420473105780151069e-02,-1.508692751626478645e-01,9.879486708034368458e-02,2.490393042564392201e-01,-2.537383198738097922e-01,9.287236851890515177e-02,1.490393042564392145e-01,-1.537383198738098145e-01,3.969129323959350725e-02,5.384195013559341936e-01,6.909153461456298828e-01,-7.807418107986450195e-01,1.000152659788187748e+02,0.000000000000000000e+00
2.273541999999999952e+00,-1.786174867193261739e-01,8.811123818879205982e-02,9.290714263916015625e-01,-4.477366230859617866e-03,-5.758289491233137269e-03,1.950346642896781321e-02,-7.020554768906055176e-02,6.650651200582970157e-02,-3.088849224150180817e-02,5.524835120805075134e-02,-8.185546939101658037e-02,5.853173728602283077e-02,2.261206865310669001e-01,-2.259546756744384710e-01,2.810648855704408686e-02,1.261206865310668945e-01,-1.259546756744384655e-01,-2.719559669494628698e-02,5.381873865594252182e-01,6.879539489746093750e-01,-7.715188264846801758e-01,9.071844278251512605e+01,0.000000000000000000e+00
2.298286000000000051e+00,-1.800507161928909805e-01,8.921302761949448379e-02,9.286190867424011230e-01,-1.419337823309961555e-03,-7.974120615896529429e-03,2.020208990829153520e-02,-5.507196164960722479e-02,6.679741983276139827e-02,-3.176380321383476257e-02,1.706091885033061417e-01,-8.433890454590579899e-02,5.665475203712788677e-02,1.647440195083618164e-01,-9.970826506614685614e-02,3.746464439511458522e-02,6.474401950836181086e-02,2.917349338531494141e-04,-1.997791528701782157e-02,5.383895626751171726e-01,6.894015073776245117e-01,-7.190767526626586914e-01,1.070730165614088349e+02,0.000000000000000000e+00
2.323256000000000210e+00,-1.819634608620089578e-01,9.068110640408046097e-02,9.281690716743469238e-01,2.400389047550803307e-03,-8.565718742988837064e-03,1.968150103478883209e-02,-7.293316840637131815e-02,5.774734470507637829e-02,-2.413126826286315918e-02,1.953171281342591936e-01,-9.679385263071242293e-03,-5.400560371536611975e-02,8.165921568870544711e-02,8.214990496635435346e-02,3.457060477795368542e-02,-1.834078431129455497e-02,1.821499049663543590e-01,-2.166191339492797713e-02,5.380223436389620639e-01,6.913547515869140625e-01,-5.507012605667114258e-01,6.973028916125227283e+01,0.000000000000000000e+00
2.346271000000000218e+00,-1.837584182552098044e-01,9.211562145868935902e-02,9.276502132415771484e-01,6.635458808019989788e-03,-7.422628148893828381e-03,1.932401170096774770e-02,-5.642005161013797371e-02,7.008210764580617702e-02,-3.249773755669593811e-02,2.243572132736374736e-01,1.062258209313751561e-01,-6.844863240934413555e-03,-1.150859442807568300e-02,1.160872876644134521e-01,1.355229435635868507e-02,-9.766788482666015347e-02,2.160872876644134577e-01,-4.190146923065185547e-02,5.389679706219874245e-01,7.039861679077148438e-01,-7.393962144851684570e-01,9.211516865645855034e+01,0.000000000000000000e+00
2.372529000000000110e+00,-1.863181786941482676e-01,9.429027152577844351e-02,9.266756176948547363e-01,1.384178516445482357e-02,-3.515608904643752197e-03,1.846479937337364152e-02,-5.501108624156045984e-02,6.522492458356586587e-02,-3.432018682360649109e-02,2.974781750360195876e-01,1.396534172336996171e-01,-3.107199895896086903e-02,-8.370626240998557677e-02,1.188002884387969749e-01,2.865141934455749453e-02,-1.193098783493041909e-01,2.188002884387969804e-01,-2.458201646804809501e-02,5.393822178155911473e-01,7.104465961456298828e-01,-8.084200620651245117e-01,9.496007904955226309e+01,0.000000000000000000e+00
2.402397000000000116e+00,-1.886902552450880899e-01,9.639557147966446027e-02,9.256741404533386230e-01,2.118515043373860388e-02,2.466113795618118942e-03,1.817351284815373752e-02,-4.745032084064459282e-02,5.595292658918128714e-02,-2.505880035459995270e-02,2.329791012921212379e-01,2.167802763466855909e-01,-3.433203170508686980e-02,1.657905918098402376e-01,1.238672137260437012e-01,-7.365717523698950275e-02,1.823697566986083873e-01,2.238672137260437067e-01,-1.260272741317748912e-01,5.393938778742763951e-01,7.392709255218505859e-01,-7.097021341323852539e-01,9.164444567923960960e+01,0.000000000000000000e+00
2.425199999999999800e+00,-1.901500097944379963e-01,9.756168490146734096e-02,9.250550866127014160e-01,2.598949015880890404e-02,6.159228652231174550e-03,1.802828503527752896e-02,-4.369144390460693445e-02,6.323441841953927889e-02,-3.511286526918411255e-02,2.409477568225580901e-01,1.835754906215581461e-01,5.196507496364739624e-03,1.020613820711840924e-02,1.246326804161071722e-01,-1.009500606929585043e-01,5.008614063262939453e-02,2.246326804161071777e-01,-1.528968572616577204e-01,5.403834441507230357e-01,7.461862564086914062e-01,-9.858769178390502930e-01,1.384830826296273472e+02,0.000000000000000000e+00
