timestamp,x,y,z,roll,pitch,yaw,vx,vy,vz,p,q,r,psp,qsp,rsp,pres,qres,rres,thrust_sp, thrust_res,wind_mag,wind_angle,wind_obs
0.000000000000000000e+00,-7.095362760817377004e-03,-4.076931512063049212e-02,1.002157926559448242e+00,2.662310849753350022e-04,-8.900346897396937962e-03,-1.462162760138485673e-02,1.560659355439330924e-02,4.378160807364643754e-03,-1.715307310223579407e-02,1.765709186701205219e-02,2.641866919054215029e-02,6.736798971491937682e-02,-1.172453883772653707e-02,1.755813815954737345e-01,1.426175786863553285e-01,1.179327209918224970e-02,2.250328779874146978e-01,1.835909781048449263e-01,5.132114878401669023e-01,7.084727287292480469e-03,1.001425862312316895e+00,1.027936298388290481e+02,3.739456892013549583e-01
2.628600000000000034e-02,-6.979804185677058841e-03,-4.069441162791977845e-02,1.001819491386413574e+00,3.320309231857093333e-04,-9.256381426011373037e-03,-1.455268762900541191e-02,1.311989728827675505e-02,9.619461923736153915e-04,-1.178878545761108398e-02,2.870742504915882454e-02,-5.351479999763809198e-02,-4.374989425846351199e-02,-2.493652639173134233e-01,1.735848249569607871e-01,-2.667660941943433839e-01,-2.218679107150779151e-01,2.295046251911419255e-01,-2.259755858716917531e-01,5.211357621998170542e-01,4.521069526672363281e-01,1.822470784187316895e+00,-4.550109808069706663e-01,3.739456892013549583e-01
4.973799999999999749e-02,-6.848700838755336986e-03,-4.028518898796962927e-02,1.001501441001892090e+00,3.835839380236515952e-04,-9.057236394663936707e-03,-1.420378773619290769e-02,5.748000788479508752e-03,6.466163891024983429e-03,-2.462233603000640869e-02,-1.449310574974865644e-02,5.062226525259249515e-02,7.771159737005464176e-03,-1.230441237468217833e-02,1.643943160890151134e-01,1.664732970367261977e-01,1.046498035436496318e-02,2.245702681209714446e-01,2.062793335124962768e-01,5.008191610766178359e-01,-6.822191476821899414e-01,1.205842375755310059e+00,4.589765544881342407e+01,3.739456892013549583e-01
7.502100000000000435e-02,-6.723192306404018707e-03,-3.947302062093657748e-02,1.001241922378540039e+00,1.059429756048345861e-03,-9.672451439214801994e-03,-1.435162306795745302e-02,1.553313839929956405e-02,7.191097700164446847e-03,-1.350117754191160202e-02,4.085438460416723760e-02,-3.867436965558915252e-02,-4.615006598106362670e-03,-2.479905117471881693e-01,1.732659840135311879e-01,-2.649854768059736188e-01,-2.210659837098515323e-01,2.283889847359799885e-01,-2.247769775166327533e-01,5.173510520979969218e-01,2.373886108398437500e-01,6.654387712478637695e-01,6.588287775272993940e+01,3.739456892013549583e-01
9.841999999999999360e-02,-6.637537842756513658e-03,-3.860670375518972935e-02,1.000974535942077637e+00,1.199247161523571501e-03,-1.009753360584064730e-02,-1.340180198752682905e-02,2.129110906626309647e-03,1.500714238549409781e-02,-1.564247533679008484e-02,-1.152623517784009781e-02,-5.242195138443227903e-02,8.590141493959189967e-02,1.604215325448500873e-01,1.475002087547477303e-01,1.602004928400881933e-01,1.817419544496962913e-01,2.176541531163142529e-01,1.977387449988740054e-01,5.055892648363002895e-01,-3.992470502853393555e-01,8.909434080123901367e-01,1.252558612263857185e+02,3.739456892013549583e-01
1.249320000000000014e-01,-6.559833867694172746e-03,-3.717583059355777930e-02,1.000467419624328613e+00,-3.088151124075772685e-04,-1.144205583231516776e-02,-1.223599261084418188e-02,7.425016543695306219e-03,2.113557282116434663e-02,-3.049734607338905334e-02,-9.168807903074761845e-02,-4.495291768979105262e-02,-6.529945311410455255e-03,2.142518529212463774e-01,1.374931854946939980e-01,1.808164451375113002e-01,2.210462569277302503e-01,2.101415251409264884e-01,2.151031550102683043e-01,5.155498279217903823e-01,6.838321685791015625e-02,1.334201693534851074e+00,8.384608402456672138e+01,3.739456892013549583e-01
1.475730000000000097e-01,-6.593403304958787674e-03,-3.615821883032396128e-02,9.999873042106628418e-01,-1.752266640607187025e-03,-1.400490340986104698e-02,-1.191026148969087650e-02,-2.821121818833461758e-03,2.726070402237817242e-02,-3.308314085006713867e-02,-7.525563439224103313e-02,-1.314468215379819005e-01,2.639767602344714192e-02,2.131723795263364973e-01,1.006133695301676956e-01,1.119544664148466317e-01,2.060105453319958924e-01,1.989750124783825624e-01,1.453539221313674967e-01,5.201096948942257603e-01,2.998175621032714844e-01,1.246405482292175293e+00,1.065977993197160316e+02,3.739456892013549583e-01
1.753010000000000124e-01,-6.392813636994855095e-03,-3.538042072381007014e-02,9.989663958549499512e-01,-4.747673359244841337e-03,-1.845870019596862477e-02,-1.170298733260821678e-02,-5.392273124223723700e-03,2.171661243136414551e-02,-4.905508086085319519e-02,-9.563244950661288490e-02,-1.864837680881505644e-01,-5.728991806397646519e-02,2.315150262552576055e-01,9.728351889387529261e-02,6.306706504913382749e-02,2.096782035144924561e-01,1.972835188938752982e-01,9.600391446669080675e-02,5.205780185928838844e-01,2.554538249969482422e-01,1.596776843070983887e+00,-2.926600138585980559e+01,3.739456892013549583e-01
1.991010000000000002e-01,-6.293608617478315889e-03,-3.486199313962941304e-02,9.980970621109008789e-01,-4.661868089548422064e-03,-2.192490323732076973e-02,-1.263132313418124930e-02,6.780791449599972908e-04,2.886053424467787884e-02,-5.612177401781082153e-02,3.695683479126259108e-02,-1.395107383960105252e-01,-4.742000855919529384e-02,-2.379620942826397856e-02,1.077608983438096690e-01,-7.231591838247712623e-02,-5.202181939239720193e-02,2.077608983438096746e-01,-3.679302356856743728e-02,5.293319376240427365e-01,6.969801187515258789e-01,1.535907626152038574e+00,8.929179384981787848e+01,3.739456892013549583e-01
2.213749999999999885e-01,-6.266056500983500227e-03,-3.438512527810089203e-02,9.970321655273437500e-01,-3.377989284876739030e-03,-2.592507300656232694e-02,-1.416637501937323407e-02,-4.190564035425877430e-03,2.272812307723274042e-02,-6.544759869575500488e-02,6.436712450040678324e-02,-2.301352376627268381e-01,-6.168780259592780701e-02,-1.978388990232007871e-02,-5.875222325960105518e-03,-1.105423829170260469e-01,-3.409292945972767358e-02,9.412477767403990003e-02,-7.070474049375018166e-02,5.303439684829797107e-01,7.078918218612670898e-01,7.947889566421508789e-01,1.211535130070926556e+02,3.739456892013549583e-01
2.486599999999999921e-01,-6.352716421317346901e-03,-3.365296215516646455e-02,9.952337741851806641e-01,1.123042396251975553e-03,-3.086024041616020064e-02,-1.585506013331028363e-02,-1.184167416919256963e-02,2.679571914841808247e-02,-7.846713066101074219e-02,1.898416469687283781e-01,-1.128229736569667380e-01,-2.994197712807594378e-02,-2.258909637312557506e-01,1.192790895510367766e-01,-2.636513679446141345e-01,-2.156075191681118552e-01,2.192790895510367821e-01,-2.192887001134140590e-01,5.308549986694434120e-01,6.731922626495361328e-01,1.812994122505187988e+00,-6.840428477352246794e+00,3.739456892013549583e-01
2.718439999999999745e-01,-6.665524314344392458e-03,-3.300008544697537877e-02,9.938036799430847168e-01,5.262791210825680001e-03,-3.402594087209021012e-02,-1.653948356334677960e-02,-2.181283421000870804e-02,2.427425210905520547e-02,-7.323168963193893433e-02,2.065390356857183807e-01,-1.691931163100114377e-01,-2.591432942454512459e-02,-2.563151439982315205e-01,-1.123499032026011729e-01,-2.581962827177957664e-01,-2.169270102997898075e-01,-1.234990320260116563e-02,-2.121189919237059796e-01,5.304808664750780833e-01,6.636934280395507812e-01,4.074816703796386719e-01,1.128532963729639107e+02,3.739456892013549583e-01
3.000419999999999754e-01,-7.484588428291093914e-03,-3.172744731908477139e-02,9.914669990539550781e-01,9.419680417085168206e-03,-3.670490098087042519e-02,-1.643289860709518102e-02,-2.305257298496603269e-02,3.639890362728904344e-02,-9.224791824817657471e-02,8.157532352019476740e-02,-3.642220875243722122e-02,8.622079103189973434e-03,-2.720416123328378566e-01,-9.464153059584339001e-02,-2.445069271898978047e-01,-2.164494672222453675e-01,5.358469404156621617e-03,-1.990694776320331427e-01,5.310126946332359710e-01,6.034622192382812500e-01,1.433462977409362793e+00,8.355224928647277238e+01,3.739456892013549583e-01
3.258900000000000130e-01,-8.178664169661365238e-03,-3.075058187654324329e-02,9.897343516349792480e-01,1.045575495677536319e-02,-3.797241633576353692e-02,-1.512507989769940053e-02,-2.649648537438957160e-02,3.809403668705722834e-02,-9.539929777383804321e-02,5.711226042662650298e-02,-5.971945808011550061e-02,1.125915326571879510e-01,-2.411311060364350611e-01,-2.945680527835628504e-01,1.388772136233674681e-01,-1.789670776035567623e-01,-1.945680527835628448e-01,1.805660632722476122e-01,5.299308942754614726e-01,5.195856094360351562e-01,1.119901537895202637e+00,6.947269540689441669e+01,3.739456892013549583e-01
3.558430000000000204e-01,-9.000414329089849105e-03,-2.965241708938839982e-02,9.879505634307861328e-01,9.508606316307715439e-03,-3.846995660576002507e-02,-1.339802775154974590e-02,-4.293605296353997930e-02,4.211323611067205319e-02,-1.057111173868179321e-01,-1.045642693095046039e-01,5.081964217818699288e-03,7.549536660624557582e-02,1.452911378411100296e-01,-2.621760694070015552e-01,1.691047553349373789e-01,1.978728972924276297e-01,-1.621760694070015218e-01,2.059438732946048678e-01,5.209470534732008051e-01,-2.284830808639526367e-02,1.303644537925720215e+00,9.909358659183891405e+01,3.739456892013549583e-01
3.741639999999999966e-01,-9.441322923454903079e-03,-2.908483679808226627e-02,9.869995117187500000e-01,8.543855130419887936e-03,-3.852208088216713122e-02,-1.225037547554852502e-02,-4.639092676912331958e-02,5.203791830971595672e-02,-1.057775542140007019e-01,-1.326298494350406088e-01,1.538213911519359899e-02,7.838203718970986056e-02,1.641564464652069399e-01,-2.712284063853171445e-01,1.764961264200366198e-01,2.028726706558179604e-01,-1.712284063853171390e-01,2.101066740945519429e-01,5.183597329615416971e-01,-1.723682880401611328e-01,1.453082680702209473e+00,-2.996250651137727061e+01,3.739456892013549583e-01
4.039860000000000118e-01,-1.023199605957575767e-02,-2.789760336416764394e-02,9.851133227348327637e-01,4.857362582028605484e-03,-3.818491988011785132e-02,-9.927807997565096798e-03,-4.738823892140224536e-02,5.205536333794408971e-02,-1.121868565678596497e-01,-2.310893117143052733e-01,5.076255300141448157e-02,1.348817550039020929e-01,1.858845897738733710e-01,-2.348695198556630392e-01,1.788753778381782233e-01,2.013485180489035520e-01,-1.348695198556630337e-01,2.062201136345897801e-01,5.199295264791071736e-01,-1.269212365150451660e-01,1.174497485160827637e+00,9.949118556380369682e+01,3.739456892013549583e-01
4.231920000000000126e-01,-1.051942426244599320e-02,-2.728347130129899281e-02,9.841661453247070312e-01,2.911181534933470448e-03,-3.780622236550468251e-02,-8.863991280109617676e-03,-4.891903887390798567e-02,5.115246108465761748e-02,-1.006395444273948669e-01,-2.076634418155338113e-01,2.123669225978298478e-02,7.357253002851002477e-02,2.037260706231351082e-01,-2.856807305215755544e-01,1.831004013801308394e-01,2.068017427761440208e-01,-1.856807305215755488e-01,2.075900133676917281e-01,5.156125590501308142e-01,-3.230128884315490723e-01,1.520691990852355957e+00,9.682183835313598763e+01,3.739456892013549583e-01
4.473559999999999759e-01,-1.116282640615103190e-02,-2.605348054586032261e-02,9.822599291801452637e-01,-2.289063854753246082e-03,-3.603474707991161097e-02,-7.765736252830723885e-03,-4.757601063214126486e-02,5.173485554139477943e-02,-1.122910156846046448e-01,-2.381931549316595731e-01,8.744474141018258873e-02,1.678809500667890683e-02,2.365773436495073878e-01,-2.534270406275891396e-01,1.970183363446366964e-01,2.045320379281490020e-01,-1.534270406275891618e-01,2.187406183082863664e-01,5.201652126756404204e-01,-1.382336616516113281e-01,1.530311703681945801e+00,8.377565111384554086e+01,3.739456892013549583e-01
4.761219999999999897e-01,-1.213623570245461400e-02,-2.416672968204052266e-02,9.792035222053527832e-01,-9.678708703163434873e-03,-3.112020642701573969e-02,-8.867555491710144011e-03,-4.581637365545916663e-02,6.061763478762730722e-02,-1.052532047033309937e-01,-1.747290587700026931e-01,1.890685004699322047e-01,-5.624652901426385743e-02,2.842329594599936060e-01,1.067326796815627199e-01,2.072846975277340131e-01,1.960586165584305152e-01,2.067326796815627254e-01,2.324123323798933660e-01,5.345619278338903380e-01,6.563284397125244141e-01,1.829247117042541504e+00,-5.561084953824198429e+00,3.739456892013549583e-01
4.999219999999999775e-01,-1.280981509420946012e-02,-2.294154475822688874e-02,9.771938323974609375e-01,-1.247390106670548740e-02,-2.701414406765789700e-02,-1.075064460147623357e-02,-5.329697852167734201e-02,5.005364121290978990e-02,-1.195154860615730286e-01,-8.435725501727386888e-02,1.881802634957148168e-01,-8.454440108275734778e-02,2.601938636907972779e-01,1.104955236664322826e-01,2.022275816373323432e-01,1.626911027032230672e-01,2.104955236664322882e-01,2.327992591639904685e-01,5.375075107313848077e-01,7.476081848144531250e-01,1.194019913673400879e+00,6.648828523019236059e+01,3.739456892013549583e-01
5.233550000000000146e-01,-1.346869829943473165e-02,-2.151581613535520285e-02,9.750914573669433594e-01,-1.245126232452790395e-02,-2.217857680359047734e-02,-1.261641727025719639e-02,-5.397990534437011739e-02,5.914350427887532513e-02,-1.163089498877525330e-01,7.227807919462350683e-02,2.713479866812588681e-01,-1.250213499861163313e-01,3.130038934920276184e-01,9.972655259646626136e-02,1.985914219827209781e-01,2.130038934920275850e-01,1.997265525964662669e-01,2.342598163772481590e-01,5.372673532574305799e-01,7.315267324447631836e-01,8.697329759597778320e-01,1.030661612169017332e+02,3.739456892013549583e-01
5.465969999999999995e-01,-1.411982405668273793e-02,-1.994331582514087542e-02,9.730083942413330078e-01,-1.080914407548409784e-02,-1.747968245551989597e-02,-1.439221714134641950e-02,-5.143270795375255722e-02,5.324312542605017656e-02,-1.253556609153747559e-01,1.173897386440657664e-01,2.303889619360808827e-01,-4.598309946498318340e-02,3.052064387194064476e-01,1.086844088715501755e-01,1.849622003778296220e-01,2.139736282523324318e-01,2.086844088715501810e-01,2.255146876683037926e-01,5.364758382048661067e-01,6.362493038177490234e-01,1.305121541023254395e+00,7.486390715275804553e+01,3.739456892013549583e-01
5.763080000000000425e-01,-1.510707838570842822e-02,-1.753780388688828615e-02,9.697175621986389160e-01,-5.108769124061798145e-03,-9.278140054183481311e-03,-1.779927563851790850e-02,-5.224594972971013940e-02,5.725933562744538879e-02,-1.303863674402236938e-01,2.468894156749355251e-01,3.141182263073521441e-01,-1.159887764654261855e-01,2.504274064259031096e-01,1.176019804998599261e-01,-8.146206891985481591e-03,1.910100556570789587e-01,2.176019804998599316e-01,4.171458462112653115e-02,5.365127243268217327e-01,5.972936153411865234e-01,1.194774031639099121e+00,9.306174408296310219e+01,3.739456892013549583e-01
5.994969999999999466e-01,-1.578363273510876436e-02,-1.594461234988409082e-02,9.673630595207214355e-01,-3.571321137461939640e-04,-4.074946214903674147e-03,-2.033957408111342069e-02,-4.088246760859916284e-02,5.922244039977120345e-02,-1.331883817911148071e-01,1.916462383790579482e-01,2.591247517415671275e-01,-1.129737507165292920e-01,1.506961880688591215e-01,1.586373416433108363e-01,-1.779249935055506882e-01,1.202116714488031257e-01,2.220528717939993235e-01,-1.210294085830177918e-01,5.372372272071433974e-01,6.088268756866455078e-01,1.500734686851501465e+00,7.763787237094284421e+01,3.739456892013549583e-01
6.223589999999999955e-01,-1.650608238046566076e-02,-1.434673740732710784e-02,9.649519324302673340e-01,5.631464478291140288e-03,1.524920632971493717e-04,-2.269575664000855753e-02,-5.579173587503205578e-02,5.816705215324081274e-02,-1.294606775045394897e-01,3.650673275533968809e-01,1.102455516934180840e-01,-1.031133379219733165e-01,-2.308507459989170840e-01,1.806358642831709660e-01,-2.889926791242801163e-01,-2.219934856985150973e-01,2.306268557423150900e-01,-2.255527305392714399e-01,5.367303003349619406e-01,5.774996280670166016e-01,9.799629449844360352e-01,-1.447925928188316789e+02,3.658494234085082897e-01
6.517450000000000188e-01,-1.809241437329668981e-02,-1.271148012099791724e-02,9.613721966743469238e-01,1.525841331664237223e-02,2.833789895693605843e-03,-2.677509673417644009e-02,-6.042800456274838999e-02,5.143388636456792257e-02,-1.285031437873840332e-01,3.123887120899520031e-01,7.893113975011951944e-02,-1.758108974864993901e-01,-2.977355719221338459e-01,1.944037953880808078e-01,-3.021521103046465040e-01,-2.220239849042534019e-01,2.300166658852522972e-01,-2.273285318678269773e-01,5.365399332533600241e-01,5.482461452484130859e-01,1.070854306221008301e+00,7.375990952626304420e+01,3.658494234085082897e-01
6.752989999999999826e-01,-1.929687254756995776e-02,-1.185665336006561099e-02,9.590270519256591797e-01,2.200572480895134769e-02,2.239985961161927719e-03,-2.943067891728690100e-02,-5.276696293773650015e-02,5.678468387688968833e-02,-1.315984576940536499e-01,2.952671519510137177e-01,-4.922096153065078777e-02,-1.112900232847817139e-01,-3.215787943813359084e-01,1.946349399925172696e-01,-3.103624771424149387e-01,-2.215787943813359029e-01,2.289479010030355532e-01,-2.281534089276236188e-01,5.337351123455493784e-01,3.634496927261352539e-01,1.028074860572814941e+00,1.184789202111423805e+02,3.658494234085082897e-01
6.980269999999999531e-01,-2.115274322299119311e-02,-1.071982129018424559e-02,9.556111097335815430e-01,3.287121456385345281e-02,1.286229415062845050e-04,-3.323934554446261735e-02,-6.368883144304463007e-02,4.808822484412700327e-02,-1.147824078798294067e-01,4.037658209478875992e-01,-1.189350428016178879e-01,-6.532037410630311958e-02,-3.201355782149654661e-01,1.675507534036171919e-01,-3.219428389042326977e-01,-2.201355782149654605e-01,2.271729581568930345e-01,-2.293423205669710974e-01,5.304421476812122282e-01,2.273935079574584961e-01,9.400402307510375977e-01,8.533505160325115924e+01,3.658494234085082897e-01
7.219320000000000181e-01,-2.244111001854707035e-02,-1.001000970068852310e-02,9.534707665443420410e-01,3.978413121751951664e-02,-1.684159804326901266e-03,-3.530068382468454224e-02,-6.423547134285152727e-02,3.187222156092752584e-02,-1.088085696101188660e-01,3.181867231784679118e-01,-1.325588659276172865e-01,-1.036874842411772413e-01,-3.193388930118364888e-01,1.545960362410300770e-01,-3.290672102674199739e-01,-2.193388930118364555e-01,2.261546938528061212e-01,-2.308716965955307510e-01,5.299561897640585606e-01,2.082409858703613281e-01,7.978733777999877930e-01,9.358626163008506182e+01,3.658494234085082897e-01
7.496869999999999923e-01,-2.455137582804579888e-02,-9.872304658264663413e-03,9.503280520439147949e-01,4.866163956267152702e-02,-4.599961090907989103e-03,-3.556834051998158941e-02,-5.875406868803163818e-02,3.980037829791618909e-02,-1.106192693114280701e-01,1.938961777975411194e-01,-9.492925572297229719e-02,3.829340676384829223e-02,-3.180599061486841239e-01,1.354372775700285192e-01,-3.247137504898358618e-01,-2.180599061486841184e-01,2.238043952413587001e-01,-2.261128360274245463e-01,5.258670298640177876e-01,-4.254072904586791992e-02,1.098517775535583496e+00,1.010404910336160214e+02,3.658494234085082897e-01
7.735610000000000541e-01,-2.604013116667694069e-02,-1.003903623483900012e-02,9.483042955398559570e-01,5.197880494486148417e-02,-6.330506910900979278e-03,-3.423051528685805422e-02,-7.507935585678385260e-02,3.775564226888190877e-02,-1.087127402424812317e-01,1.353779169039558417e-01,-8.624277426717120998e-02,9.543827040089571112e-02,-3.175273700498927321e-01,1.222483871428604874e-01,-3.163585423820599596e-01,-2.175273700498927265e-01,2.222483871428604929e-01,-2.218646478150943513e-01,5.291207645121577263e-01,1.260944604873657227e-01,1.125374674797058105e+00,9.986682547758688600e+01,3.658494234085082897e-01
8.007980000000000098e-01,-2.833558224746287116e-02,-1.024642633440119369e-02,9.454081058502197266e-01,5.114879192676050068e-02,-8.891461322563243286e-03,-3.164643699840530289e-02,-6.576474320401261286e-02,3.831233215628378208e-02,-1.087259650230407715e-01,-1.068038301652240313e-01,-5.089689965915342174e-02,9.153430405333724817e-02,-3.139281253133313632e-01,1.190729983689682026e-01,-1.405619034197919393e-01,-2.139281253133313299e-01,2.190729983689682081e-01,-5.338455750449781073e-02,5.230911484331922656e-01,-2.215919494628906250e-01,5.141161680221557617e-01,1.807239094383293150e+02,3.658494234085082897e-01
8.249840000000000506e-01,-2.991042641294607354e-02,-1.039997500232442418e-02,9.435619115829467773e-01,4.761995580702722830e-02,-1.132388961018460094e-02,-2.966551749716805908e-02,-6.725747446031464516e-02,2.935697312232631376e-02,-9.481583535671234131e-02,-2.349120470417229989e-01,-1.550988291290899823e-01,9.802303659080187359e-02,-3.147604928240712585e-01,1.199894115141699746e-01,-1.388300564428180672e-01,-2.147604928240712530e-01,2.199894115141699802e-01,-5.728347195461128138e-02,5.213350745749745219e-01,-2.766089439392089844e-01,1.313328623771667480e+00,-5.527952133047289607e+01,3.658494234085082897e-01
8.471739999999999826e-01,-3.149605358970880564e-02,-1.063738658433336336e-02,9.417898654937744141e-01,4.257095731513757531e-02,-1.375189527811015999e-02,-2.717751117084077350e-02,-8.505387575015616042e-02,2.331329699159967808e-02,-1.022652909159660339e-01,-2.937737394304235083e-01,-1.284836489992321473e-01,1.456169947794997421e-01,-3.137271848136671260e-01,1.152690101504632303e-01,-7.599012883998826351e-02,-2.137271848136671482e-01,2.152690101504632358e-01,-1.523170294048114756e-03,5.236407950310338899e-01,-1.966651082038879395e-01,1.036308646202087402e+00,7.174112417366070815e+01,3.658494234085082897e-01
8.767690000000000206e-01,-3.467655996639501526e-02,-1.130022850765183273e-02,9.385640025138854980e-01,3.059339451786399766e-02,-1.985122600953737049e-02,-2.203264977662744428e-02,-7.229042017711009849e-02,1.763403995032510746e-02,-9.012264013290405273e-02,-3.238036263169041806e-01,-1.485519828951625265e-01,1.185665319570022164e-01,-2.930076954769204045e-01,1.065916352390396948e-01,7.490734550769181932e-02,-1.930076954769203990e-01,2.065916352390397004e-01,1.352393170830610003e-01,5.258501094111119878e-01,-4.864621162414550781e-02,1.132363915443420410e+00,9.700904017790770695e+01,3.658494234085082897e-01
8.993339999999999668e-01,-3.634157776579895888e-02,-1.169795290379950156e-02,9.369997978210449219e-01,2.403892971179937693e-02,-2.250351464134059398e-02,-1.921646525408315931e-02,-9.487773913258092107e-02,-6.512048114573096118e-04,-9.245786070823669434e-02,-3.362376282883924872e-01,-1.513020036172694205e-01,1.488605957221297293e-01,-2.276433232515732430e-01,-1.063035642843362938e-01,1.336171803790182633e-01,-1.276433232515732374e-01,-6.303564284336281298e-03,1.862550301281315490e-01,5.220556065580822525e-01,-2.784746885299682617e-01,7.250503301620483398e-01,1.076199507893867775e+02,3.658494234085082897e-01
9.208640000000000159e-01,-3.810094323535673233e-02,-1.213914013645697038e-02,9.355447292327880859e-01,1.770971598324538876e-02,-2.490543605023698426e-02,-1.636624273387199402e-02,-8.055087255947890323e-02,1.675421255195910439e-02,-8.601828664541244507e-02,-3.135188258564601815e-01,-6.385430304667677470e-02,9.839429508856997741e-02,9.912860658909658507e-02,-2.010352061516115785e-01,1.742035249466145908e-01,1.991286065890965906e-01,-1.010352061516115590e-01,2.190499234795690586e-01,5.227067775203064759e-01,-2.305784821510314941e-01,1.183939337730407715e+00,-4.162418879269674576e+00,3.658494234085082897e-01
9.484029999999999960e-01,-4.074952339554247654e-02,-1.227844856819170112e-02,9.333748221397399902e-01,7.449213505779626182e-03,-2.843965760707112267e-02,-1.345870852811481555e-02,-1.046744141832162134e-01,5.812934703667053081e-04,-7.604997605085372925e-02,-3.529233630020577883e-01,-1.304276925787206109e-01,1.269900146963663830e-02,1.457418447114555426e-01,-2.802982435298463360e-01,1.714207826786675326e-01,2.024072741567948253e-01,-1.802982435298463304e-01,2.087180734673375337e-01,5.166246355169492599e-01,-5.357601046562194824e-01,1.503616929054260254e+00,-6.996310981949049790e+01,3.658494234085082897e-01
9.765040000000000386e-01,-4.335566652286657746e-02,-1.141671248443843455e-02,9.311105012893676758e-01,-2.613571778930777814e-03,-3.150609920095326366e-02,-1.127453821692059321e-02,-8.321018871824951979e-02,3.743361963012880982e-03,-8.981273323297500610e-02,-3.390777801381342216e-01,-1.260939339147542915e-01,3.816967926185507037e-02,2.237029328782300930e-01,-2.783586593010433097e-01,1.546475396043420769e-01,2.094709715933829319e-01,-1.783586593010433041e-01,1.864008623865989200e-01,5.203251546175160502e-01,-4.070787429809570312e-01,1.109905838966369629e+00,1.023200518425370404e+02,3.658494234085082897e-01
1.000701999999999980e+00,-4.518685959147299147e-02,-1.076827335195445698e-02,9.295170903205871582e-01,-9.216390029901043099e-03,-3.329213156142940555e-02,-1.040810714316831032e-02,-1.115799159775237998e-01,7.771201232434439034e-03,-8.801539987325668335e-02,-3.073862913740852409e-01,-1.130697841870778320e-01,2.652804738664001766e-02,2.731904599152374935e-01,-2.818579278948528666e-01,1.620779812213438142e-01,2.132094303422131798e-01,-1.818579278948528610e-01,1.918609160811731718e-01,5.242557547231148085e-01,-2.025429010391235352e-01,9.182540178298950195e-01,1.032711556844613199e+02,3.658494234085082897e-01
1.028232999999999953e+00,-4.709743735517014918e-02,-1.009540529727041488e-02,9.279623031616210938e-01,-1.598595266480867458e-02,-3.527032848809041887e-02,-1.069225279786034655e-02,-9.368574272558100047e-02,1.770444467724393081e-02,-9.475890547037124634e-02,-3.493067778774757715e-01,-9.306172002262565190e-02,-7.617042794627333635e-02,3.161461262983479292e-01,-2.291986382139699352e-01,1.796170396356349119e-01,2.161461262983478959e-01,-1.291986382139699296e-01,2.105778745214201830e-01,5.340392554002623138e-01,2.920504808425903320e-01,1.276731371879577637e+00,9.637842930240793748e+01,3.658494234085082897e-01
1.052492999999999901e+00,-4.908333257254937632e-02,-9.330231010544894413e-03,9.262323975563049316e-01,-2.247943523731453161e-02,-3.658245741570231857e-02,-1.146978537752318950e-02,-1.026489292467662323e-01,2.132032589428391883e-02,-1.010416895151138306e-01,-2.547839133422740154e-01,-5.437579187968247935e-02,-3.980599254635883849e-02,3.171542614390072679e-01,-2.180699827953001546e-01,1.787072128715595787e-01,2.171542614390072345e-01,-1.180699827953001352e-01,2.123629022273505196e-01,5.365710594349881735e-01,3.908812999725341797e-01,1.305736660957336426e+00,1.020511199741569612e+02,3.658494234085082897e-01
1.080438000000000009e+00,-5.096736039534309481e-02,-9.054225616337707380e-03,9.245293140411376953e-01,-2.752234705852464602e-02,-3.639958241750296253e-02,-1.335027774586539095e-02,-1.177799828531631843e-01,1.877957026212216662e-02,-1.025655642151832581e-01,-2.375366477866788228e-01,4.248093663657840496e-02,-1.161532066148465020e-01,3.161835863761656151e-01,-2.395699237976959273e-01,1.861713716089272441e-01,2.161835863761656096e-01,-1.395699237976959217e-01,2.255488249015940860e-01,5.381461331135717341e-01,4.558346271514892578e-01,1.625562310218811035e+00,1.104521843513809500e+02,3.658494234085082897e-01
1.112611000000000017e+00,-5.388143560936452248e-02,-8.573974497004456519e-03,9.218367934226989746e-01,-3.083191006424421815e-02,-3.328837830223285721e-02,-1.650435363019431279e-02,-9.895741881571945564e-02,3.314231380954371642e-02,-1.197782978415489197e-01,-8.260768614075289507e-02,1.861941625272964251e-01,-1.029212545415642832e-01,2.948472757132061250e-01,7.969783596315274665e-02,1.888317052884984915e-01,1.948472757132061473e-01,1.796978359631527522e-01,2.369448166532650280e-01,5.430371417396782086e-01,6.399062871932983398e-01,1.257839322090148926e+00,9.280794108359459926e+01,3.658494234085082897e-01
1.135456000000000021e+00,-5.687344715770439874e-02,-7.928319510121989433e-03,9.190186262130737305e-01,-2.918837175306379650e-02,-2.699937626600990015e-02,-1.983271456171098457e-02,-1.183469248151159947e-01,2.744496980880885631e-02,-1.154908388853073120e-01,1.324583643611613182e-01,2.310246182486932753e-01,-9.124300435285173649e-02,3.196376260820150694e-01,-6.532901918636355165e-03,1.794359705715473097e-01,2.196376260820150916e-01,9.346709808136365039e-02,2.366950109207209829e-01,5.432663528891384930e-01,6.477500200271606445e-01,1.339452624320983887e+00,6.670369573623622728e+01,3.658494234085082897e-01
1.155871000000000093e+00,-5.985122028115789916e-02,-7.234528450520275218e-03,9.159879088401794434e-01,-2.357994151739108493e-02,-1.854584868895559069e-02,-2.374061422865114679e-02,-1.027347484636052383e-01,3.350640236899029428e-02,-1.189567074179649353e-01,2.524402108840215764e-01,3.032077596645843531e-01,-1.617094113709723335e-01,3.169416101382488415e-01,9.626430308375832912e-02,1.676509744305102745e-01,2.169416101382488360e-01,1.962643030837583347e-01,2.351387301272104546e-01,5.448661142304782601e-01,7.019302845001220703e-01,1.089317917823791504e+00,9.428235352915774570e+01,3.658494234085082897e-01
1.174425999999999970e+00,-6.176262928139562153e-02,-6.790299137833117823e-03,9.140419363975524902e-01,-1.859911010285231550e-02,-1.300530319853487882e-02,-2.627689133060773230e-02,-1.209531544947227977e-01,3.960891216015152705e-02,-1.248843595385551453e-01,2.787391474913471501e-01,2.509150558919505114e-01,-9.781328734811654824e-02,3.020601344918216191e-01,1.127342829672350888e-01,9.711423587380543787e-02,2.020601344918216136e-01,2.127342829672350943e-01,1.713675393315543249e-01,5.450324449900283419e-01,6.686379909515380859e-01,1.389775872230529785e+00,6.598054945786113024e+01,3.658494234085082897e-01
1.200163000000000091e+00,-6.472981256978727060e-02,-5.979418126846827546e-03,9.110440015792846680e-01,-9.618378786555990823e-03,-4.470227235440882296e-03,-3.037875694683989103e-02,-1.088900518283248270e-01,4.981392815328745949e-02,-1.221859529614448547e-01,3.467223873752203755e-01,2.928899788232430246e-01,-1.467411150145216669e-01,2.777163554922493782e-01,1.186059258363077740e-01,-2.716274913733971452e-01,1.869626916132415273e-01,2.186059258363077795e-01,-1.864167858712863224e-01,5.452358059748645402e-01,6.686952114105224609e-01,8.542903661727905273e-01,9.749185771259943678e+00,3.658494234085082897e-01
1.221494000000000080e+00,-6.670445191025092813e-02,-5.395936651807074942e-03,9.091011881828308105e-01,-3.380680346216548109e-03,7.257859656901732848e-04,-3.325214172301649285e-02,-1.118008651254795566e-01,4.447991914693513044e-02,-1.206356287002563477e-01,2.977796511522964873e-01,2.485850401792926434e-01,-1.243082245464345037e-01,-6.474350497075322119e-03,1.280384957846296412e-01,-3.042720648243031345e-01,-5.106805558445048215e-02,2.280384957846296468e-01,-2.111864203246780203e-01,5.456964356026690055e-01,6.821277141571044922e-01,5.648776292800903320e-01,6.717168663778716109e+01,3.658494234085082897e-01
1.244869000000000003e+00,-6.964150413643672988e-02,-4.393847795326775996e-03,9.062821269035339355e-01,6.180088087948181104e-03,7.524532406165906906e-03,-3.785046511745338016e-02,-1.158147415377010492e-01,4.824834660862405838e-02,-1.284404844045639038e-01,2.932909750236390445e-01,1.884888354397319388e-01,-1.393442348495784189e-01,-2.288901066867186918e-01,1.548527866329314218e-01,-3.185024366281721253e-01,-2.146430881729655127e-01,2.340083096034805965e-01,-2.185024366281721198e-01,5.473362971332524918e-01,7.207030057907104492e-01,1.319275736808776855e+00,-2.634746155351335872e+01,3.892068147659301647e-01
1.269271000000000038e+00,-7.313174817162684804e-02,-3.598715088117352984e-03,9.036427140235900879e-01,1.608415576463841090e-02,1.073431804067981332e-02,-4.202469242795059401e-02,-1.100326308473050241e-01,4.612520671948940054e-02,-1.113043352961540222e-01,3.439674431518828235e-01,5.146606375787469295e-02,-1.016607764646108858e-01,-3.004968244606638916e-01,1.758283127521625688e-01,-3.251870957078646374e-01,-2.198531703178446539e-01,2.328368096801240461e-01,-2.251870957078646596e-01,5.449303865585592987e-01,6.328630447387695312e-01,8.674319982528686523e-01,9.351347913428941183e+01,3.892068147659301647e-01
1.298062999999999967e+00,-7.779419595149321409e-02,-2.652058763206736631e-03,9.005474448204040527e-01,2.935619053719925112e-02,1.033151104192686631e-02,-4.742363490731005271e-02,-1.218656462028955556e-01,4.664833842071250403e-02,-1.044397428631782532e-01,3.102682486030577946e-01,-6.408569152074558573e-02,-4.895495154355582190e-02,-3.184401657250891526e-01,1.568530893960464745e-01,-3.230240709573100055e-01,-2.184401657250891471e-01,2.308312032424112703e-01,-2.230240709573100000e-01,5.408043607697672339e-01,4.065796136856079102e-01,1.172430396080017090e+00,1.000412138674756477e+02,3.892068147659301647e-01
1.322985999999999995e+00,-8.140080913100790350e-02,-1.958263818349216100e-03,8.986557722091674805e-01,3.861435470871914244e-02,7.629481878231869629e-03,-4.754942483864099678e-02,-1.172843154142613892e-01,3.687788700334207470e-02,-8.796025067567825317e-02,2.801653869642653505e-01,-6.336971106950747834e-02,5.076451518193862006e-02,-3.171451679858969808e-01,1.385862574240986911e-01,-3.197042191125751831e-01,-2.171451679858969475e-01,2.285336497356399155e-01,-2.197042191125751776e-01,5.366599986283026036e-01,2.251185178756713867e-01,1.251935839653015137e+00,8.071158044085363770e+01,3.892068147659301647e-01
1.347734999999999905e+00,-8.604612652036966458e-02,-1.027558485243161004e-03,8.971801400184631348e-01,4.429758274300654025e-02,4.172055887605052860e-03,-4.557882667112989061e-02,-1.198134815065654418e-01,3.437073639446254492e-02,-7.508847862482070923e-02,1.338486228914889109e-01,-1.181295455192680616e-01,1.046788034685604274e-01,-3.159457123192057071e-01,1.253345411673441323e-01,-3.152429988308157460e-01,-2.159457123192057015e-01,2.253345411673441379e-01,-2.152429988308157127e-01,5.366597606654019970e-01,2.608444690704345703e-01,8.687115907669067383e-01,9.164042952800764397e+01,3.892068147659301647e-01
1.372973999999999917e+00,-9.058610475825183694e-02,-3.912681703885539285e-05,8.959835171699523926e-01,4.338564314507327435e-02,9.789009291651940003e-04,-4.284623488117444978e-02,-1.130407514911204447e-01,4.815603339251233600e-02,-7.036840915679931641e-02,-1.345369025581920897e-01,-4.716553082124737978e-02,1.122670788292618460e-01,-2.505126087537874469e-01,9.652496545366043290e-02,-2.480859441481345073e-01,-1.505126087537874413e-01,1.965249654536604385e-01,-1.480859441481345018e-01,5.241990034235756157e-01,-4.166682362556457520e-01,1.230136513710021973e+00,1.208171808319828955e+02,3.892068147659301647e-01
1.399847000000000063e+00,-9.512103392733094187e-02,9.497960685664728507e-04,8.951833844184875488e-01,3.724120716085480010e-02,-3.393970977946914047e-03,-3.935486936457754936e-02,-1.276920831475830409e-01,3.485216388221313438e-02,-5.555682629346847534e-02,-2.622052128897484624e-01,-1.460541259541496273e-01,1.321880918039702590e-01,-3.953343792147314545e-02,4.728360910557535823e-02,-2.240738051331260805e-01,6.046656207852686010e-02,1.472836091055753638e-01,-1.240738051331260611e-01,5.215666746131453202e-01,-5.128461718559265137e-01,1.529928088188171387e+00,-3.520909583175505730e+00,3.892068147659301647e-01
1.421108000000000038e+00,-9.825296904692631950e-02,1.572596937486558542e-03,8.947854042053222656e-01,3.129422943464064272e-02,-6.764924350568968237e-03,-3.688340305263770880e-02,-1.156790600548006642e-01,3.534837507357146968e-02,-4.119636863470077515e-02,-3.040919218556889514e-01,-1.689092937363776137e-01,1.062176518705255923e-01,8.310942833328363588e-02,5.434392718839756165e-02,-1.617539856816987975e-01,1.831094283332836414e-01,1.543439271883975672e-01,-6.175398568169879893e-02,5.194414609353766865e-01,-5.792158246040344238e-01,1.500729441642761230e+00,8.482632545349026998e+01,3.892068147659301647e-01
1.444908000000000081e+00,-1.031901110754533113e-01,2.469731195030192266e-03,8.945660591125488281e-01,2.101247047549641839e-02,-1.236369934640579871e-02,-3.301903685494456120e-02,-1.233781243996030785e-01,3.881473042228008458e-02,-3.079174831509590149e-02,-3.342400750105969931e-01,-2.252896363110680200e-01,1.160842353541243765e-01,9.938247590743126691e-02,-1.790960791037540800e-01,-7.819019410579200469e-02,1.993824759074312725e-01,-7.909607910375407447e-02,1.293043072189978271e-02,5.188022388257901296e-01,-5.810483694076538086e-01,8.370782136917114258e-01,1.012142937347834604e+01,3.892068147659301647e-01
1.469255999999999895e+00,-1.081178484033784443e-01,3.318809242005822755e-03,8.945003747940063477e-01,1.037327506186256493e-02,-1.771776661973856193e-02,-2.924825488918392224e-02,-1.305419299630150576e-01,2.769867253949415131e-02,-2.899081073701381683e-02,-3.409986741068198879e-01,-1.413550840358237248e-01,8.671703560038916681e-02,1.522563809783644417e-01,-2.915193661097477129e-01,1.150798776106319588e-01,2.013843299854144175e-01,-1.915193661097477074e-01,1.961393185770086423e-01,5.181565957258387201e-01,-6.161633729934692383e-01,1.208875298500061035e+00,-6.635799937177436902e+01,3.892068147659301647e-01
1.498161999999999994e+00,-1.147263996804671754e-01,4.269226743757437680e-03,8.947914242744445801e-01,2.826144564927117833e-04,-2.466014747949341057e-02,-2.486945968753251357e-02,-1.458417498354135089e-01,1.831682146274393741e-02,-2.372693456709384918e-02,-1.241840307590906523e-01,-1.292619525084883481e-01,1.133640017312089326e-01,2.142092561043202614e-01,-3.182745287752687391e-01,7.653459378891527831e-02,2.023503255483690144e-01,-2.182745287752687058e-01,1.459606836193474699e-01,5.217903597519648606e-01,-4.058070182800292969e-01,9.317311048507690430e-01,1.560545912129422277e+02,3.892068147659301647e-01
1.523365999999999998e+00,-1.196784892518803073e-01,6.283775924097081099e-03,8.949994444847106934e-01,-2.336214316092100063e-03,-2.844531537503880436e-02,-2.324465648590656741e-02,-1.295081210202254640e-01,1.901558286549178550e-02,-2.311827242374420166e-02,6.354498012446119747e-03,-9.833860503855036683e-02,2.040931767436520751e-03,2.360913227722616359e-01,-3.255388120168053456e-01,-2.156322760729372789e-01,2.035918025649403329e-01,-2.255388120168053123e-01,-1.505992294777685481e-01,5.324253576504742735e-01,1.716595888137817383e-01,1.208472132682800293e+00,1.056616672524524319e+02,3.892068147659301647e-01
1.548392999999999908e+00,-1.244145911551644973e-01,8.151405576594543401e-03,8.949572443962097168e-01,-1.625389585859336825e-03,-2.761807760214951557e-02,-2.364915849237791967e-02,-1.235287342781302561e-01,1.552919887588849295e-02,-2.864866890013217926e-02,7.849304680055008143e-02,5.790930546778144672e-02,-4.935136988074821651e-02,-1.891680896220287456e-01,-1.719120392524763064e-01,-1.397326994337504957e-01,-2.153603973945047989e-01,-7.191203925247630080e-02,-7.360171742469136247e-02,5.318563730182050975e-01,1.116307973861694336e-01,7.830394506454467773e-01,1.275112306714589465e+02,3.892068147659301647e-01
1.573437999999999892e+00,-1.291093645159661352e-01,9.973446522422326280e-03,8.946729302406311035e-01,1.928769143699149251e-03,-2.224208256061555034e-02,-2.425291949965036054e-02,-1.341569053253240384e-01,2.309895658264175811e-02,-5.134656652808189392e-02,1.252320254534081412e-01,2.418635915012692650e-01,3.728366636481184049e-02,-2.073616701670726314e-01,-3.052532320732176396e-01,1.456779879317575688e-01,-2.173444610785527642e-01,-2.052532320732176063e-01,2.131718433878506125e-01,5.278599546851794333e-01,-2.067855596542358398e-01,1.536034226417541504e+00,8.162358657242146265e+00,3.892068147659301647e-01
1.597172999999999954e+00,-1.334859698232407077e-01,1.116959464425862879e-02,8.942447304725646973e-01,7.167133883515192441e-03,-1.429599704689921147e-02,-2.259235735455966676e-02,-1.409355857778052667e-01,1.703189188536599272e-02,-4.540869221091270447e-02,2.015983258790395305e-01,2.589039016945673954e-01,8.499043861822579149e-02,-2.459341509522992852e-01,-2.152913604554169968e-02,-1.669562480296443163e-01,-2.168411582786907432e-01,7.847086395445830587e-02,-1.043347364682026962e-01,5.389560309343287559e-01,4.174480438232421875e-01,7.606631517410278320e-01,1.081049625223493820e+02,3.892068147659301647e-01
1.620579999999999909e+00,-1.362331501932970423e-01,1.182650453874831316e-02,8.938684463500976562e-01,9.236322277496407732e-03,-8.266252395567885713e-03,-2.206568668551689427e-02,-1.330580909542216916e-01,2.675340312365000542e-02,-4.582997784018516541e-02,5.245124800122948072e-02,3.064326591338925043e-01,-4.344062101188610886e-02,-2.292219599150052134e-01,9.209156573356977460e-02,-2.844359285416260541e-02,-1.953895417205917528e-01,1.920915657335697801e-01,3.262031578000011700e-02,5.411845807271310482e-01,5.308057069778442383e-01,1.138260483741760254e+00,7.469136291394518423e+01,3.892068147659301647e-01
1.648290000000000033e+00,-1.403466864322589491e-01,1.293727189045831664e-02,8.931451439857482910e-01,8.587712902914481847e-03,-8.237145010081547980e-06,-2.207605736363693616e-02,-1.358953347328136496e-01,3.352278138815176223e-02,-5.469020456075668335e-02,-9.126797086561894146e-02,2.294958691672949469e-01,2.845621155233556132e-02,-1.705193629740965056e-01,1.245451079172226472e-01,1.440553203176582198e-01,-1.450631919765866251e-01,2.245451079172226527e-01,2.052831326336205797e-01,5.423970696117179635e-01,5.518077611923217773e-01,7.640703916549682617e-01,9.834838563263383548e+01,3.892068147659301647e-01
1.671788999999999970e+00,-1.431005418158466380e-01,1.383795404988304688e-02,8.926442861557006836e-01,5.981710673380914722e-03,4.747240891002091345e-03,-2.131376954716857064e-02,-1.427271280223909311e-01,3.859993943907980007e-02,-5.428503826260566711e-02,-1.484619452669815043e-01,1.945298367977894849e-01,4.892795172442882673e-02,-1.783271305600174841e-04,1.207049285149687790e-01,1.438123240295960670e-01,4.884608776222363648e-03,2.207049285149687845e-01,2.030490346623024245e-01,5.426829150905341237e-01,5.585857629776000977e-01,1.597718358039855957e+00,8.881275853237903561e+01,3.892068147659301647e-01
1.696482000000000046e+00,-1.471543814236437042e-01,1.541223847154849641e-02,8.919816017150878906e-01,6.895337210533504773e-04,7.771631349421603829e-03,-2.099212347582768423e-02,-1.288143543341557229e-01,4.594632630826044756e-02,-4.657911509275436401e-02,-1.737517750864231991e-01,2.554347737571976973e-02,9.416418023658539721e-03,2.565301255122460211e-01,9.063287282872106720e-02,9.924038885413088984e-02,2.210491592392761773e-01,1.906328728287210728e-01,1.577804450988886664e-01,5.314270359553303624e-01,-4.340928792953491211e-02,1.450588822364807129e+00,-3.348985525539280417e+01,3.892068147659301647e-01
1.722560000000000091e+00,-1.497527170444022393e-01,1.651007655828833770e-02,8.916912078857421875e-01,-3.019062783361052982e-03,7.233143768992311706e-03,-2.231656878247356701e-02,-1.448241993564347574e-01,4.117845679025927685e-02,-3.493303433060646057e-02,-1.896944492457633691e-01,-7.608373203761288617e-02,-9.063305102578952943e-02,2.778882261774309193e-01,3.120020932661285440e-02,-3.382642881124874046e-02,2.225230055425500841e-01,1.312002093266128600e-01,2.853873530567292358e-02,5.233450461027284728e-01,-4.479665160179138184e-01,1.066101431846618652e+00,3.542119028095687838e+01,4.081024885177612083e-01
1.746367000000000003e+00,-1.536863995303545116e-01,1.816224625478207733e-02,8.914283514022827148e-01,-6.809947785043049019e-03,4.006831612151540156e-03,-2.440658536604800588e-02,-1.307067568982712147e-01,4.276701750817517994e-02,-2.602154202759265900e-02,-1.114590797148720114e-01,-1.146353199732681738e-01,-6.003369325998951511e-02,3.006448366719812748e-01,-9.492411521163360288e-02,-1.090592727206943779e-01,2.176012665710755078e-01,5.075884788366406136e-03,-4.072300678248120392e-02,5.209236787702223870e-01,-5.507647991180419922e-01,1.051168799400329590e+00,8.518488989434843006e+01,4.081024885177612083e-01
1.773930999999999925e+00,-1.562818671594137510e-01,1.924011986497356844e-02,8.915483355522155762e-01,-6.355072141577478712e-03,9.499338923817379765e-04,-2.536675447587666277e-02,-1.357066259452452683e-01,4.624688798003817602e-02,-2.515471912920475006e-02,5.200209344711195086e-02,-1.592875883013412930e-01,-3.765793539473510226e-02,2.959320432840429893e-01,-3.286245331468979902e-01,-2.652583860182707309e-01,2.127758197296436560e-01,-2.286245331468979847e-01,-1.942736993237897947e-01,5.305714984334194417e-01,-2.942126989364624023e-02,8.109124898910522461e-01,9.955274605879301930e+01,4.081024885177612083e-01
1.796980999999999939e+00,-1.575668805566603214e-01,1.975351563867906377e-02,8.916372656822204590e-01,-5.556980531405635200e-03,-3.658090250635570584e-04,-2.569740895102157197e-02,-1.347149790737421915e-01,4.129262242315610842e-02,-2.304438874125480652e-02,8.249119353090614282e-02,-1.038777140078384759e-01,4.702338097072216068e-03,2.332810820249875960e-01,-3.000557749278859876e-01,-2.650593034076809684e-01,1.590681546960202863e-01,-2.000557749278859820e-01,-1.931597498651359546e-01,5.383312514028895102e-01,4.003903865814208984e-01,9.072080850601196289e-01,1.038557174245768664e+02,4.081024885177612083e-01
1.821153999999999940e+00,-1.617976035274757696e-01,2.091028028713000017e-02,8.919931054115295410e-01,-1.780356338997287409e-04,-3.443426414022399129e-03,-2.583256668417455160e-02,-1.278808406272070042e-01,3.538360969015150181e-02,-2.192148193717002869e-02,1.885838221889580557e-01,-6.399678527841190512e-02,3.939661796308724373e-02,-1.796600568630924710e-01,1.242645478071807141e-01,-2.718747735697715218e-01,-2.161039541795808372e-01,2.242645478071807197e-01,-1.998438244887763282e-01,5.415720038846197903e-01,5.799726247787475586e-01,1.210328459739685059e+00,1.019130545302743229e+02,4.081024885177612083e-01
1.844444999999999890e+00,-1.661273152283301580e-01,2.194242421595593920e-02,8.924235105514526367e-01,7.776546019622044940e-03,-2.637115337999595965e-03,-2.377087883741202390e-02,-1.226049065132294585e-01,4.349150470565054521e-02,-1.749483123421669006e-02,3.091448809894278837e-01,7.552688951932567951e-02,1.418459023269874053e-01,-2.235277857292375381e-01,1.116174742823210220e-01,-2.411009659143658612e-01,-2.164436345672148820e-01,2.116174742823210275e-01,-1.752843172049145526e-01,5.385036036839606632e-01,4.222202301025390625e-01,1.127576231956481934e+00,1.063009729587656125e+02,4.081024885177612083e-01
1.873569999999999958e+00,-1.701847313887541735e-01,2.298909812452532356e-02,8.929762244224548340e-01,1.535512274678523317e-02,3.371470518335195621e-03,-2.096191969841609826e-02,-1.141783639053952637e-01,5.447096959748196771e-02,-1.435751747339963913e-02,2.313698918179654118e-01,2.669423168528436419e-01,1.398638526840279839e-01,-2.674234210188966010e-01,1.281004492494945413e-01,-2.688974060373091612e-01,-2.195521148689197621e-01,2.281004492494945468e-01,-2.111674796117705977e-01,5.427705523725768755e-01,6.680340766906738281e-01,1.138203501701354980e+00,1.404208260801801877e+01,4.081024885177612083e-01
1.894600000000000062e+00,-1.728390486651068259e-01,2.373386716747232644e-02,8.934455513954162598e-01,1.900922011764679537e-02,7.381120900749271740e-03,-1.930436268435964386e-02,-1.179285437741924153e-01,4.209358986656384222e-02,6.348670576699078083e-04,1.341310843438334732e-01,1.323826944475768874e-01,4.479346004959777749e-02,-3.028382300771839120e-01,1.271171225920306458e-01,-2.673536076384396831e-01,-2.211007618915105666e-01,2.271171225920306513e-01,-2.142448113326929082e-01,5.421378162310824811e-01,6.881196498870849609e-01,1.229207158088684082e+00,9.553419060023767884e+01,4.081024885177612083e-01
1.923728000000000105e+00,-1.762061032524107895e-01,2.537196636804243607e-02,8.943639993667602539e-01,2.004601681268894375e-02,1.179250365866169048e-02,-1.608841520291925953e-02,-1.116097601803488215e-01,5.624850315222954672e-02,-1.768333604559302330e-03,-7.617553664275962533e-02,9.485406194238908684e-02,6.368972604652238523e-02,8.834990055544972298e-02,9.518475792077771280e-02,1.115244197847380103e-01,1.625440739971160675e-01,1.951847579207777184e-01,1.557111418387114588e-01,5.171397279994275342e-01,-6.911941766738891602e-01,9.712780714035034180e-01,1.038002153073813361e+02,4.081024885177612083e-01
1.947870999999999908e+00,-1.785161651769906765e-01,2.652393632941017765e-02,8.951059579849243164e-01,1.799373834983386197e-02,1.236227365159336955e-02,-1.327210791153721203e-02,-1.220236094507304719e-01,5.483387218273973185e-02,-2.330625720787793398e-04,-1.301141140723428014e-01,4.792294569247252528e-03,1.991013409148365831e-01,1.374648138532104380e-01,7.164668319823669362e-02,-2.065538041356722032e-01,2.000204182326556779e-01,1.716466831982366992e-01,-1.702250940920180811e-01,5.367872579666590482e-01,3.824775218963623047e-01,5.093249082565307617e-01,1.500127561373107028e+02,4.081024885177612083e-01
1.971481000000000039e+00,-1.807754737339978823e-01,2.778688786180193160e-02,8.959510922431945801e-01,1.416013353752653206e-02,1.224965311467873796e-02,-1.117576115124041536e-02,-1.278197856218341866e-01,6.212771430231713021e-02,1.905602589249610901e-02,-2.014571189896194880e-01,-4.297272216983125115e-02,5.751578794258414840e-02,1.883490447767447173e-01,-2.300879636395955496e-03,5.308035858357804115e-02,2.185446407940634106e-01,9.769912036360405005e-02,8.358936754263021629e-02,5.193778031583564658e-01,-4.935367107391357422e-01,1.202354788780212402e+00,5.728966307868057584e+01,4.081024885177612083e-01
1.996950000000000003e+00,-1.829351006311300265e-01,2.897004967860734165e-02,8.968578577041625977e-01,9.912404829973983297e-03,1.108838965054803616e-02,-1.038255832330992057e-02,-1.053153407081738185e-01,5.848167297248699215e-02,1.410574093461036682e-02,-2.450806541717177878e-01,-5.865369027905435739e-02,1.427283613271787717e-02,2.152269503254740923e-01,6.539520594291689526e-02,4.556622656870239207e-02,2.203922017526952215e-01,1.653952059429169008e-01,7.404322967092173691e-02,5.201349557890717623e-01,-4.715050458908081055e-01,1.067958950996398926e+00,1.278333560530950876e+02,4.081024885177612083e-01
2.025574000000000208e+00,-1.850504100415718556e-01,3.011423657220679492e-02,8.977767229080200195e-01,7.435281534183856185e-03,9.062388660933118345e-03,-9.374607220797859242e-03,-1.153801968592796656e-01,5.216151836229714067e-02,1.994640938937664032e-02,-7.647400017864613986e-02,-1.085336917004660479e-01,9.507359291904617093e-02,2.260262635690704625e-01,-2.548670826041370407e-01,1.650958398277142247e-01,2.182849059260544566e-01,-1.548670826041370630e-01,1.907487027341311647e-01,5.297812304743688694e-01,7.413280010223388672e-02,1.414961934089660645e+00,9.104259673033476474e+01,4.081024885177612083e-01
2.056478999999999946e+00,-1.876913097952812859e-01,3.244272863970292659e-02,8.988213539123535156e-01,6.377440723935753203e-03,6.954380117406122608e-03,-8.178945575125107226e-03,-1.143442680562112984e-01,5.147819292525928486e-02,2.513842470943927765e-02,-1.308840098607992088e-02,-9.298761947275074879e-02,2.468356090141470699e-02,2.341650246301064664e-01,-2.791851162891529903e-01,6.595721509031512997e-02,2.171930226981953760e-01,-1.791851162891529570e-01,8.824194236018709225e-02,5.284421893924559077e-01,2.163958549499511719e-02,1.209692597389221191e+00,9.227249523380062612e+01,4.081024885177612083e-01
2.073024999999999896e+00,-1.889791115099586361e-01,3.357812678357208896e-02,8.993824124336242676e-01,6.428059114354121514e-03,6.037750068531133607e-03,-7.584733568825274830e-03,-9.880053124812800125e-02,4.971896795107660222e-02,2.272559888660907745e-02,4.400245828009641952e-02,-6.499894905120617850e-02,6.589710328496091452e-02,1.810168715530459660e-01,-1.391091237476233811e-01,1.070526018324229334e-01,1.645174619270253213e-01,-3.910912374762337551e-02,1.276886794603490638e-01,5.288101531804628719e-01,3.152918815612792969e-02,1.279783844947814941e+00,1.029697326061994858e+02,4.081024885177612083e-01
2.101630999999999805e+00,-1.914783547705315725e-01,3.574949552231509314e-02,9.005092978477478027e-01,8.221147726817054288e-03,4.267190754377425677e-03,-7.674913163570051822e-03,-9.639213566761853369e-02,4.434344912278388035e-02,3.215440362691879272e-02,1.333196292384874193e-01,-1.028968221364119917e-01,-4.185422034919794587e-02,-2.219496999023561346e-01,1.219548388220540180e-01,-2.356683960705553138e-01,-2.245855012190795807e-01,2.219548388220540236e-01,-2.148895878316668673e-01,5.396838853039378492e-01,6.687128543853759766e-01,1.382799506187438965e+00,9.653789372896022769e+01,4.081024885177612083e-01
2.123714999999999797e+00,-1.938042076337758157e-01,3.782430368966462064e-02,9.015548825263977051e-01,1.131691276276301783e-02,3.276861946463816011e-03,-7.790255591371364474e-03,-1.125239902177137402e-01,4.086311251728089178e-02,2.840524911880493164e-02,1.897734853928368659e-01,-3.572429318102844642e-02,1.952835576270938941e-02,-2.418024658259641246e-01,1.237996677950426172e-01,-2.240517194987028671e-01,-2.237614516237516060e-01,2.237996677950426228e-01,-2.031685961611034708e-01,5.351106807156366107e-01,3.999189138412475586e-01,1.315374255180358887e+00,9.482891892692050817e+01,4.081024885177612083e-01
2.152931000000000150e+00,-1.970943825449062159e-01,4.081617466189112892e-02,9.028851985931396484e-01,1.698501564341951472e-02,4.627729641139444183e-03,-9.585633604345611403e-03,-7.432622854341129626e-02,5.264347557705554431e-02,1.726532541215419769e-02,2.337613828129980198e-01,1.285773794818892146e-01,-6.189152102892186286e-02,-2.667517210142433259e-01,1.253548960960721437e-01,-2.429062191390913839e-01,-2.232464713241897047e-01,2.253548960960721492e-01,-2.171147088560815286e-01,5.409876668423544421e-01,6.852518320083618164e-01,5.367451906204223633e-01,1.383652755268229555e+02,4.081024885177612083e-01
2.175114999999999910e+00,-1.988591112477755829e-01,4.210849381762120369e-02,9.035804867744445801e-01,2.107188736637464685e-02,7.909077671811148846e-03,-1.069886183911727962e-02,-8.739840387294986468e-02,4.337016965062127916e-02,1.576194725930690765e-02,1.923824305198476303e-01,1.499056375189652957e-01,-3.660463254664316629e-02,-3.020566559363857539e-01,1.250763496145840814e-01,-2.435041149358216361e-01,-2.238699704806604018e-01,2.250763496145840870e-01,-2.146820811235276572e-01,5.414527877175597803e-01,7.024986743927001953e-01,1.569755673408508301e+00,1.088019150252574860e+02,4.081024885177612083e-01
2.197503999999999902e+00,-2.005155288986561479e-01,4.333854617505433771e-02,9.041144847869873047e-01,2.560861975861131179e-02,1.219880611792256708e-02,-1.154351890816407433e-02,-8.462046406238858676e-02,4.167160076196195495e-02,1.511189341545104980e-02,2.593618935265039616e-01,2.034376032185850058e-01,-2.236285324163962349e-02,-3.251321631522717248e-01,1.244366305796152372e-01,-2.489634025019362429e-01,-2.251321631522717193e-01,2.244366305796152428e-01,-2.177267844329383861e-01,5.414639321355874113e-01,6.987936496734619141e-01,1.630642056465148926e+00,-8.645348141946240617e+01,4.081024885177612083e-01
2.225327000000000055e+00,-2.021804476283235452e-01,4.459752287370601781e-02,9.046171307563781738e-01,2.886797664450926545e-02,1.588800352556440920e-02,-1.079202131606504800e-02,-7.307249175343881464e-02,4.738191339954230669e-02,3.393945982679724693e-03,5.499141696825034925e-02,2.025554141445753686e-01,6.712808739483108744e-02,-3.258753556851285982e-01,1.237708367972934487e-01,-2.399741738916498779e-01,-2.258753556851285926e-01,2.237708367972934542e-01,-2.107056963747682699e-01,5.408344746558244598e-01,6.153581142425537109e-01,9.923020601272583008e-01,9.163783405612304023e+01,4.081024885177612083e-01
2.246103000000000183e+00,-2.038642442059874771e-01,4.588028940121376825e-02,9.051027894020080566e-01,3.011682326027976739e-02,1.801395205340505790e-02,-8.896969135637089465e-03,-7.805288106391650160e-02,5.673456686093827223e-02,1.497213961556553841e-03,5.639017690531231836e-02,5.962336480805455197e-02,1.289400547049967538e-01,-3.276554176846908639e-01,1.229168998499257093e-01,-2.394615894194842276e-01,-2.276554176846908861e-01,2.229168998499257148e-01,-2.154963970619370450e-01,5.402681019353008374e-01,5.726892948150634766e-01,8.699654340744018555e-01,1.008220547537698479e+02,4.081024885177612083e-01
2.270446000000000186e+00,-2.064076358096764985e-01,4.782108874951720295e-02,9.058325886726379395e-01,2.764286129615214568e-02,1.892176075459239826e-02,-5.511714751741836338e-03,-7.171117514408605065e-02,5.389318134875005495e-02,8.660491439513862133e-04,-1.317896860141635207e-01,1.590127407106506352e-02,1.345335106447075046e-01,1.096339642071618437e-01,1.022814279212015537e-01,-2.055957057550278355e-01,2.096339642071618492e-01,1.978085305296730101e-01,-1.909656162564001836e-01,5.194402943757840951e-01,-5.713580846786499023e-01,1.024702429771423340e+00,1.270933853112469514e+01,4.081024885177612083e-01
2.298583999999999961e+00,-2.098667939084065126e-01,5.005947974855445848e-02,9.070464372634887695e-01,1.840782963144554918e-02,1.574128082768488923e-02,-4.039311823083036046e-04,-7.628098097402252753e-02,5.391740393164321660e-02,5.089414771646261215e-03,-2.999648956139023270e-01,-1.168565385159249931e-01,1.608196004395534007e-01,1.725756462193605845e-01,1.006255396936589219e-01,-2.770850066738567499e-02,2.174356604981127206e-01,2.006255396936589275e-01,-2.737255086270024354e-02,5.245252086176304118e-01,-2.799450159072875977e-01,1.323175311088562012e+00,9.610453871669042769e+01,4.081024885177612083e-01
2.323714999999999975e+00,-2.115253105410293821e-01,5.121787746707369415e-02,9.077277183532714844e-01,1.222146993349878391e-02,1.345078993570192338e-02,2.497487334808923265e-03,-7.637284258133408832e-02,5.387635884645837481e-02,2.444447576999664307e-02,-2.711489516305576886e-01,-1.135652303498335541e-01,1.534858809220012721e-01,2.154547098691945439e-01,1.056887005974730398e-01,1.060151692719419891e-01,2.182095064309689803e-01,2.056887005974730454e-01,9.830034831369577342e-02,5.198896766471287068e-01,-4.553162455558776855e-01,1.099947810173034668e+00,7.939897517672810068e+01,4.081024885177612083e-01
2.350236999999999910e+00,-2.138361866688906210e-01,5.299662233375056208e-02,9.089588522911071777e-01,1.751943549973250264e-03,9.505492344990873477e-03,6.883094994961203028e-03,-5.511611640095951531e-02,6.383762144030931396e-02,2.863373793661594391e-02,-3.132591105656277186e-01,-1.394874486281448833e-01,1.326750127054012462e-01,2.933268448173934062e-01,1.145468297239607691e-01,1.170074798611691613e-01,2.180713478996309240e-01,2.145468297239607747e-01,9.725133346604114548e-02,5.180222237415091913e-01,-5.365867018699645996e-01,8.783017396926879883e-01,1.206950843703797460e+02,4.081024885177612083e-01
2.369778000000000162e+00,-2.152649645497115294e-01,5.432025313008705114e-02,9.098597168922424316e-01,-5.381526535164414711e-03,6.604779806051119806e-03,9.628367774032531301e-03,-6.544116628103165134e-02,4.191465278371872549e-02,2.860185131430625916e-02,-3.419936729627449101e-01,-2.003767879746554958e-01,1.605309486903045979e-01,3.181946263550188836e-01,1.130932541121918433e-01,1.414547134452711075e-01,2.181946263550188780e-01,2.130932541121918489e-01,1.142985288689882667e-01,5.184497626913824320e-01,-5.138793587684631348e-01,1.212195277214050293e+00,8.877444800132444414e+01,4.081024885177612083e-01
2.399074999999999847e+00,-2.178854007924208858e-01,5.705811500166454303e-02,9.114496111869812012e-01,-1.142420359582479138e-02,4.628746305135322814e-06,1.397082488766354658e-02,-4.855106560143990918e-02,4.744559500505347166e-02,3.453441709280014038e-02,-5.288029252051446851e-04,-1.838149958832703823e-01,4.314742633831579466e-02,3.161809245284860070e-01,-6.027183301321572401e-02,2.446857828557996994e-01,2.161809245284860015e-01,3.972816698678428154e-02,2.055484136301844178e-01,5.160036629504161088e-01,-6.174377799034118652e-01,1.208968520164489746e+00,8.954540560388963399e+01,4.081024885177612083e-01
2.424370000000000136e+00,-2.195929777031744023e-01,5.886972169592130655e-02,9.125617742538452148e-01,-9.515111863718082874e-03,-4.788661377687741805e-03,1.441304500710005598e-02,-5.585540382169849188e-02,4.637582299180029871e-02,3.449643403291702271e-02,1.096041009244140829e-01,-1.192037084365430155e-01,-3.223406422655155507e-02,2.561975661568740015e-01,-9.123618704501129661e-02,-1.512395567598414092e-01,1.561975661568739959e-01,8.763812954988715875e-03,-1.917246799908767230e-01,5.309054715646774891e-01,1.912677288055419922e-01,1.832007527351379395e+00,-8.587170639652822501e+01,4.081024885177612083e-01
