timestamp,x,y,z,roll,pitch,yaw,vx,vy,vz,p,q,r,psp,qsp,rsp,pres,qres,rres,thrust_sp, thrust_res
0.000000000000000000e+00,8.085239774640404914e-03,-3.771904225165911145e-02,9.891423583030700684e-01,-1.501771209823933020e-04,-7.990177130960507412e-03,-2.459727630926452236e-03,-1.375871193739301376e-02,1.845367288324590779e-02,-1.320692524313926697e-02,-3.150197896430794592e-02,5.475309729235215694e-02,2.269260971932250681e-02,-7.767407869220420945e-03,-5.794468144172709723e-02,-6.905890836597317062e-03,0.000000000000000000e+00,0.000000000000000000e+00,0.000000000000000000e+00,5.137562117641020221e-01,-0.000000000000000000e+00,-8.306419849395751953e-02,9.651843452001484991e+01,0.000000000000000000e+00
2.114699999999999913e-02,8.162260570052032663e-03,-3.670630083944132621e-02,9.886726737022399902e-01,4.861496706047402057e-04,-7.648415987702161800e-03,-2.639151576512931748e-03,9.075230608716436734e-03,3.269320002897273258e-02,-1.987329870462417603e-02,1.271784866808030713e-03,5.575908417536126760e-02,-2.519735777332956714e-02,-2.515746684097250330e-03,-3.531510476010069066e-02,-7.385150991381150831e-03,0.000000000000000000e+00,0.000000000000000000e+00,0.000000000000000000e+00,5.143129520386691134e-01,-0.000000000000000000e+00,-3.638995885848999023e-01,8.103156797327956440e+01,0.000000000000000000e+00
4.747400000000000231e-02,8.161608518006666091e-03,-3.487679463279718534e-02,9.880081415176391602e-01,8.674497000504610223e-04,-7.232532281975068145e-03,-2.594171059670992690e-03,-1.787094992071400212e-02,1.579536183094099044e-02,-4.472580738365650177e-03,1.197535914255508545e-02,2.061974476009579074e-02,-6.966088380785219816e-03,-1.964116676124835065e-02,-5.758716683434056405e-02,-7.279626090172408581e-03,0.000000000000000000e+00,0.000000000000000000e+00,0.000000000000000000e+00,5.132396603613051944e-01,-0.000000000000000000e+00,-1.236060857772827148e-01,7.574920212202925995e+01,0.000000000000000000e+00
7.482199999999999962e-02,8.035998763816304402e-03,-3.335406343418131914e-02,9.875541925430297852e-01,1.477935474316769771e-03,-7.116681684761205773e-03,-2.595867615788614510e-03,7.901576779113621274e-04,3.693654349060431635e-02,-1.407777518033981323e-02,3.707125619016049534e-02,2.570458959160947313e-02,-4.643098258837163525e-03,-3.141333985193359678e-03,-3.798793694999844095e-02,-7.248192720304802439e-03,0.000000000000000000e+00,0.000000000000000000e+00,0.000000000000000000e+00,5.140072997107154595e-01,-0.000000000000000000e+00,2.663143873214721680e-01,4.130621104343408945e+01,0.000000000000000000e+00
9.558999999999999442e-02,7.929300264716932639e-03,-3.177283847836463032e-02,9.871659874916076660e-01,1.966921865582023105e-03,-6.984335830104715370e-03,-2.717187329565834940e-03,-3.770817257371501374e-03,2.599506202491093376e-02,-2.819121116772294044e-03,2.005778507667994176e-02,3.127459559181512000e-02,2.340369235647397558e-03,-1.724492602399977856e-02,-4.354675849483226335e-02,-7.596103808670540136e-03,0.000000000000000000e+00,0.000000000000000000e+00,0.000000000000000000e+00,5.132180218023093543e-01,-0.000000000000000000e+00,-2.498844861984252930e-01,9.754574961269813116e+01,0.000000000000000000e+00
1.212089999999999973e-01,7.826444272905021607e-03,-2.937921167883477194e-02,9.864892363548278809e-01,1.798528036898404880e-03,-5.499667499514693247e-03,-2.716267285633953629e-03,-1.464453445911538271e-03,3.690755683190841130e-02,-9.520512074232101440e-03,-2.419564393365193980e-02,9.407370351794999697e-02,-2.828694079228771113e-02,-4.257321960590627549e-03,-3.144706043228247261e-02,-7.585622311038264787e-03,0.000000000000000000e+00,0.000000000000000000e+00,0.000000000000000000e+00,5.137852850386073200e-01,-0.000000000000000000e+00,-5.188418626785278320e-01,7.243275595920536603e+01,0.000000000000000000e+00
1.474640000000000117e-01,7.665394741340583393e-03,-2.711578825348331945e-02,9.859315156936645508e-01,1.473968005310881055e-03,-3.725855355174001460e-03,-2.701576460455886331e-03,3.976247450957108923e-03,3.241388516173392131e-02,6.517082452774047852e-03,-6.512835328818803587e-03,7.572338696869848618e-02,9.324958534269209981e-03,-5.904639429530974745e-03,-1.591040274931032270e-02,-7.557420071303388998e-03,0.000000000000000000e+00,0.000000000000000000e+00,0.000000000000000000e+00,5.126473739779447980e-01,-0.000000000000000000e+00,8.552801609039306641e-02,9.281463466898121339e+01,0.000000000000000000e+00
1.744249999999999967e-01,7.371302897515796641e-03,-2.575290814777563692e-02,9.857069253921508789e-01,1.427896098638274528e-03,-2.776815382763864193e-03,-2.748594133469434327e-03,1.439576854138712413e-02,4.559353765785716106e-02,4.375826101750135422e-03,3.120280326574585358e-02,5.276107345117649755e-02,-1.053548506525638778e-03,6.603070542321563471e-03,-2.291637518077573477e-03,-7.694148766146491347e-03,0.000000000000000000e+00,0.000000000000000000e+00,0.000000000000000000e+00,5.128334283973260410e-01,-0.000000000000000000e+00,-1.335552930831909180e-01,-5.251846858491401804e+01,0.000000000000000000e+00
1.968489999999999962e-01,7.134577896897438716e-03,-2.437562289142965188e-02,9.855804443359375000e-01,1.396176774522148297e-03,-1.650899437771524703e-03,-2.690625553897260398e-03,-6.288130499649873190e-04,2.936550568250987509e-02,1.079584006220102310e-02,-3.769812947758243403e-03,3.714713792633787814e-02,2.015644499781167262e-02,-7.337184644063181327e-03,-8.688825863171984257e-03,-7.530638205258344264e-03,0.000000000000000000e+00,0.000000000000000000e+00,0.000000000000000000e+00,5.123689367592842991e-01,-0.000000000000000000e+00,-1.375585794448852539e-01,1.061587001183542469e+02,0.000000000000000000e+00
2.234190000000000065e-01,6.806131438490988297e-03,-2.234106007117393419e-02,9.855812191963195801e-01,1.366542485936427919e-03,-3.832834053596467783e-04,-2.506322725950750098e-03,7.814479543957534441e-03,4.758018689706069310e-02,1.729961298406124115e-02,-1.388303582342963541e-02,6.479797536011346060e-02,4.642843511581162645e-03,1.133653871681830801e-02,8.394670930323332170e-03,-7.025814148727493880e-03,0.000000000000000000e+00,0.000000000000000000e+00,0.000000000000000000e+00,5.118863516233222999e-01,-0.000000000000000000e+00,6.773668527603149414e-01,1.103252111347104147e+02,0.000000000000000000e+00
2.494310000000000138e-01,6.559263142375091823e-03,-2.031074088699883623e-02,9.857942461967468262e-01,1.682221277173104584e-03,4.657311926770102417e-04,-2.484838673886383825e-03,-7.718022398021870401e-04,3.935319034314478659e-02,2.067071199417114258e-02,-1.724223670208977280e-03,3.981195307257667793e-02,3.981864083118590025e-02,1.296219207384584479e-03,5.620636998506203970e-03,-6.961873424644382524e-03,0.000000000000000000e+00,0.000000000000000000e+00,0.000000000000000000e+00,5.116131330367909014e-01,0.000000000000000000e+00,7.485173940658569336e-01,-8.537892190829015249e+01,0.000000000000000000e+00
2.752049999999999774e-01,6.074232741045943081e-03,-1.846590292389475516e-02,9.862244129180908203e-01,2.099400823406563817e-03,1.061123641064920520e-03,-2.189248243848922366e-03,1.122339552233901638e-02,4.302490177662943172e-02,2.548955753445625305e-02,2.929157734706929958e-02,-1.277883562632960504e-02,2.601924721415491484e-02,4.053117573564308206e-03,2.021467777315422848e-02,-6.150897911915753635e-03,0.000000000000000000e+00,0.000000000000000000e+00,0.000000000000000000e+00,5.112141255172659715e-01,-0.000000000000000000e+00,-1.912790536880493164e-01,1.074398933424869114e+02,0.000000000000000000e+00
2.954899999999999749e-01,5.942957878417159771e-03,-1.785798582507430038e-02,9.864220023155212402e-01,2.086147029789792596e-03,1.171880006657355366e-03,-2.181794101988876033e-03,7.757556366795243137e-03,3.914182916367842796e-02,3.345397859811782837e-02,1.841042063889441679e-02,-1.005582332561924270e-03,1.462117584150743332e-02,9.391211586247240426e-04,1.634881875416497460e-02,-6.124232930459050372e-03,0.000000000000000000e+00,0.000000000000000000e+00,0.000000000000000000e+00,5.105888063001936539e-01,-0.000000000000000000e+00,-2.220884561538696289e-01,7.835747378113870809e+01,0.000000000000000000e+00
3.221269999999999967e-01,5.612234932642662551e-03,-1.602527924549013508e-02,9.871274828910827637e-01,2.708395481627475909e-03,1.372458563487777283e-03,-1.993116971371234822e-03,1.852255133375341548e-02,5.140588389652920448e-02,3.000527247786521912e-02,-1.105617675086211296e-02,2.333809966064933489e-02,4.915955151503174220e-02,8.691513768913363205e-03,2.674085806054417314e-02,-5.619643653042682985e-03,0.000000000000000000e+00,0.000000000000000000e+00,0.000000000000000000e+00,5.107792192118426611e-01,0.000000000000000000e+00,-3.094526529312133789e-01,5.576158583680864211e+01,0.000000000000000000e+00
3.481980000000000075e-01,5.395537783680640943e-03,-1.419007702370070519e-02,9.879940152168273926e-01,3.305546069914131694e-03,1.352225944518226086e-03,-1.863614360132944282e-03,2.851287237562948030e-04,3.801076678193593406e-02,4.178003966808319092e-02,9.745892709677902305e-03,-1.980275869788124948e-02,2.437284931589910053e-02,-6.589182591469272716e-03,1.015372443714849908e-02,-5.230377538206709698e-03,0.000000000000000000e+00,0.000000000000000000e+00,0.000000000000000000e+00,5.098089514360961694e-01,-0.000000000000000000e+00,8.675974607467651367e-01,-4.032662189757628113e+01,0.000000000000000000e+00
3.730260000000000242e-01,5.216792763925065177e-03,-1.261757852374701186e-02,9.886441230773925781e-01,3.424578241208876828e-03,1.235765033195557194e-03,-1.771980458851362327e-03,2.280191417342925311e-02,4.988255240639408866e-02,4.462867230176925659e-02,1.185090938672962680e-03,2.465522099277328572e-02,-1.026709017861597052e-02,5.453002014062606310e-03,3.038408318596865984e-02,-5.011867987987195239e-03,0.000000000000000000e+00,0.000000000000000000e+00,0.000000000000000000e+00,5.095215153504067951e-01,-0.000000000000000000e+00,7.645964622497558594e-03,9.275663953273863171e+01,0.000000000000000000e+00
3.962089999999999779e-01,5.062741366415247912e-03,-1.106158850982236902e-02,9.893952608108520508e-01,3.657727233655794306e-03,9.038033713821835846e-04,-1.557764366496137802e-03,1.846969414384598551e-02,4.601839865020490583e-02,4.691331088542938232e-02,3.257689788297061378e-02,-1.835616873639252591e-02,2.162313790624731044e-02,1.553415115850503934e-04,2.137251449281861101e-02,-4.395541858889018272e-03,0.000000000000000000e+00,0.000000000000000000e+00,0.000000000000000000e+00,5.092596907314080878e-01,-0.000000000000000000e+00,3.005877733230590820e-01,1.141429317109107018e+02,0.000000000000000000e+00
4.239129999999999843e-01,4.988832489678660803e-03,-8.748307280139115336e-03,9.905571341514587402e-01,3.964801776882522291e-03,3.318304088195667134e-04,-1.470223491375130358e-03,2.298097549575628396e-02,5.508705371170753012e-02,4.580764472484588623e-02,7.017486684792835147e-03,-3.888267454944815960e-02,5.908309740796091614e-03,7.755762916361120043e-03,2.201762737215668883e-02,-4.159917790334477505e-03,0.000000000000000000e+00,0.000000000000000000e+00,0.000000000000000000e+00,5.092240064561780466e-01,-0.000000000000000000e+00,7.705031633377075195e-01,-2.804740343037573358e-01,0.000000000000000000e+00
4.453989999999999894e-01,4.968963269811047488e-03,-7.222176862886782282e-03,9.913803935050964355e-01,3.786329378180628476e-03,1.201345896091332577e-04,-1.245393487334316585e-03,1.584959951674955181e-02,4.506396660744876187e-02,5.171786621212959290e-02,-1.638139396121536875e-02,-1.425744848381852760e-02,-4.252662385395461139e-03,5.509279160176167858e-04,1.427042761165246351e-02,-3.510655958645136909e-03,0.000000000000000000e+00,0.000000000000000000e+00,0.000000000000000000e+00,5.086793555410319412e-01,-0.000000000000000000e+00,7.861769199371337891e-02,8.222737017240871182e+01,0.000000000000000000e+00
4.731020000000000225e-01,4.953245928388155632e-03,-4.454433918327151999e-03,9.926550388336181641e-01,3.732580363985316379e-03,-6.095506320287213953e-04,-1.021853452894579779e-03,3.445785739772273815e-02,5.698527498422891607e-02,4.968389496207237244e-02,-1.813896184005584162e-03,-4.475878463088679357e-03,1.111532676731333442e-02,1.406565946748880407e-02,2.588411804423370807e-02,-2.914883530040157655e-03,0.000000000000000000e+00,0.000000000000000000e+00,0.000000000000000000e+00,5.087020136854143448e-01,-0.000000000000000000e+00,-4.751714468002319336e-01,3.237745308112409237e+00,0.000000000000000000e+00
4.992860000000000076e-01,4.998400988175440846e-03,-1.518407867991490362e-03,9.939517378807067871e-01,3.853064429689560203e-03,-1.216745143188591172e-03,-8.006374356344696719e-04,9.219185281135191048e-03,4.124399062735294164e-02,5.428407341241836548e-02,-2.921900143268115618e-02,-2.540048609285299949e-02,5.496368519943302389e-02,7.044196589965442566e-04,-1.295072771026483521e-03,-2.239621301023897448e-03,0.000000000000000000e+00,0.000000000000000000e+00,0.000000000000000000e+00,5.082107399959051586e-01,-0.000000000000000000e+00,2.476609945297241211e-01,6.220459548843546571e+01,0.000000000000000000e+00
5.205720000000000347e-01,5.078301550394459518e-03,4.135563481845709469e-04,9.948226213455200195e-01,3.810054340232880282e-03,-1.487138583064595565e-03,-8.413100647397107239e-04,2.974521436186680981e-02,6.316463843526497202e-02,4.974788799881935120e-02,-3.071564536182293942e-02,4.731172543922805562e-02,-3.142410284107674534e-02,2.266293750525533862e-02,1.760719895373858215e-02,-2.397817441729566124e-03,0.000000000000000000e+00,0.000000000000000000e+00,0.000000000000000000e+00,5.084507381266867299e-01,-0.000000000000000000e+00,4.680963754653930664e-01,1.150030915840362553e+02,0.000000000000000000e+00
5.459009999999999696e-01,5.295773950916069124e-03,3.275202695187225989e-03,9.961466193199157715e-01,4.004095317313864470e-03,-2.407513975425157327e-03,-4.904895728807328551e-04,2.410434294051444493e-02,4.255160742313744693e-02,6.732229143381118774e-02,5.720381859504180405e-02,-4.753242971354629948e-02,2.180524455455293276e-02,3.428125458050178265e-03,4.323756560821365690e-03,-1.381326763659429524e-03,0.000000000000000000e+00,0.000000000000000000e+00,0.000000000000000000e+00,5.069744815556496143e-01,-0.000000000000000000e+00,2.171427011489868164e-01,5.397581921793047144e+01,0.000000000000000000e+00
5.710269999999999513e-01,5.505623634649603991e-03,5.300377621128127444e-03,9.970717430114746094e-01,4.012030962500077666e-03,-2.498859234132178031e-03,-4.879890161197006598e-04,2.402450015579146378e-02,5.943569987432641144e-02,5.616006627678871155e-02,1.003112857067094176e-03,-4.048291873651159098e-03,-8.677120853897335624e-04,2.171867662197456486e-02,4.699016015723879100e-03,-1.377894690612002648e-03,0.000000000000000000e+00,0.000000000000000000e+00,0.000000000000000000e+00,5.076938708919832566e-01,-0.000000000000000000e+00,7.871067523956298828e-02,1.202979635116568602e+02,0.000000000000000000e+00
5.970760000000000511e-01,5.913226944334821003e-03,8.476068052701096756e-03,9.984598755836486816e-01,4.309405091811609190e-03,-3.056920383628591864e-03,-1.249439596996592327e-04,3.376490670622245976e-02,5.360218045204621223e-02,6.071375682950019836e-02,3.235197551653601344e-02,-4.883821342563090390e-02,1.658006891495794610e-02,1.480062798412458934e-02,9.512388754769129234e-03,-3.721698514109750278e-04,0.000000000000000000e+00,0.000000000000000000e+00,0.000000000000000000e+00,5.071944954675725592e-01,-0.000000000000000000e+00,-1.933292150497436523e-01,4.862414743717204146e+01,0.000000000000000000e+00
6.218939999999999468e-01,6.213374239799979160e-03,1.054719290083996029e-02,9.993990659713745117e-01,4.409880865802817164e-03,-3.333954635431846114e-03,-1.952228238809746146e-04,3.517583443196591053e-02,6.160196852585141797e-02,5.213182047009468079e-02,-1.191930255328872527e-02,1.431388148530386532e-02,-6.997671519211876197e-03,2.307319362657545003e-02,7.703776893426285063e-03,-5.671569617579086398e-04,0.000000000000000000e+00,0.000000000000000000e+00,0.000000000000000000e+00,5.077193959087913377e-01,-0.000000000000000000e+00,3.257395029067993164e-01,7.579744374813705576e+01,0.000000000000000000e+00
6.495530000000000470e-01,6.747764435055718726e-03,1.359407648939695186e-02,1.000682950019836426e+00,4.924776456303877128e-03,-3.653728980062442844e-03,5.072559782288674787e-05,2.391410618026893961e-02,4.766898737837248906e-02,5.817866697907447815e-02,1.896806222421511950e-02,-1.804210479872682404e-02,3.597945927069857303e-02,9.373013260853123307e-03,-3.289695763690044395e-03,1.500343029386952409e-04,0.000000000000000000e+00,0.000000000000000000e+00,0.000000000000000000e+00,5.071112739072399789e-01,-0.000000000000000000e+00,-5.721211433410644531e-03,1.031548239025176628e+02,0.000000000000000000e+00
6.700599999999999890e-01,6.978942307886199306e-03,1.570436198167141084e-02,1.001543045043945312e+00,5.224462331180877023e-03,-3.886771387361598329e-03,5.296048731192352167e-05,3.851740976684106532e-02,6.799164986271638567e-02,6.177200749516487122e-02,1.089373019506731724e-02,1.885482769091936794e-03,-2.661646408532482300e-02,2.787504506620423761e-02,9.196349149679389906e-03,1.191007230225138436e-04,0.000000000000000000e+00,0.000000000000000000e+00,0.000000000000000000e+00,5.067300315540083089e-01,-0.000000000000000000e+00,1.837111711502075195e-01,6.998375065116228200e+01,0.000000000000000000e+00
6.973289999999999766e-01,7.127327401297565632e-03,1.890673902533856338e-02,1.002712965011596680e+00,5.951891643429305448e-03,-4.577557823767230971e-03,2.441480436101580950e-04,2.899500586779890990e-02,5.220346675956673288e-02,6.332175433635711670e-02,4.779032488045682758e-02,-3.071636362598456280e-02,-1.859410485411493261e-03,9.495877764970205026e-03,-5.030827772378937586e-03,6.981085233521699962e-04,0.000000000000000000e+00,0.000000000000000000e+00,0.000000000000000000e+00,5.064562955559744895e-01,-0.000000000000000000e+00,4.481077194213867188e-04,9.722766087286146330e+01,0.000000000000000000e+00
7.229269999999999863e-01,7.277578121848285626e-03,2.099999593126024647e-02,1.003499746322631836e+00,6.129417828368973961e-03,-4.579408829564979300e-03,3.717650568613018293e-04,2.919828440183543442e-02,6.249485385596239423e-02,4.736122861504554749e-02,-5.539336665309461255e-02,3.861230395584622915e-02,1.915722087935566725e-02,2.059088965401476012e-02,-3.295817360304205672e-03,1.051922961130991041e-03,0.000000000000000000e+00,0.000000000000000000e+00,0.000000000000000000e+00,5.075467799051552875e-01,-0.000000000000000000e+00,-3.281986713409423828e-02,1.001114418725217234e+02,0.000000000000000000e+00
7.494720000000000271e-01,7.575682775352828198e-03,2.410208094503338630e-02,1.004515528678894043e+00,6.780408449983745499e-03,-5.065071906318330264e-03,5.047070625489250961e-04,3.546703345863980172e-02,5.942406618488459136e-02,5.604720488190650940e-02,2.795217435849641288e-02,-4.490511434168553695e-02,9.973057076358111256e-03,1.472156598455699392e-02,-9.243460184403433713e-04,1.416365037071265487e-03,0.000000000000000000e+00,0.000000000000000000e+00,0.000000000000000000e+00,5.067657704905921268e-01,-0.000000000000000000e+00,2.166831493377685547e-02,9.463058389380167057e+01,0.000000000000000000e+00
7.750609999999999999e-01,7.738302813784156235e-03,2.703546439217749744e-02,1.005477786064147949e+00,7.106812257412068769e-03,-5.227936451210224433e-03,6.261280407051962593e-04,3.615618331879609515e-02,6.575542671268005956e-02,6.053701043128967285e-02,5.563758725175542430e-02,-4.333667357312542129e-02,2.468103299875018617e-03,2.055052561503759034e-02,-2.033620765634170952e-03,1.760828106156020478e-03,0.000000000000000000e+00,0.000000000000000000e+00,0.000000000000000000e+00,5.062997847910370997e-01,-0.000000000000000000e+00,-1.328979730606079102e-01,1.058529398699694610e+02,0.000000000000000000e+00
7.960199999999999498e-01,7.757503553674302381e-03,2.796848251684629777e-02,1.005776286125183105e+00,7.107124622661666405e-03,-5.328318345969806913e-03,6.520160915673114043e-04,3.375012228508184053e-02,5.878896253828983648e-02,5.593327060341835022e-02,2.582200919463482208e-02,-4.741701299621887966e-02,1.658324722224635561e-02,1.474634182580314076e-02,-4.623682100352014511e-03,1.842112808906171129e-03,0.000000000000000000e+00,0.000000000000000000e+00,0.000000000000000000e+00,5.065598228813744663e-01,-0.000000000000000000e+00,3.302494287490844727e-01,8.306124747760806315e+01,0.000000000000000000e+00
8.236630000000000340e-01,7.925831517381543359e-03,3.080089208863302092e-02,1.006624579429626465e+00,7.355055686400630011e-03,-5.290639357992343861e-03,8.509238889760025772e-04,4.162131964584732391e-02,7.084795278282546294e-02,5.314995348453521729e-02,-5.153833859051186114e-03,-1.242403832916473203e-03,-3.773944225562219073e-03,2.621734646599790247e-02,2.740092831159582094e-03,2.371616025697909080e-03,0.000000000000000000e+00,0.000000000000000000e+00,0.000000000000000000e+00,5.066565863660759117e-01,-0.000000000000000000e+00,-1.414409875869750977e-01,9.288370154186837624e+01,0.000000000000000000e+00
8.492100000000000204e-01,8.138695532585478801e-03,3.352851628206948709e-02,1.007474422454833984e+00,7.706661486135450538e-03,-5.579213584149700367e-03,9.161323986032024773e-04,2.512285827110168415e-02,5.534548440618286547e-02,5.739878118038177490e-02,2.519317530122260063e-02,-1.344002991010967429e-02,-1.046923208656102069e-02,1.156834005634579075e-02,-1.355905881636240012e-02,2.615473192083439535e-03,0.000000000000000000e+00,0.000000000000000000e+00,0.000000000000000000e+00,5.062042830028626872e-01,-0.000000000000000000e+00,7.084167003631591797e-02,8.310941397163499289e+01,0.000000000000000000e+00
8.722839999999999483e-01,8.336718950158170799e-03,3.530170121333742195e-02,1.008028864860534668e+00,7.848114542838688715e-03,-5.604294286477795595e-03,1.093396485303968187e-03,3.265614157142449764e-02,6.621703195162682853e-02,4.548377171158790588e-02,-5.426498381111108382e-02,2.958870959900680025e-02,2.506799440270542079e-02,2.321186786100040006e-02,-4.838225669232692518e-03,3.081725224487241732e-03,0.000000000000000000e+00,0.000000000000000000e+00,0.000000000000000000e+00,5.070110095855039356e-01,-0.000000000000000000e+00,1.091683030128479004e+00,9.771484460598013300e+01,0.000000000000000000e+00
8.988770000000000371e-01,8.217657121547117596e-03,3.845421942709539853e-02,1.008834719657897949e+00,8.388333242434663911e-03,-5.906028048111355844e-03,1.388019173022765054e-03,3.439536731753246174e-02,5.893280057485680151e-02,5.549471452832221985e-02,3.998621021122876484e-02,-5.176299307451515119e-02,4.384643901118313869e-02,1.464178386097459740e-02,-6.319214074213626645e-03,3.912507156044409129e-03,0.000000000000000000e+00,0.000000000000000000e+00,0.000000000000000000e+00,5.061392152302274239e-01,-0.000000000000000000e+00,4.346576929092407227e-01,9.382419126982244961e+01,0.000000000000000000e+00
9.234869999999999468e-01,8.214090436136948017e-03,4.052352695056544996e-02,1.009357810020446777e+00,8.562344765801569238e-03,-5.739946318126465385e-03,1.353765011736533450e-03,3.096408451780712986e-02,5.808149520021656936e-02,5.857590958476066589e-02,8.588803012284852711e-03,5.120010740874797635e-03,-1.608436356705939679e-02,1.566335156538673987e-02,-8.145797086023795486e-03,3.824984494051775208e-03,0.000000000000000000e+00,0.000000000000000000e+00,0.000000000000000000e+00,5.058058201714955571e-01,-0.000000000000000000e+00,2.983993291854858398e-01,7.333920402433609809e+01,0.000000000000000000e+00
9.487389999999999990e-01,8.242357347329341138e-03,4.350603928424764955e-02,1.010068774223327637e+00,8.971056357158073771e-03,-5.737932189820771356e-03,1.595962943938840969e-03,3.584400817246278376e-02,6.016560559963143873e-02,5.216430872678756714e-02,-3.624629609371785976e-03,1.909476103233570575e-03,1.132871923606382052e-02,1.703473531561590024e-02,-3.438704375983535864e-03,4.484137023549550349e-03,0.000000000000000000e+00,0.000000000000000000e+00,0.000000000000000000e+00,5.061766876158340089e-01,-0.000000000000000000e+00,-5.483472347259521484e-02,-1.002739252426871559e+02,0.000000000000000000e+00
9.735850000000000337e-01,8.305328289764182109e-03,4.547213983486882161e-02,1.010518431663513184e+00,9.231676536145575276e-03,-5.851960449251292218e-03,1.901212020532121573e-03,4.120172683342070846e-02,6.342239813605674015e-02,4.699092730879783630e-02,1.360040524093625303e-02,-3.240687381882387946e-02,2.292528450232216367e-02,1.926684320742183890e-02,-2.934170801536813535e-04,5.325012755557356758e-03,0.000000000000000000e+00,0.000000000000000000e+00,0.000000000000000000e+00,5.064788122983989727e-01,-0.000000000000000000e+00,1.713788509368896484e-02,1.053107048121404858e+02,0.000000000000000000e+00
9.952379999999999560e-01,8.683846949620569952e-03,4.725280332602666694e-02,1.010934114456176758e+00,9.519828291691916425e-03,-5.908596642419938760e-03,2.048242885370080233e-03,3.418947659833026370e-02,6.315472198419946892e-02,4.388717934489250183e-02,1.656603081838571231e-02,7.691906532769180425e-03,-1.073452354689352108e-02,1.819358374536551165e-02,-6.818814609127808388e-03,5.767479815538489873e-03,0.000000000000000000e+00,0.000000000000000000e+00,0.000000000000000000e+00,5.066266622678833320e-01,-0.000000000000000000e+00,6.031310558319091797e-02,6.535448748834858179e+01,0.000000000000000000e+00
1.022750000000000048e+00,9.322247824655930867e-03,4.985381238205291443e-02,1.011501312255859375e+00,9.663426790818857581e-03,-6.037867007723241031e-03,2.371892078954005671e-03,3.717599261181037118e-02,6.492785776302673062e-02,4.089296981692314148e-02,-3.634293699111909581e-02,3.570439018076925625e-02,1.970488915541980177e-02,2.077845317791585794e-02,-3.562972264662079766e-03,6.658973845542315306e-03,0.000000000000000000e+00,0.000000000000000000e+00,0.000000000000000000e+00,5.067617430488329244e-01,-0.000000000000000000e+00,1.153472661972045898e-01,9.450950513038485212e+01,0.000000000000000000e+00
1.047614000000000045e+00,9.750180982406667085e-03,5.152252964150594999e-02,1.011873126029968262e+00,1.008369943932366231e-02,-6.638834426754502971e-03,2.451963635937079184e-03,4.273107414447336466e-02,6.641107331196940966e-02,4.441477730870246887e-02,7.132494640665197616e-02,-3.841588812067480568e-02,-1.930610442611420310e-03,2.056701929982516358e-02,-2.840538273174622336e-03,6.880182073086826833e-03,0.000000000000000000e+00,0.000000000000000000e+00,0.000000000000000000e+00,5.064205922952388361e-01,-0.000000000000000000e+00,1.709586381912231445e-01,1.460277642283367925e+02,0.000000000000000000e+00
1.071878000000000108e+00,1.024212997448335251e-02,5.318718764051817011e-02,1.012176871299743652e+00,1.001495344299368692e-02,-6.753371522193907239e-03,2.766570821181948709e-03,2.609837689774435060e-02,5.007173200983533468e-02,4.891829937696456909e-02,4.062264587854217020e-03,-3.046945135083498069e-02,5.990281484555445846e-02,8.933704206697519121e-03,-1.758712870408493667e-02,7.827894005460911409e-03,0.000000000000000000e+00,0.000000000000000000e+00,0.000000000000000000e+00,5.059922260549585271e-01,-0.000000000000000000e+00,1.403948068618774414e-01,9.212684827993926717e+01,0.000000000000000000e+00
1.101116999999999901e+00,1.078755907175258690e-02,5.571509208681690167e-02,1.012601733207702637e+00,1.020864104360711191e-02,-7.369579802012582448e-03,3.068852586936999388e-03,4.167094575383480798e-02,6.852243778755058579e-02,3.711737319827079773e-02,4.787891933690335833e-03,8.760524065042678277e-03,2.190623444518883384e-02,2.707433268727276604e-02,-5.790307427438717847e-03,8.624042953615351781e-03,0.000000000000000000e+00,0.000000000000000000e+00,0.000000000000000000e+00,5.068122896033181446e-01,0.000000000000000000e+00,1.559349298477172852e-01,1.006214452676574069e+02,0.000000000000000000e+00
1.127040000000000042e+00,1.112480182539194937e-02,5.741076132413739513e-02,1.012859940528869629e+00,1.051638230504807134e-02,-7.757384780726184204e-03,3.017828907940651659e-03,3.775015030790021542e-02,5.013565962461890430e-02,4.636583849787712097e-02,3.201105245809041794e-02,-2.892770590372384029e-02,1.613119939593140109e-02,8.906703911985820385e-03,-1.341633621383610080e-02,8.515092607586649542e-03,0.000000000000000000e+00,0.000000000000000000e+00,0.000000000000000000e+00,5.060334239100126030e-01,-0.000000000000000000e+00,8.561718463897705078e-02,-8.057052508166183458e+00,0.000000000000000000e+00
1.152846000000000037e+00,1.149460198757126621e-02,5.906936102393987170e-02,1.013129949569702148e+00,1.055667889315691811e-02,-7.593518202512195003e-03,3.260060473853694085e-03,3.277373617862925498e-02,6.403465138041472549e-02,3.367200866341590881e-02,-3.268761377043788441e-02,3.306888030631537079e-02,2.098986615306674616e-02,2.407978797410956912e-02,-1.548395982303678309e-02,9.211641531653214088e-03,0.000000000000000000e+00,0.000000000000000000e+00,0.000000000000000000e+00,5.069269715419084665e-01,-0.000000000000000000e+00,-1.177364587783813477e-01,5.654114947772804811e+01,0.000000000000000000e+00
1.171785000000000077e+00,1.169965106118656464e-02,5.987668290519579384e-02,1.013277530670166016e+00,1.063582584973595674e-02,-7.600287564656582617e-03,3.343778751226592592e-03,3.611766310520699019e-02,5.885010695196632446e-02,3.366725519299507141e-02,-2.188078824652411533e-02,3.541162490229273624e-02,6.071706349878921473e-03,1.818559662888692349e-02,-1.173637588075681672e-02,9.424039460366406828e-03,0.000000000000000000e+00,0.000000000000000000e+00,0.000000000000000000e+00,5.068692090704479680e-01,-0.000000000000000000e+00,9.707081317901611328e-02,8.447239188088937567e+01,0.000000000000000000e+00
1.195786000000000016e+00,1.209138601461210751e-02,6.148992419090196920e-02,1.013496994972229004e+00,1.066521211538758000e-02,-7.730591220034055411e-03,3.794889249649130870e-03,3.902538971094358933e-02,5.582738705818734298e-02,3.833105042576789856e-02,1.769497212431397903e-02,-4.233005551589962695e-02,2.706642471757159107e-02,1.783147618121440001e-02,-1.017517297337577897e-02,1.067912235356727191e-02,0.000000000000000000e+00,0.000000000000000000e+00,0.000000000000000000e+00,5.064559604026960260e-01,-0.000000000000000000e+00,1.023548841476440430e-01,8.851442952981122403e+01,0.000000000000000000e+00
1.225643000000000038e+00,1.266634091836922431e-02,6.370221508898336882e-02,1.013857722282409668e+00,1.113163466332254409e-02,-7.706942127368110462e-03,4.002681925192803566e-03,3.911371837916073624e-02,6.342939648920155327e-02,3.248982876539230347e-02,4.626897807762569287e-02,-1.902078500090071886e-02,5.096475213873008329e-03,2.324764446335706239e-02,-9.824640079106421869e-03,1.126306248886221884e-02,0.000000000000000000e+00,0.000000000000000000e+00,0.000000000000000000e+00,5.068276768485160400e-01,-0.000000000000000000e+00,2.423952817916870117e-01,7.735946019999478551e+01,0.000000000000000000e+00
1.248890000000000056e+00,1.294903118242909414e-02,6.501557154119877446e-02,1.014038920402526855e+00,1.124413711640456781e-02,-7.652928932133207240e-03,4.174055966102052824e-03,3.302960434451404637e-02,4.832175871790513749e-02,3.240282833576202393e-02,4.042896917052863151e-03,-1.627402401178245847e-02,4.249749182050446134e-02,1.026646239239899575e-02,-1.414259180411334312e-02,1.176140887541110569e-02,0.000000000000000000e+00,0.000000000000000000e+00,0.000000000000000000e+00,5.067668284760398212e-01,-0.000000000000000000e+00,1.822245121002197266e-02,8.925164599787655106e+01,0.000000000000000000e+00
1.272912999999999961e+00,1.327259056166359141e-02,6.630189519048314273e-02,1.014188051223754883e+00,1.133988210447388519e-02,-7.515474598868365774e-03,4.555330826435609846e-03,3.142461814595680358e-02,5.800584709804115086e-02,3.494390100240707397e-02,1.321251457057916190e-02,1.840272219293145189e-02,-1.194669608950477656e-02,2.117304845747443667e-02,-1.318354499680071852e-02,1.282961668210030881e-02,0.000000000000000000e+00,0.000000000000000000e+00,0.000000000000000000e+00,5.065273656641374744e-01,-0.000000000000000000e+00,1.682599782943725586e-01,6.005183426771604438e+00,0.000000000000000000e+00
1.296103000000000005e+00,1.359783363258575302e-02,6.752982823144404456e-02,1.014285326004028320e+00,1.159432658795347439e-02,-7.775540646302703252e-03,4.943733996451870304e-03,4.706053691381096443e-02,5.741068854135571858e-02,2.684686146676540375e-02,2.759456873123814630e-02,-1.602064335832614761e-02,4.807477407508976147e-02,1.858703246712918242e-02,-1.424000801529390087e-03,1.385137597439478618e-02,0.000000000000000000e+00,0.000000000000000000e+00,0.000000000000000000e+00,5.070897901620829984e-01,-0.000000000000000000e+00,-1.459358930587768555e-01,8.618872279666520342e+01,0.000000000000000000e+00
1.323858999999999897e+00,1.416764216549191643e-02,6.933492751189369863e-02,1.014330029487609863e+00,1.233096885031146825e-02,-7.538597246379730166e-03,5.264172541057049112e-03,2.164586232350933920e-02,4.548953417389139248e-02,3.226362541317939758e-02,4.376249833469692159e-03,1.508288971725123793e-02,3.647075717023116198e-02,5.889940282933343180e-03,-2.250588088070808179e-02,1.486475939070247554e-02,0.000000000000000000e+00,0.000000000000000000e+00,0.000000000000000000e+00,5.066256337211042515e-01,0.000000000000000000e+00,-1.761540174484252930e-01,1.095046458682034256e+02,0.000000000000000000e+00
1.349739000000000022e+00,1.458797010603827063e-02,7.043430162845505660e-02,1.014255881309509277e+00,1.334893886956175883e-02,-7.506578745461789381e-03,5.764390687993429900e-03,4.491128716335848758e-02,5.476791136513187164e-02,2.610396780073642731e-02,4.758416228200956083e-02,-3.792773231600145289e-02,3.402917812733159079e-03,9.573780757287151874e-03,1.110008499477135868e-03,1.613478594244827091e-02,0.000000000000000000e+00,0.000000000000000000e+00,0.000000000000000000e+00,5.070673404603640577e-01,-0.000000000000000000e+00,-1.820057630538940430e-01,-1.061336128335327942e+02,0.000000000000000000e+00
1.371162999999999910e+00,1.488937583167680885e-02,7.114813928178174984e-02,1.014153838157653809e+00,1.324831729000239093e-02,-7.363689378899529459e-03,6.344905202312662792e-03,2.714654322781147322e-02,4.261624752002437372e-02,2.859653346240520477e-02,9.782784528474290035e-04,9.501230320506736868e-03,4.401915752547271715e-02,-1.259315636060374076e-04,-1.562197204079375165e-02,1.785616750187063451e-02,0.000000000000000000e+00,0.000000000000000000e+00,0.000000000000000000e+00,5.068354290397438788e-01,-0.000000000000000000e+00,-1.986120939254760742e-01,-9.601332154032490962e+01,0.000000000000000000e+00
1.398551000000000100e+00,1.537852967583444239e-02,7.216271824953755798e-02,1.013865232467651367e+00,1.370355256234392048e-02,-6.931593638227484533e-03,6.871375635156688408e-03,3.572462999415103313e-02,4.810747548119078537e-02,1.167474221438169479e-02,-8.317425799654396337e-03,3.672010049129582898e-02,3.300627839515326428e-02,3.888421172102855816e-03,-2.696925369545040158e-03,1.925765046681887638e-02,0.000000000000000000e+00,0.000000000000000000e+00,0.000000000000000000e+00,5.081033763345479404e-01,0.000000000000000000e+00,6.995141506195068359e-02,9.233710199315977718e+01,0.000000000000000000e+00
1.419983999999999913e+00,1.575883091063884703e-02,7.282134665113945693e-02,1.013694047927856445e+00,1.393186408705032395e-02,-6.915856264380071394e-03,7.232128841652336361e-03,2.990741202693911194e-02,4.082480076538234914e-02,2.463558688759803772e-02,-2.623981170984110173e-03,2.265315412059971251e-02,7.276243464375876241e-03,-3.252196913400779658e-03,-8.102453835551167230e-03,2.029925140040939047e-02,0.000000000000000000e+00,0.000000000000000000e+00,0.000000000000000000e+00,5.071073065773934463e-01,-0.000000000000000000e+00,-2.685061693191528320e-01,8.887302812161523491e+01,0.000000000000000000e+00
1.446571999999999969e+00,1.629515401406279526e-02,7.442879808930158436e-02,1.013228297233581543e+00,1.394784995927451920e-02,-6.970755357762925541e-03,7.946750678188724618e-03,3.864650422043001271e-02,4.576311084245986843e-02,1.912400498986244202e-02,2.200530931157439543e-02,-1.019247294510632063e-02,6.547466429937824108e-03,3.033118227257896107e-03,1.573547729493232107e-04,2.225168291136825349e-02,0.000000000000000000e+00,0.000000000000000000e+00,0.000000000000000000e+00,5.075301420467620561e-01,-0.000000000000000000e+00,5.974137783050537109e-02,7.569145970278596280e+01,0.000000000000000000e+00
1.472269000000000050e+00,1.687765389453331488e-02,7.599556896515577420e-02,1.012681007385253906e+00,1.356243064561932048e-02,-6.679984672387062616e-03,8.745247488542750788e-03,2.423444005311794006e-02,3.429251848993864621e-02,1.723439060151576996e-02,-5.423872494447323084e-02,4.426773793163109316e-02,5.739115778424208614e-02,-3.172140385257284784e-03,-1.053037018192861871e-02,2.454892447862655480e-02,0.000000000000000000e+00,0.000000000000000000e+00,0.000000000000000000e+00,5.076738212152772656e-01,-0.000000000000000000e+00,1.559752225875854492e-01,7.019353991151922401e+01,0.000000000000000000e+00
1.499114999999999975e+00,1.748517569850299713e-02,7.749225960430726479e-02,1.012000441551208496e+00,1.341221340293184162e-02,-6.782146814558354109e-03,9.445465214331417309e-03,4.055112455915330094e-02,4.613257086945730945e-02,1.308938395231962204e-02,2.272513088282044832e-02,-3.596545253661929259e-02,4.538309660372823184e-02,1.034515464638783265e-02,4.997425736083058005e-03,2.641881043613453217e-02,0.000000000000000000e+00,0.000000000000000000e+00,0.000000000000000000e+00,5.080240935976627625e-01,-0.000000000000000000e+00,-2.787395715713500977e-01,7.812129266982883280e+01,0.000000000000000000e+00
1.521225999999999967e+00,1.793886217408910411e-02,7.848263786662533492e-02,1.011495113372802734e+00,1.291970208365178854e-02,-6.726655131930936449e-03,9.970187659999039942e-03,2.412920878876458411e-02,2.909068160865416544e-02,2.741771191358566284e-02,-1.238493170580649665e-03,-1.758731276881254565e-02,4.028796599593485045e-02,-7.527132764353892426e-04,-1.000766230969159926e-02,2.797389624433410660e-02,0.000000000000000000e+00,0.000000000000000000e+00,0.000000000000000000e+00,5.069408460026677554e-01,-0.000000000000000000e+00,-2.781974077224731445e-01,1.001745664808309755e+02,0.000000000000000000e+00
1.546829000000000010e+00,1.878322045420514202e-02,7.978950010877994270e-02,1.010723471641540527e+00,1.239456047090970250e-02,-6.469384710947823081e-03,1.054412331988542444e-02,4.050564308391253754e-02,4.092870291013053080e-02,8.636232465505599976e-03,-2.698767423814086783e-02,5.598399372535103197e-02,1.442103346186263992e-02,1.559807715039763024e-02,8.226079330870906051e-03,2.947749793269616170e-02,0.000000000000000000e+00,0.000000000000000000e+00,0.000000000000000000e+00,5.083956747715150382e-01,-0.000000000000000000e+00,-4.123693704605102539e-01,-3.455354708182192702e+00,0.000000000000000000e+00
1.575075000000000003e+00,1.971127427219671047e-02,8.105228512150002007e-02,1.009939193725585938e+00,1.189006160072500831e-02,-6.227806791198720049e-03,1.123192265538969399e-02,3.568502552040073161e-02,3.074564641373699406e-02,1.477496884763240814e-02,-9.502169617737574181e-03,-3.599618598974019864e-03,6.947239401328944575e-02,1.014193661907874557e-02,4.249801051945722996e-03,3.142814447938124811e-02,0.000000000000000000e+00,0.000000000000000000e+00,0.000000000000000000e+00,5.079649182130957508e-01,-0.000000000000000000e+00,-1.545647382736206055e-01,7.685190884277113810e+01,0.000000000000000000e+00
1.596306999999999920e+00,2.032643275459816712e-02,8.186281542268589173e-02,1.009384393692016602e+00,1.153853244071890473e-02,-6.137995855080902174e-03,1.144489722762351280e-02,3.366961497743210796e-02,3.835576642384944807e-02,1.394137460738420486e-02,-1.559002554160800712e-02,1.549811498790538977e-02,-1.350664754805195461e-02,2.107908580506995255e-02,4.573755797374247888e-03,3.202219976568448923e-02,0.000000000000000000e+00,0.000000000000000000e+00,0.000000000000000000e+00,5.080525248165522756e-01,-0.000000000000000000e+00,5.455669164657592773e-01,-3.686731635184605782e+00,0.000000000000000000e+00
1.623728999999999978e+00,2.109545574704475152e-02,8.317383750790145747e-02,1.008618712425231934e+00,1.112262121646121621e-02,-6.202888081618285199e-03,1.214884579589559435e-02,3.766127535879466859e-02,2.542202189652334812e-02,1.374445669353008270e-02,-2.237752015242408521e-02,1.918926832315912337e-02,2.302556732784434915e-02,1.322250182940023014e-02,8.364778770371700256e-03,3.397481362895177215e-02,0.000000000000000000e+00,0.000000000000000000e+00,0.000000000000000000e+00,5.080972363469062891e-01,-0.000000000000000000e+00,-4.219485521316528320e-01,2.742166589484877193e+01,0.000000000000000000e+00
1.647651999999999894e+00,2.136290668184499114e-02,8.423869401626765674e-02,1.008016705513000488e+00,1.109599189507078261e-02,-6.349167068096850386e-03,1.248685722844305145e-02,4.150151659425158762e-02,3.906421313064931122e-02,1.040337793529033661e-02,-1.921465824897019420e-02,-2.087271541700582919e-02,2.427834077065497455e-03,2.744800844341056117e-02,1.047682103829136388e-02,3.490609041208525554e-02,0.000000000000000000e+00,0.000000000000000000e+00,0.000000000000000000e+00,5.083851008321279563e-01,-0.000000000000000000e+00,2.785801887512207031e-03,8.925568946986520302e+01,0.000000000000000000e+00
1.677149999999999919e+00,2.182415075882505537e-02,8.576523257345644580e-02,1.007185220718383789e+00,1.115307203325332196e-02,-6.579722557645606429e-03,1.301373296068347556e-02,3.279613508537664035e-02,2.662303440002361174e-02,1.672905683517456055e-02,4.907055796804089300e-03,-3.235934410995588290e-02,1.104546829888130265e-02,1.642743232352017468e-02,1.795127451863832470e-03,3.643112474666065914e-02,0.000000000000000000e+00,0.000000000000000000e+00,0.000000000000000000e+00,5.079424580644362752e-01,-0.000000000000000000e+00,-2.889820337295532227e-01,8.866365550279766694e+01,0.000000000000000000e+00
1.701656000000000057e+00,2.216398169065132012e-02,8.672385000368557084e-02,1.006605267524719238e+00,1.103489775541145572e-02,-6.701705798653145862e-03,1.347382259139050069e-02,2.854067925739749503e-02,3.182590426343994555e-02,6.018289364874362946e-03,-5.341799913233537256e-02,4.949452205709337083e-02,2.676737015463265951e-02,2.408882406540834020e-02,-7.691109417214019636e-04,3.773379813154903450e-02,0.000000000000000000e+00,0.000000000000000000e+00,0.000000000000000000e+00,5.087763385047934239e-01,-0.000000000000000000e+00,6.815162897109985352e-01,-5.230628875834756997e+00,0.000000000000000000e+00
1.723973999999999895e+00,2.254011899067579969e-02,8.768768477149375962e-02,1.006078600883483887e+00,1.151413983611223983e-02,-7.306423185167387757e-03,1.377155004450409531e-02,4.181017932354730293e-02,3.914045537311185846e-02,6.969444919377565384e-03,1.220546688343169921e-02,-1.128716550091056307e-02,9.659460625602986003e-03,2.708244098660213955e-02,7.328736309153038864e-03,3.852023225984585464e-02,0.000000000000000000e+00,0.000000000000000000e+00,0.000000000000000000e+00,5.087416990899169544e-01,-0.000000000000000000e+00,-1.088603734970092773e-01,1.791537172500350721e+02,0.000000000000000000e+00
1.747389999999999999e+00,2.313867623639076845e-02,8.793796294177429196e-02,1.005483031272888184e+00,1.164462760801052675e-02,-7.673488395653738081e-03,1.422506108883718826e-02,3.574346778249180151e-02,2.895580197551100160e-02,6.181948352605104446e-03,8.261953666932086646e-03,-2.962176664313165980e-02,5.142583384386356649e-02,1.743885743786196402e-02,-1.446962261785578662e-03,3.984091295471858807e-02,0.000000000000000000e+00,0.000000000000000000e+00,0.000000000000000000e+00,5.088244546700627646e-01,-0.000000000000000000e+00,1.254369020462036133e-01,6.042731196450645115e+01,0.000000000000000000e+00
1.775034000000000001e+00,2.408553464993568732e-02,8.832631770711107944e-02,1.004555821418762207e+00,1.212348963123032614e-02,-8.332308516220132688e-03,1.460209468193457254e-02,3.443047869778068093e-02,3.015690408551682106e-02,4.043471533805131912e-03,-1.276726087010397748e-04,-4.165343799297821503e-02,1.956180057861749144e-02,1.738597931276064656e-02,-5.036562298154178066e-03,4.091802453492671132e-02,0.000000000000000000e+00,0.000000000000000000e+00,0.000000000000000000e+00,5.090471477079723250e-01,-0.000000000000000000e+00,-3.023129701614379883e-01,9.786896782460148358e+01,0.000000000000000000e+00
1.797808000000000073e+00,2.473542655692004960e-02,8.853144403143982377e-02,1.003991961479187012e+00,1.263986794572318634e-02,-8.610361129200105879e-03,1.486541638883833762e-02,4.041772955761572389e-02,2.632555130833386797e-02,9.761891327798366547e-03,3.963235545208743799e-02,9.708692068349200968e-03,-1.794203324903295010e-02,1.129889645743031856e-02,-1.057608745307106858e-03,4.163191593138521052e-02,0.000000000000000000e+00,0.000000000000000000e+00,0.000000000000000000e+00,5.086506424370114132e-01,-0.000000000000000000e+00,-2.777534723281860352e-01,9.706334701199847359e+01,0.000000000000000000e+00
1.820154000000000050e+00,2.540408798476199992e-02,8.873194249979317327e-02,1.003443837165832520e+00,1.296149709075218939e-02,-8.818815392687140431e-03,1.533571450351955273e-02,3.279898142800013322e-02,1.973856155279531815e-02,9.312031790614128113e-03,1.929777173495766940e-02,-4.149971621360935142e-02,4.374115652925390785e-02,4.955916277227581483e-03,-8.888905304593283652e-03,4.299384019761326448e-02,0.000000000000000000e+00,0.000000000000000000e+00,0.000000000000000000e+00,5.087073248177623741e-01,-0.000000000000000000e+00,-1.274758577346801758e-01,9.091306902291464098e+01,0.000000000000000000e+00
1.848146000000000067e+00,2.617564181773211415e-02,8.924155995770910454e-02,1.002732515335083008e+00,1.364567682491971828e-02,-8.967330689430674795e-03,1.540620179663433793e-02,3.625381695362073914e-02,2.399821346169757341e-02,4.328707698732614517e-03,6.106404709732430464e-02,-2.799256660271273386e-02,-1.342522308751968770e-02,5.503629302970473695e-03,-5.172750842346136683e-03,4.317169084878069718e-02,0.000000000000000000e+00,0.000000000000000000e+00,0.000000000000000000e+00,5.091301127807902338e-01,-0.000000000000000000e+00,-1.913105249404907227e-01,9.015245232675285081e+01,0.000000000000000000e+00
1.874900999999999929e+00,2.656712839210224539e-02,9.014589407029252599e-02,1.002121090888977051e+00,1.416750581412959051e-02,-9.052315881187489310e-03,1.555784822508347702e-02,3.042189576983100885e-02,1.590132215784363992e-02,1.305389497429132462e-02,7.522529377774172209e-03,4.382397019150521128e-02,-4.955886514458751266e-03,-3.946687638056664733e-03,-1.049159083487365661e-02,4.362750387414060516e-02,0.000000000000000000e+00,0.000000000000000000e+00,0.000000000000000000e+00,5.085053704740991609e-01,-0.000000000000000000e+00,4.952609539031982422e-02,5.535873444937212184e+01,0.000000000000000000e+00
1.897246999999999906e+00,2.682794338026918413e-02,9.072492435298037949e-02,1.001753091812133789e+00,1.450485718858273571e-02,-9.114290353961829183e-03,1.568511105564626001e-02,4.807140553602194666e-02,2.673611271544627452e-02,5.447180010378360748e-03,2.644679673485478971e-02,-2.625342210771157078e-02,2.046154419864367260e-02,4.307401288883279909e-03,4.841639138478594923e-03,4.389020575027768878e-02,0.000000000000000000e+00,0.000000000000000000e+00,0.000000000000000000e+00,5.091069673347413671e-01,-0.000000000000000000e+00,-1.868664026260375977e-01,6.063747005507857324e+01,0.000000000000000000e+00
1.921799000000000035e+00,2.711382907065355494e-02,9.127521593033482983e-02,1.001359462738037109e+00,1.451086338233233651e-02,-8.976539603511968224e-03,1.574492743692459257e-02,2.922770426462376059e-02,1.490254306610953872e-02,1.201492920517921448e-02,2.877686841841529258e-02,-1.544596268542310427e-03,-1.208315718584755151e-02,-5.901711648165007366e-03,-1.189620865637198120e-02,4.416089060247940790e-02,0.000000000000000000e+00,0.000000000000000000e+00,0.000000000000000000e+00,5.086196024273159644e-01,-0.000000000000000000e+00,-1.216161251068115234e-02,1.129359826430560787e+02,0.000000000000000000e+00
1.948870000000000102e+00,2.770490198556673292e-02,9.176838835837891617e-02,1.000757217407226562e+00,1.405346779596823407e-02,-8.893482648801853685e-03,1.582419198989505268e-02,3.677194458158162399e-02,1.689720917750141618e-02,8.538682013750076294e-04,-2.366553824893356806e-02,2.795904595232228187e-02,6.958898479052138923e-03,7.908615104797525608e-04,-1.893119672240625977e-03,4.432204553681023951e-02,0.000000000000000000e+00,0.000000000000000000e+00,0.000000000000000000e+00,5.095001747869627451e-01,-0.000000000000000000e+00,-2.277481555938720703e-02,5.137099680435187565e+01,0.000000000000000000e+00
1.970061000000000062e+00,2.828016143872006880e-02,9.172859521002253713e-02,1.000346064567565918e+00,1.428589372775278081e-02,-9.288149864977279790e-03,1.596980374442841591e-02,3.990327540368995840e-02,1.900488018212807828e-02,6.789131090044975281e-03,2.938981105717631062e-02,-2.367866520806221481e-02,-1.325091326958316267e-02,1.142574560092335725e-03,-2.307794649715904072e-03,4.473261597665334488e-02,0.000000000000000000e+00,0.000000000000000000e+00,0.000000000000000000e+00,5.090846663106554093e-01,-0.000000000000000000e+00,-3.875211477279663086e-01,1.630193351096042420e+02,0.000000000000000000e+00
1.997465999999999964e+00,2.917128390184882750e-02,9.160551081160943354e-02,9.998262524604797363e-01,1.428663344168326979e-02,-9.229163985969845996e-03,1.599334888763475487e-02,2.930744397089414185e-02,5.800314740293635411e-03,1.619709841907024384e-02,1.984977334628262174e-02,1.060460259074050109e-02,-1.400953517730508559e-02,-9.378192790634329312e-03,-1.027099857588471658e-02,4.484394333649482922e-02,0.000000000000000000e+00,0.000000000000000000e+00,0.000000000000000000e+00,5.083967894879007909e-01,-0.000000000000000000e+00,2.684530019760131836e-01,6.745242790324219584e+01,0.000000000000000000e+00
2.021339999999999915e+00,2.975216036588831936e-02,9.151243532584399376e-02,9.995496869087219238e-01,1.391846286455345090e-02,-9.123486567016891868e-03,1.614597119898520880e-02,3.449207622284446856e-02,1.159496253245135937e-02,3.468842245638370514e-03,-3.359150731067378493e-02,-2.367663120108700215e-03,2.419197825563543236e-02,-3.367823672475777144e-04,-3.245546025657512768e-03,4.523081367517683971e-02,0.000000000000000000e+00,0.000000000000000000e+00,0.000000000000000000e+00,5.093694418698881954e-01,-0.000000000000000000e+00,9.109199047088623047e-02,6.836796695015821967e+01,0.000000000000000000e+00
2.049649000000000054e+00,3.064117976788613765e-02,9.133668373193803980e-02,9.991884827613830566e-01,1.376042634038727834e-02,-9.277062056919138655e-03,1.635713245003031502e-02,3.757348847268009162e-02,4.618283770623521529e-03,1.411372516304254532e-02,1.976832838075257351e-02,-4.521423269918823512e-02,3.527251861966376224e-03,-5.464883664045711888e-03,-1.626784628808623269e-03,4.581137979120364356e-02,0.000000000000000000e+00,0.000000000000000000e+00,0.000000000000000000e+00,5.085882309439214710e-01,-0.000000000000000000e+00,8.940652608871459961e-01,-3.069219611097724254e+01,0.000000000000000000e+00
2.075245999999999924e+00,3.125401131942509569e-02,9.081819736612255223e-02,9.989387989044189453e-01,1.376734330408947021e-02,-8.900286347579777768e-03,1.651656286806733528e-02,3.610035859705033878e-02,6.881202113490634750e-03,5.623472388833761215e-03,-1.330076461766234799e-02,3.767684068603334435e-02,1.992204933547599838e-02,-2.766056273426826563e-03,-2.658689322835425706e-04,4.625028237773337603e-02,0.000000000000000000e+00,0.000000000000000000e+00,0.000000000000000000e+00,5.092360462619570649e-01,-0.000000000000000000e+00,4.992669820785522461e-01,6.023961836611449883e+01,0.000000000000000000e+00
2.098745000000000083e+00,3.189517448451920784e-02,9.032179519199003137e-02,9.986460208892822266e-01,1.385947238871339075e-02,-9.020403426889700427e-03,1.665045291639222907e-02,3.210031022949670632e-02,2.038921022153149069e-03,1.364877540618181229e-02,2.982889463710451314e-02,-4.892964319877354806e-02,5.226498160143989644e-03,-7.458927824624548078e-03,-3.389065556817924801e-03,4.664288227492902061e-02,0.000000000000000000e+00,0.000000000000000000e+00,0.000000000000000000e+00,5.086449828465758882e-01,-0.000000000000000000e+00,2.431148290634155273e-01,-2.586219966487239841e+00,0.000000000000000000e+00
2.123475000000000001e+00,3.252387841927123491e-02,8.978613861132714313e-02,9.983847737312316895e-01,1.353027728050562942e-02,-8.802556056666244189e-03,1.676773628387408233e-02,2.650019540104882332e-02,-3.328209993696594569e-03,7.556625641882419586e-03,-4.193212323825658283e-02,3.435974169292650704e-02,9.780163674771384305e-03,-9.075536845022847202e-03,-5.449796038980572049e-03,4.698190450065670154e-02,0.000000000000000000e+00,0.000000000000000000e+00,0.000000000000000000e+00,5.091086657539574123e-01,-0.000000000000000000e+00,8.319920301437377930e-01,-7.237402999272160287e+01,0.000000000000000000e+00
2.148038999999999810e+00,3.313397108925644763e-02,8.927256863373232709e-02,9.981237649917602539e-01,1.364262068732405818e-02,-9.131768640544324356e-03,1.703779515189028648e-02,3.584982746731058684e-02,8.185069836117107520e-03,1.004252489656209946e-02,1.470816857397481579e-03,-2.952537008973965191e-02,-5.574797821842238620e-03,2.849475700434887793e-04,1.680456163645437356e-03,4.769829104389500252e-02,0.000000000000000000e+00,0.000000000000000000e+00,0.000000000000000000e+00,5.089460124604674451e-01,-0.000000000000000000e+00,3.228987455368041992e-01,8.568145147719752686e+01,0.000000000000000000e+00
2.171729000000000021e+00,3.374124444698092112e-02,8.868565604400352465e-02,9.978525638580322266e-01,1.397354188999352584e-02,-9.146682448517795549e-03,1.718484299643504784e-02,3.859297192598011572e-02,-3.502480460655432292e-03,7.577108219265937805e-03,3.634651855143428145e-02,-1.632230096143843373e-02,2.493043202099520100e-02,-1.324170385958527499e-02,2.904601229077816323e-03,4.810280068786643159e-02,0.000000000000000000e+00,0.000000000000000000e+00,0.000000000000000000e+00,5.091378471193173105e-01,-0.000000000000000000e+00,1.904534101486206055e-01,7.155422287721248154e+01,0.000000000000000000e+00
2.200164000000000009e+00,3.472756147368967483e-02,8.919637939417505990e-02,9.974560737609863281e-01,1.372988703164439855e-02,-9.320769832902753294e-03,1.741897661016561169e-02,1.844267660602078029e-02,-7.229554134899406764e-03,9.175723418593406677e-03,-2.600383073502045284e-02,1.039810046702673192e-02,4.158868389621631773e-02,-1.211893174021503976e-02,-1.420119599942272839e-02,4.885381081115386381e-02,0.000000000000000000e+00,0.000000000000000000e+00,0.000000000000000000e+00,5.090351056684461195e-01,-0.000000000000000000e+00,-1.897132396697998047e-02,9.636584126376760651e+01,0.000000000000000000e+00
2.224868999999999986e+00,3.535888886174534673e-02,8.950188510486326021e-02,9.972192049026489258e-01,1.357499812013080766e-02,-9.598265071637746004e-03,1.752733328699494775e-02,4.162202719973927267e-02,-1.690960120492811507e-03,7.666367571800947189e-03,2.736985102028919974e-03,-3.194323813893501854e-03,-1.698670964552119814e-02,-5.903041396097394831e-03,6.593141131277915033e-03,4.904056065629497363e-02,0.000000000000000000e+00,0.000000000000000000e+00,0.000000000000000000e+00,5.091738518218036358e-01,-0.000000000000000000e+00,-5.263555049896240234e-02,9.836244216194572232e+01,0.000000000000000000e+00
2.247962999999999933e+00,3.596928469992546895e-02,8.979010542715371024e-02,9.970172047615051270e-01,1.340163107858566294e-02,-9.823010099393458816e-03,1.777408264433969626e-02,3.018639457810431276e-02,-7.217177119022831489e-03,5.254026036709547043e-03,-1.119615506479684948e-02,-2.093192427922937679e-02,2.199757093947904765e-02,-9.520606354085879575e-03,-7.076825632792408012e-03,4.980786613938725793e-02,0.000000000000000000e+00,0.000000000000000000e+00,0.000000000000000000e+00,5.093573514175897543e-01,-0.000000000000000000e+00,-1.490989923477172852e-01,7.992374544084934485e+01,0.000000000000000000e+00
2.273131999999999930e+00,3.664505450538310671e-02,9.000756545458366009e-02,9.968203306198120117e-01,1.331178174007250845e-02,-9.894609527821618400e-03,1.794197676099862707e-02,2.525623792940020693e-02,-1.016013989876144580e-02,1.667855493724346161e-02,1.067756501629937328e-02,1.960341710298378962e-02,9.040802588281549035e-03,-9.882068424267503870e-03,-9.067014033044204502e-03,5.028839969521448072e-02,0.000000000000000000e+00,0.000000000000000000e+00,0.000000000000000000e+00,5.085074214570179940e-01,-0.000000000000000000e+00,-1.279596090316772461e-01,1.013091292038618008e+02,0.000000000000000000e+00
2.297362999999999822e+00,3.728904717158357945e-02,9.018275363537830991e-02,9.966620206832885742e-01,1.303466307692035739e-02,-9.947779833695769014e-03,1.799784113990232984e-02,3.126251975454716336e-02,-3.952568586293238838e-03,-1.529689761810004711e-03,-3.350290921438358032e-03,-1.922290019319106494e-02,1.471034266431169892e-02,-2.603966326283798684e-03,-3.298915670008098402e-03,5.041401123212163604e-02,0.000000000000000000e+00,0.000000000000000000e+00,0.000000000000000000e+00,5.098851592737907445e-01,-0.000000000000000000e+00,-4.749232530593872070e-01,1.189110526195507447e+02,0.000000000000000000e+00
2.321823000000000192e+00,3.791142963754706025e-02,9.027933851138940369e-02,9.965331554412841797e-01,1.282668464402927401e-02,-1.026803912009510711e-02,1.822776639912954827e-02,2.456380992243512723e-02,-1.207701680631490838e-02,1.242172811180353165e-02,-4.564822970663178804e-03,-2.308281384575559814e-02,-1.587648279347201458e-02,-8.137749067417016091e-03,-1.100810931786850091e-02,5.109726930438412973e-02,0.000000000000000000e+00,0.000000000000000000e+00,0.000000000000000000e+00,5.088414151866021973e-01,-0.000000000000000000e+00,-2.086836099624633789e-01,6.414731302425136050e+01,0.000000000000000000e+00
2.348501999999999867e+00,3.882209208408983481e-02,9.039186533573481674e-02,9.963539838790893555e-01,1.278955783537815902e-02,-1.064121860896083405e-02,1.853957297495020806e-02,3.492414487873832935e-02,-5.311286046001596761e-03,8.851542370393872261e-04,9.639977783939440367e-03,1.832324378634255999e-02,1.587152583488402394e-02,-1.203475841311090096e-03,-3.203807138194425877e-03,5.192979523193097524e-02,0.000000000000000000e+00,0.000000000000000000e+00,0.000000000000000000e+00,5.097248336848061445e-01,-0.000000000000000000e+00,1.051040887832641602e-01,5.570029171919694733e+01,0.000000000000000000e+00
2.369242999999999988e+00,3.944523571092787423e-02,9.043303899605008300e-02,9.961796402931213379e-01,1.298692322923774255e-02,-1.105692327562635136e-02,1.869539755234563352e-02,2.528008228138697161e-02,-7.311861989552685681e-03,6.994421128183603287e-03,3.948070861022999478e-02,-6.637671892431816489e-02,8.161711921214431439e-03,-4.581526617945919089e-03,-1.459020583183329514e-02,5.242850589517494830e-02,0.000000000000000000e+00,0.000000000000000000e+00,0.000000000000000000e+00,5.092748450428914442e-01,-0.000000000000000000e+00,-3.993831872940063477e-01,7.980899143260396045e+01,0.000000000000000000e+00
2.396215000000000206e+00,4.033147387335769135e-02,9.042184001072282873e-02,9.959017634391784668e-01,1.282079690383882732e-02,-1.122917597770922704e-02,1.886508204642698208e-02,2.287072726292549429e-02,-1.570419351600910868e-02,4.392820876091718674e-03,-7.046463675358293800e-03,1.433007714138022359e-02,-1.824119506427794232e-02,-9.843660660192696255e-03,-1.557046939509510765e-02,5.290461515085492783e-02,0.000000000000000000e+00,0.000000000000000000e+00,0.000000000000000000e+00,5.094850779666434404e-01,-0.000000000000000000e+00,-7.246363162994384766e-02,9.170610179687730579e+01,0.000000000000000000e+00
2.423556000000000044e+00,4.107764111553359465e-02,9.027333630796290087e-02,9.955630898475646973e-01,1.268746844306064409e-02,-1.178967667088270943e-02,1.925200672162359974e-02,2.987234958884649183e-02,-9.038650306859206951e-03,-5.184306763112545013e-03,-4.702333861854470875e-04,-2.293821726345357526e-02,4.495834586504730140e-02,-2.445402830711143269e-03,-1.245259276393938241e-02,5.397415474130556889e-02,0.000000000000000000e+00,0.000000000000000000e+00,0.000000000000000000e+00,5.102385320601928731e-01,-0.000000000000000000e+00,-4.697811603546142578e-02,7.668529320815784445e+01,0.000000000000000000e+00
