timestamp,x,y,z,roll,pitch,yaw,vx,vy,vz,p,q,r,psp,qsp,rsp,pres,qres,rres,thrust_sp, thrust_res
0.000000000000000000e+00,1.639859144843250805e-04,-1.892052904579602166e-03,9.944105744361877441e-01,7.910057657627206015e-03,-9.212241593248515770e-03,-1.300281613402831660e-02,-7.544014940810633320e-03,-2.742897787651457295e-02,1.019433373585343361e-03,-3.858771434052655352e-02,2.369280153679805077e-03,5.617984983066163368e-02,-2.745154726458248207e-01,1.375046284317247292e-01,3.901744475848112348e-02,-1.998063784914488883e-01,2.032949754897782901e-01,7.536373250882499875e-02,5.257632772304838831e-01,7.254011631011962891e-01,-6.841405630111694336e-01,9.565496200514184011e+01,0.000000000000000000e+00
2.344999999999999862e-02,8.190205331100432271e-05,-2.446093406460578615e-03,9.946231245994567871e-01,8.502414189335111630e-03,-9.442155177267874677e-03,-1.294072313050453893e-02,7.113543433165996077e-03,-1.996137472997427942e-02,6.398140452802181244e-03,4.456909570836084522e-02,2.020764859045929857e-03,-2.044937349474933511e-02,-2.874646428521668295e-01,1.569173754297504275e-01,-1.831000832107749499e-01,-2.186513884368671001e-01,2.114011364948881477e-01,-1.469416450818799291e-01,5.252310543311244917e-01,7.186622619628906250e-01,-7.148011922836303711e-01,-2.015637659923328329e+01,0.000000000000000000e+00
4.636599999999999749e-02,-4.267022788019080417e-04,-2.952603553154644744e-03,9.951100349426269531e-01,8.909566181441279376e-03,-9.713953824305177065e-03,-1.283584906825452343e-02,-3.753374910310192103e-03,-3.505719051570235778e-02,1.628445088863372803e-02,3.761406597175607353e-02,-5.615467225345829178e-02,-2.993630573835744796e-02,-2.499735848807252137e-01,5.145188444610447609e-02,1.702443449272445647e-02,-1.645974326505166008e-01,1.188464163729212320e-01,5.289649019559867354e-02,5.247377088340795526e-01,7.332804203033447266e-01,-6.873658895492553711e-01,7.152016072382163259e+01,0.000000000000000000e+00
7.288799999999999446e-02,-7.855574500124040639e-04,-3.244642339636351434e-03,9.954159855842590332e-01,8.670698167829124850e-03,-9.537684490152020800e-03,-1.190888350270524754e-02,-2.484687879170634477e-03,-1.773626313081142630e-02,7.931137457489967346e-03,-2.648357050445787272e-02,5.229672444771641532e-02,5.711251702220924292e-02,-2.905865841978256814e-01,1.607115658177569739e-01,5.303485523883212649e-02,-2.227763488420020643e-01,2.247160633919161321e-01,8.628425438441279793e-02,5.244646457699119191e-01,6.869621276855468750e-01,-7.235296964645385742e-01,9.756512685937346419e+01,0.000000000000000000e+00
9.561200000000000254e-02,-1.367504928551291484e-03,-3.569706121368819689e-03,9.958535432815551758e-01,5.933422708716774331e-03,-1.062824486132973867e-02,-1.071051792927524282e-02,-4.491002404310516505e-03,-1.467787283189818902e-02,4.175940062850713730e-03,-9.246092394685812010e-02,-8.057134862408317499e-02,2.879546559199332428e-03,-1.738733276924101789e-01,1.194577797121058604e-01,-2.502346399974416657e-01,-1.234920786690870409e-01,1.926936883660319844e-01,-2.203102777911365995e-01,5.258939178067818521e-01,7.515563964843750000e-01,-1.023622870445251465e+00,-1.081820941410990500e+01,0.000000000000000000e+00
1.210500000000000048e-01,-1.738035227439803073e-03,-3.709707797447765396e-03,9.960882663726806641e-01,1.791485779280203080e-03,-1.174388674707205205e-02,-1.070186712354925795e-02,-8.387026704526798562e-03,-1.316881717050195216e-02,2.241758862510323524e-03,-2.726405844758645336e-01,-6.422766872451893261e-02,-1.959025316322813778e-02,7.955791697818481722e-02,1.360032553718180104e-01,-2.532197396523959698e-01,1.024049848377832361e-01,2.195482657354776157e-01,-2.232558641460894167e-01,5.260789399032220759e-01,7.548263072967529297e-01,-7.074033021926879883e-01,1.000082377141628314e+02,0.000000000000000000e+00
1.491250000000000075e-01,-2.130111147371831389e-03,-4.469276836473203528e-03,9.963046908378601074e-01,-5.409808583572118905e-03,-1.501102817615462826e-02,-9.823821134204990813e-03,-7.979151448852635914e-03,-2.694217333939132042e-03,-1.287398394197225571e-02,-2.668243654191028158e-01,-1.285292002060340055e-01,9.530767090041014633e-02,-9.015235219179913717e-02,1.216914617906502405e-01,-2.459141681009031910e-01,-1.218889988036224031e-01,2.216914617906502460e-01,-2.182745002359227915e-01,5.271268587305856235e-01,7.522614002227783203e-01,-1.582065939903259277e+00,9.860006444317046714e+01,0.000000000000000000e+00
1.742900000000000005e-01,-2.480061476004216930e-03,-4.863253719953668404e-03,9.964811801910400391e-01,-9.498411179347859487e-03,-1.804447169562228837e-02,-8.089301007022431378e-03,-3.084767743440234439e-02,-4.753091937678881676e-03,2.374839270487427711e-03,-1.792084283570507808e-01,-1.938780982241146422e-01,7.468267680782564311e-02,-8.018689585915492191e-02,-1.917585407880899040e-01,1.434320957793887019e-01,-1.348828461829055525e-01,-9.175854078808988457e-02,1.664068692401299288e-01,5.252890945153328994e-01,7.129379510879516602e-01,-7.828973531723022461e-01,9.103907235272303922e+01,0.000000000000000000e+00
1.994410000000000072e-01,-3.180408544916421467e-03,-5.454906498780552268e-03,9.969698786735534668e-01,-1.309282801473192481e-02,-2.326974759912836532e-02,-4.557641125680023109e-03,-1.114518786465312251e-02,-3.030180331896891420e-03,1.123351510614156723e-02,-6.102245548705653028e-02,-1.560194865237433115e-01,1.002378793795615647e-01,-7.376987750584768078e-02,3.456394128520479114e-02,1.857842819394860956e-01,-1.531857060675123061e-01,1.345639412852047967e-01,1.990204846202436872e-01,5.250337963556571674e-01,7.365212440490722656e-01,-1.318529963493347168e+00,9.022662818113919059e+01,0.000000000000000000e+00
2.239269999999999872e-01,-3.654027080819511903e-03,-5.801909801968284375e-03,9.973001480102539062e-01,-1.484006385353934913e-02,-2.612141561729930395e-02,-2.808980944783767697e-03,-2.324385715195524324e-02,-8.322156866606832126e-03,-2.533639548346400261e-03,-1.266142368862371026e-01,-1.254439118018081667e-01,6.300159522497668363e-02,1.164161846013939267e-01,-3.201720315608884704e-01,2.112528046560952222e-01,3.048682623183819607e-02,-2.201720315608884371e-01,2.197894220301858381e-01,5.248392221705810989e-01,6.725211143493652344e-01,-7.791022062301635742e-01,8.938346864885780008e+01,0.000000000000000000e+00
2.500530000000000252e-01,-3.301222204710210079e-03,-5.757469075647740110e-03,9.977590441703796387e-01,-1.712492702925414931e-02,-2.737126478803020291e-02,-3.381399566061427109e-03,-5.476839242698951053e-03,9.260636392106126255e-03,-1.815903699025511742e-03,-7.029812831207275792e-02,1.282069521477759242e-03,-4.260868831443371391e-02,3.161282644089680183e-01,1.167288110942538981e-01,2.104479241325341032e-01,2.161282644089680127e-01,2.167288110942539037e-01,2.205571197541249528e-01,5.258993379097582910e-01,7.347135543823242188e-01,-9.416056871414184570e-01,9.506214256631976411e+01,0.000000000000000000e+00
2.750480000000000147e-01,-3.056754865173550925e-03,-5.617184813529927344e-03,9.979385137557983398e-01,-1.856525090911380002e-02,-2.693310953804117780e-02,-4.788682620612050300e-03,-1.683714335160743994e-02,2.181944985466368562e-03,-4.626482259482145309e-03,-6.681012430339018648e-02,3.006620812454236479e-03,-7.727179385590972338e-02,3.146910728490340814e-01,1.079277169183085194e-01,2.108253410805011330e-01,2.146910728490340481e-01,2.079277169183085250e-01,2.250165778773356717e-01,5.260352016823086618e-01,7.313365936279296875e-01,-2.886248826980590820e-01,-8.549616893558258823e+01,0.000000000000000000e+00
3.014549999999999730e-01,-2.707099686971835457e-03,-5.336031426522222683e-03,9.982343316078186035e-01,-1.828753575221446492e-02,-2.390376067357902201e-02,-7.738467130419479645e-03,-7.053401523434723458e-03,1.839917069766425217e-02,-8.038097061216831207e-03,8.312545854071969054e-02,1.432963604703891003e-01,-9.088353577307681230e-02,3.262758674927413449e-01,1.199652451748973725e-01,-2.161926556982138870e-01,2.262758674927413394e-01,2.199652451748973780e-01,-1.939499178676572511e-01,5.245945911002991568e-01,6.402266025543212891e-01,-7.948750257492065430e-01,9.257870627467063684e+01,0.000000000000000000e+00
3.248050000000000104e-01,-2.570566599384614681e-03,-5.150050809412179409e-03,9.984967708587646484e-01,-1.508968455705294621e-02,-2.247815362175153986e-02,-1.015445988285623713e-02,-1.124183757147949672e-02,5.916150073617891525e-03,-4.474496236070990562e-04,2.133884940030116029e-01,-1.132172914004010364e-02,-1.164836461064105433e-01,-9.922721073166589079e-02,7.864783313244855245e-02,-1.126447294027742296e-01,-1.957479474651019347e-01,1.786478331324485580e-01,-8.369733763355088896e-02,5.255394111610037777e-01,7.225120067596435547e-01,-8.945382833480834961e-01,9.112806288741913363e+01,0.000000000000000000e+00
3.517270000000000119e-01,-2.586169178626173022e-03,-4.995128710400128201e-03,9.989230036735534668e-01,-7.028129091042095884e-03,-2.223796955875156911e-02,-1.255346012962732516e-02,-3.663789359360285214e-02,6.778178768408769928e-03,-8.566390722990036011e-03,2.908789640079456618e-01,1.370525665532984234e-03,5.072693743920346846e-03,-1.616771903664989407e-01,9.046385337923718017e-02,-6.725705758645086907e-02,-2.082975136714474151e-01,1.904638533792371857e-01,-3.184941769903429365e-02,5.264141083966200618e-01,7.390841245651245117e-01,-9.058431386947631836e-01,1.215949754539072671e+02,0.000000000000000000e+00
3.732579999999999787e-01,-2.666013554630632717e-03,-4.899600328522396402e-03,9.990865588188171387e-01,-3.629187548133455156e-03,-2.297332030626852983e-02,-1.242600687290562611e-02,-3.360067537490919742e-02,1.279032760222674828e-02,5.847609136253595352e-03,3.281232853675146721e-01,-7.108223238149279088e-02,-1.166002779331786095e-02,-1.763970026902719201e-01,4.978097477460524667e-02,1.210732047526887761e-02,-2.058201291285993162e-01,1.497809747746052522e-01,4.700150621916995147e-02,5.254568839682547399e-01,7.448759078979492188e-01,-9.513744115829467773e-01,6.281549443799057997e+01,0.000000000000000000e+00
4.037290000000000045e-01,-3.142839834181102802e-03,-4.472483064430941672e-03,9.994351267814636230e-01,4.032201864128661870e-03,-2.520081189143397182e-02,-1.132706892069146321e-02,-3.526365491189308032e-02,2.461230986910666746e-02,-7.317876443266868591e-03,1.722310038986983038e-01,-8.134037281518481655e-02,3.996736082108487409e-02,-2.106816689210375126e-01,-5.584586024617019251e-03,1.103724518309071312e-01,-1.992812290622768545e-01,9.441541397538298630e-02,1.418288069501618953e-01,5.264441950904917844e-01,7.475298643112182617e-01,-8.858276605606079102e-01,9.189486090477979019e+01,0.000000000000000000e+00
4.260189999999999810e-01,-3.505559652460021446e-03,-4.017283796062740865e-03,9.994844794273376465e-01,6.107102843732487192e-03,-2.617588776148926932e-02,-1.066977560417159410e-02,-4.369579965226953050e-02,2.731608251636571949e-02,-7.508121430873870850e-03,5.817825764183384707e-02,-6.215421667121103638e-02,2.442621177632072274e-02,-1.160412333550798897e-01,-2.832056316665379492e-01,9.533043288234362145e-02,-9.191409888218708690e-02,-1.832056316665379436e-01,1.248320031801295610e-01,5.259194123134200982e-01,7.179081439971923828e-01,-6.607846021652221680e-01,8.902176232098143771e+01,0.000000000000000000e+00
4.489070000000000005e-01,-3.929417321444051217e-03,-3.443504321381983101e-03,9.994466900825500488e-01,5.987272809474912527e-03,-2.692331536426362248e-02,-1.073194800368115764e-02,-3.023080246951204489e-02,3.995482588907522253e-02,-1.894799061119556427e-02,-8.181114868811029117e-02,-1.962999562740775153e-02,-4.082190576018727979e-02,-1.607937580119612464e-01,1.348189611762681817e-03,-2.505030879210077832e-01,-1.477634252363658751e-01,1.013481896117626874e-01,-2.208768161036784305e-01,5.271825100247158336e-01,7.404506206512451172e-01,-8.536967039108276367e-01,8.332191481709243419e+01,0.000000000000000000e+00
4.742199999999999749e-01,-4.442544333015224431e-03,-2.551713968955611218e-03,9.992580413818359375e-01,2.940921262676188079e-03,-2.793564397168246671e-02,-1.149252832345371012e-02,-4.577407316140478383e-02,3.904620935409301025e-02,-2.323936857283115387e-02,-1.327167360738685242e-01,-7.549808529419883840e-02,-3.193813130177893672e-02,-8.100674257863510475e-02,-3.094573963227885693e-01,1.711808123976439333e-01,-8.575209875338953014e-02,-2.094573963227885360e-01,2.030479669707753732e-01,5.255911837018705235e-01,6.347260475158691406e-01,-1.343181252479553223e+00,9.293457962099580527e+01,0.000000000000000000e+00
5.034990000000000299e-01,-4.848307720978305320e-03,-1.912266686823953970e-03,9.989852905273437500e-01,-1.251337895301328506e-04,-2.744757421564614219e-02,-1.276451883501961149e-02,-3.847700850774039144e-02,4.296264539799526938e-02,-2.955372817814350128e-02,-1.550285859175573600e-01,7.620450720082898310e-02,-1.016733352957067821e-01,-1.758199362466857929e-01,1.244699737540131690e-01,-2.398338189459651715e-01,-2.043529825106379649e-01,2.244699737540131745e-01,-2.042789900631492572e-01,5.277542474681677920e-01,7.250983715057373047e-01,-8.960405588150024414e-01,9.855788119485647769e+01,0.000000000000000000e+00
5.266330000000000178e-01,-5.311588375420520959e-03,-1.142573141445183717e-03,9.986515045166015625e-01,-3.800734352144868444e-03,-2.605178771546046157e-02,-1.267161636604074992e-02,-3.675731508783204593e-02,4.578297046039211254e-02,-3.385111689567565918e-02,-1.726128934016795402e-01,7.818808100339265377e-02,6.181416237361825328e-02,-7.451081448097929272e-02,1.178802605884205490e-01,5.568830661262527681e-03,-1.291969911235145152e-01,2.178802605884205545e-01,4.101368366355641337e-02,5.279158532317719255e-01,7.138361930847167969e-01,-1.098426461219787598e+00,1.374590460277456714e+02,0.000000000000000000e+00
5.513090000000000490e-01,-5.844265387001013230e-03,-3.276169221433416416e-04,9.984068274497985840e-01,-7.071287385948575067e-03,-2.394637583679570803e-02,-1.206481401615633331e-02,-5.401749423397305544e-02,4.576486421168914770e-02,-2.529376745223999023e-02,-1.184577104467222364e-01,7.254548719099365717e-02,-3.760783144369405501e-02,-8.040719274313071208e-02,1.202186318785607444e-01,1.133147691090509168e-01,-1.564620527836015629e-01,2.202186318785607499e-01,1.471995623033150458e-01,5.271325167103824150e-01,7.023663520812988281e-01,-8.514698743820190430e-01,9.606491678931517697e+01,0.000000000000000000e+00
5.719300000000000495e-01,-6.433342019318182350e-03,5.173642033264836630e-04,9.981123805046081543e-01,-9.928176878693241794e-03,-2.134273453658486197e-02,-1.239329656308507666e-02,-4.266213554663099428e-02,4.986322156913056830e-02,-3.607264906167984009e-02,-1.126297941371651457e-01,1.703900552543958780e-01,-4.035596981055994056e-03,-1.212820492427349323e-01,1.217527704884066586e-01,1.504935924605589892e-01,-2.198800534089921654e-01,2.217527704884066642e-01,1.853665224654537647e-01,5.285572542231586901e-01,7.346143722534179688e-01,-9.168628454208374023e-01,9.599333640681344093e+01,0.000000000000000000e+00
6.019170000000000353e-01,-7.504768726479927633e-03,1.995000888528536149e-03,9.976740479469299316e-01,-1.272149541301719443e-02,-1.756786975903179560e-02,-1.187253895812223625e-02,-5.269610298478356880e-02,5.800635189366666611e-02,-2.361009269952774048e-02,-1.996956484586653174e-02,8.972867133978885967e-02,2.536172842226587162e-02,-1.285428563890143039e-01,1.229055574918095362e-01,1.826308534609967504e-01,-2.285428563890143094e-01,2.229055574918095417e-01,2.160895762284731625e-01,5.280626983299572252e-01,7.535209655761718750e-01,-8.456760644912719727e-01,9.738720043149463379e+01,0.000000000000000000e+00
6.248580000000000245e-01,-8.334203270743956865e-03,3.051884035402417043e-03,9.974263310432434082e-01,-1.429643159352956931e-02,-1.640576209736521740e-02,-1.211003762877038703e-02,-5.430429538035694975e-02,5.239897512884332531e-02,-3.173048421740531921e-02,-1.106464284892969552e-01,2.131744243456776614e-02,-3.660227939359332605e-02,2.938196314034497991e-01,1.167081613244690674e-01,1.799214189951109100e-01,1.938196314034497658e-01,2.167081613244690730e-01,2.141106771849362878e-01,5.277209859963477578e-01,7.001696825027465820e-01,-1.068699359893798828e-02,-7.652439785697443320e+00,0.000000000000000000e+00
6.510759999999999881e-01,-9.709433248860440888e-03,4.754345945454566298e-03,9.971131086349487305e-01,-1.631724801402897190e-02,-1.733406733214248874e-02,-1.314729234645528599e-02,-5.747468456635008299e-02,6.471247325316238641e-02,-3.751838579773902893e-02,-1.231840106954521785e-01,-5.237115903975973069e-02,-2.423552355919062970e-02,3.026792077418285487e-01,8.678518183274544495e-02,1.561522683729567040e-01,2.026792077418285709e-01,1.867851818327454505e-01,1.932697590150496136e-01,5.287412301535080461e-01,7.294893264770507812e-01,-1.327049136161804199e+00,1.678802441381188970e+01,0.000000000000000000e+00
6.740460000000000340e-01,-1.059475796372533890e-02,5.923251407348581986e-03,9.968298077583312988e-01,-1.806518708689336741e-02,-1.930922594144579563e-02,-1.452878967835058432e-02,-6.060333113820644269e-02,7.177381775098716499e-02,-3.298414126038551331e-02,-8.435402132249125717e-02,-1.216918809076316249e-01,-8.744014716771185414e-02,2.831815910030408556e-01,-2.837228392122627119e-01,1.700534853635573274e-01,1.831815910030408223e-01,-1.837228392122627063e-01,2.111064917267340968e-01,5.277774974909723582e-01,6.916782855987548828e-01,-7.925468683242797852e-01,8.842754952356865772e+01,0.000000000000000000e+00
7.038360000000000172e-01,-1.191795891882252607e-02,7.773546182629121129e-03,9.962229728698730469e-01,-2.154462503275553914e-02,-2.266737122954065597e-02,-1.703900514365197516e-02,-6.739549583392351328e-02,7.137722982984491538e-02,-3.151543810963630676e-02,-1.185344352549107250e-01,-1.154033583883506964e-01,-1.017572076162772399e-01,3.032488903427505988e-01,-2.997546970645937892e-01,1.730277753259805706e-01,2.032488903427505933e-01,-1.997546970645938114e-01,2.213194439340218089e-01,5.280332965063564421e-01,7.071431875228881836e-01,-7.956117391586303711e-01,9.430762522908679557e+01,0.000000000000000000e+00
7.295220000000000038e-01,-1.290210429348674637e-02,9.077679356364323424e-03,9.958232641220092773e-01,-2.150141741896918063e-02,-2.531624135017462862e-02,-1.895626712200360053e-02,-5.520037494077638385e-02,7.702667148460465296e-02,-4.101086780428886414e-02,4.789563854600390608e-02,-1.323367319134507447e-01,-8.601251625572699233e-02,2.263076886106569208e-01,-2.499219119000727629e-01,1.396953870798547381e-01,1.263076886106569152e-01,-1.499219119000727574e-01,1.933343985035573809e-01,5.287190520854228026e-01,7.033357620239257812e-01,-9.055331945419311523e-01,9.997509080612076104e+01,0.000000000000000000e+00
7.511929999999999996e-01,-1.394925819687355302e-02,1.033845888422469696e-02,9.955233335494995117e-01,-1.880670773903916557e-02,-2.833797506328372684e-02,-2.098759271637851143e-02,-7.027880752830135969e-02,7.181207572922686244e-02,-2.700606174767017365e-02,1.646261488458017619e-01,-1.556034363065728621e-01,-1.189104389970141729e-01,2.068583172866648168e-01,-2.554597564117867536e-01,1.179628752463811880e-01,1.068583172866648112e-01,-1.554597564117867203e-01,1.772703816768214924e-01,5.274913988643286089e-01,6.886231899261474609e-01,-9.181534051895141602e-01,9.444943361663459314e+01,0.000000000000000000e+00
7.731360000000000454e-01,-1.503381549540484287e-02,1.161320464070046514e-02,9.951882958412170410e-01,-1.440562995616499926e-02,-2.988400153256209890e-02,-2.314195702530330578e-02,-7.518956028552131743e-02,7.051861320768386399e-02,-3.525304049253463745e-02,2.490268157463810805e-01,-4.027371259280156102e-02,-1.003164906718385652e-01,1.243564606622577645e-01,-1.043832543562791954e-01,-4.261760144795112559e-02,2.435646066225775896e-02,-4.383254356279194137e-03,2.249987252300600024e-02,5.284651583073770587e-01,7.057912349700927734e-01,-3.571420907974243164e-01,9.593233769488335838e+00,0.000000000000000000e+00
8.020439999999999792e-01,-1.671114996545098111e-02,1.368389613668595343e-02,9.944996833801269531e-01,-6.622794206554827486e-03,-2.777770367198351131e-02,-2.655986868068560547e-02,-6.068040665608585155e-02,7.497102294901618336e-02,-3.405571728944778442e-02,2.859273559250813390e-01,1.297151819412855622e-01,-1.362904258466920981e-01,1.763290304972289224e-01,1.004939743714295119e-01,-1.664477112491534738e-01,7.632903049722893074e-02,2.004939743714295175e-01,-9.222315745628985317e-02,5.280600107113180286e-01,6.838331222534179688e-01,-7.033485174179077148e-01,4.024831719383666950e+01,0.000000000000000000e+00
8.255069999999999908e-01,-1.779459965492324186e-02,1.514149477439634579e-02,9.938762187957763672e-01,-1.127881079794709317e-03,-2.374763417670355814e-02,-2.870839548879722258e-02,-7.375760695947571055e-02,7.761284721184430468e-02,-3.978881239891052246e-02,3.048178901684382436e-01,1.893174585756387807e-01,-7.742076784045877347e-02,1.917733397554430008e-01,1.089817813928030399e-01,-2.203060956040632512e-01,1.213343532532364238e-01,2.089817813928030454e-01,-1.403367393831272125e-01,5.290357889059332797e-01,7.093346118927001953e-01,-1.181248545646667480e+00,1.033193973105691157e+02,0.000000000000000000e+00
8.461980000000000057e-01,-1.892602053303287998e-02,1.662502769977718120e-02,9.932312369346618652e-01,4.391657364341584879e-03,-1.858722821429692473e-02,-3.088729348037633216e-02,-6.157612011579303990e-02,8.328176996805866650e-02,-4.496406018733978271e-02,2.906624511591476279e-01,2.412151077003093780e-01,-1.508749312455016922e-01,2.628458602031856772e-01,1.154472844139249610e-01,-2.779907459349085230e-01,2.229666213999189628e-01,2.154472844139249665e-01,-1.920791567726211069e-01,5.296250509038573639e-01,7.161126136779785156e-01,-8.460365533828735352e-01,9.563396600363321909e+01,0.000000000000000000e+00
8.725129999999999830e-01,-2.070095497443317709e-02,1.888544941953372580e-02,9.921770095825195312e-01,1.240054632983630771e-02,-1.023797815197013961e-02,-3.264792369235203218e-02,-7.358605687106244131e-02,8.377016114616907261e-02,-4.811052605509757996e-02,2.483165433342851558e-01,2.754680865714220217e-01,1.452828220254544179e-03,2.021944517416307541e-01,1.155799264556499617e-01,-3.035191497843596209e-01,2.138539166699926497e-01,2.155799264556499673e-01,-2.127836349892039403e-01,5.305856612943297135e-01,7.489578723907470703e-01,-3.924823999404907227e-01,-6.036041026158617484e+01,0.000000000000000000e+00
9.047770000000000534e-01,-2.243217070353097087e-02,2.073396015316911548e-02,9.911782145500183105e-01,1.989797283144906226e-02,-3.553867853803183152e-03,-3.269475599363991236e-02,-7.041525535980078243e-02,8.779840791966597724e-02,-4.014836251735687256e-02,2.433360572893208118e-01,1.946682132010636168e-01,5.500377818649530848e-02,-1.569996330445188604e-01,1.333035797348293694e-01,-3.111461504381886622e-01,-1.011367693794845979e-01,2.243082271276017892e-01,-2.202105185537721055e-01,5.301269070046370491e-01,7.488176822662353516e-01,-7.241109609603881836e-01,4.466380568091271641e+01,0.000000000000000000e+00
9.296680000000000499e-01,-2.371703294609948942e-02,2.182319832244366056e-02,9.906090497970581055e-01,2.480649554522641395e-02,-1.767761833946446259e-03,-3.161240809877363667e-02,-7.427540837801965834e-02,7.964629007107035252e-02,-3.660346567630767822e-02,2.234270288112065739e-01,1.697879809733175011e-02,6.685150586192656341e-02,-3.064930756137028145e-01,1.290198728415316853e-01,-1.611405720878835157e-01,-2.125798537244141528e-01,2.131096998863742376e-01,-7.326154670600054652e-02,5.296209299281662286e-01,7.306227684020996094e-01,-8.216685056686401367e-01,5.199224349049955407e+01,0.000000000000000000e+00
9.518400000000000194e-01,-2.506263421435390645e-02,2.286981545565682644e-02,9.901691675186157227e-01,2.966335002917251315e-02,-1.593412325049170519e-03,-2.972926754671334493e-02,-8.746647186978327715e-02,7.376479594363721803e-02,-2.630360238254070282e-02,2.239082095433732322e-01,-4.274450477597480785e-02,8.768676786319409833e-02,-3.159322225470320156e-01,1.073277689822677294e-01,-7.357293135592662958e-03,-2.159322225470320100e-01,2.016177172251098493e-01,7.507947616082513709e-02,5.291481844165649706e-01,7.416124343872070312e-01,-7.795766592025756836e-01,7.743285058262657117e+01,0.000000000000000000e+00
9.736240000000000450e-01,-2.647414773156167578e-02,2.382429485788096352e-02,9.896759986877441406e-01,3.452070474633826130e-02,-3.191552930120966636e-03,-2.711497648950467187e-02,-8.042020773515461129e-02,7.315927036160241315e-02,-2.800726331770420074e-02,2.317521157541596599e-01,-9.991515339355062919e-02,1.480102147503504773e-01,-3.167874662414813525e-01,1.060839527668465676e-01,7.006167618574885014e-02,-2.167874662414813192e-01,2.043970444637310258e-01,1.450376760804500675e-01,5.293862624666181294e-01,7.442108392715454102e-01,-8.697117567062377930e-01,8.364333668924406595e+01,0.000000000000000000e+00
9.980259999999999687e-01,-2.795243097400096702e-02,2.468851907567006648e-02,9.892791509628295898e-01,3.936757169314114568e-02,-5.547636279516598989e-03,-2.440748375756851551e-02,-7.900365829849419208e-02,6.685729628863902596e-02,-1.082242000848054886e-02,2.660276545017263850e-01,-1.681864888918150058e-01,1.085043307877046337e-01,-3.178362337611611022e-01,5.978829408658475897e-02,1.308558702859312917e-01,-2.178362337611610688e-01,1.597882940865847645e-01,1.979842486318369177e-01,5.282159574919885747e-01,7.455492019653320312e-01,-1.184198975563049316e+00,1.701512000748781190e+02,0.000000000000000000e+00
1.027225000000000055e+00,-3.049050894608327372e-02,2.550720892423822758e-02,9.886245727539062500e-01,4.399926568093017604e-02,-8.753970834524116285e-03,-2.010211575473275225e-02,-8.307380147470386222e-02,5.879226474834590987e-02,-2.323916926980018616e-02,5.659905023489789078e-02,-7.858311176889182237e-02,7.866287854432549298e-02,-3.227363479337080898e-01,-2.243024630853166779e-01,1.427110848827826961e-01,-2.227363479337080843e-01,-1.243024630853166723e-01,1.973939328793676562e-01,5.290707290016259945e-01,7.388422489166259766e-01,-2.265833616256713867e-01,-2.654976492653996445e+01,0.000000000000000000e+00
1.055434999999999901e+00,-3.214732620105849314e-02,2.597710937544003146e-02,9.880679845809936523e-01,4.406018738146790653e-02,-1.065352485473014532e-02,-1.762538742614649934e-02,-7.319703094367545348e-02,5.782679579769061523e-02,-2.667919173836708069e-02,-6.832385873285141313e-04,-1.182140886756409132e-01,1.502808992500961061e-01,-3.202210416488418532e-01,-4.388401661522263464e-02,1.677046506993064567e-01,-2.202210416488418476e-01,5.611598338477737091e-02,2.153893359469785662e-01,5.293588297620954730e-01,7.370908260345458984e-01,-3.658741712570190430e-01,-4.917928728366410596e+00,0.000000000000000000e+00
1.074133999999999922e+00,-3.295903620972705228e-02,2.624287281553438697e-02,9.877769351005554199e-01,4.290643497765437436e-02,-1.143285159280971186e-02,-1.706567968894767695e-02,-8.428609171056593297e-02,5.263094863533833434e-02,-3.320051729679107666e-02,-1.324518161488964507e-01,-1.225100080445293699e-01,6.405014239942771748e-02,-2.619742392487480198e-01,-2.761940141005982952e-01,-1.977638679944802580e-01,-1.619742392487480143e-01,-1.761940141005983174e-01,-1.517709488344273772e-01,5.290499056587144588e-01,6.907286643981933594e-01,-1.000682473182678223e+00,7.257593038458718127e+01,0.000000000000000000e+00
1.097882999999999942e+00,-3.456259680806272189e-02,2.671910491721134900e-02,9.870687723159790039e-01,3.903089556540515620e-02,-1.282615582929347298e-02,-1.618190830476495812e-02,-8.570159345076451551e-02,5.472611494026262402e-02,-3.103013336658477783e-02,-2.122556680690116659e-01,-5.983043981884102192e-02,5.691361807411384963e-03,-2.405307799194577323e-01,-8.494959318881867283e-02,-2.548989068628281229e-01,-1.405307799194577267e-01,1.505040681118133446e-02,-2.113643133214291314e-01,5.296839123506033031e-01,7.288794517517089844e-01,-9.925264120101928711e-01,9.456078619067331203e+01,0.000000000000000000e+00
1.131863999999999981e+00,-3.698232509114044581e-02,2.737054323869841585e-02,9.858938455581665039e-01,3.019465051632685970e-02,-1.578893703661021775e-02,-1.640568475618775501e-02,-7.815947390296168473e-02,4.159798076868592015e-02,-3.715244680643081665e-02,-3.342417026890608378e-01,-1.145850635900259318e-01,-6.747867800713654163e-02,-2.193384008769181381e-01,-2.049687946234489133e-01,-2.473614943390398946e-01,-1.193384008769181326e-01,-1.049687946234489078e-01,-2.029355087740545571e-01,5.298026502088269973e-01,7.043807506561279297e-01,-1.166426539421081543e+00,9.526978714727731301e+01,0.000000000000000000e+00
1.149599000000000038e+00,-3.772857421033331410e-02,2.824060825813199532e-02,9.854503273963928223e-01,2.692805834981234006e-02,-1.675499733137675307e-02,-1.646785778085835261e-02,-8.037095476444966469e-02,4.860671679301301756e-02,-4.251755401492118835e-02,-2.969004040421588941e-01,-9.441728387167150349e-02,-3.585336082530429097e-02,-2.043310971731649439e-01,-2.146093782062661881e-01,-2.284543709819450430e-01,-1.043310971731649522e-01,-1.146093782062661826e-01,-1.838500564768282830e-01,5.300194197586093336e-01,6.901334524154663086e-01,-1.185360789299011230e+00,1.107925241399862237e+01,0.000000000000000000e+00
1.173726000000000047e+00,-3.998481145797790764e-02,3.075877039680419145e-02,9.842129349708557129e-01,1.667088596747626564e-02,-1.859237266689039991e-02,-1.785419154927359031e-02,-7.955023710747352594e-02,3.345409798041992094e-02,-5.339943990111351013e-02,-3.559294856057117484e-01,-3.312360312480634728e-02,-8.684074455039444973e-02,-2.466573742185254881e-01,-5.288768902471080446e-02,-2.601480085159394440e-01,-1.836527572737410297e-01,4.711231097528920109e-02,-2.112193811764072893e-01,5.309464603265510174e-01,6.898200511932373047e-01,-9.428035020828247070e-01,9.532782326465490996e+01,0.000000000000000000e+00
1.199159000000000086e+00,-4.142791431117801709e-02,3.240080967656490396e-02,9.833351969718933105e-01,9.908322357777318845e-03,-1.777345063102164779e-02,-1.856120576723929716e-02,-7.581899827921814716e-02,4.839009689330533992e-02,-4.112150892615318298e-02,-3.105928919032505120e-01,8.457730797438157977e-02,-4.273283203106507250e-02,-1.998490388886443314e-01,1.155732811802228366e-01,-2.568777738506556885e-01,-1.962124832518661877e-01,2.155732811802228421e-01,-2.057451553470695249e-01,5.307599487852222575e-01,7.214367389678955078e-01,-1.072349667549133301e+00,7.128753814106933362e+01,0.000000000000000000e+00
1.227139999999999898e+00,-4.363224404177206556e-02,3.485150170619642079e-02,9.819365143775939941e-01,-6.587355000743634842e-05,-1.420954447285605049e-02,-1.727323913090761387e-02,-8.122250116893804661e-02,4.961582843193505787e-02,-4.410345852375030518e-02,-2.993622308320695868e-01,1.282304356632265330e-01,3.822868382655506686e-02,-1.175663985415767721e-01,1.201534789004661263e-01,-1.455878565475721698e-01,-1.791707093214769675e-01,2.201534789004661319e-01,-9.759872409269455817e-02,5.308625043605618155e-01,7.063853740692138672e-01,-1.128944277763366699e+00,6.294296625847052695e+01,0.000000000000000000e+00
1.250780000000000003e+00,-4.502292912795530927e-02,3.668499918302307872e-02,9.809846282005310059e-01,-6.829681387417510172e-03,-1.043727087970425238e-02,-1.478446622118467779e-02,-8.753856914283855706e-02,5.013883183875717658e-02,-5.835556983947753906e-02,-3.401344361169098551e-01,2.243987022163734246e-01,1.789767107629879894e-01,-8.146885058321523543e-02,1.253570921899485879e-01,-1.062154936656652809e-01,-1.814688505832152410e-01,2.253570921899485935e-01,-6.492341580241188514e-02,5.323654785704360348e-01,7.246918678283691406e-01,-1.380981564521789551e+00,6.295228263649842404e+01,0.000000000000000000e+00
1.274448999999999943e+00,-4.637588265946873678e-02,3.867626765900537833e-02,9.802573323249816895e-01,-1.219376755502169646e-02,-7.272008397773088717e-03,-1.220600711498898150e-02,-7.268177444540016574e-02,6.390546777802272316e-02,-5.072249099612236023e-02,-2.593988865005989464e-01,1.839296981682663479e-01,1.111989832661173655e-01,-7.122391074389222698e-02,1.276337441195922462e-01,-4.108817377325458403e-02,-1.712239107438922325e-01,2.276337441195922517e-01,-6.897255120243092098e-03,5.321583056530742040e-01,7.371351718902587891e-01,-1.211143851280212402e+00,8.624634910269260502e+01,0.000000000000000000e+00
1.301279999999999992e+00,-4.834933749957389532e-02,4.170838899051929755e-02,9.792138934135437012e-01,-1.948013863697396764e-02,-2.275483633472186185e-03,-7.941553686613866958e-03,-8.491802635423459367e-02,5.133852891912137756e-02,-3.411009907722473145e-02,-2.262893579454321180e-01,1.295231842615801321e-01,1.036892037627095697e-01,2.342273138861440118e-01,1.204975839938039195e-01,1.953223388359780488e-01,1.342273138861440063e-01,2.204975839938039250e-01,2.177849546691697502e-01,5.310076746382756951e-01,7.324962615966796875e-01,-1.122628331184387207e+00,9.539536700535717273e+01,0.000000000000000000e+00
1.321150000000000047e+00,-5.031314747485082089e-02,4.490681584395266740e-02,9.783187508583068848e-01,-2.597559333999388542e-02,2.965961033345010378e-03,-3.086604431167927487e-03,-6.436228320203235542e-02,7.295926889268347648e-02,-4.016537591814994812e-02,-2.036164903862961173e-01,1.495918904966373753e-01,1.668782378274052403e-01,8.896054178997644946e-02,1.591955394857502981e-01,1.720701340105214305e-01,-1.103945821002356130e-02,2.225280585489208540e-01,1.808821857428760949e-01,5.318798275381915186e-01,7.497446537017822266e-01,-1.202583193778991699e+00,9.962362293181024597e+01,0.000000000000000000e+00
1.349148999999999932e+00,-5.263609596588057771e-02,4.910159902113809399e-02,9.773343205451965332e-01,-3.374885072871757624e-02,5.922879774494793637e-03,3.299731376170456087e-03,-7.318573848795277559e-02,9.415531584165222345e-02,-3.328436985611915588e-02,-2.049146130634263430e-01,3.036281435438836426e-02,1.193925894937292315e-01,3.231528769685996783e-01,1.673502235782394210e-01,1.454393811174235218e-01,2.231528769685996727e-01,2.231960719326207265e-01,1.364138217217110982e-01,5.313975575754773528e-01,7.426347732543945312e-01,-1.392329335212707520e+00,6.048856510098312356e+01,0.000000000000000000e+00
1.375123000000000095e+00,-5.420430537021618533e-02,5.222637735829650102e-02,9.768121838569641113e-01,-3.812064434609463426e-02,3.853043825765345431e-03,7.350024708303370957e-03,-8.520176314572716625e-02,8.540404931037404168e-02,-1.669387705624103546e-02,-7.256936597410577894e-02,-1.542607967196767682e-01,7.175472464920615301e-02,3.065880305544706474e-01,1.319485897122178453e-01,1.211730216435067536e-01,2.065880305544706419e-01,2.112666138549388339e-01,1.009916546802554632e-01,5.302917765630835722e-01,7.433915138244628906e-01,-9.946397542953491211e-01,8.661596478962783863e+01,0.000000000000000000e+00
1.398741000000000012e+00,-5.566601960581112757e-02,5.556465104465421745e-02,9.763620495796203613e-01,-4.109401103972204483e-02,4.670068707741670266e-04,1.004327136022875600e-02,-5.447712697930767733e-02,1.064760344024671679e-01,-2.767032198607921600e-02,-1.198376085585266121e-01,-1.304293820729465203e-01,3.590432948718523531e-02,3.147127416071830996e-01,1.389011754791402431e-01,2.261467298615569277e-01,2.147127416071830663e-01,2.149315000704062895e-01,1.984061728279961079e-01,5.295976416002741161e-01,6.577277183532714844e-01,-1.112677454948425293e+00,9.500640822269245689e+01,0.000000000000000000e+00
1.422204999999999941e+00,-5.696943413326154004e-02,5.886420002826766446e-02,9.759143590927124023e-01,-4.097639552918933697e-02,-3.545631677121185987e-03,1.045997676081489303e-02,-7.215183345006447035e-02,1.162663494530731395e-01,-2.475226670503616333e-02,4.433133009275425779e-02,-1.287204570992228347e-01,2.550098701722038064e-02,3.000355928913762682e-01,7.601345906090251070e-02,2.160296790260542998e-01,2.000355928913762904e-01,1.760134590609025163e-01,1.873161138012043869e-01,5.309353080274115122e-01,7.371834516525268555e-01,1.665627956390380859e-02,-1.633954736271968500e+01,0.000000000000000000e+00
1.446045000000000025e+00,-5.827531264026172830e-02,6.182937376718850020e-02,9.755265712738037109e-01,-3.825676556524570254e-02,-8.043262691439956313e-03,9.554972416557561132e-03,-5.989919047398173380e-02,1.233113169270211446e-01,-2.266367711126804352e-02,1.605566207266338752e-01,-1.414298587745017322e-01,-4.829338942512903521e-02,2.770456641713964219e-01,7.840559093275897840e-02,1.342881836299570919e-01,1.770456641713963886e-01,1.784055909327589839e-01,1.080792884234857421e-01,5.306159919389455970e-01,7.241168022155761719e-01,-1.327215552330017090e+00,1.006839346683738512e+02,0.000000000000000000e+00
1.474379000000000106e+00,-6.010855398560424612e-02,6.623312326744223988e-02,9.750676751136779785e-01,-2.988756255565478206e-02,-1.526364849503569765e-02,8.842885408585132723e-03,-6.095134590786743800e-02,1.310680833010277879e-01,-1.464468613266944885e-02,3.029316279662818134e-01,-1.785731645307138127e-01,-1.977624933369528937e-02,2.521192830782017502e-01,-2.003294514472366006e-02,1.646600877831060628e-01,1.521192830782017447e-01,7.996705485527634549e-02,1.402413139431755995e-01,5.298662287568551843e-01,7.102711200714111328e-01,-9.626258611679077148e-01,8.826692396485746883e+01,0.000000000000000000e+00
1.499538999999999955e+00,-6.139825961584216563e-02,6.945439987642230972e-02,9.747368097305297852e-01,-2.065787394146110373e-02,-2.023435931595107817e-02,6.600655189581416948e-03,-6.216483364074932433e-02,1.345753388237871939e-01,-2.691671438515186310e-02,3.239053538945194100e-01,-1.385233017516465381e-01,-1.079645514978718468e-01,2.274396087980449510e-01,-6.700515691933220386e-02,7.099722644603172206e-02,1.274396087980449455e-01,3.299484308066779475e-02,5.243884264160052211e-02,5.304988057110273658e-01,6.921980381011962891e-01,-4.712613821029663086e-01,1.073697882808458957e+02,0.000000000000000000e+00
1.523946999999999941e+00,-6.258860915489722343e-02,7.232783312872342885e-02,9.743738174438476562e-01,-1.086691532185671619e-02,-2.389132099206636717e-02,4.516217845365488870e-03,-5.305444516785655373e-02,1.434503712625825600e-01,-3.687638044357299805e-02,2.658478292675091059e-01,-1.096578153915168385e-01,-3.559776882637777362e-02,2.070795884127644426e-01,-9.200460742860613883e-02,3.635325290728048941e-02,1.070795884127644371e-01,7.995392571393870190e-03,2.304324571082256787e-02,5.316459935390526192e-01,7.108936309814453125e-01,-1.464957356452941895e+00,9.389608584102600730e+01,0.000000000000000000e+00
1.548186000000000062e+00,-6.388389662553750625e-02,7.541238606115913123e-02,9.737988114356994629e-01,-1.284842058047775586e-03,-2.637392575830332930e-02,2.644826090838714450e-03,-6.762167484427608621e-02,1.473440977627977766e-01,-2.948861382901668549e-02,3.507869409778155978e-01,-7.170789132555148437e-02,-5.742994065454021246e-02,1.650383534917933270e-01,-7.267085180602496364e-02,1.588464060099615410e-02,6.503835349179332148e-02,2.732914819397504538e-02,7.124881539829827984e-03,5.310802307686136592e-01,7.031042575836181641e-01,-1.245171904563903809e+00,9.353766483414041488e+01,0.000000000000000000e+00
1.571406999999999998e+00,-6.531363691802918869e-02,7.867120689637541187e-02,9.730583429336547852e-01,7.328767027602977983e-03,-2.758121642090305414e-02,1.013367094578221383e-03,-6.851995345387563996e-02,1.452197846301666595e-01,-4.225254431366920471e-02,2.679815546451916886e-01,-1.917122722353452324e-02,-8.561000589579444153e-02,8.602079577764633334e-02,-1.634475036757583599e-02,5.882124791623928595e-03,-1.397920422235367048e-02,8.365524963242416956e-02,1.131625942930820916e-03,5.320688072716720507e-01,7.005434036254882812e-01,2.845512628555297852e-01,6.413503234412368670e+01,0.000000000000000000e+00
1.600395000000000012e+00,-6.737626360419964044e-02,8.310284517299558471e-02,9.717779755592346191e-01,1.805853945105544492e-02,-2.638639107108597948e-02,2.984988602183769046e-05,-6.735916113866757815e-02,1.426251803219580894e-01,-4.378130286931991577e-02,2.542668662814023817e-01,1.003365133849155703e-02,-3.766208224414012429e-02,-1.467180712323197245e-01,3.584774576938495882e-02,1.253104387215856486e-01,-1.889996642615515421e-01,1.358477457693849644e-01,1.227147673846147868e-01,5.325796386282873884e-01,7.137682437896728516e-01,-1.801240622997283936e+00,9.863741191755210025e+01,0.000000000000000000e+00
1.623267999999999933e+00,-6.849682427028026821e-02,8.533334314930485220e-02,9.710256457328796387e-01,2.299009123419161818e-02,-2.450943027402829877e-02,-1.600506651742161779e-04,-7.782979719543688113e-02,1.430099712872930917e-01,-4.676603898406028748e-02,2.586491853583444134e-01,8.658072728456814304e-02,4.809639179300983884e-03,-2.015963593223909500e-01,1.034519908890290107e-01,1.760751514308109555e-01,-2.145064264927796227e-01,2.034519908890290163e-01,1.737237937292257228e-01,5.330203271200435466e-01,7.188205718994140625e-01,-6.293398141860961914e-01,-1.140633531768908853e+02,0.000000000000000000e+00
1.648376999999999981e+00,-7.033526418149481374e-02,8.866286328955637341e-02,9.699091911315917969e-01,2.838348988720472421e-02,-2.226067298240552716e-02,-7.586408017619117317e-04,-7.592506305801961786e-02,1.434974437072633613e-01,-4.920751973986625671e-02,1.366393368448280965e-01,8.253988344914021946e-02,-6.296637371662675009e-02,-2.343686240219939043e-01,1.131149688789428731e-01,2.061212799435553911e-01,-2.152146776590563026e-01,2.131149688789428787e-01,2.052899653460945051e-01,5.333262282916947372e-01,7.174792289733886719e-01,-1.300784945487976074e+00,9.630574242926066120e+01,0.000000000000000000e+00
1.670460999999999974e+00,-7.162294658715857854e-02,9.085795350474570875e-02,9.690238833427429199e-01,2.967232769363159842e-02,-2.181893533930678863e-02,-1.757371962359144391e-03,-7.785227314870335480e-02,1.467483989175832337e-01,-6.355959922075271606e-02,4.193903235933799968e-03,2.761727537240152644e-02,-1.860703067967072258e-02,-2.520178333305134188e-01,1.217559417890221318e-01,1.651066476175073461e-01,-2.284882147063221625e-01,2.217559417890221374e-01,1.669676965697527715e-01,5.350494521022731709e-01,7.470459938049316406e-01,-1.446929097175598145e+00,-3.523978045660133773e+01,0.000000000000000000e+00
1.697249999999999925e+00,-7.423382533357134050e-02,9.418244447619836257e-02,9.676041007041931152e-01,2.844609072531099209e-02,-2.256721713091591752e-02,-4.558701890237326637e-03,-9.163427545176489053e-02,1.372434151235043809e-01,-4.899155348539352417e-02,-4.895178855934155526e-02,-2.853250602380198730e-02,-1.027087439525490586e-01,1.214544140358205654e-02,-2.283553847147787030e-01,-1.411489725086332858e-01,3.255648255104893335e-02,-1.283553847147786975e-01,-1.315477143861736309e-01,5.330408675629649817e-01,6.839711666107177734e-01,-4.497873783111572266e-02,-3.162617069223677468e+00,0.000000000000000000e+00
1.720792000000000099e+00,-7.606936517655887853e-02,9.635867196604520901e-02,9.665933847427368164e-01,2.544859002371375675e-02,-2.430137858969305675e-02,-6.635219650604096131e-03,-8.712589525841615834e-02,1.365991494910062110e-01,-6.370601803064346313e-02,-2.015821513888672034e-01,-8.129914704239053769e-02,-9.240143581088099134e-02,-2.493094405233162170e-02,-2.877187949059920036e-01,-1.967316928905243067e-01,-2.628661133933186955e-02,-1.877187949059919980e-01,-1.812402782313633776e-01,5.336020926115695451e-01,6.479034423828125000e-01,-7.887817621231079102e-01,1.157540845436574983e+02,0.000000000000000000e+00
1.746782000000000057e+00,-7.899898255294669769e-02,9.968535118979107712e-02,9.648581743240356445e-01,2.031137974655530462e-02,-2.681470979522182496e-02,-8.037463863019178589e-03,-9.520755679956409423e-02,1.348507158470882983e-01,-5.898219719529151917e-02,-1.486497548056838203e-01,-4.471909965186669778e-02,1.274447516079262391e-02,7.947411975580623289e-02,-2.744598929170439794e-01,-1.857852609550158240e-01,4.321947658510480461e-02,-1.744598929170440016e-01,-1.663299165343826436e-01,5.333481170270787386e-01,6.403992176055908203e-01,-1.031487345695495605e+00,8.630690555987393964e+01,0.000000000000000000e+00
1.771881999999999957e+00,-8.102183506816883207e-02,1.018939638511244944e-01,9.637056589126586914e-01,1.689786369126089483e-02,-2.716607175975593869e-02,-7.422144641557881783e-03,-9.439555141646617520e-02,1.308736071815423119e-01,-5.254217609763145447e-02,-1.452852764706402955e-01,-2.879973329598815163e-02,2.632919876429044501e-02,1.441198744130283149e-01,-2.597341413981197888e-01,-1.736402725727315133e-01,8.620190377053331410e-02,-1.597341413981197833e-01,-1.556990328542548485e-01,5.331511809840869809e-01,6.460481882095336914e-01,-1.464880466461181641e+00,1.175081181036517961e+02,0.000000000000000000e+00
1.798982000000000081e+00,-8.436335545524199786e-02,1.058045063482606907e-01,9.620037674903869629e-01,1.279793208780564268e-02,-2.402566200595424029e-02,-5.091720426715795611e-03,-9.549156090197932767e-02,1.286118398998212231e-01,-5.779108405113220215e-02,-1.450862988188063862e-01,1.511799286381727281e-01,8.353814372741173722e-02,3.205366670284683778e-02,1.169454467386972785e-01,-2.638154247349429674e-02,-5.430245257850051938e-02,2.169454467386972840e-01,-1.456621310085428125e-02,5.340914637508598073e-01,6.652252674102783203e-01,-1.058614611625671387e+00,9.598985301033674489e+01,0.000000000000000000e+00
1.823774000000000006e+00,-8.659120896362902664e-02,1.083181712371213967e-01,9.609622955322265625e-01,1.227711678455916874e-02,-2.034171587120137126e-02,-3.264866840151148253e-03,-9.976745270786531450e-02,1.292802268385852271e-01,-5.282928422093391418e-02,4.305162791139009043e-02,2.051320959533896593e-01,9.296957884546475093e-02,-1.295408773894704546e-01,1.228206292061357341e-01,-2.412568458759160039e-01,-2.226822087249527848e-01,2.228206292061357396e-01,-2.343985599426184341e-01,5.352350356464989911e-01,7.386107444763183594e-01,-4.078830480575561523e-01,-3.039818378796487419e+00,0.000000000000000000e+00
1.846705999999999959e+00,-8.880503074190865265e-02,1.107150415580939323e-01,9.600290656089782715e-01,1.314019496102348042e-02,-1.611541652056258656e-02,-1.892935560748432167e-03,-9.908852412849750158e-02,1.132040556582558227e-01,-4.206093400716781616e-02,6.463937440318090477e-02,2.017272554093427206e-01,3.949887854425087469e-02,-1.468106477225105122e-01,1.223874147465219275e-01,-1.621736253007311779e-01,-2.242956693268811641e-01,2.223874147465219331e-01,-1.588983610568283356e-01,5.347960752105155313e-01,7.498300075531005859e-01,-1.004884839057922363e+00,9.378187141772505697e+01,0.000000000000000000e+00
1.873356999999999939e+00,-9.225914452617185735e-02,1.141809472462647773e-01,9.587680101394653320e-01,1.610622276265268743e-02,-1.114019434828339428e-02,1.975711669044422081e-05,-1.017434958737907930e-01,1.129709353690351442e-01,-3.820482268929481506e-02,9.111608803423743019e-02,1.378271976683515532e-01,1.047626393186952970e-01,-1.541813955214437759e-01,1.207121666664351112e-01,-2.302183998386983510e-01,-2.176380359210153825e-01,2.207121666664351167e-01,-2.322492114665019591e-01,5.344760787553116677e-01,7.378015518188476562e-01,-9.080621004104614258e-01,6.710616463307923141e+01,0.000000000000000000e+00
1.895577000000000067e+00,-9.470746902162253955e-02,1.161160919089193055e-01,9.580121636390686035e-01,1.748956554270972644e-02,-9.518480559117747930e-03,1.914216701646820340e-03,-1.107902930682301001e-01,1.155125563335695077e-01,-4.724074900150299072e-02,5.682040263465021335e-02,4.316260203759714892e-02,1.002314946400244544e-01,-1.500680172175342109e-01,1.132351232219234172e-01,-2.204466841480083594e-01,-2.083442316730229338e-01,2.132351232219234227e-01,-2.278531360952542328e-01,5.353116380550259068e-01,7.398979663848876953e-01,-7.526141405105590820e-01,5.600724042049732532e+01,0.000000000000000000e+00
1.921701000000000104e+00,-9.864956380269759850e-02,1.184162778888193102e-01,9.567622542381286621e-01,1.717896133361014946e-02,-9.773437966199116644e-03,5.151582285327194199e-03,-1.129802966759518301e-01,1.191563087503518248e-01,-2.835288457572460175e-02,-3.799440550851064524e-02,-5.551036658177922745e-02,1.211995990266255402e-01,1.542723062838378678e-01,-2.245803005104154426e-01,-1.005379161534446508e-01,8.825292979869940602e-02,-1.245803005104154509e-01,-1.170858687446399427e-01,5.331909118993669594e-01,6.885097026824951172e-01,-4.531933069229125977e-01,8.321468767731239780e+01,0.000000000000000000e+00
1.947837000000000041e+00,-1.013506496155653358e-01,1.200055447097844313e-01,9.559709429740905762e-01,1.538366648962609905e-02,-1.110867687985628294e-02,7.700826846506636514e-03,-1.139980884376713965e-01,1.213747869460790885e-01,-3.635979816317558289e-02,-1.353667844798283892e-01,-1.003475019283358999e-01,1.155940639572950318e-01,2.158211550224162500e-01,-2.324170825904049720e-01,-9.995605768198660701e-02,1.352016690306938884e-01,-1.324170825904049664e-01,-1.236778864002814754e-01,5.339133139519499638e-01,6.890935897827148438e-01,-1.186915993690490723e+00,7.327421477438343800e+01,0.000000000000000000e+00
1.973648000000000069e+00,-1.053745776372547738e-01,1.223942513233845786e-01,9.550256133079528809e-01,1.205995889532835916e-02,-1.383349428941560433e-02,1.103577987502557534e-02,-1.171595515800773479e-01,1.075242154408235368e-01,-3.890007734298706055e-02,-1.427753129772409979e-01,-8.008042529740709570e-02,9.197198092015780591e-02,2.367847457280909951e-01,-2.451428195705283863e-01,-8.368124046945225880e-02,1.432892352890128562e-01,-1.451428195705283808e-01,-1.166932526412502030e-01,5.340864219983855188e-01,6.809574365615844727e-01,-9.789508581161499023e-01,7.326530820770572916e+01,0.000000000000000000e+00
1.997157999999999989e+00,-1.083572602526035045e-01,1.241877035853355127e-01,9.544540643692016602e-01,1.141917176932077255e-02,-1.428061754648379811e-02,1.272724297201799359e-02,-1.048786297893926911e-01,1.142070858220719937e-01,-2.454713732004165649e-02,1.780418607589179594e-02,1.818539033209891354e-02,6.540712081608536510e-02,1.851635372542880797e-01,9.901194240047359041e-02,-1.725649678422448152e-01,8.516353725428807420e-02,1.990119424004735960e-01,-2.103235041006095429e-01,5.339220192537259546e-01,7.226381301879882812e-01,-1.221414923667907715e+00,9.608031203570439516e+01,0.000000000000000000e+00
2.024201000000000139e+00,-1.131397269062189015e-01,1.270692677928126624e-01,9.537469148635864258e-01,1.302128004646154955e-02,-1.172637359501016441e-02,1.471185256924645302e-02,-1.222302211582411563e-01,9.199212141182244729e-02,-1.462992280721664429e-02,1.098203009157447951e-01,1.389251032778371364e-01,1.617088470158273977e-02,2.785728549553739275e-01,1.278133336318448277e-01,1.233793034030860741e-01,1.966850283786838183e-01,2.278133336318448332e-01,8.008514241470816863e-02,5.337525257607846907e-01,7.464032173156738281e-01,-1.093586087226867676e+00,7.573490653609641754e+01,0.000000000000000000e+00
2.047781000000000073e+00,-1.162383319918730840e-01,1.288903528282711874e-01,9.533117413520812988e-01,1.557427314926823798e-02,-8.289481315136182360e-03,1.640330334289941128e-02,-9.802644838503336844e-02,1.021037146298985621e-01,-3.261142969131469727e-02,1.019399785256839275e-01,2.365550849246022824e-01,1.290094081711961604e-01,-1.505369716395608126e-01,1.168679780330377227e-01,-1.848137781109488176e-01,-2.281947304161362489e-01,2.168679780330377282e-01,-2.326991144984418003e-01,5.345324677451366302e-01,7.131233215332031250e-01,-1.000572562217712402e+00,7.877799486795804285e+01,0.000000000000000000e+00
2.071397000000000155e+00,-1.208863804834281325e-01,1.314831288658462605e-01,9.528380632400512695e-01,2.222572985349037522e-02,-4.646190565910535142e-03,1.899466821317119525e-02,-1.257217870021012651e-01,8.236985595170570607e-02,-1.572374999523162842e-02,2.837490784589836168e-01,6.319550784430584545e-02,7.275179638976728147e-02,-1.964559765980357642e-01,1.095297015657591688e-01,1.788794602961885638e-01,-2.176574120359553721e-01,2.095297015657591744e-01,1.234793935139161386e-01,5.338018876322531137e-01,7.334284782409667969e-01,-1.357664227485656738e+00,9.024121063501716833e+01,0.000000000000000000e+00
2.097799000000000191e+00,-1.238804717189654486e-01,1.332162230666904534e-01,9.526413679122924805e-01,2.722041559626008425e-02,-4.543193751792795609e-03,1.939954304612645508e-02,-1.110245893945025625e-01,7.978431366561097859e-02,-9.919440373778343201e-03,2.441191116277816042e-01,-2.152439554707457139e-02,2.783215029898493311e-03,-2.212830122069681660e-01,6.816798867114320926e-02,2.167662218163309562e-01,-2.126750591135956048e-01,1.681679886711432148e-01,1.601317058386771686e-01,5.330224199403100771e-01,7.106342315673828125e-01,-1.025571942329406738e+00,8.003022809000984239e+01,0.000000000000000000e+00
2.123470000000000191e+00,-1.282023438920332770e-01,1.360311254871634790e-01,9.523311257362365723e-01,3.238543200436028169e-02,-5.755605368588767590e-03,2.123383165569325826e-02,-1.151951164118477783e-01,8.100938558979070558e-02,-1.907679811120033264e-02,8.494969254185744112e-02,-7.478172540190793083e-02,3.640453360415638745e-02,-1.410340796842378119e-01,-3.031067953587008867e-01,4.553341520836140521e-03,-1.026419293198558569e-01,-2.031067953587008534e-01,-5.766844204552740161e-02,5.335187659645483915e-01,6.962759494781494141e-01,-9.775940179824829102e-01,7.341159719934907457e+01,0.000000000000000000e+00
2.149659999999999904e+00,-1.323571787249314125e-01,1.388905365275776016e-01,9.518197774887084961e-01,3.193803855108852396e-02,-7.181712091389513830e-03,2.010855184680604424e-02,-1.124971922050296280e-01,9.100294314182758026e-02,-2.803549915552139282e-02,-5.944479068377438169e-02,-3.520889714713342639e-02,-5.111054593363135307e-02,-9.428700764405716084e-02,-2.577877546669922193e-01,-9.021839763081065944e-02,-6.843088029300881114e-02,-1.577877546669922415e-01,-1.494632642165204250e-01,5.337641738460476848e-01,6.677826642990112305e-01,-9.689503908157348633e-01,7.949011039082357399e+01,0.000000000000000000e+00
2.176772000000000151e+00,-1.350696906422966526e-01,1.407708599487184631e-01,9.514276981353759766e-01,2.889427539434157380e-02,-7.874742686047486728e-03,1.899341005544097349e-02,-1.102810631251386758e-01,8.145968557875755967e-02,-3.379078954458236694e-02,-1.998214517023172154e-01,-2.573358654474982785e-02,-5.436949330298694594e-02,-1.258876977401346686e-01,-1.194040872067698017e-01,-9.798298476279332370e-02,-1.123932035471336272e-01,-1.940408720676979615e-02,-1.539665859119082048e-01,5.345501037776244635e-01,6.831345558166503906e-01,-1.210924029350280762e+00,8.338714995385522855e+01,0.000000000000000000e+00
2.199720999999999815e+00,-1.390831492951714043e-01,1.436259296734807289e-01,9.506730437278747559e-01,2.267112645285507613e-02,-5.506341736367437179e-03,1.931972656275426914e-02,-1.030517518455458387e-01,8.828299288083277241e-02,-3.956057876348495483e-02,-2.545116732957455330e-01,1.788889990278117181e-01,5.619365979283461043e-02,-1.052986034365640255e-01,1.176040998857798836e-01,2.316726742716261611e-03,-1.412465962081442816e-01,2.176040998857798892e-01,-5.414247774142050967e-02,5.352392159594503429e-01,6.904075145721435547e-01,-5.444535017013549805e-01,3.357297524249727871e+01,0.000000000000000000e+00
2.221325000000000216e+00,-1.418072727576142056e-01,1.454749227165833825e-01,9.500596523284912109e-01,1.883551224370818775e-02,-2.559831807247281432e-03,2.018122796925414519e-02,-9.541543618644186819e-02,8.144381974779026090e-02,-2.914378419518470764e-02,-1.807671016097717742e-01,1.505943590014314215e-01,2.338623356554447863e-02,-1.213013882452182862e-01,1.177048912172628248e-01,-2.476745122761311868e-02,-1.782584606774075264e-01,2.177048912172628303e-01,-8.321854701909078833e-02,5.349755289465479846e-01,7.111372947692871094e-01,-1.132995247840881348e+00,9.340250905084421618e+01,0.000000000000000000e+00
2.250926000000000204e+00,-1.457763307982758161e-01,1.481042493413255445e-01,9.492426514625549316e-01,1.399085816104919493e-02,2.162144299893586918e-03,2.158134654708043776e-02,-1.080242357054406327e-01,7.419702561281028841e-02,-2.689022198319435120e-02,-1.620421833298383851e-01,1.321410061490473076e-01,2.725972370292183838e-02,-1.155722334568425741e-01,1.184847405533600573e-01,-1.410390790830368113e-02,-2.022605380452547064e-01,2.184847405533600628e-01,-7.610814707962187953e-02,5.352771350180388632e-01,7.285848855972290039e-01,-1.325781941413879395e+00,1.044653784023449106e+01,0.000000000000000000e+00
2.273597999999999786e+00,-1.471180296595441805e-01,1.489678990952147675e-01,9.490427374839782715e-01,1.293956854599050306e-02,3.060282886601539687e-03,2.189233408076018961e-02,-9.880547473841702621e-02,7.643673223121399962e-02,-2.787340432405471802e-02,-1.190610322205822857e-01,8.483855311595579762e-02,3.491777823161777618e-03,-9.068145013224211681e-02,1.193708615307121634e-01,-1.498432121820683638e-02,-1.881610047928596319e-01,2.193708615307121690e-01,-7.772699522095796731e-02,5.353711591224942223e-01,7.254624366760253906e-01,-1.027666687965393066e+00,7.844897099526019701e+01,0.000000000000000000e+00
2.298004999999999853e+00,-1.510691623194743427e-01,1.514136190823578421e-01,9.485452175140380859e-01,1.037037543438965037e-02,2.633360482253044310e-03,2.262900920201538213e-02,-1.087801509624521240e-01,6.754346563645990953e-02,-1.278593484312295914e-02,-5.124301929709659115e-02,-1.049280836362987829e-01,-4.702815902651356385e-03,1.873904946935496807e-01,-2.252678375495630603e-01,1.610475743751624833e-01,8.739049469354968902e-02,-1.252678375495630547e-01,9.623394335734218596e-02,5.337817299768039536e-01,6.915643215179443359e-01,-8.341902494430541992e-01,9.184871614674717932e+01,0.000000000000000000e+00
2.322791000000000050e+00,-1.546770272587286721e-01,1.537335919296768105e-01,9.480487704277038574e-01,7.270314508704321665e-03,5.175155796874886249e-04,2.310004368082818615e-02,-1.000975491522361899e-01,7.553817162674412999e-02,-2.383065037429332733e-02,-1.519704970441038971e-01,-6.584563497601711446e-02,-3.141714201413496436e-03,2.248195309377484796e-01,-4.520404295260405103e-03,6.022359266049735760e-02,1.248195309377484602e-01,9.547959570473960045e-02,-5.906036746764726370e-03,5.350498638718779176e-01,7.118067741394042969e-01,-9.548128843307495117e-01,7.026865150182185005e+01,0.000000000000000000e+00
2.348806999999999867e+00,-1.580922367874792178e-01,1.560473488051410396e-01,9.475542306900024414e-01,4.612601917326254047e-03,-1.807444060414775677e-03,2.280493217359835789e-02,-8.941085061096695763e-02,6.841616963299412824e-02,-2.487056702375411987e-02,-7.365955979983442037e-02,-5.655369728073157687e-02,-7.135488053500560859e-05,2.192931042092753913e-01,-1.789205665024839187e-01,1.627046847871402580e-01,1.192931042092753718e-01,-7.892056650248391314e-02,9.746287212388562993e-02,5.348626942507094251e-01,6.922671794891357422e-01,-1.070853114128112793e+00,3.016653450716930607e+01,0.000000000000000000e+00
2.371121000000000034e+00,-1.602192911245095552e-01,1.575490284401855068e-01,9.473231434822082520e-01,4.577123979070414801e-03,-1.689635044934245656e-03,2.172853903922122853e-02,-1.002049755519473784e-01,6.568922723696629662e-02,-1.067992951720952988e-02,4.332476821539585354e-02,2.272530898190566057e-02,-8.915190759033370105e-02,1.149349972434049461e-01,1.059318958794714105e-01,2.349281990286642974e-01,1.493499724340494224e-02,2.059318958794714161e-01,1.726118395451827214e-01,5.336255216323946282e-01,6.749548912048339844e-01,-1.013656497001647949e+00,7.556673361835235880e+01,0.000000000000000000e+00
2.397184000000000204e+00,-1.622407020903953168e-01,1.589205172804278865e-01,9.470785856246948242e-01,5.873731885408480999e-03,-1.150285843068532543e-03,2.115570523436649530e-02,-8.751970574522320578e-02,6.631934289325783216e-02,-2.090693637728691101e-02,7.486635759867735218e-02,6.767140062530005440e-02,2.223556276423157164e-03,2.883808444610385657e-01,1.267786032852874778e-01,1.294840087786357508e-01,1.883808444610385602e-01,2.267786032852874833e-01,6.879427634155965698e-02,5.356307386701791851e-01,7.410883903503417969e-01,-8.442302942276000977e-01,9.424379711129301995e+01,0.000000000000000000e+00
2.420208999999999833e+00,-1.659717234932368002e-01,1.603873586109192118e-01,9.468672871589660645e-01,1.107161492062600124e-02,4.838818363714914028e-04,1.885110799231481948e-02,-7.808444994421780139e-02,6.036196715368782884e-02,-1.599381305277347565e-02,2.203980409199542134e-01,4.566132250006132987e-02,-9.444533017518794149e-02,-7.626244176032956346e-03,1.089537627174919920e-01,1.215405303716477620e-01,-1.076262441760329619e-01,2.089537627174919976e-01,6.720593103114498590e-02,5.345557857394945822e-01,6.973389387130737305e-01,-5.305999517440795898e-01,1.207914036980552623e+02,0.000000000000000000e+00
