timestamp,x,y,z,roll,pitch,yaw,vx,vy,vz,p,q,r,psp,qsp,rsp,pres,qres,rres,thrust_sp, thrust_res
0.000000000000000000e+00,-2.640768913433290052e-02,4.483254254980702930e-02,9.972807765007019043e-01,1.610954886341485134e-02,-2.005669617593408560e-03,1.708624875380029265e-03,3.286985280357389294e-03,-7.100042754256732577e-03,3.484246088191866875e-03,-2.970719662010913933e-02,1.346103443292712837e-02,-3.468059339371227373e-02,-8.219997396364105147e-02,-2.694510660659221041e-02,4.897789400461816101e-03,0.000000000000000000e+00,0.000000000000000000e+00,0.000000000000000000e+00,5.118975738308484402e-01,-0.000000000000000000e+00,-5.404198169708251953e-02,8.942534453865914656e+01,2.424694776535034069e-01
2.601600000000000093e-02,-2.689866569620818354e-02,4.539295714109670143e-02,9.971674084663391113e-01,1.581366191403493424e-02,-2.033105022141823426e-03,1.999898903514527905e-03,-5.086768202590320580e-03,-4.989325666877608006e-03,-3.741944208741188049e-03,3.709403187400768086e-03,-2.379274174740282806e-03,4.652655137591721335e-02,-7.706306621412169211e-02,-3.473507264786980520e-02,5.747686681401409370e-03,0.000000000000000000e+00,0.000000000000000000e+00,0.000000000000000000e+00,5.124491605494293500e-01,0.000000000000000000e+00,7.016551494598388672e-02,9.862151123716431300e+01,2.424694776535034069e-01
4.756500000000000311e-02,-2.735689625203527667e-02,4.590383207495058598e-02,9.971014261245727539e-01,1.561072586579340463e-02,-2.443115655278438325e-03,1.970039395835876481e-03,-8.902779589422931891e-03,-8.718648596356242883e-03,4.255248233675956726e-03,-9.689282422994816707e-03,-2.990000495795597235e-02,-1.482300840117502239e-02,-7.856866881209614850e-02,-3.970632452723588113e-02,5.679774197826059634e-03,0.000000000000000000e+00,0.000000000000000000e+00,0.000000000000000000e+00,5.118601560224712577e-01,-0.000000000000000000e+00,-8.733069896697998047e-02,1.001333053080549291e+02,2.424694776535034069e-01
7.462599999999999789e-02,-2.798824795674937846e-02,4.655746555956563615e-02,9.969236850738525391e-01,1.522698759046113570e-02,-2.584468924567318027e-03,1.930915898605132424e-03,1.262979746100647204e-03,-7.484686136109985205e-03,-5.599411204457283020e-03,-4.416262267880912556e-02,2.592513580638575177e-02,-2.315283004531874106e-02,-7.405388814594911218e-02,-3.230994712619510156e-02,5.539271082411589830e-03,0.000000000000000000e+00,0.000000000000000000e+00,0.000000000000000000e+00,5.126105701859723363e-01,-0.000000000000000000e+00,-6.672024726867675781e-03,1.001914643688376003e+02,2.424694776535034069e-01
9.970099999999999796e-02,-2.832545788331693876e-02,4.694239280986471641e-02,9.967674612998962402e-01,1.516056038827246800e-02,-2.505263137960511699e-03,1.984901836886888635e-03,1.022548497627068969e-03,-6.442887028354163208e-03,-7.059164810925722122e-03,7.390732315697977860e-03,2.314448612634442681e-02,1.214798952765078037e-02,-7.258990424491768012e-02,-3.377966287417603214e-02,5.697139805805606638e-03,0.000000000000000000e+00,0.000000000000000000e+00,0.000000000000000000e+00,5.127403074309508924e-01,-0.000000000000000000e+00,3.871246576309204102e-01,1.002431074291520616e+02,2.424694776535034069e-01
1.245679999999999982e-01,-2.876443116698306629e-02,4.739348351413163324e-02,9.962828755378723145e-01,1.384790253338645527e-02,-1.408518389832691398e-03,1.839890232039279776e-03,-1.735660370902537180e-03,-8.845147119745889672e-03,-2.557050250470638275e-02,-5.010219999612474523e-02,5.349069164348910221e-02,-3.182728524511828361e-02,-6.582972254887269059e-02,-2.914257188810015151e-02,5.262006917036710085e-03,0.000000000000000000e+00,0.000000000000000000e+00,0.000000000000000000e+00,5.141723361492585020e-01,-0.000000000000000000e+00,-9.770274162292480469e-03,-4.482401118298994902e+01,2.424694776535034069e-01
1.513859999999999928e-01,-2.909802053726885662e-02,4.762240479577398156e-02,9.952256679534912109e-01,1.146545650283300674e-02,-8.464309093736410716e-05,2.220499886176083813e-03,3.443150850659998461e-03,-4.710078175183305717e-03,-3.962874040007591248e-02,-1.234452256087982674e-01,5.583786032824357426e-02,4.299409451551529371e-02,-4.648306009271135214e-02,-1.620982980984468635e-02,6.272567106857196428e-03,0.000000000000000000e+00,0.000000000000000000e+00,0.000000000000000000e+00,5.153294918705391137e-01,-0.000000000000000000e+00,5.895054340362548828e-02,1.049849662604334100e+02,2.424694776535034069e-01
1.764969999999999872e-01,-2.930394188412749693e-02,4.776397685344788840e-02,9.942664504051208496e-01,9.755693700206858818e-03,3.308467742697551728e-04,2.185515544093301083e-03,1.119076451566059990e-02,-7.204348720037541051e-03,-4.904492571949958801e-02,-7.874701652114145245e-02,6.085993884257729150e-03,-1.271443454728919675e-02,-3.780933383684874360e-02,-8.249528329761347464e-03,6.143842398587895381e-03,0.000000000000000000e+00,0.000000000000000000e+00,0.000000000000000000e+00,5.161440804863965948e-01,-0.000000000000000000e+00,-1.262475252151489258e-01,8.625987970743840094e+01,2.424694776535034069e-01
1.984360000000000013e-01,-2.948790293089149916e-02,4.790024029784691051e-02,9.930995702743530273e-01,8.003378824336403186e-03,6.358195224245299926e-04,2.542835835235936204e-03,-4.373192389308640585e-03,-8.093763690591808044e-03,-5.512707680463790894e-02,-4.504376194064580591e-02,-2.676822767322112676e-02,2.687616845683191147e-02,-2.655822487031313933e-02,-1.998000733152404534e-02,7.171267214825305381e-03,0.000000000000000000e+00,0.000000000000000000e+00,0.000000000000000000e+00,5.167373262858387939e-01,-0.000000000000000000e+00,3.277634382247924805e-01,1.312018277668269661e+02,2.424694776535034069e-01
2.251950000000000063e-01,-2.973339354039656809e-02,4.782775375590858635e-02,9.910753369331359863e-01,5.915301283285131009e-03,9.718441534372068702e-04,2.638681747806729660e-03,1.615349592108394905e-02,-5.445894774932172853e-03,-7.159734517335891724e-02,-9.176504510636841749e-02,4.904801250405840807e-02,-1.875562165250012348e-02,-1.080382209211942085e-02,6.219814471052748615e-04,7.387021387916081760e-03,0.000000000000000000e+00,0.000000000000000000e+00,0.000000000000000000e+00,5.181698595382213668e-01,-0.000000000000000000e+00,4.972749948501586914e-01,-5.258290800463850445e+01,2.424694776535034069e-01
2.474159999999999970e-01,-2.991642284545508942e-02,4.745934572097076920e-02,9.894905686378479004e-01,5.112763064619637969e-03,1.020347763790674378e-03,2.814534325232377968e-03,8.970815705326462206e-03,-2.593989825928919111e-03,-8.068986237049102783e-02,-1.816540067986983226e-02,-2.818157338244848750e-03,3.219841585249495763e-02,-3.840235292294873204e-03,-7.860047883807322680e-03,7.897072043618058590e-03,0.000000000000000000e+00,0.000000000000000000e+00,0.000000000000000000e+00,5.190390820729697818e-01,-0.000000000000000000e+00,7.568514347076416016e-02,6.584141167427880248e+01,2.424694776535034069e-01
2.746859999999999857e-01,-3.010831188701932129e-02,4.694033906614115959e-02,9.868481159210205078e-01,3.964785664941603699e-03,1.350932437815588472e-03,2.926579116863571670e-03,3.810899153463056903e-03,-6.407936847851587042e-03,-8.364402502775192261e-02,-3.270818349265236513e-02,1.299032721234263596e-02,1.113674331623739147e-02,-1.164076431458345613e-05,-8.941277970112116585e-03,8.209722153204146444e-03,0.000000000000000000e+00,0.000000000000000000e+00,0.000000000000000000e+00,5.195387289360103855e-01,-0.000000000000000000e+00,5.184324979782104492e-01,-6.435355144001354333e+00,2.424694776535034069e-01
2.973319999999999852e-01,-3.019152140781388577e-02,4.661574932853489867e-02,9.847532510757446289e-01,3.262929141290491809e-03,1.613939064713187932e-03,3.130447667458606358e-03,2.369450102158720400e-02,-1.860070920952218258e-04,-1.089276671409606934e-01,-6.497880715934577223e-02,4.582950197102843293e-02,2.577780382004838527e-02,9.735910322535585443e-03,9.150674264168422514e-03,8.749523931954938938e-03,0.000000000000000000e+00,0.000000000000000000e+00,0.000000000000000000e+00,5.216565057829420926e-01,-0.000000000000000000e+00,-1.545628309249877930e-01,9.585019613237749070e+01,2.424694776535034069e-01
3.237079999999999957e-01,-3.021552099782076964e-02,4.604946936445036137e-02,9.812901616096496582e-01,2.492084828079082614e-03,1.470002599230690876e-03,3.390631852327134071e-03,-1.598575755980148790e-03,-7.147192524396867204e-03,-1.059180200099945068e-01,5.098035079467617275e-03,-2.926187637934035343e-02,2.762367743113040147e-02,8.235603583718657805e-03,-1.458267070687535409e-02,9.513393598182928734e-03,0.000000000000000000e+00,0.000000000000000000e+00,0.000000000000000000e+00,5.218057110858167480e-01,-0.000000000000000000e+00,3.903019428253173828e-02,7.619040502165539408e+01,2.424694776535034069e-01
3.488970000000000127e-01,-3.022649975775286088e-02,4.553974440536699697e-02,9.787769913673400879e-01,1.764507253037848064e-03,1.384360869699063912e-03,3.599401582507806650e-03,2.190450772854565104e-02,-5.828510430698014000e-03,-1.194529309868812561e-01,-8.070023829747774435e-02,1.453650742943401845e-02,1.545983358052524861e-02,1.465868782552031888e-02,6.877621432092865389e-03,1.006981519112681855e-02,0.000000000000000000e+00,0.000000000000000000e+00,0.000000000000000000e+00,5.231044050800659484e-01,-0.000000000000000000e+00,-1.088553667068481445e-01,1.281848239274056027e+02,2.424694776535034069e-01
3.753770000000000162e-01,-3.015946829457774245e-02,4.481491861526226694e-02,9.748725295066833496e-01,2.059246127784118176e-03,2.549934596407510412e-04,3.947999854104109266e-03,1.424661354448373066e-02,-4.034395100348021207e-03,-1.189282462000846863e-01,5.075501926363420319e-02,-7.728410882729951081e-02,4.127051503941685240e-02,1.364666019426962265e-02,-9.775490508763372971e-03,1.106754665374565239e-02,0.000000000000000000e+00,0.000000000000000000e+00,0.000000000000000000e+00,5.234842190760250480e-01,-0.000000000000000000e+00,-2.929667234420776367e-01,8.952854869701803864e+01,2.424694776535034069e-01
3.971850000000000103e-01,-3.005389112996973908e-02,4.436130649238934770e-02,9.722276926040649414e-01,2.420258977555757047e-03,1.645864994308521290e-04,3.750305990040766601e-03,7.316999966770471216e-03,-1.021707629401382052e-02,-1.235799863934516907e-01,-9.471846903143945826e-03,-1.788117130814052130e-02,-1.756599124139262419e-02,6.030903202145927386e-03,-1.467343390132906482e-02,1.051910570214792395e-02,0.000000000000000000e+00,0.000000000000000000e+00,0.000000000000000000e+00,5.241543700901747371e-01,-0.000000000000000000e+00,-3.764331340789794922e-02,7.949483688172922768e+01,2.424694776535034069e-01
4.253199999999999759e-01,-2.979603203051241905e-02,4.368225719316024686e-02,9.681288003921508789e-01,3.197871358867808433e-03,2.042076971804362984e-04,3.818244641938465210e-03,2.312636176152150017e-02,3.236404405047502500e-03,-1.388660222291946411e-01,4.953223201712995787e-03,3.949773214317375131e-02,9.307378825713653533e-03,1.187963126822049430e-02,-9.443455229463328018e-04,1.069286905542737864e-02,0.000000000000000000e+00,0.000000000000000000e+00,0.000000000000000000e+00,5.257218330963917552e-01,-0.000000000000000000e+00,1.073855161666870117e-01,3.543314652709898382e+01,2.424694776535034069e-01
4.474839999999999929e-01,-2.953108287930409151e-02,4.304619462353268672e-02,9.653358459472656250e-01,3.617309108767873156e-03,1.777768177089189550e-04,3.838123156355333337e-03,1.634359830287601331e-02,-6.843065291577619426e-03,-1.349980831146240234e-01,2.111929526558475184e-02,-1.017830560986523677e-02,5.086690541441808537e-03,-8.004958623864221736e-04,-8.512056530762347750e-03,1.075983591223916847e-02,0.000000000000000000e+00,0.000000000000000000e+00,0.000000000000000000e+00,5.257978524077326909e-01,-0.000000000000000000e+00,-2.323518991470336914e-01,1.025538014065023873e+02,2.424694776535034069e-01
4.749079999999999968e-01,-2.907591247546242527e-02,4.217373666364794549e-02,9.611040353775024414e-01,3.745292832551456053e-03,5.873695448752602744e-04,3.892659838770212277e-03,1.919764681108498960e-02,-1.781733644869428227e-03,-1.537390053272247314e-01,-1.169226365634504911e-02,2.864919895089901997e-02,6.884353974371517672e-03,3.164544671992082243e-03,-2.385906078108538872e-03,1.090363403470578918e-02,0.000000000000000000e+00,0.000000000000000000e+00,0.000000000000000000e+00,5.276407171431953813e-01,-0.000000000000000000e+00,-6.773853302001953125e-01,1.066516895122674384e+02,2.424694776535034069e-01
5.019099999999999673e-01,-2.856733635472240643e-02,4.137338067285590421e-02,9.567244052886962891e-01,3.723744218406298441e-03,9.653198875714252836e-05,4.283235126713996754e-03,2.661827416828760687e-02,-1.277212944458171401e-03,-1.510899066925048828e-01,1.096033571438451842e-02,-5.018033693441223408e-02,4.135766150285378334e-02,2.592854007434724183e-03,4.730402275548591085e-05,1.199307425698681318e-02,0.000000000000000000e+00,0.000000000000000000e+00,0.000000000000000000e+00,5.279437341220398761e-01,-0.000000000000000000e+00,-1.601639986038208008e-01,1.223552301500430417e+02,2.424694776535034069e-01
5.259489999999999998e-01,-2.820409447862263358e-02,4.084638732533361904e-02,9.538238644599914551e-01,3.901428823538828899e-03,-3.146033668572911779e-04,4.267484746735142678e-03,2.537587053941149293e-02,-1.572040168401747434e-03,-1.561381220817565918e-01,-8.620203749478945812e-03,-2.332739473100586824e-02,-1.992441673772041288e-02,9.007631559960300668e-04,-4.407234598933713714e-03,1.195658946591626748e-02,0.000000000000000000e+00,0.000000000000000000e+00,0.000000000000000000e+00,5.287037151153729519e-01,-0.000000000000000000e+00,2.717634439468383789e-01,6.677059060896732490e+01,2.424694776535034069e-01
5.487549999999999928e-01,-2.797872728969157119e-02,4.121302511201985208e-02,9.508770108222961426e-01,4.385684040682378410e-03,-5.306650235539223104e-04,4.305966618190752541e-03,2.111885740865354633e-02,-4.484985789783364394e-04,-1.528941243886947632e-01,5.671183157219227000e-02,-1.033552765392167089e-02,-6.638386777878653661e-04,-9.933444127233660714e-04,-8.779265332019430684e-03,1.207310784260734460e-02,0.000000000000000000e+00,0.000000000000000000e+00,0.000000000000000000e+00,5.288674157151042055e-01,-0.000000000000000000e+00,-3.877938985824584961e-01,-7.800425054821148763e+01,2.424694776535034069e-01
5.758469999999999978e-01,-2.754338754301657866e-02,4.174930966021748319e-02,9.464578628540039062e-01,5.136601139407388598e-03,-5.998663279676019755e-04,3.913659611711940538e-03,3.142477244255625912e-02,-2.447383052413236969e-03,-1.530542820692062378e-01,2.640699072146177745e-02,1.730146091117737081e-02,-5.563590839073374178e-02,-7.184376634034460481e-03,-4.632619709945254207e-04,1.095925888647691915e-02,0.000000000000000000e+00,0.000000000000000000e+00,0.000000000000000000e+00,5.293867600022436060e-01,-0.000000000000000000e+00,-8.567273616790771484e-02,1.005343671859289145e+02,2.424694776535034069e-01
5.975150000000000183e-01,-2.720864331247708004e-02,4.212668782674958839e-02,9.435086250305175781e-01,5.555119888770175367e-03,-6.290650523435026287e-04,4.025409005342356523e-03,3.059689210453266778e-02,7.871887736877079475e-03,-1.556363552808761597e-01,5.218189494817006974e-02,-2.918922129268473192e-02,3.256586125277769611e-02,-1.383097448972287315e-03,-2.483764627977913010e-03,1.127713776964422987e-02,0.000000000000000000e+00,0.000000000000000000e+00,0.000000000000000000e+00,5.299818486422291919e-01,-0.000000000000000000e+00,-1.935399770736694336e-01,8.213973201516827771e+01,2.424694776535034069e-01
6.239249999999999519e-01,-2.664468751149805248e-02,4.273410501148670187e-02,9.390782713890075684e-01,5.646846475046106255e-03,-1.019455703321625606e-05,3.667857816348100292e-03,2.815467591893060922e-02,1.425353429693666145e-04,-1.649114489555358887e-01,3.713589502620045623e-03,1.645911266758609895e-02,-3.529536994513791937e-02,-8.918332152716963376e-03,9.937100842063236340e-05,1.026989498063846096e-02,0.000000000000000000e+00,0.000000000000000000e+00,0.000000000000000000e+00,5.311740616457575337e-01,-0.000000000000000000e+00,6.163322925567626953e-02,1.311002765142472128e+02,2.424694776535034069e-01
6.498819999999999597e-01,-2.664210616900592951e-02,4.340365194196562498e-02,9.345864057540893555e-01,5.128972395197712100e-03,-2.838416576778080014e-05,3.704276224419627249e-03,3.735761961337972364e-02,9.014000205955711997e-03,-1.672070622444152832e-01,-5.776874900377502314e-02,4.466304059758289396e-03,-5.383254608583749878e-03,2.759363162498794722e-03,7.385041154219319781e-03,1.035512872704308363e-02,0.000000000000000000e+00,0.000000000000000000e+00,0.000000000000000000e+00,5.318769611919665907e-01,-0.000000000000000000e+00,-3.786157369613647461e-01,1.029956941552347018e+02,2.424694776535034069e-01
6.735950000000000548e-01,-2.681761917462929107e-02,4.386054309011346714e-02,9.316085577011108398e-01,5.021536463052931124e-03,-3.947343770671629670e-04,3.958708040730669724e-03,3.507045271717588314e-02,1.138789581724653638e-02,-1.627133935689926147e-01,1.696646449085799022e-02,-5.624483608864592338e-02,1.652264442427365740e-02,4.479789056682049325e-03,1.926071244722633771e-03,1.108009784846608614e-02,0.000000000000000000e+00,0.000000000000000000e+00,0.000000000000000000e+00,5.319785174172291242e-01,-0.000000000000000000e+00,1.092816233634948730e+00,-2.412041690292817009e+01,2.424694776535034069e-01
6.981969999999999565e-01,-2.694451768400706049e-02,4.431866068715012430e-02,9.286432266235351562e-01,4.759672505240673465e-03,-6.472528990835169083e-04,3.633464309938059470e-03,2.333331125758495578e-02,4.338500862470716715e-03,-1.633576005697250366e-01,-1.808104344193159005e-02,1.631368492988888308e-02,-1.789362511521955940e-02,9.051524415863914730e-04,-8.426067032826582356e-03,1.019134676850819154e-02,0.000000000000000000e+00,0.000000000000000000e+00,0.000000000000000000e+00,5.324502465862723799e-01,-0.000000000000000000e+00,6.344701051712036133e-01,-3.142008595573091512e+01,2.424694776535034069e-01
7.235399999999999610e-01,-2.701070316808002608e-02,4.498854926516281799e-02,9.244747161865234375e-01,5.164190907874147314e-03,-1.104286531876441657e-03,3.374463622420776233e-03,4.379080956597945773e-02,1.186759449422548039e-02,-1.645006090402603149e-01,-7.831576755108560564e-03,-8.768867403728990845e-03,8.982475968259767685e-03,5.436672751890473526e-03,5.776607597039894529e-03,9.434747750040495262e-03,0.000000000000000000e+00,0.000000000000000000e+00,0.000000000000000000e+00,5.330528565452836709e-01,-0.000000000000000000e+00,2.640775442123413086e-01,1.052788351494732098e+02,2.424694776535034069e-01
7.478259999999999907e-01,-2.698716925880587786e-02,4.540228775525531613e-02,9.216662049293518066e-01,5.831973272687599776e-03,-1.281797447506338727e-03,3.011001665458322256e-03,3.020441263046070093e-02,1.004710050326857763e-02,-1.541351228952407837e-01,5.515671284025269044e-02,-1.768698996566249459e-02,-4.448223164100734150e-02,-8.277902230488857994e-04,-8.492112948857228477e-03,8.452043885791626909e-03,0.000000000000000000e+00,0.000000000000000000e+00,0.000000000000000000e+00,5.327201025333511142e-01,-0.000000000000000000e+00,-2.918192148208618164e-01,9.399911924465565960e+01,2.424694776535034069e-01
7.760200000000000431e-01,-2.677648370430426444e-02,4.602113425593487572e-02,9.176850914955139160e-01,5.935470786083649544e-03,-1.031197686499174537e-03,2.900077224731594048e-03,3.139572527842314498e-02,9.903449991757145091e-03,-1.590945422649383545e-01,-3.689966252429382337e-02,1.226401316649023028e-02,1.350927491352646101e-02,-9.076074858766008339e-04,-3.941248870151716800e-03,8.130311557906000353e-03,0.000000000000000000e+00,0.000000000000000000e+00,0.000000000000000000e+00,5.335817776987892280e-01,-0.000000000000000000e+00,-2.693914175033569336e-01,9.556023411154293967e+01,2.185632467269897350e-01
7.969870000000000010e-01,-2.658143788010962003e-02,4.645224944649243431e-02,9.149611592292785645e-01,6.340728612648612733e-03,-1.063318471245189301e-03,2.612019999437367214e-03,3.643576922033172488e-02,2.027364975466597677e-02,-1.605877578258514404e-01,3.477314715790193883e-02,3.803408141595412961e-02,-4.477201114518469111e-02,4.723356841877864032e-03,-3.499790804165864126e-04,7.314837522174766349e-03,0.000000000000000000e+00,0.000000000000000000e+00,0.000000000000000000e+00,5.341102943527137326e-01,-0.000000000000000000e+00,-1.784312725067138672e-02,1.265592252445642316e+02,2.185632467269897350e-01
8.220229999999999482e-01,-2.625538105664989783e-02,4.709108306469966809e-02,9.113050103187561035e-01,6.145993206589860439e-03,-1.645419290891014796e-03,2.396098300897994606e-03,3.391715615738905010e-02,1.024923859949618959e-02,-1.513343602418899536e-01,-8.013361823558787234e-03,-4.964542468101213607e-02,-1.861380011778770386e-03,-2.427065589214266305e-03,-6.533773206708404398e-03,6.725961295596605272e-03,0.000000000000000000e+00,0.000000000000000000e+00,0.000000000000000000e+00,5.339238233348485574e-01,-0.000000000000000000e+00,-5.681622028350830078e-02,1.127029502489535844e+02,2.185632467269897350e-01
8.463279999999999692e-01,-2.604362751012914701e-02,4.759178320241705396e-02,9.088864326477050781e-01,6.400983325736655377e-03,-1.926797563749582665e-03,2.139157856937824558e-03,2.921083428580314653e-02,1.644346342553699644e-02,-1.542443931102752686e-01,3.825005319647184487e-02,-1.774777445943797119e-02,-2.015139973454173686e-02,2.416597604040555351e-03,-1.143279415598500749e-02,6.022215826176069431e-03,0.000000000000000000e+00,0.000000000000000000e+00,0.000000000000000000e+00,5.345306351393240840e-01,-0.000000000000000000e+00,-3.625940084457397461e-01,9.710709437363240681e+01,2.185632467269897350e-01
8.721950000000000536e-01,-2.566132873831596453e-02,4.836491785260176729e-02,9.055914282798767090e-01,7.030917367950225219e-03,-2.111115796028961711e-03,1.497068616200198342e-03,4.161051296239091229e-02,1.549269416585160285e-02,-1.449413299560546875e-01,2.538332905430196011e-03,2.014209296949125150e-02,-5.491305540529317630e-02,-2.567848474613818911e-03,-2.362429871372079618e-03,4.198834866162348689e-03,0.000000000000000000e+00,0.000000000000000000e+00,0.000000000000000000e+00,5.343173587849909811e-01,-0.000000000000000000e+00,2.912696599960327148e-01,-5.507563591487978805e+00,2.185632467269897350e-01
8.987570000000000281e-01,-2.535273329857273480e-02,4.886143264581235129e-02,9.033955931663513184e-01,7.422279275180376258e-03,-1.980012560871546867e-03,1.175527742682835365e-03,3.545669845300889605e-02,1.895236993071303458e-02,-1.473055183887481689e-01,5.453763347487281497e-03,1.875920335404451800e-02,1.564102982042210946e-02,-1.916288953027169917e-03,-7.665574482259117708e-03,3.315584565533769013e-03,0.000000000000000000e+00,0.000000000000000000e+00,0.000000000000000000e+00,5.348661244980333906e-01,-0.000000000000000000e+00,-5.229326486587524414e-01,1.198946408411676003e+02,2.237529993057250921e-01
9.238650000000000473e-01,-2.483433769098480209e-02,4.967645301658403512e-02,9.003363251686096191e-01,7.618144521561019504e-03,-1.651758367304356767e-03,6.925869174850880381e-04,4.001927441050334017e-02,1.753803932157446330e-02,-1.435733139514923096e-01,1.027889879958430661e-02,2.651476600067968238e-03,-4.460311593903377655e-03,-4.053926248974584236e-03,-9.128129083980456287e-04,1.942163416045639135e-03,0.000000000000000000e+00,0.000000000000000000e+00,0.000000000000000000e+00,5.350384081437756789e-01,-0.000000000000000000e+00,-2.481449842453002930e-01,9.769253720815088116e+01,2.237529993057250921e-01
9.482500000000000373e-01,-2.445361996033728474e-02,5.020684625284781849e-02,8.983380794525146484e-01,7.373633002626335010e-03,-1.411098666140864211e-03,3.883958017503567352e-04,3.986194959573563512e-02,2.011529626940330648e-02,-1.372907459735870361e-01,-4.746499867740130996e-02,2.695083939326235398e-02,-3.859130176564024017e-02,2.315662351469324146e-04,1.739873878155213005e-04,1.086982975208761193e-03,0.000000000000000000e+00,0.000000000000000000e+00,0.000000000000000000e+00,5.349491834493889098e-01,-0.000000000000000000e+00,4.027211666107177734e-02,1.167109940463762854e+02,2.237529993057250921e-01
9.731250000000000178e-01,-2.412771179098813570e-02,5.037632737599728044e-02,8.955813646316528320e-01,7.192532335987341860e-03,-1.790425799481409896e-03,8.403105879951875703e-05,4.350261516824166508e-02,1.880345044109768896e-02,-1.334974020719528198e-01,-1.414144933637439573e-02,-4.367757497738947170e-02,3.505370281750516681e-02,3.769169079381759577e-04,7.157510204514295430e-04,2.330661146492385427e-04,0.000000000000000000e+00,0.000000000000000000e+00,0.000000000000000000e+00,5.350904878700850631e-01,-0.000000000000000000e+00,-2.320743799209594727e-01,9.537099689039855832e+01,2.237529993057250921e-01
9.994009999999999838e-01,-2.387435809635458928e-02,5.050908695142124899e-02,8.938521742820739746e-01,7.410814688380444604e-03,-2.045247182401066510e-03,-3.770060934570765927e-04,3.102993791718310773e-02,1.727315437492797645e-02,-1.225448697805404663e-01,4.429650352517339185e-02,-1.360104347330298204e-02,-5.784499510594773991e-02,-1.647586180433823627e-03,-1.067941296507556558e-02,-1.022134466914625950e-03,0.000000000000000000e+00,0.000000000000000000e+00,0.000000000000000000e+00,5.346363448445514699e-01,-0.000000000000000000e+00,-1.714891195297241211e-01,9.847385620768697834e+01,2.237529993057250921e-01
1.023449999999999971e+00,-2.341069681423988205e-02,5.067815618355481916e-02,8.915656805038452148e-01,7.719717845072129533e-03,-2.435608208343653658e-03,-7.717313875719706119e-04,4.531502568465538283e-02,1.529953702218104367e-02,-1.216926798224449158e-01,-1.983884331878097915e-02,7.813898965942115901e-03,-8.416459292518599020e-03,-4.647314706126315885e-03,-4.029840962097957753e-04,-2.159619108856591918e-03,0.000000000000000000e+00,0.000000000000000000e+00,0.000000000000000000e+00,5.349483497972374879e-01,-0.000000000000000000e+00,-1.861816644668579102e-01,1.142212329995557241e+02,2.237529993057250921e-01
1.053106000000000098e+00,-2.282293153274873518e-02,5.119732668057414005e-02,8.894456028938293457e-01,8.620528423592233036e-03,-2.350664378958144951e-03,-1.373247164929347055e-03,4.245965023732505006e-02,2.046308269722571169e-02,-1.143257096409797668e-01,5.676711447079487577e-02,-1.579727946275669842e-02,2.004577344693154323e-02,-5.767180971502834999e-03,-3.582834256950409319e-03,-3.832586012936733955e-03,0.000000000000000000e+00,0.000000000000000000e+00,0.000000000000000000e+00,5.347778383827935800e-01,-0.000000000000000000e+00,-3.261417150497436523e-01,1.882758720186939740e+02,2.237529993057250921e-01
1.076686999999999950e+00,-2.259920424183195498e-02,5.163012493348493465e-02,8.888913989067077637e-01,8.703171106336067553e-03,-2.113730599310414959e-03,-1.654461564053143251e-03,3.715735364242848948e-02,2.135445643746488112e-02,-1.125215888023376465e-01,5.728840540270125313e-03,-2.901695086669988169e-02,1.051882724303196751e-02,-5.865761404194449330e-03,-5.480820523478482746e-03,-4.613153347322096476e-03,0.000000000000000000e+00,0.000000000000000000e+00,0.000000000000000000e+00,5.348909836322178757e-01,-0.000000000000000000e+00,-5.881392955780029297e-02,9.030275063943898317e+01,2.237529993057250921e-01
1.099299999999999944e+00,-2.212780842285955174e-02,5.247179825494055483e-02,8.877295255661010742e-01,8.898314329462177208e-03,-1.733616139902860454e-03,-2.094205740060996884e-03,3.541260181912833649e-02,1.494619076709157932e-02,-1.117607876658439636e-01,4.473686683996921931e-02,2.484237993041722714e-02,-3.561629012475420186e-02,-1.140062910911270391e-02,-3.291775184010591743e-03,-5.852562215953538427e-03,0.000000000000000000e+00,0.000000000000000000e+00,0.000000000000000000e+00,5.351211038212349003e-01,-0.000000000000000000e+00,-2.831395864486694336e-01,1.636226457189914640e+01,2.237529993057250921e-01
1.124135000000000106e+00,-2.160685295996479446e-02,5.330732516105377711e-02,8.866009712219238281e-01,8.657614642448650810e-03,-1.595365286101602109e-03,-2.193292638721513945e-03,4.382167069136960053e-02,2.308936621805613224e-02,-1.137137487530708313e-01,-3.415159418541001413e-02,1.471889193222583082e-02,1.655289438587033988e-03,-2.133007202881448752e-03,4.530298465756537815e-03,-6.157995196079180111e-03,0.000000000000000000e+00,0.000000000000000000e+00,0.000000000000000000e+00,5.355512622094341646e-01,-0.000000000000000000e+00,-8.158385753631591797e-02,9.495632244550874645e+01,2.237529993057250921e-01
1.152268999999999988e+00,-2.080713297689175054e-02,5.452961899151397007e-02,8.851712942123413086e-01,8.594337786245777322e-03,-2.065907583420845128e-03,-2.608704765474621507e-03,4.023086220549475234e-02,2.411721172182510614e-02,-1.048827543854713440e-01,2.691496528565723301e-02,-5.348433548019088102e-02,1.633234175920172211e-03,-1.038909407733277666e-03,-1.860327551740057015e-03,-7.297799996955178781e-03,0.000000000000000000e+00,0.000000000000000000e+00,0.000000000000000000e+00,5.352205029852952212e-01,-0.000000000000000000e+00,-1.827977895736694336e-01,1.055871908697425994e+02,2.237529993057250921e-01
1.177008999999999972e+00,-2.038037986816817679e-02,5.537234515624654685e-02,8.842346668243408203e-01,8.369192818724068700e-03,-2.281423165398033248e-03,-2.943072815843668800e-03,2.936149437690620950e-02,1.467537263671936203e-02,-9.586469084024429321e-02,7.296920777046742197e-03,-1.916086145152776782e-02,-2.679709595005620032e-02,-6.060637748086638438e-03,-1.066665126863037064e-02,-8.204527700202357554e-03,0.000000000000000000e+00,0.000000000000000000e+00,0.000000000000000000e+00,5.348304097257245981e-01,-0.000000000000000000e+00,-3.972839117050170898e-01,1.250243178135222877e+02,2.237529993057250921e-01
1.199832999999999927e+00,-2.007284637061877014e-02,5.619537057083080767e-02,8.834533095359802246e-01,8.283755090347028754e-03,-2.687754709790546315e-03,-3.117995671860071191e-03,5.281161128109807673e-02,2.301113432309150400e-02,-9.905406087636947632e-02,3.579705070335921415e-03,-1.819423455660978614e-02,-3.438745060504892759e-03,2.794989637505203468e-03,6.103563045365544004e-03,-8.752999393908833525e-03,0.000000000000000000e+00,0.000000000000000000e+00,0.000000000000000000e+00,5.353159087006625905e-01,-0.000000000000000000e+00,2.255886793136596680e-01,1.117123132721132777e+02,2.237529993057250921e-01
1.226304000000000061e+00,-1.950616026552258464e-02,5.738469432489889249e-02,8.822895884513854980e-01,8.721968570085395639e-03,-2.776019831687293049e-03,-3.694545981473709630e-03,3.995830014747534659e-02,2.065300514749412314e-02,-9.148373454809188843e-02,6.367865527236901690e-02,-3.459719609700889070e-02,-1.461631199824024556e-02,-2.001000074690033846e-03,-6.987069945512004894e-03,-1.031929538363529630e-02,0.000000000000000000e+00,0.000000000000000000e+00,0.000000000000000000e+00,5.350441550865395746e-01,-0.000000000000000000e+00,-2.243376970291137695e-01,1.030433757058305702e+02,2.237529993057250921e-01
1.248747000000000051e+00,-1.906809907600722290e-02,5.816310329290395875e-02,8.816651105880737305e-01,9.057659455808714580e-03,-2.399830326097474043e-03,-4.143712867730597361e-03,3.846542284853611549e-02,1.865617993433430974e-02,-8.863906562328338623e-02,5.486559456586624639e-03,1.242383237363627220e-02,-2.064794486882233319e-03,-4.651222586665653552e-03,-3.597752736067177763e-03,-1.158930941315733376e-02,0.000000000000000000e+00,0.000000000000000000e+00,0.000000000000000000e+00,5.350726636474035791e-01,-0.000000000000000000e+00,-5.403860807418823242e-01,1.200469813804155734e+02,2.237529993057250921e-01
1.275806999999999913e+00,-1.836515196492965324e-02,5.930737113009620920e-02,8.808034062385559082e-01,9.163587635041933049e-03,-2.132480508580725242e-03,-4.393548126871425416e-03,4.745708843010278122e-02,2.973882888921740991e-02,-8.541147410869598389e-02,2.205378540092537126e-03,1.982312200434046059e-02,1.893664978732480936e-02,4.274201997404176653e-03,5.585814903046553044e-03,-1.232529447330016348e-02,0.000000000000000000e+00,0.000000000000000000e+00,0.000000000000000000e+00,5.350942640019302754e-01,-0.000000000000000000e+00,-2.836573123931884766e-02,9.174639991298039376e+01,2.237529993057250921e-01
1.297209999999999974e+00,-1.778683984633922660e-02,6.036525155364447920e-02,8.803135752677917480e-01,9.193373246312230504e-03,-2.072435727246801918e-03,-4.898209423464762111e-03,4.858498538625515006e-02,1.917726972958113188e-02,-7.880513370037078857e-02,-1.507213618840808934e-02,-3.029467933005135921e-02,-4.027626002824880730e-02,-4.468043338345323648e-03,6.051761523434507663e-03,-1.373850513247049099e-02,0.000000000000000000e+00,0.000000000000000000e+00,0.000000000000000000e+00,5.348320242823042525e-01,-0.000000000000000000e+00,3.649815320968627930e-01,-1.704632714180559958e+02,2.237529993057250921e-01
1.322897999999999907e+00,-1.688585329764214285e-02,6.191065584568829910e-02,8.796255588531494141e-01,8.796953107728549756e-03,-2.200212599414275161e-03,-5.079630678479762733e-03,4.006132029371938658e-02,2.503145303419316084e-02,-8.202304691076278687e-02,-4.889035792974472105e-02,-1.428056256084801051e-02,3.234473262021843321e-02,5.066214725124524101e-03,-8.041406290405928980e-04,-1.422037814416482471e-02,0.000000000000000000e+00,0.000000000000000000e+00,0.000000000000000000e+00,5.352977092069911569e-01,-0.000000000000000000e+00,-4.963508844375610352e-01,1.244969589077056042e+02,2.237529993057250921e-01
1.349518999999999913e+00,-1.593599056337909048e-02,6.341514712459699055e-02,8.792276978492736816e-01,8.830341689479374867e-03,-2.605836965511754144e-03,-5.231104457992398656e-03,4.573985296448663390e-02,2.829023257556932680e-02,-7.238026708364486694e-02,4.316973558296182539e-02,7.893245682867691335e-03,-6.035815411468560543e-03,7.804099302093181305e-03,2.674387025937818591e-03,-1.465858485379833986e-02,0.000000000000000000e+00,0.000000000000000000e+00,0.000000000000000000e+00,5.348130891486478911e-01,-0.000000000000000000e+00,-1.481641530990600586e-01,-4.724105803590655484e+01,2.237529993057250921e-01
1.374204999999999899e+00,-1.527061483761282465e-02,6.433563673662348603e-02,8.791015744209289551e-01,9.185530321561986150e-03,-3.030820641618747757e-03,-5.627195701799213128e-03,4.797180411369165315e-02,2.313391007346661879e-02,-6.106116995215415955e-02,-4.466360596007704076e-03,-3.610180387954724235e-02,-9.267494819402342238e-03,2.119959673793582380e-03,1.344544755195017233e-03,-1.576217585833378232e-02,0.000000000000000000e+00,0.000000000000000000e+00,0.000000000000000000e+00,5.341744433401997005e-01,-0.000000000000000000e+00,-7.265647649765014648e-01,5.018717987966880401e+00,2.237529993057250921e-01
1.397877000000000036e+00,-1.461916515476509304e-02,6.475522242823798791e-02,8.789846301078796387e-01,9.916269097201012989e-03,-2.949118462398869767e-03,-5.964728833362863830e-03,4.209118797409732576e-02,2.474492404014865671e-02,-6.551714241504669189e-02,6.848066396499102870e-02,1.305925901050923208e-03,-1.934999002218152839e-02,-2.647150110502913267e-04,-2.457907928778921020e-03,-1.669151654380629513e-02,0.000000000000000000e+00,0.000000000000000000e+00,0.000000000000000000e+00,5.346720190264664385e-01,-0.000000000000000000e+00,-1.510983705520629883e-01,9.737891541203140378e+01,2.237529993057250921e-01
1.427805999999999909e+00,-1.359097100550287103e-02,6.534731080203796949e-02,8.788756132125854492e-01,1.088498636322377151e-02,-2.525679131979652325e-03,-6.593325989251415734e-03,4.901863034767878907e-02,2.116584998795899633e-02,-5.396961793303489685e-02,8.297643463105878678e-03,4.661534044930782522e-02,-3.220351611434275202e-02,-8.687852882393862219e-03,7.064376176983040018e-03,-1.849316510960125060e-02,0.000000000000000000e+00,0.000000000000000000e+00,0.000000000000000000e+00,5.340109239374242200e-01,-0.000000000000000000e+00,-2.961131334304809570e-01,1.049500981447204992e+02,2.237529993057250921e-01
1.450614000000000070e+00,-1.290197112031325061e-02,6.574373835712268854e-02,8.788923025131225586e-01,1.128539060952378145e-02,-2.270837344145570924e-03,-6.795064020624553246e-03,5.313290346985576063e-02,2.693169402567786516e-02,-5.900527909398078918e-02,-1.591908666696021171e-02,2.941186553746212920e-02,1.247984092900556938e-02,-5.984817380055592814e-03,1.133359921842245870e-02,-1.907992622365778379e-02,0.000000000000000000e+00,0.000000000000000000e+00,0.000000000000000000e+00,5.345375310262082680e-01,-0.000000000000000000e+00,-6.150424480438232422e-02,9.662629686738769408e+01,2.237529993057250921e-01
1.475470000000000059e+00,-1.214117216796235625e-02,6.612630178984647833e-02,8.789668083190917969e-01,1.180159746015916299e-02,-2.054423938043115072e-03,-7.031633752502861046e-03,4.284226699556767382e-02,2.294312552879787526e-02,-4.812435060739517212e-02,2.584340412629744510e-02,7.399523709493613030e-03,-2.776090277266545989e-02,-1.254556284997758279e-02,4.992560487527389172e-03,-1.971283047563443525e-02,0.000000000000000000e+00,0.000000000000000000e+00,0.000000000000000000e+00,5.339024353523651456e-01,-0.000000000000000000e+00,3.125441074371337891e-02,-1.530034500880491635e+02,2.237529993057250921e-01
1.498780999999999919e+00,-1.139167023601186414e-02,6.656784328189668809e-02,8.789941668510437012e-01,1.165742288424920572e-02,-1.970867379912810691e-03,-7.260698266197912996e-03,4.430105363563941606e-02,1.622993684399406944e-02,-5.538669228553771973e-02,-3.108176811326825509e-02,2.305902284879631295e-02,1.361720813478736920e-02,-1.569775789934141352e-02,8.581127539871594503e-03,-2.036942593988866346e-02,0.000000000000000000e+00,0.000000000000000000e+00,0.000000000000000000e+00,5.345797014693955962e-01,-0.000000000000000000e+00,1.066833734512329102e-01,1.143980529367890142e+02,2.237529993057250921e-01
1.528102000000000071e+00,-1.023458411888708737e-02,6.734239868146817132e-02,8.791511654853820801e-01,1.161956854223487011e-02,-2.502889969971278106e-03,-7.157723041126279849e-03,5.632375062235792790e-02,2.738164431104628954e-02,-4.714724794030189514e-02,-6.554873304618210120e-03,-2.593718513269643866e-02,2.715177190425584891e-02,-5.194989389201716545e-03,1.482236645939861638e-02,-2.011423185801802793e-02,0.000000000000000000e+00,0.000000000000000000e+00,0.000000000000000000e+00,5.341377122888174567e-01,-0.000000000000000000e+00,-1.439250707626342773e-01,7.463183781532852379e+01,2.237529993057250921e-01
1.552305000000000046e+00,-9.447986894133042143e-03,6.780364983719144867e-02,8.792864084243774414e-01,1.170784148101258922e-02,-2.926222805906819602e-03,-7.386921487091460334e-03,4.738270887757647237e-02,1.695252883219454387e-02,-3.826431557536125183e-02,-6.104057757005914089e-03,-5.323953468272846212e-02,-2.312753524454876086e-02,-1.457875540435469783e-02,4.319835803215703318e-03,-2.070395309479727830e-02,0.000000000000000000e+00,0.000000000000000000e+00,0.000000000000000000e+00,5.336287225286825420e-01,-0.000000000000000000e+00,2.147518396377563477e-01,9.139039679306098662e+01,2.237529993057250921e-01
1.575495000000000090e+00,-8.621015626244834737e-03,6.824604741848594447e-02,8.793988227844238281e-01,1.187865819802755470e-02,-3.087722070368448257e-03,-7.427383461163287320e-03,3.841554961581695321e-02,1.793218928844499127e-02,-3.110509924590587616e-02,3.897064131048690039e-02,6.084689501878312243e-03,7.245996291578794303e-03,-1.291490351176207557e-02,-1.687983501383716334e-03,-2.078976672567944828e-02,0.000000000000000000e+00,0.000000000000000000e+00,0.000000000000000000e+00,5.332451580428813065e-01,-0.000000000000000000e+00,-3.324366807937622070e-01,9.902079726585408537e+01,2.237529993057250921e-01
1.601194999999999924e+00,-7.334143500233349967e-03,6.885726308697938391e-02,8.795911073684692383e-01,1.227774628087821909e-02,-3.356815481232011678e-03,-7.878614988327533458e-03,5.635537273439508721e-02,1.856260758563140281e-02,-2.980714291334152222e-02,2.788354751678836629e-03,2.939524613622402499e-02,-5.869894275578176057e-02,-1.441445427024116641e-02,1.227558175648503155e-02,-2.212008121106262548e-02,0.000000000000000000e+00,0.000000000000000000e+00,0.000000000000000000e+00,5.332786086791316826e-01,-0.000000000000000000e+00,-4.695618152618408203e-02,6.677528977911630648e+01,2.237529993057250921e-01
1.622109000000000023e+00,-6.361362240172000956e-03,6.942602198444569606e-02,8.796962499618530273e-01,1.218879060325583560e-02,-3.519312229417481674e-03,-7.711740324119730101e-03,4.738613933988823634e-02,1.818098590112102522e-02,-3.031438030302524567e-02,-1.535848492980444204e-04,-1.410103495700453305e-02,5.162389297073933375e-02,-1.367381981906205454e-02,2.658327520998202305e-03,-2.160663937229884146e-02,0.000000000000000000e+00,0.000000000000000000e+00,0.000000000000000000e+00,5.334423623792718949e-01,0.000000000000000000e+00,-1.271330118179321289e-01,1.202581571691740265e+02,2.237529993057250921e-01
1.648374000000000006e+00,-4.902027211003961472e-03,7.027143939411913121e-02,8.798975348472595215e-01,1.208181683888257148e-02,-3.190246715526923182e-03,-7.974131774141310705e-03,5.167315417966039659e-02,1.815573359318767982e-02,-2.516984567046165466e-02,1.038108914372349451e-02,2.903822636732224585e-02,-1.911912561497570301e-02,-1.206833594396352835e-02,1.030381967829557127e-02,-2.237805875157256041e-02,0.000000000000000000e+00,0.000000000000000000e+00,0.000000000000000000e+00,5.331923305638212041e-01,-0.000000000000000000e+00,-5.742682218551635742e-01,5.807953005996294849e+01,2.237529993057250921e-01
1.674827999999999983e+00,-3.398651067384580917e-03,7.107555983111210618e-02,8.801254630088806152e-01,1.126582111467250638e-02,-3.542181598439109180e-03,-7.891901087473172580e-03,5.591415441152439852e-02,1.160685459308791537e-02,-2.047591470181941986e-02,-4.575704124218154395e-02,-2.296196909848130865e-02,-1.089942250003268255e-02,-1.090977848704487857e-02,1.176645034442710437e-02,-2.215092759585735038e-02,0.000000000000000000e+00,0.000000000000000000e+00,0.000000000000000000e+00,5.329652729989483584e-01,-0.000000000000000000e+00,1.386131048202514648e-01,8.802281300392121466e+01,2.237529993057250921e-01
1.701098999999999917e+00,-1.925564928761740744e-03,7.189906232244190620e-02,8.803191184997558594e-01,1.037245899205673297e-02,-4.180345547886155089e-03,-7.620509551750117953e-03,4.873237840191287085e-02,1.721288610606578826e-02,-2.124433591961860657e-02,-4.253700476970749544e-02,-3.442130573524192910e-02,1.427752357867732164e-02,7.684742612428805200e-04,2.593397145463443697e-03,-2.135000874786291414e-02,0.000000000000000000e+00,0.000000000000000000e+00,0.000000000000000000e+00,5.331364530400787283e-01,-0.000000000000000000e+00,-3.578054904937744141e-02,1.112274244825557332e+02,2.237529993057250921e-01
1.722018999999999966e+00,-9.948897475686281980e-04,7.249432490284146713e-02,8.802554607391357422e-01,9.898476967118645387e-03,-4.642539073212104128e-03,-7.545646597127994223e-03,5.334019917477950123e-02,1.307285086267472723e-02,-1.380807347595691681e-02,-1.911131801662295515e-02,-3.341830848814483779e-02,-3.563192891257721453e-03,6.814886580758946176e-04,4.874741013822798084e-03,-2.114943458768581142e-02,0.000000000000000000e+00,0.000000000000000000e+00,0.000000000000000000e+00,5.327279504244268882e-01,-0.000000000000000000e+00,-6.373155117034912109e-02,1.079737272676367610e+02,2.237529993057250921e-01
1.747613000000000083e+00,4.383226427299867956e-04,7.334546776165151716e-02,8.802064657211303711e-01,9.477464161112310673e-03,-5.429069464073732476e-03,-7.472226396461833196e-03,5.371393207962950334e-02,1.332553288246872067e-02,-7.607697509229183197e-03,8.465228977620592107e-03,-2.697809905518038648e-02,-1.960313322515402218e-02,5.045426185803214385e-03,4.736425174399167362e-04,-2.092497721612074368e-02,0.000000000000000000e+00,0.000000000000000000e+00,0.000000000000000000e+00,5.324027899030897570e-01,-0.000000000000000000e+00,4.495521783828735352e-01,9.854884485458454435e+01,2.237529993057250921e-01
1.773360999999999965e+00,1.893886605747881115e-03,7.413578652755752063e-02,8.802459836006164551e-01,9.743133682091061759e-03,-5.768107216410855997e-03,-7.498546241521021095e-03,4.550341571672988916e-02,1.078758261200519174e-02,-1.233203895390033722e-02,3.951242847036354026e-03,-2.251024182735323308e-03,-1.201754627159306969e-02,1.990468314788637009e-03,-7.032244022376137396e-03,-2.096674850974084015e-02,0.000000000000000000e+00,0.000000000000000000e+00,0.000000000000000000e+00,5.328575151867250836e-01,-0.000000000000000000e+00,1.296156644821166992e-01,8.055091390100743354e+01,2.237529993057250921e-01
1.799873000000000056e+00,3.473358986157172156e-03,7.487716540106721663e-02,8.803425431251525879e-01,1.050964512052196022e-02,-5.724079332668052800e-03,-7.383872745818371996e-03,5.774161482569910991e-02,1.635485167499902553e-02,-4.229883663356304169e-03,2.517147420230918600e-02,4.806088325584946183e-03,3.180079139213314726e-02,2.481301991622725765e-03,4.840025642363935017e-03,-2.069791174938484524e-02,0.000000000000000000e+00,0.000000000000000000e+00,0.000000000000000000e+00,5.323873905149945074e-01,0.000000000000000000e+00,-1.141084432601928711e-01,1.010428269583121761e+02,2.237529993057250921e-01
1.826281000000000043e+00,5.184794220993137366e-03,7.559184886972998563e-02,8.805625438690185547e-01,1.112778632767745350e-02,-5.426639499736207739e-03,-7.253850469349853308e-03,4.481069791094915988e-02,1.692266309277778644e-02,-5.020661279559135437e-03,7.324101714075756386e-02,4.778934060129806823e-03,-4.474395797528594315e-03,-1.247211118401934330e-03,-3.575258044406590813e-03,-2.029475677095848862e-02,0.000000000000000000e+00,0.000000000000000000e+00,0.000000000000000000e+00,5.325387530812285553e-01,-0.000000000000000000e+00,-2.956529855728149414e-01,8.285608567041380379e-01,2.237529993057250921e-01
1.848025999999999947e+00,6.339426006462822033e-03,7.605744420515012094e-02,8.806862235069274902e-01,1.082449104859943209e-02,-5.301477366292495219e-03,-7.116879922082534893e-03,4.597490407104103810e-02,8.688099903523486406e-03,-9.290268644690513611e-03,-3.298297628179534813e-02,7.050004470628567707e-03,4.094506040873954061e-02,-5.114855244733680119e-03,7.772493455533796775e-04,-1.993148597969646163e-02,0.000000000000000000e+00,0.000000000000000000e+00,0.000000000000000000e+00,5.329513903643300354e-01,-0.000000000000000000e+00,-9.606945514678955078e-02,-1.419595942756504883e+02,2.237529993057250921e-01
1.875655000000000072e+00,8.054359219208323886e-03,7.675948448506825228e-02,8.808181881904602051e-01,1.059025758751668510e-02,-5.418408734738200394e-03,-6.794694144717934245e-03,5.911038495938990972e-02,2.108846812775722057e-02,-1.031784620136022568e-02,1.143482444677471066e-02,5.527211674490477115e-03,3.423471395533886352e-02,7.693539983538512025e-03,1.099291597145452860e-02,-1.907886056336766112e-02,0.000000000000000000e+00,0.000000000000000000e+00,0.000000000000000000e+00,5.331435417130004906e-01,-0.000000000000000000e+00,2.589148283004760742e-01,-7.900697012969355626e+01,1.575280427932739258e-01
1.899540000000000006e+00,9.265912433894001737e-03,7.705737142268269391e-02,8.809484839439392090e-01,1.025172998032551804e-02,-5.898609287687817115e-03,-6.656213686917780703e-03,5.147616179277866161e-02,1.065935888791615105e-02,-1.538637676276266575e-03,-1.891067589373834554e-02,-7.052861999721198039e-02,8.473473945250008937e-03,8.104615737709107252e-04,1.314268442081719702e-03,-1.864387621099355963e-02,0.000000000000000000e+00,0.000000000000000000e+00,0.000000000000000000e+00,5.326055450555152726e-01,-0.000000000000000000e+00,3.898826837539672852e-01,6.870048787971111892e+01,1.575280427932739258e-01
1.921893999999999991e+00,1.055971674450290748e-02,7.721817187606619393e-02,8.809493780136108398e-01,1.026799200495136927e-02,-5.920456291035991470e-03,-6.471471867836238109e-03,4.250008234267477897e-02,1.227513807149123101e-02,-6.460763048380613327e-03,1.940196142144679295e-02,2.276955075209965637e-03,2.009965436276699505e-03,3.640143320268625620e-03,-3.687857787125573168e-03,-1.810413032457269811e-02,0.000000000000000000e+00,0.000000000000000000e+00,0.000000000000000000e+00,5.330734386223966448e-01,-0.000000000000000000e+00,3.019368648529052734e-02,9.069313010145106091e+01,1.575280427932739258e-01
1.949842000000000075e+00,1.253142801258153895e-02,7.740254775991574354e-02,8.810116648674011230e-01,1.056747943064894474e-02,-6.045818715357587081e-03,-6.506223697405259625e-03,6.045513672450261028e-02,1.279691998630566249e-02,-1.483349129557609558e-03,8.308280487059150959e-04,6.345099650128432738e-03,-2.652501036957568073e-02,2.409212582527768196e-03,1.178647319159515164e-02,-1.827251935773710478e-02,0.000000000000000000e+00,0.000000000000000000e+00,0.000000000000000000e+00,5.328270267527324133e-01,-0.000000000000000000e+00,-8.807623386383056641e-02,9.104241914541634628e+01,1.575280427932739258e-01
1.978885000000000005e+00,1.449782079828899374e-02,7.758067413364538867e-02,8.808808922767639160e-01,1.096737753970699301e-02,-5.854190567076811291e-03,-6.357533873861742797e-03,4.664318296937106090e-02,1.340399643764199518e-02,2.352805808186531067e-03,3.157288817089567729e-03,1.808774842507908723e-02,5.387956226531791758e-03,5.721918909230745698e-04,1.459160066380354700e-03,-1.780875928501285399e-02,0.000000000000000000e+00,0.000000000000000000e+00,0.000000000000000000e+00,5.326631720590794261e-01,-0.000000000000000000e+00,3.646465539932250977e-01,1.006000462849877550e+02,1.575280427932739258e-01
2.001389000000000085e+00,1.587354294157628659e-02,7.743935910647663234e-02,8.807418346405029297e-01,1.084274862770352732e-02,-5.662431353982366744e-03,-6.172575157778489516e-03,5.900483863249083444e-02,1.107239245224478016e-02,-9.550679475069046021e-03,-1.045228995452212456e-02,1.781655302211013420e-03,2.506008963064536299e-02,-4.122998554912486735e-04,1.493878693685770850e-02,-1.735322878041550831e-02,0.000000000000000000e+00,0.000000000000000000e+00,0.000000000000000000e+00,5.336485958457689582e-01,-0.000000000000000000e+00,9.951484203338623047e-02,9.747619096619072820e+01,1.575280427932739258e-01
2.025929999999999787e+00,1.733341293549772386e-02,7.704282339764022269e-02,8.805708885192871094e-01,1.057447869404651124e-02,-5.438776901773412220e-03,-6.125679511499089805e-03,5.793143719710172612e-02,1.380909153298938430e-02,-2.557875122874975204e-03,-5.128457426733569469e-02,2.620555353389187464e-02,-2.252854863315070788e-02,3.861099625228011940e-03,1.503650798806681343e-02,-1.722283879408642582e-02,0.000000000000000000e+00,0.000000000000000000e+00,0.000000000000000000e+00,5.332706395245184749e-01,-0.000000000000000000e+00,4.028141498565673828e-02,5.247779480840659261e+01,1.575280427932739258e-01
2.047648000000000135e+00,1.878774353612806466e-02,7.663381540435813821e-02,8.803598284721374512e-01,1.036353861925151838e-02,-5.712268329812530965e-03,-5.847116335461934565e-03,5.290943098056072325e-02,1.182379211508340078e-02,-5.383598036132752895e-04,1.337964872488828878e-04,-3.614667639797248394e-02,4.080137169827651594e-02,3.383994785662803890e-03,1.073688298733348374e-02,-1.642155744173745546e-02,0.000000000000000000e+00,0.000000000000000000e+00,0.000000000000000000e+00,5.332479402373360156e-01,-0.000000000000000000e+00,1.864124536514282227e-01,1.394192283572693043e+02,1.575280427932739258e-01
2.075737999999999861e+00,2.090467047716366988e-02,7.604918993535758620e-02,8.801040053367614746e-01,9.903900918860697802e-03,-6.170985300108622340e-03,-5.766619462747551821e-03,4.671446527388774250e-02,5.244047615620415700e-03,6.618496845476329327e-04,6.595605142794813127e-04,6.484579985995444877e-03,-3.694368693861989350e-02,1.567868317156050160e-03,5.258842345388280159e-03,-1.616966315296075596e-02,0.000000000000000000e+00,0.000000000000000000e+00,0.000000000000000000e+00,5.332849031953862395e-01,-0.000000000000000000e+00,1.099212050437927246e+00,7.643719341674629675e+01,2.198424100875854548e-01
2.098562999999999956e+00,2.231720863411955011e-02,7.564516373575054520e-02,8.799660801887512207e-01,9.673304322221121937e-03,-6.860019247861615099e-03,-5.409949361559080253e-03,5.494981799159418673e-02,7.593343874565562993e-03,-5.120301153510808945e-03,-3.296732202834002506e-02,-1.597363712080262371e-02,3.739796532880208801e-02,5.708675349426841489e-03,8.897268936229099298e-03,-1.518690753341161992e-02,0.000000000000000000e+00,0.000000000000000000e+00,0.000000000000000000e+00,5.338281918061552611e-01,-0.000000000000000000e+00,3.280750513076782227e-01,1.076334745639434090e+02,2.198424100875854548e-01
2.127577000000000051e+00,2.471502758997538157e-02,7.473980902594301590e-02,8.797402977943420410e-01,1.019413967479942777e-02,-7.308662274330135489e-03,-5.489830749453385866e-03,5.666846577837007792e-02,9.710015193490803900e-03,9.917983552441000938e-04,6.233142221167310010e-02,-8.783251696733038183e-03,7.308833210250265805e-03,3.425669521458825015e-03,7.865073607829384250e-03,-1.540725484156135749e-02,0.000000000000000000e+00,0.000000000000000000e+00,0.000000000000000000e+00,5.335155680812432299e-01,-0.000000000000000000e+00,-2.022980451583862305e-01,-6.164794873145776677e+01,2.198424100875854548e-01
2.152273999999999798e+00,2.642371665694129290e-02,7.405370802429958599e-02,8.795514702796936035e-01,1.034859603326631489e-02,-7.275382718567646734e-03,-5.692657079448837538e-03,4.951603462126673294e-02,1.081134962794394212e-03,4.075247794389724731e-03,-2.127100397969390252e-02,-2.960015022959830086e-02,5.320991364391147206e-03,-4.547622026813474480e-03,3.723909262779041655e-03,-1.595574318447307016e-02,0.000000000000000000e+00,0.000000000000000000e+00,0.000000000000000000e+00,5.334079200867223314e-01,-0.000000000000000000e+00,-1.371204853057861328e-02,1.311798208973211786e+02,2.198424100875854548e-01
2.176905000000000090e+00,2.813329749606494068e-02,7.337205202875615728e-02,8.793821334838867188e-01,1.067102792940701622e-02,-7.182532723732704127e-03,-5.660732190275273752e-03,5.698126998055633857e-02,3.639769260220905751e-03,4.655004013329744339e-03,3.590640133553837238e-02,4.166304939519806932e-02,-1.458609266639590216e-02,-3.642731152617467022e-03,1.223540576716193248e-02,-1.590498423070363376e-02,0.000000000000000000e+00,0.000000000000000000e+00,0.000000000000000000e+00,5.334889093948345096e-01,-0.000000000000000000e+00,1.549285650253295898e-01,8.462641264667315966e+01,2.198424100875854548e-01
2.202084000000000152e+00,2.980673982547399001e-02,7.272608356920180761e-02,8.791947960853576660e-01,1.040759913067450769e-02,-7.161165053980234063e-03,-5.600484838543602802e-03,6.266617447552591535e-02,4.348081609724138534e-03,-1.644895528443157673e-03,-5.215231709647324965e-02,9.049566449112408928e-03,1.638559266358689814e-02,-1.968520126521254923e-03,1.684163200454538711e-02,-1.575581936618214440e-02,0.000000000000000000e+00,0.000000000000000000e+00,0.000000000000000000e+00,5.340677775228875879e-01,-0.000000000000000000e+00,1.681276559829711914e-01,9.857656859242563030e+01,2.198424100875854548e-01
2.228177000000000074e+00,3.147565481746258942e-02,7.208606462924431468e-02,8.789843916893005371e-01,1.044507267521079148e-02,-7.096007969679574146e-03,-5.495833732363951049e-03,5.792674900769811258e-02,3.822014226057783050e-03,7.549933157861232758e-03,2.131183703131500282e-02,-3.766652938017792107e-02,-3.709766064052127943e-04,-2.750177502932606502e-03,1.428672021228175049e-02,-1.545142685877670674e-02,0.000000000000000000e+00,0.000000000000000000e+00,0.000000000000000000e+00,5.335244297024678284e-01,-0.000000000000000000e+00,8.350145816802978516e-02,1.047006664664207989e+02,2.198424100875854548e-01
2.255614000000000008e+00,3.326269826266053248e-02,7.150172757144555857e-02,8.787342905998229980e-01,9.789791464876020435e-03,-7.058782705932964419e-03,-5.556374390493504928e-03,4.775852054661017254e-02,-3.102813057596321648e-03,1.905126962810754776e-03,-3.508562327082354049e-02,1.535677402226439531e-02,1.444345593126107608e-02,-3.892359161495224061e-03,8.751989853938635031e-03,-1.559374405730407087e-02,0.000000000000000000e+00,0.000000000000000000e+00,0.000000000000000000e+00,5.340503653415588081e-01,-0.000000000000000000e+00,-8.212864398956298828e-02,7.446840504886846190e+01,2.198424100875854548e-01
2.275698999999999916e+00,3.416101493026492408e-02,7.121181615732370684e-02,8.785609602928161621e-01,9.651785733102540010e-03,-7.305570742619948987e-03,-5.473156016145465895e-03,4.871868383901959559e-02,-3.670717315302802954e-03,1.102607976645231247e-02,-3.249689053640795328e-02,-8.514034974992897367e-04,-1.689478966584352301e-02,-2.312617458940450198e-03,1.017902036988050166e-02,-1.536643929049663626e-02,0.000000000000000000e+00,0.000000000000000000e+00,0.000000000000000000e+00,5.335103691569980100e-01,-0.000000000000000000e+00,8.374571800231933594e-03,9.723897849631617873e+01,2.198424100875854548e-01
2.299376000000000086e+00,3.590414808353457193e-02,7.067122636471838415e-02,8.782519102096557617e-01,9.271518485961681780e-03,-7.720020173176411760e-03,-5.274837445632240412e-03,6.811994613668236054e-02,2.035966913195240511e-03,-2.193384803831577301e-03,-3.019391072909652016e-02,-2.981665362978306796e-02,2.587690342746633287e-02,4.329879980187666295e-03,2.317736892813070104e-02,-1.486519431970229066e-02,0.000000000000000000e+00,0.000000000000000000e+00,0.000000000000000000e+00,5.346036121701573940e-01,-0.000000000000000000e+00,5.734523534774780273e-01,6.988233600236593190e+01,2.198424100875854548e-01
2.325302000000000202e+00,3.849730646634025311e-02,6.983901321079720448e-02,8.776507973670959473e-01,9.188461134917851394e-03,-8.233549893551517229e-03,-5.238550831922999043e-03,4.761491253067932916e-02,-2.350901636423286759e-03,9.784880094230175018e-03,4.204294272064884597e-02,-3.303635691624658144e-02,1.086374571128048173e-02,5.677874700580161013e-04,3.646013912133041004e-03,-1.468249540630356398e-02,0.000000000000000000e+00,0.000000000000000000e+00,0.000000000000000000e+00,5.338792707398225534e-01,-0.000000000000000000e+00,3.824675083160400391e-02,-9.608678022484839687e+01,2.198424100875854548e-01
2.346035000000000093e+00,4.021111880363137381e-02,6.928467789263023646e-02,8.772595524787902832e-01,8.946592225394806724e-03,-8.117222774624011095e-03,-5.461875683870618704e-03,5.967670698781467331e-02,-5.349143719819647244e-03,2.808429766446352005e-03,-4.366251245961491612e-02,1.213317781857928442e-02,-8.907131797920185209e-03,3.210666441272142999e-04,1.756101873693665175e-02,-1.536082923981574311e-02,0.000000000000000000e+00,0.000000000000000000e+00,0.000000000000000000e+00,5.345223608839573259e-01,-0.000000000000000000e+00,-1.755865812301635742e-01,8.132667312655912895e+01,2.198424100875854548e-01
2.373197999999999919e+00,4.288665963279578164e-02,6.912632387555155133e-02,8.764826655387878418e-01,8.960482691100011068e-03,-8.425173251148887488e-03,-5.424046396683799599e-03,6.163298102738769269e-02,1.264043454370907937e-03,2.392414957284927368e-03,6.156790501217703935e-04,-2.825410910891840502e-02,4.331348212802416109e-02,5.742618243079550960e-03,1.723086350904759825e-02,-1.525688254834267621e-02,0.000000000000000000e+00,0.000000000000000000e+00,0.000000000000000000e+00,5.347214175869254849e-01,-0.000000000000000000e+00,3.225158452987670898e-01,9.662906309400155180e+01,2.198424100875854548e-01
2.398435999999999790e+00,4.548629839101118316e-02,6.902017942902775871e-02,8.756335973739624023e-01,8.389329631602675599e-03,-8.471676064309763277e-03,-5.341827157090991637e-03,4.719297982580068079e-02,-8.629963488900304616e-04,8.902580477297306061e-03,3.208035346452557668e-02,-4.411719688550937331e-03,-1.516104679840818599e-02,7.111307228066612342e-03,7.677327812196477023e-03,-1.498660300204862628e-02,0.000000000000000000e+00,0.000000000000000000e+00,0.000000000000000000e+00,5.344141969711384554e-01,-0.000000000000000000e+00,-1.091396808624267578e-02,1.133434170874256921e+02,2.198424100875854548e-01
2.423548999999999953e+00,4.802618542257224704e-02,6.890312908431800443e-02,8.747056126594543457e-01,7.930641044464526238e-03,-9.127684269025548858e-03,-5.392023483318265746e-03,6.274307665802185408e-02,-1.988529143660313411e-03,7.861823774874210358e-03,-1.487982627975324712e-02,-2.815624192580066729e-02,-4.101537660530479162e-02,9.714806905027493361e-03,1.894924861433825228e-02,-1.516801933619277287e-02,0.000000000000000000e+00,0.000000000000000000e+00,0.000000000000000000e+00,5.346705267301339326e-01,-0.000000000000000000e+00,-6.586929559707641602e-01,1.751150127334281876e+02,2.198424100875854548e-01
