timestamp,x,y,z,roll,pitch,yaw,vx,vy,vz,p,q,r,psp,qsp,rsp,pres,qres,rres,thrust_sp, thrust_res
0.000000000000000000e+00,1.298189275285806243e-03,-1.951400080148552735e-02,9.930404424667358398e-01,1.128536606000991177e-02,-1.263909022823028749e-03,1.140784071772316111e-03,-3.279646189449183548e-03,6.473610374863311701e-03,2.041834592819213867e-02,2.900805410903289916e-02,-5.085774405169608131e-02,-3.480318874109748079e-02,-2.469880592603393987e-01,9.628299249616549538e-02,-4.565179249603644115e-04,-1.665638691925706016e-01,1.063330670284673984e-01,-3.672771520492934365e-03,5.247095993487231880e-01,7.403393983840942383e-01
2.603499999999999912e-02,1.739196641462595642e-03,-1.950120025375003119e-02,9.936321973800659180e-01,1.132653247379952766e-02,-9.531687799382293491e-04,1.438849679444853535e-03,2.389435542137506412e-03,1.407114650856603789e-02,1.021515205502510071e-02,-2.298804494582978517e-03,1.822241853749118762e-02,1.884016134496181022e-02,-3.019487701412475467e-01,2.181325237225487934e-01,-2.169048798759005692e-01,-2.264396583462517654e-01,2.207955018374566369e-01,-2.209399763609801171e-01,5.203568530830569028e-01,4.668658971786499023e-01
4.742199999999999888e-02,2.022431819782253681e-03,-1.940489384140294676e-02,9.939721822738647461e-01,1.087515796916198492e-02,-1.057182765329178764e-03,1.808727412824895353e-03,-3.425660450501446987e-03,1.183426963076976597e-02,1.489978935569524765e-02,-4.017007454201053374e-02,-4.620623096001098482e-03,3.559397345727604439e-02,-2.247253450158097354e-01,1.997340183122665314e-01,-3.891070978237205075e-02,-1.492590170023012919e-01,2.084363268591971630e-01,-4.399413207906083950e-02,5.250035379278030767e-01,7.388353347778320312e-01
7.682999999999999552e-02,2.493678331807420989e-03,-1.912875067620175770e-02,9.943841099739074707e-01,9.613835773238448359e-03,-2.448739331005977959e-03,3.292784814604932109e-03,-6.388961867156324470e-03,1.497569294870826871e-02,1.413537468761205673e-02,-2.328774633687302753e-02,-9.927780131816713038e-02,8.844509774308828565e-02,-1.718389199098604159e-01,1.394601125302323830e-01,-1.479074927680587223e-02,-1.076002695645572743e-01,1.584446294273247902e-01,-2.404873360249340161e-02,5.251268726995712566e-01,7.445757389068603516e-01
9.893699999999999717e-02,2.704930315377544747e-03,-1.897341513780431352e-02,9.945733547210693359e-01,7.639065939157521287e-03,-3.601844674689935744e-03,4.462230705809977493e-03,-3.830114992685600735e-03,1.176630621256165125e-02,4.376960918307304382e-03,-1.243409211486001531e-01,-1.011404786119192573e-01,8.443000852073431761e-02,-7.030402181626457803e-02,1.331711441157554798e-01,-1.542522957307527198e-01,-1.590927390620402310e-02,1.570237511384814377e-01,-1.667820074199453106e-01,5.259668748190772236e-01,7.524143457412719727e-01
1.273650000000000060e-01,2.928271562406970906e-03,-1.860560443028990221e-02,9.947673678398132324e-01,3.574828479968256926e-03,-6.934243964756614531e-03,5.603234378481980471e-03,-1.265574026707133939e-02,1.818955565727861656e-02,4.644344095140695572e-03,-1.851383870388506880e-01,-1.600854709430166445e-01,1.803766203254396350e-02,-9.017167101811415786e-02,1.394135893717990404e-01,-1.937183871644828637e-01,-6.808363632452937853e-02,1.923199276402742519e-01,-2.094501586822318240e-01,5.259195179876555715e-01,7.516214847564697266e-01
1.487960000000000116e-01,3.061664156683549347e-03,-1.830089940105505270e-02,9.948111176490783691e-01,2.912322943203615863e-04,-9.499995423658980087e-03,6.508197194059928137e-03,-1.317918732689352286e-02,2.471586637240461015e-02,-1.943527604453265667e-03,-1.394270507730761832e-01,-1.225236949474471232e-01,2.359124526682198492e-02,-1.387438809604296108e-01,1.334464552328768205e-01,-1.977019294982828579e-01,-1.424965568146894790e-01,2.020969468515442236e-01,-2.159419837793336572e-01,5.264141244331965730e-01,7.523404359817504883e-01
1.765069999999999972e-01,3.054004981934030968e-03,-1.760152041654232044e-02,9.948636293411254883e-01,-6.632909057258621656e-03,-1.584673765657096389e-02,1.001056279467116283e-02,-1.422395307537877539e-02,2.351685042254615318e-02,-4.445825237780809402e-03,-1.975917068204546267e-01,-2.148666969273708149e-01,1.435183384820669372e-01,-1.269074653529682906e-01,5.531327176562933490e-02,4.252231136673692569e-02,-1.740868429341239365e-01,1.553132717656293404e-01,1.463631726008599032e-02,5.263444853534265944e-01,7.383925914764404297e-01
1.998890000000000111e-01,2.974590173980407818e-03,-1.717042244059949901e-02,9.948406815528869629e-01,-9.204259792224342776e-03,-1.905392011228235205e-02,1.207877812283952856e-02,-2.447256099580829777e-02,3.123099244182224107e-02,-6.882206071168184280e-04,-1.412795102795799118e-01,-1.805080133915859530e-01,4.132251093326728963e-02,-2.901613274460311531e-02,-2.834273795128393614e-01,2.291441296392341120e-01,-9.961689996609494890e-02,-1.834273795128393281e-01,1.955514517558677168e-01,5.252371894747175363e-01,6.925375461578369141e-01
2.228640000000000065e-01,2.763133825643120361e-03,-1.674120869407705672e-02,9.948828816413879395e-01,-1.262535883460075108e-02,-2.370584022001209767e-02,1.517830363007344197e-02,-3.357242089645570693e-02,2.291847302645273754e-02,-7.381509058177471161e-04,-7.069724707225562288e-02,-1.436687522814194817e-01,1.020885622309963825e-01,-5.432081465269322784e-02,-2.380878590876479850e-01,2.563044420964439851e-01,-1.395387833571872516e-01,-1.380878590876479795e-01,2.142672846869468906e-01,5.258097254767255535e-01,7.233302593231201172e-01
2.485870000000000024e-01,2.757786514804222607e-03,-1.672646044185594968e-02,9.949156641960144043e-01,-1.556575041394554250e-02,-2.675859789987145021e-02,1.512683336633724451e-02,-2.071697542680270634e-02,3.412212944785474739e-02,-5.802159663289785385e-03,-1.202648741869848242e-01,-8.609444325294282607e-02,-2.617426608606687743e-02,2.933853220261557482e-01,-3.154944346796613730e-01,2.651999617868941450e-01,1.933853220261557426e-01,-2.154944346796613674e-01,2.233833732334487565e-01,5.250370180395175224e-01,6.609313488006591797e-01
2.733700000000000019e-01,2.816202152770829695e-03,-1.665760897914810718e-02,9.948579668998718262e-01,-1.688027892213140799e-02,-2.608264152416439607e-02,1.375144736087974273e-02,-1.130107643905265725e-02,2.761421506063146958e-02,-8.074809797108173370e-03,-1.045324068372155690e-01,9.163036403699120758e-02,-1.178569428845609030e-01,3.029052060975950811e-01,1.180930167720236068e-01,2.716706358489069939e-01,2.029052060975950755e-01,2.180930167720236124e-01,2.337644744807698127e-01,5.263248670288046549e-01,7.211786508560180664e-01
2.988970000000000238e-01,2.912852985690786867e-03,-1.639870570905124780e-02,9.944834113121032715e-01,-1.855426308003262081e-02,-2.202348569872270012e-02,1.111987246276058272e-02,-1.072808548363136244e-02,4.134894707229636729e-02,-2.202022448182106018e-02,1.433473979063271293e-02,1.687836033052280138e-01,-1.308329941902053040e-01,3.089476603517895548e-01,1.210174293525034250e-01,2.642940086963270208e-01,2.089476603517895215e-01,2.210174293525034306e-01,2.336612295937381401e-01,5.279422009404524108e-01,7.513496875762939453e-01
3.261560000000000015e-01,3.140637588995585754e-03,-1.559206957150770755e-02,9.940241575241088867e-01,-1.703514991945181273e-02,-1.635318199600832578e-02,7.782557243881660369e-03,-1.663567801238306429e-02,4.065403975911809770e-02,-1.978533528745174408e-02,1.398201145817349056e-01,2.007407574705314113e-01,-1.140928082722880987e-01,3.245149867185241899e-01,1.297196038472787638e-01,-1.929254983366521514e-01,2.245149867185241566e-01,2.297196038472787694e-01,-2.143539158646583787e-01,5.256106902502913902e-01,6.300227642059326172e-01
3.481899999999999995e-01,3.436276251068392899e-03,-1.409154203737308930e-02,9.936195611953735352e-01,-1.189827861763790608e-02,-1.341143542322287274e-02,4.268300248415402010e-03,-2.427018194553950611e-02,4.061184620756782410e-02,-1.899227127432823181e-02,2.207277253423869934e-01,5.028339757150495498e-02,-1.386742482529299547e-01,-7.138362121756688938e-02,1.045141514661241666e-01,-8.297648602781909632e-02,-1.669457605660076005e-01,2.045141514661241722e-01,-9.472647259938016262e-02,5.266636789817001896e-01,6.875791549682617188e-01
3.774529999999999830e-01,3.371190964855979005e-03,-1.260334792171574451e-02,9.934383630752563477e-01,-3.611717782912483073e-03,-1.386839707625431295e-02,2.685421553100031389e-03,-3.692879651238569622e-02,4.539703444950803773e-02,-2.621958497911691666e-03,4.029813189980728794e-01,-2.124528166886609573e-02,-2.372721396470101399e-02,-1.747420922852494785e-01,8.564075275467097903e-02,5.127758310885159251e-03,-2.214512173962197850e-01,1.856407527546709846e-01,-2.390407979573768663e-03,5.266932625504293641e-01,7.525578737258911133e-01
4.004079999999999862e-01,3.165043536536510729e-03,-1.156068109130676570e-02,9.933598637580871582e-01,2.464978782369869025e-03,-1.515297878702881462e-02,3.272218219982026000e-03,-4.360366883950261840e-02,5.064048754160297566e-02,-1.357947662472724915e-02,3.616384803963222927e-01,-6.829349010535787357e-02,9.337533256377400503e-02,-2.060745129136684617e-01,6.083595738594441138e-02,5.189850124708422774e-02,-2.175383176311720956e-01,1.608359573859444169e-01,4.255344474623223849e-02,5.274844049528486511e-01,7.509992122650146484e-01
4.225360000000000227e-01,2.774105357915082355e-03,-9.812065151783167655e-03,9.930524826049804688e-01,8.621426201414362361e-03,-1.690338993009299351e-02,3.710402830136017016e-03,-2.754995511998261509e-02,5.255634548107091658e-02,-1.825088448822498322e-02,8.750723240174623774e-02,-8.664734722381238485e-02,-1.699174557640956151e-02,-1.732760570363651720e-01,-3.200205612486711759e-02,1.767967864674047929e-01,-1.466624798184097411e-01,6.799794387513288796e-02,1.660545875165507501e-01,5.276223428475843580e-01,7.376978397369384766e-01
4.500310000000000143e-01,2.145334372853277809e-03,-8.702420754904254332e-03,9.924192428588867188e-01,1.009454999173494023e-02,-1.759247968848187682e-02,3.818327868314597140e-03,-5.034383610109267188e-02,6.426465473721225397e-02,-2.899205125868320465e-02,2.181754756693265671e-02,-1.970866143972414483e-02,-4.188949998832004057e-02,-1.875207127315841882e-01,1.423211642026230017e-02,1.203868749162754354e-01,-1.612963079906062636e-01,1.142321164202623057e-01,1.091729807397838897e-01,5.282337278352778887e-01,7.239427566528320312e-01
4.746779999999999888e-01,1.703541649005885098e-03,-7.863341572680043398e-03,9.918816089630126953e-01,8.290585909507843659e-03,-1.801915046469471093e-02,3.455281183148972701e-03,-4.442476357662277636e-02,6.657743959982162507e-02,-2.847131714224815369e-02,-1.051391099315893002e-01,-2.058181204825611579e-02,-2.969129052965507193e-02,-4.078409410330587070e-02,1.194621108180425051e-01,-2.146266349504821203e-01,-2.713164794418919737e-02,2.194621108180425106e-01,-2.247548102515912749e-01,5.288065796609323632e-01,7.534325122833251953e-01
4.982579999999999787e-01,8.892207506687250162e-04,-6.357698272699735358e-03,9.908139109611511230e-01,3.762557706675854693e-03,-1.873011139711677764e-02,1.675719637449502031e-03,-3.632072001621956814e-02,6.878912860546067265e-02,-4.385272786021232605e-02,-2.321987020584828365e-01,-5.749176321229172715e-02,-2.972182800638762529e-02,-6.099236062140907938e-02,1.210228860992443034e-01,-2.164616430946171011e-01,-7.919862422752681208e-02,2.210228860992443090e-01,-2.214761464189589912e-01,5.300124154324363790e-01,7.517831325531005859e-01
5.258310000000000484e-01,5.022159925988751048e-06,-4.920136124234662789e-03,9.896677732467651367e-01,-1.049087489134168478e-03,-1.928417572623919440e-02,7.050272832089810038e-04,-5.417577957824685347e-02,7.151971128996449656e-02,-3.830949962139129639e-02,-1.828864066114520848e-01,-3.023917018439007190e-02,-4.989233944876003690e-02,1.477459161315137215e-01,1.215467520634809784e-01,-1.940996147126936855e-01,9.522797512419697852e-02,2.215467520634809839e-01,-1.962860105844533576e-01,5.295267394791557392e-01,7.398655414581298828e-01
5.497459999999999569e-01,-1.473841694112563040e-03,-2.391780437900704447e-03,9.886956214904785156e-01,-4.734776702195299738e-03,-2.101920858643158141e-02,2.643687957220253182e-03,-7.523894175925675831e-02,6.817232776110106196e-02,-3.394953534007072449e-02,-7.236594106448210328e-02,-4.330945711133903087e-02,1.105059038068176708e-01,6.701525837675434416e-02,2.372146688698545391e-02,1.842792687473195079e-01,-8.252140412649303439e-03,1.237214668869854595e-01,1.767902225504664193e-01,5.288198537752299977e-01,7.120441198348999023e-01
5.818870000000000431e-01,-3.147155604017152705e-03,1.009351364838824048e-04,9.878483414649963379e-01,-5.883485281619108172e-03,-2.389559085986925346e-02,5.286012208624457642e-03,-7.340424765295423815e-02,7.184295633559582839e-02,-1.226329617202281952e-02,-1.121609666243194615e-02,-1.672315324750835441e-01,9.373098243898388138e-02,1.588060676837473317e-01,-3.062999520551104027e-01,1.636457431630823078e-01,7.062253948105211288e-02,-2.062999520551103971e-01,1.487652348672254543e-01,5.273193259630518659e-01,7.111759185791015625e-01
6.022100000000000231e-01,-4.410120746577811737e-03,1.860469352255233024e-03,9.872510433197021484e-01,-5.467585360516407159e-03,-2.548072736203721433e-02,6.311623449780201511e-03,-7.490569555399474722e-02,7.114411373493385871e-02,-2.933144010603427887e-02,7.957613390303353018e-02,-6.276461656504381259e-02,3.632451279575777542e-02,1.192201856788081410e-01,-1.976468843981700751e-01,1.562005796510784472e-01,3.367348038105880126e-02,-9.764688439817006960e-02,1.384235147447284986e-01,5.286009086343698149e-01,7.091953754425048828e-01
6.255650000000000377e-01,-6.303660207000402055e-03,4.319372230905647175e-03,9.863925576210021973e-01,-3.726601892255770963e-03,-2.814627882588749408e-02,5.230194199504989427e-03,-8.185532238591855525e-02,7.215153172428706574e-02,-3.344391658902168274e-02,6.997490587470162060e-02,-1.102062377609348415e-01,-4.466352257497050587e-02,7.064786791798553789e-02,-3.075158384312184356e-01,2.087105098366565104e-01,-6.228701125261106725e-03,-2.075158384312184578e-01,1.938371003755544053e-01,5.290093616791025077e-01,7.093091011047363281e-01
6.495889999999999720e-01,-8.201279450151890277e-03,7.077198383828329185e-03,9.854902029037475586e-01,-7.934535086661255584e-04,-2.823884109290331068e-02,3.175162418593613367e-03,-7.273209221062607033e-02,7.604468896279185930e-02,-3.303257375955581665e-02,1.128910287361109960e-01,6.711503397007491378e-02,-1.240609767330132368e-01,9.611131592965357906e-02,9.156678000230208947e-02,2.123199826223985121e-01,3.337419651556766675e-02,1.915667800023020950e-01,2.030171456900375093e-01,5.285856567501676651e-01,6.818851232528686523e-01
6.757210000000000161e-01,-1.023492343210308762e-02,1.012015490623761026e-02,9.843269586563110352e-01,2.451775254771868320e-03,-2.524131584504218928e-02,1.281518102441481233e-03,-7.695192892068039581e-02,8.056105669479884934e-02,-3.709241002798080444e-02,1.805450880998663299e-01,1.884827185088318036e-01,-7.315593056666860883e-02,2.524165957779069824e-01,1.221582722346307992e-01,1.958461750737701679e-01,2.055972960990803400e-01,2.221582722346308048e-01,1.916730215661636150e-01,5.300193844207276017e-01,7.367527484893798828e-01
6.993040000000000367e-01,-1.153598196400846577e-02,1.208548272451142463e-02,9.835671782493591309e-01,4.673253413435304697e-03,-2.174066878848357476e-02,-5.460971980444373486e-04,-6.950038102105896010e-02,7.791124520353916172e-02,-4.326415434479713440e-02,1.366034515038171693e-01,1.916603774841454666e-01,-7.287207718988114591e-02,2.483222718388013173e-01,1.247868894826425490e-01,2.175061628772721467e-01,2.172930584874420701e-01,2.247868894826425545e-01,2.184386317882875961e-01,5.307551072099703227e-01,7.468619346618652344e-01
7.233279999999999710e-01,-1.356324110419476758e-02,1.492460412986560195e-02,9.824612140655517578e-01,8.906925950325415148e-03,-1.718654574312772354e-02,-3.736756937386065403e-03,-8.211668892198842329e-02,7.387231113374631564e-02,-3.529878333210945129e-02,1.413105927659721595e-01,9.882486167239530606e-02,-8.824152818039451840e-02,1.046265499332566379e-01,1.211795104035691684e-01,1.844309590663706644e-01,1.018856554381755847e-01,2.211795104035691739e-01,1.941884085774638613e-01,5.298114877722607252e-01,7.193148136138916016e-01
7.496610000000000218e-01,-1.574769742923901386e-02,1.782869333161542572e-02,9.814714789390563965e-01,1.454597357585172418e-02,-1.613128325458568213e-02,-7.001886533350765163e-03,-9.559737563286484219e-02,7.832179670785457959e-02,-3.322651237249374390e-02,2.372391213489505324e-01,-1.838545788751120777e-02,-1.651403068471636870e-01,-2.312900068230837880e-01,8.735153072993045997e-02,1.431813731127913880e-01,-2.034954925862157704e-01,1.873515307299304655e-01,1.618047073025562499e-01,5.294632205336955444e-01,7.014460563659667969e-01
7.734919999999999574e-01,-1.809013440893287444e-02,2.061641751702866093e-02,9.805679917335510254e-01,2.112637964169682137e-02,-1.801826842817155772e-02,-9.820365125341901091e-03,-1.005074465176895582e-01,7.618278324039630400e-02,-3.219839185476303101e-02,2.709940081298492509e-01,-1.071418198197680166e-01,-7.586563294479138631e-02,-2.531477647145506937e-01,-2.051419811408161098e-01,1.498503390779523936e-01,-1.821952548377420988e-01,-1.051419811408161042e-01,1.759969663275820773e-01,5.295480244030066341e-01,7.038750648498535156e-01
7.994700000000000140e-01,-1.978694014117130667e-02,2.245506199392412541e-02,9.799464941024780273e-01,2.487219748237855244e-02,-2.001115045474932685e-02,-1.191116520969792703e-02,-1.124555310916393880e-01,7.051483197962118976e-02,-3.689917549490928650e-02,1.571768027528124279e-01,-9.562942041152883155e-02,-8.678013093374505049e-02,-2.636823131362108219e-01,-2.930447554225592555e-01,1.306570257174699823e-01,-1.654379294706915526e-01,-1.930447554225592777e-01,1.623410788036636909e-01,5.294382090404321506e-01,6.736940145492553711e-01
8.244679999999999787e-01,-2.234783167337455606e-02,2.520380985287718964e-02,9.789050817489624023e-01,2.763715901956859469e-02,-2.259390720215748161e-02,-1.485005344414336292e-02,-1.027655618260072817e-01,7.855024347532640894e-02,-3.843195363879203796e-02,-5.441824501612353704e-03,-1.067926274375213119e-01,-1.156074718268299689e-01,-3.034622459464096922e-01,-3.095244720375823211e-01,1.526767946931235354e-01,-2.034622459464096866e-01,-2.095244720375823155e-01,1.923081254141273122e-01,5.301693766970207999e-01,7.005821466445922852e-01
8.489950000000000552e-01,-2.511009593793242858e-02,2.820235658614844709e-02,9.774835109710693359e-01,2.568330074217756165e-02,-2.173495492105304017e-02,-1.756767726578423172e-02,-1.099385046201797889e-01,8.380167503646417104e-02,-4.958471283316612244e-02,-1.134064558478473372e-01,1.088942589357656393e-01,-1.405262752000820126e-01,-2.954867915739158302e-01,6.697548462963406890e-02,-1.795781549780585129e-01,-2.059900373135110097e-01,1.669754846296340745e-01,-1.323071503048288133e-01,5.313683083280406061e-01,7.125155925750732422e-01
8.746460000000000345e-01,-2.776582123618896378e-02,3.117945726054069042e-02,9.758912324905395508e-01,2.002887975354767161e-02,-1.717872625118443963e-02,-1.987835741978760673e-02,-1.037181348394733138e-01,8.178951680584894968e-02,-5.419208481907844543e-02,-2.172875896939837903e-01,2.210705146504436391e-01,-6.547911038265769035e-02,-2.515948820727900714e-01,1.182018322365581409e-01,-1.234317169860421476e-01,-1.984175691732852909e-01,2.182018322365581464e-01,-6.916906183096215022e-02,5.318840688489098190e-01,7.125785350799560547e-01
8.998040000000000482e-01,-3.045340646236464888e-02,3.408376913377342277e-02,9.741910099983215332e-01,1.224464937497467265e-02,-1.063581727377327368e-02,-2.143643523835092601e-02,-1.042622574251958062e-01,8.574021969289860601e-02,-6.179238855838775635e-02,-3.374450049426386267e-01,2.189645504178594493e-01,2.325554499217758961e-02,-1.997593258030440078e-01,1.248356696564784929e-01,-1.301944468109396402e-01,-2.022644525416183725e-01,2.248356696564784984e-01,-7.105323842773011989e-02,5.329609461208000276e-01,7.303128242492675781e-01
9.263000000000000123e-01,-3.338109726236779262e-02,3.702209277567743151e-02,9.727110862731933594e-01,4.949911219178239341e-03,-6.190515699544762995e-03,-2.077940649340104251e-02,-1.150269213503054277e-01,9.008340395670053069e-02,-5.219422280788421631e-02,-1.983989417097247465e-01,6.333586816152525500e-02,-5.825483764018383505e-03,-1.351437082584515947e-01,1.235076690639271280e-01,-1.458614759927054361e-01,-1.900284204611566163e-01,2.235076690639271335e-01,-8.825962497384380601e-02,5.323027372573262417e-01,7.215824127197265625e-01
9.508410000000000473e-01,-3.653675159610204198e-02,4.003284672853253678e-02,9.714505076408386230e-01,-1.447213152059595529e-03,-5.354723831390018063e-03,-1.953165756528552066e-02,-1.259826313808740661e-01,8.009598707084952807e-02,-3.764982894062995911e-02,-2.490415268023591366e-01,3.797741157323242245e-02,6.340250034893941955e-02,8.963766584406812621e-04,1.167473616364254341e-01,-1.432023178086798132e-01,-8.946124677716278673e-02,2.167473616364254396e-01,-8.887621573061667279e-02,5.314213358874584348e-01,7.221219539642333984e-01
9.734049999999999647e-01,-3.842589051487822066e-02,4.184552682507694521e-02,9.709101915359497070e-01,-4.746267094249485147e-03,-6.574014943559136626e-03,-1.874859286009455950e-02,-1.282902579377389329e-01,8.471997403765194057e-02,-2.766428329050540924e-02,-1.608680386938449725e-01,-1.052325181767764795e-01,3.286966132273042712e-02,2.562091254127801809e-01,-1.879378634298914386e-02,3.810326338837617677e-02,1.562091254127801754e-01,8.120621365701086170e-02,9.028957878555955718e-02,5.305399575606931650e-01,7.079149484634399414e-01
1.000185000000000102e+00,-4.172899721954430319e-02,4.488039588816228331e-02,9.701413512229919434e-01,-9.385186635296157917e-03,-9.354434193659777463e-03,-1.687397509336108214e-02,-1.198552155192567914e-01,9.528274631186617327e-02,-4.502528905868530273e-02,-1.713967977120627595e-01,-1.030745553326881947e-01,9.447843759385142481e-02,2.771675235207331500e-01,5.865864573077428368e-02,7.572801764968016547e-02,1.771675235207331722e-01,1.586586457307742892e-01,1.227574597580215893e-01,5.320399274666464118e-01,7.146705389022827148e-01
1.026623000000000063e+00,-4.376273599225625338e-02,4.677692787864150270e-02,9.697892069816589355e-01,-1.136217507407313865e-02,-1.145091005224663228e-02,-1.599307418508555401e-02,-1.400557867144656410e-01,8.827231955156736309e-02,-2.291338331997394562e-02,-1.139815565745872783e-01,-1.244711481595641156e-01,2.696051294391708583e-02,2.762605802298353508e-01,-2.574052294956800102e-01,1.520045778470305309e-01,1.762605802298353175e-01,-1.574052294956800324e-01,1.966469903574503131e-01,5.299621766298130421e-01,6.832494735717773438e-01
1.054281999999999941e+00,-4.708522062502711047e-02,4.976062518649810446e-02,9.694300889968872070e-01,-1.104070225446929752e-02,-1.445715935261504548e-02,-1.590611341861625228e-02,-1.270063751553838771e-01,9.247957264139597400e-02,-1.360596250742673874e-02,1.287704963466662911e-01,-1.213379532394218002e-01,-3.604084220849607806e-02,1.824674311052300046e-01,-2.550769959183750712e-01,7.952777825216979235e-02,8.246743110523001297e-02,-1.550769959183750935e-01,1.238570074022058015e-01,5.296459421080400576e-01,6.993559598922729492e-01
1.076097000000000081e+00,-4.921396322940967821e-02,5.107855584537272092e-02,9.693383574485778809e-01,-8.777712740019812804e-03,-1.598989269790229706e-02,-1.615168321974791432e-02,-1.325847748524625058e-01,8.549152877705591680e-02,-1.366176549345254898e-02,1.893149052548528388e-01,-2.392707496884770649e-02,2.843867039731075297e-02,1.435060997790523762e-01,-9.169117992726846800e-02,1.943558810789113023e-02,4.350609977905235681e-02,8.308820072731539289e-03,6.435891149158672053e-02,5.296958921470822368e-01,6.990563869476318359e-01
1.099523999999999946e+00,-5.157716466986182746e-02,5.249617254107306896e-02,9.693023562431335449e-01,-5.004351802255013922e-03,-1.701487869081375059e-02,-1.717916621716941705e-02,-1.239275087392238822e-01,8.586381054956992998e-02,-1.364075858145952225e-02,1.684246057482761405e-01,-3.276906740109029881e-02,-3.902332450464855024e-02,1.481408932622486074e-01,-8.869332973672310050e-02,3.752974047046458983e-02,4.814089326224861576e-02,1.130667026327690505e-02,8.511761962067515563e-02,5.295417204119585719e-01,6.885330677032470703e-01
1.123844000000000065e+00,-5.504150874266806187e-02,5.464535509886572773e-02,9.693107604980468750e-01,2.755578376690528009e-03,-1.457087020641667507e-02,-1.910721775747670215e-02,-1.274820244798652302e-01,8.454261557262936211e-02,-1.375797111541032791e-02,3.010694005353775626e-01,1.651580183326987750e-01,-1.094439172002453220e-01,2.378006599300770962e-01,1.108571366035383809e-01,-2.857358927076220773e-02,1.578215365856458219e-01,2.108571366035383865e-01,2.405000693198155320e-02,5.299846609455589608e-01,7.097265720367431641e-01
1.150767000000000095e+00,-5.834321478926342980e-02,5.678273140546614278e-02,9.691938757896423340e-01,1.018687687700140475e-02,-9.131893158168757907e-03,-2.006923937616744702e-02,-1.205375680990819209e-01,9.214864555332234752e-02,-1.656919158995151520e-02,3.090460716128963781e-01,2.339063218503328323e-01,-1.710332722804060526e-02,2.573924031313012950e-01,1.210003434905239095e-01,6.375160487455137914e-02,2.178810728775367189e-01,2.210003434905239150e-01,1.188694271305702349e-01,5.310000440766389218e-01,7.512598037719726562e-01
1.175658000000000092e+00,-6.158449088886787381e-02,5.878311488183774608e-02,9.691106677055358887e-01,1.639616449581555654e-02,-3.853670297621070162e-03,-2.070331791106005959e-02,-1.241674263778834025e-01,8.679727735049633242e-02,-1.689822040498256683e-02,1.715019217213031855e-01,1.781239075529426064e-01,1.887519927507118334e-02,2.219481659298206122e-01,1.219629677394677425e-01,5.207653406701104326e-02,2.267372531208043940e-01,2.219629677394677481e-01,1.089333176164115902e-01,5.310700217416934876e-01,7.508813142776489258e-01
1.203637999999999986e+00,-6.508858974161271793e-02,6.074395804452566855e-02,9.691720604896545410e-01,2.296919823804288024e-02,-9.519618921856043414e-04,-2.100821379692541235e-02,-1.305339758419222507e-01,8.002124331737282825e-02,2.675042254850268364e-03,2.688046448059094318e-01,3.287825379390792169e-02,-3.525103701396713890e-02,-2.662824813270507907e-01,1.201582977134033059e-01,1.101614687104079116e-01,-2.160573734240923138e-01,2.201582977134033114e-01,1.677467883283872696e-01,5.293849263225131052e-01,7.344057559967041016e-01
1.224577999999999944e+00,-6.726105123908490691e-02,6.185277613714379452e-02,9.692218899726867676e-01,2.791140761181363020e-02,-9.490411192096814830e-04,-2.138269637227829811e-02,-1.353415662688304821e-01,7.760951391943085587e-02,-1.019228622317314148e-02,3.243007476235137965e-01,-3.498366525096213014e-02,-2.088940243487727444e-02,-2.957075246478605979e-01,8.435693263291302313e-02,9.880650740214597105e-02,-2.131934766852235097e-01,1.843569326329130287e-01,1.572379433727302822e-01,5.301132984773264667e-01,7.213010787963867188e-01
1.251555999999999891e+00,-7.210674757119321654e-02,6.400555777122340917e-02,9.695253372192382812e-01,3.788085179531958807e-02,-3.575414822451161712e-03,-2.265981967252250762e-02,-1.371730934193930995e-01,6.470409044942219967e-02,7.269190624356269836e-03,2.506259935414905105e-01,-1.263650818560941858e-01,-5.619235275641717292e-02,-3.109191654358984258e-01,-2.062816110973144101e-01,9.981382543712655209e-02,-2.109191654358984203e-01,-1.062816110973143907e-01,1.612778937631836051e-01,5.284173077838075772e-01,6.975796222686767578e-01
1.274257999999999891e+00,-7.568574147320161760e-02,6.577345298485776093e-02,9.697685837745666504e-01,4.157950443426092213e-02,-6.199759431584350722e-03,-2.383493533017455590e-02,-1.262459412794468827e-01,7.057315289152100990e-02,-5.203037988394498825e-03,6.612254405876027974e-02,-1.035979967188444123e-01,-5.645862480340341216e-02,-2.631965976866367796e-01,-3.068602450982826357e-01,-4.180035164063908293e-02,-1.631965976866367740e-01,-2.068602450982826302e-01,2.263487683341095305e-02,5.292799260062877043e-01,6.947141885757446289e-01
1.298165000000000013e+00,-7.919582477519432340e-02,6.771010876746164087e-02,9.698166847229003906e-01,3.974486693051737518e-02,-7.976570362538737413e-03,-2.530534964390818153e-02,-1.312097690529177296e-01,7.156071171329773939e-02,-1.646417751908302307e-02,-1.272501458582394884e-01,-3.521540809748060358e-02,-3.312935305060443758e-02,-2.256478349147445772e-01,-2.593154269356183761e-01,-2.452700192522724865e-01,-1.256478349147445717e-01,-1.593154269356183428e-01,-1.768876845334290682e-01,5.296560484409037484e-01,6.680847406387329102e-01
1.326540000000000052e+00,-8.290967377195250509e-02,6.981460393755510585e-02,9.695190191268920898e-01,3.365522465295364696e-02,-7.454538402333232838e-03,-2.655741855739779389e-02,-1.349104340117403544e-01,6.296149497624263514e-02,-2.498158812522888184e-02,-3.070420939504232560e-01,8.537977725147399832e-02,-2.129524416545274315e-02,-2.227640867503955513e-01,7.973443953081382762e-02,-1.076791598729515409e-01,-1.227640867503955596e-01,1.797344395308138332e-01,-3.549823568900220550e-02,5.301469215171156213e-01,6.572539806365966797e-01
1.348684999999999912e+00,-8.631553221734154790e-02,7.175775001670922637e-02,9.691289067268371582e-01,2.568737636731052015e-02,-3.503639040504769042e-03,-2.579191806802394460e-02,-1.241448260839304735e-01,6.926708454928090508e-02,-2.759271115064620972e-02,-2.563876262489636626e-01,1.665128564909638953e-01,4.856990649940253618e-02,-1.842329055923193903e-01,1.176231545158742120e-01,-1.214415302324312607e-01,-1.195490673321243508e-01,2.176231545158742176e-01,-5.081043596282009550e-02,5.309135509867344282e-01,6.845560073852539062e-01
1.372686999999999991e+00,-8.854231364732047249e-02,7.311409093068167719e-02,9.688727855682373047e-01,2.054436125402949939e-02,7.790242236709321588e-04,-2.428025182398907411e-02,-1.297567688806733899e-01,6.848771331916474192e-02,-2.286508493125438690e-02,-2.200928786400597470e-01,2.859131328437204966e-01,6.678053726655937272e-02,-2.475207289593332749e-01,1.246008026883465569e-01,-1.614001489542561951e-01,-2.160120253368026932e-01,2.246008026883465625e-01,-9.465148742105738977e-02,5.317016962348856124e-01,7.422204017639160156e-01
1.398298999999999959e+00,-9.187841259881177058e-02,7.498108018174895473e-02,9.688948988914489746e-01,1.392867090922399013e-02,4.770309303784525667e-03,-2.238976279792326274e-02,-1.400149660865535606e-01,5.490279585085211522e-02,-1.123597007244825363e-02,-2.475894708448110604e-01,1.204489579868643079e-01,8.463401190837820109e-02,-9.641768397921467171e-02,1.190708730055041464e-01,-9.652573644164930133e-02,-9.901810748024976461e-02,2.190708730055041520e-01,-3.470785987808233664e-02,5.297657837826678096e-01,6.796696186065673828e-01
1.424825999999999926e+00,-9.538725976237094617e-02,7.674518170359043157e-02,9.690986871719360352e-01,8.747344692178363884e-03,5.045634070601101584e-03,-2.016077034329222251e-02,-1.317770953456152139e-01,6.124904904811578898e-02,3.492967225611209869e-03,-1.778286031209816431e-01,-5.571268217308483067e-02,9.822608436865309933e-02,1.024692274701997780e-01,-1.152771991486811753e-02,-1.651077829623312232e-01,5.689346244939437469e-02,8.847228008513188802e-02,-1.093802325541388398e-01,5.294661096781455578e-01,7.208514213562011719e-01
1.448113999999999901e+00,-9.909977942504452630e-02,7.850220875536258192e-02,9.695051908493041992e-01,3.613310282163730968e-03,3.104938636505405469e-03,-1.813809758462814337e-02,-1.320679745169226205e-01,6.132900653792631301e-02,-5.159565713256597519e-03,-2.075927020426537595e-01,-8.319310075639119173e-02,6.343645738659189903e-02,1.882494929243070936e-01,1.358442909680737665e-02,-8.471797151759426214e-02,1.085215019108576734e-01,1.135844290968073822e-01,-3.457867426713819026e-02,5.300471284002378214e-01,7.179596424102783203e-01
1.473743000000000025e+00,-1.026746365795139504e-01,8.024252498636029463e-02,9.700224399566650391e-01,-1.468518848116841333e-04,2.688622484328107021e-04,-1.593804070117132987e-02,-1.298081756293531508e-01,6.172530493508301269e-02,1.324260421097278595e-02,-7.383432492707346639e-02,-9.736378159521652531e-02,6.673690289073588855e-02,2.126482978331097340e-01,-2.268258350301939064e-01,5.463044524176535743e-03,1.126482978331097284e-01,-1.268258350301939008e-01,4.948196055791673209e-02,5.279139574045386141e-01,6.750257015228271484e-01
1.499562000000000062e+00,-1.050651817332551724e-01,8.138161952839309543e-02,9.703945517539978027e-01,-1.595010565034746426e-03,-1.535674168593015310e-03,-1.407551434838993920e-02,-1.413181150029837740e-01,5.286609260922135733e-02,3.667479148134589195e-03,-3.779873047488516158e-02,-9.604688878194822532e-02,1.420457118914637551e-01,2.262935053501307636e-01,-2.348903284669066893e-01,4.153291053934846100e-04,1.262935053501307581e-01,-1.348903284669066838e-01,3.923741837700627649e-02,5.285420450812610138e-01,6.710712909698486328e-01
1.523482000000000003e+00,-1.085470103158909377e-01,8.297684304465578753e-02,9.709728360176086426e-01,-8.392680390322881457e-04,-3.581935965736082750e-03,-1.221948515501858346e-02,-1.180218353430976808e-01,4.718129504726522455e-02,1.808004453778266907e-02,6.717024885966217662e-02,-1.071328505143470250e-01,3.707823040218495569e-02,1.939773767098438295e-01,-2.840399308955904867e-01,3.742331480492129547e-02,9.397737670984383784e-02,-1.840399308955904811e-01,7.103873750431240197e-02,5.278613841597002976e-01,6.938917636871337891e-01
1.549900000000000055e+00,-1.118513565642303281e-01,8.443565025004171054e-02,9.718250632286071777e-01,3.204337706633206620e-03,-2.545815054220801343e-03,-1.122140021276618604e-02,-1.139017131327526577e-01,5.124034389049573340e-02,2.153256721794605255e-02,2.160542292670428188e-01,1.068339361158558709e-01,7.643558415245014538e-03,4.109461815214331820e-02,1.118539225486593069e-01,-1.140788685740332792e-01,-4.259417077394742762e-02,2.118539225486593125e-01,-8.344347315307433510e-02,5.279389845177244744e-01,7.143446207046508789e-01
1.577231000000000050e+00,-1.150508528474547126e-01,8.553697811463988054e-02,9.726369976997375488e-01,8.623845056893160096e-03,1.542010590974030038e-03,-1.059567229384672515e-02,-1.139795506701254124e-01,4.545400864738415730e-02,1.426495518535375595e-02,1.858337971713202585e-01,2.403276495066299923e-01,4.928677927964216637e-02,2.601972326845274353e-01,1.202788179206796815e-01,-1.192260026745394635e-01,2.159629873211272311e-01,2.202788179206796870e-01,-9.041287423113524013e-02,5.288681662263859939e-01,7.388868331909179688e-01
1.599855000000000027e+00,-1.162278116820749246e-01,8.592819487727451633e-02,9.728720784187316895e-01,1.052979062423532904e-02,3.333454173621852590e-03,-1.034248402677007128e-02,-1.084395499077955849e-01,4.691744653310332691e-02,1.313718315213918686e-02,1.749171483911947933e-01,2.311315698723500345e-01,6.922014170065388106e-02,2.447455620741611770e-01,1.188316760371626590e-01,-1.884733097690542147e-01,2.101652249324987565e-01,2.188316760371626646e-01,-1.603673457591881790e-01,5.289171394071685572e-01,7.374315261840820312e-01
1.622932999999999959e+00,-1.193998573389545154e-01,8.696418306486027039e-02,9.735609292984008789e-01,1.648310418547753800e-02,8.687183325122305178e-03,-9.012794378196797851e-03,-1.126275462962676166e-01,4.390590737886656408e-02,1.824666000902652740e-02,2.095053945823543706e-01,1.288252884218169803e-01,2.084123678906516647e-02,1.549620580459865893e-01,1.214285300957199665e-01,-7.871568191872924114e-02,1.604003586069294995e-01,2.214285300957199720e-01,-5.432490282809448318e-02,5.285433192665499602e-01,7.390440702438354492e-01
1.647869000000000028e+00,-1.226681438402410645e-01,8.799516772128475328e-02,9.741837382316589355e-01,2.180836809762054518e-02,1.080619721186559801e-02,-6.504442490943063149e-03,-1.132336574063479845e-01,5.197723185204101287e-02,1.326693687587976456e-02,2.322076436444702741e-01,6.152800987948029744e-03,1.120527712083349003e-01,-2.481409753383880812e-01,1.094965866376198804e-01,-4.888182277256002822e-02,-2.163542818540098167e-01,2.094965866376198860e-01,-3.158945942011359004e-02,5.289135292307308722e-01,7.408804893493652344e-01
1.676620999999999917e+00,-1.272560347112881574e-01,8.911600652986481630e-02,9.753277301788330078e-01,3.033136317425998846e-02,8.235096197733993151e-03,-2.678685632746757861e-03,-1.153993411625704318e-01,3.878746703807935126e-02,2.250740118324756622e-02,2.164433932650356995e-01,-1.018834481251805479e-01,5.182723872572844032e-02,-3.008672183570190173e-01,-4.809436868290098421e-02,5.169854983349077282e-02,-2.039460391612527845e-01,5.190563131709902134e-02,5.789771116367560533e-02,5.275214181578201655e-01,7.058076858520507812e-01
1.699063999999999908e+00,-1.294868563814089435e-01,8.944305276771791213e-02,9.760223627090454102e-01,3.416541568303906734e-02,5.966777635522557688e-03,-1.033332867274250333e-03,-1.127093329145372885e-01,2.503410006768771665e-02,3.965746238827705383e-02,2.221742761176671022e-01,-1.177937582798411487e-01,1.025801148724373169e-01,-3.094046087307409376e-01,-8.722806205755177789e-02,1.864636592517662436e-02,-2.094046087307409321e-01,1.277193794244823287e-02,2.000810248750203510e-02,5.261545948406637363e-01,7.029136419296264648e-01
1.724447999999999981e+00,-1.324982493436522857e-01,8.977822973104999937e-02,9.771928787231445312e-01,3.577043023386807657e-02,3.461631819913657537e-03,4.433056134272028714e-04,-1.128877521418414770e-01,2.769773290190405066e-02,1.990798860788345337e-02,-5.316437278098200964e-02,-8.209965187453266422e-02,6.146377399588590085e-02,-1.983539564112008491e-01,-2.726652237159635228e-01,-1.025180298030588660e-01,-9.835395641120084353e-02,-1.726652237159635173e-01,-1.055662253695631297e-01,5.271126578595374257e-01,6.811691522598266602e-01
1.749425999999999926e+00,-1.353875165919646018e-01,9.026498683302011661e-02,9.780005812644958496e-01,3.242429614834760332e-02,2.975510220909693970e-03,1.330689665392847942e-03,-9.870264929534926235e-02,3.252979876924694258e-02,1.661273837089538574e-02,-2.233896501871923401e-01,1.008461446777986562e-02,3.563424564819690776e-02,-2.330611912746479164e-01,4.895471756165578614e-02,-6.056506343329498554e-02,-1.330611912746479109e-01,1.489547175616557917e-01,-6.594163923535123484e-02,5.269832259799318575e-01,6.645243167877197266e-01
1.773703000000000030e+00,-1.381256544488407290e-01,9.087237110463684819e-02,9.784660935401916504e-01,2.519459407958409697e-02,4.412314721006449503e-03,2.640456259032530895e-03,-8.937715414161080674e-02,3.210203533067849252e-02,2.338697435334324837e-03,-3.305942176821399792e-01,8.578967387896126173e-02,4.164240487473847008e-02,-1.764294622410448599e-01,1.079394870881074942e-01,-5.703314482301813371e-02,-1.135818427268189268e-01,2.079394870881074997e-01,-6.571245502345074430e-02,5.279237106642321598e-01,6.605751514434814453e-01
1.800078000000000067e+00,-1.408778355246109171e-01,9.154511532456346967e-02,9.786349534988403320e-01,1.694723602595244599e-02,7.370510392211038209e-03,4.879852612527768585e-03,-1.000404899178933549e-01,3.136702451935872299e-02,1.666775060584768653e-04,-2.476485981705427997e-01,1.040301981278464044e-01,1.092088025515020322e-01,-1.228013132385801509e-01,1.180208313507243589e-01,-7.299756534152164467e-03,-1.142098224600471973e-01,2.180208313507243645e-01,-2.193949412279206507e-02,5.281126986302363546e-01,6.609565019607543945e-01
1.823987000000000025e+00,-1.426606716506629846e-01,9.195276092866522255e-02,9.786736965179443359e-01,1.172556936645424014e-02,8.768620372033186783e-03,6.288094137729016708e-03,-9.277647130518715257e-02,2.707248198571123032e-02,-3.853524802252650261e-03,-2.831266964174740108e-01,6.043087097204912633e-02,8.810853348183221578e-02,-2.216825796211711885e-02,1.160415418808287968e-01,1.987398023811250483e-02,-4.497892786130092829e-02,2.160415418808288024e-01,1.546828656825390176e-03,5.283364885807431133e-01,6.567356586456298828e-01
1.849075000000000024e+00,-1.452402302148510793e-01,9.240129644163394551e-02,9.789172410964965820e-01,5.624384409369133711e-03,8.643061113884353830e-03,8.286750462226377678e-03,-9.223513434261003396e-02,2.462272009966022177e-02,6.539706140756607056e-03,-2.000353793891515297e-01,-2.207268292013717104e-02,3.181948064547057003e-02,1.434517163232829629e-01,9.935229173296908356e-02,-7.729368521061333319e-03,8.107221518107449176e-02,1.993522917329690891e-01,-3.150446032794369799e-02,5.281312903416983673e-01,6.865845918655395508e-01
1.872813000000000061e+00,-1.478544547037351775e-01,9.276002665438835837e-02,9.792547821998596191e-01,1.071171436154644621e-03,6.917154414918247340e-03,9.877115050132889706e-03,-9.269757372806615436e-02,1.849270715229487522e-02,1.143319997936487198e-02,-1.186878079112544393e-01,-5.723436905809254488e-02,9.023352607484479149e-02,1.494977660958438370e-01,-2.437770503936292910e-02,7.723695926150406232e-02,6.109579523215186853e-02,7.562229496063707646e-02,4.910480014796262532e-02,5.280340237369631762e-01,7.013878822326660156e-01
1.900273000000000101e+00,-1.505364984085582614e-01,9.295341097090471794e-02,9.794944524765014648e-01,-1.781366655672717665e-03,4.058687816835604423e-03,1.099150247212410392e-02,-8.985865311508041409e-02,1.596214526503609080e-02,9.370137006044387817e-03,-9.048432388721033837e-02,-1.422829764165269018e-01,5.332685924869504102e-02,1.553472227356837987e-01,-2.297819725193431806e-01,1.178027793084356623e-01,5.534722273568377926e-02,-1.297819725193431750e-01,8.659120305387249528e-02,5.276938549663355849e-01,6.750766038894653320e-01
1.927259000000000055e+00,-1.531709282112856951e-01,9.314986655613814726e-02,9.795466661453247070e-01,-1.861657786719433808e-03,1.173228212183463626e-03,1.199755691420834047e-02,-8.020316812249743410e-02,2.125105110733672975e-02,4.344557877629995346e-03,6.773630920054597715e-02,-1.127193450914922845e-01,-1.899314357838928144e-02,1.450351546877676479e-01,-1.908582811121712353e-01,1.063806970065738766e-01,4.503515468776764924e-02,-9.085828111217124359e-02,7.228845800840566493e-02,5.286082046017858138e-01,7.047390937805175781e-01
1.948944000000000010e+00,-1.548485732112916402e-01,9.324149410641599522e-02,9.795907139778137207e-01,-7.684428076556912811e-04,-3.011316524803575589e-05,1.235716296323308150e-02,-8.503626870220000467e-02,1.780423611190400102e-02,5.468861199915409088e-03,1.241194598288266615e-01,-4.384390723237929083e-02,1.917048566675372961e-02,1.067036137260840845e-01,-1.209620616478637306e-01,6.725343849829600040e-02,6.703613726084071966e-03,-2.096206164786372853e-02,3.208599663610899044e-02,5.282998891080535886e-01,6.913208961486816406e-01
1.976614000000000093e+00,-1.572143741318766941e-01,9.333639110287286766e-02,9.796980023384094238e-01,2.131675871677631527e-03,6.105249194723327832e-04,1.213021840021299980e-02,-6.835967393475540776e-02,1.389358429182922273e-02,4.369421396404504776e-03,1.089983480199333138e-01,8.394198691010856805e-02,1.499045624837281807e-02,5.812276741740459579e-02,1.195202374360843922e-01,-1.006705262298218384e-01,-2.261797105230158728e-02,2.195202374360843978e-01,-1.352517800485787125e-01,5.285571759766872768e-01,7.016694545745849609e-01
1.999584999999999946e+00,-1.591720334103036150e-01,9.266350962241760858e-02,9.797146916389465332e-01,6.483508274167188758e-03,4.098390647764738048e-03,1.169669406611317797e-02,-6.925574645491293369e-02,8.592503161394808575e-03,9.915804490447044373e-03,1.590800279935385142e-01,1.403170515261920048e-01,-1.874024504164804525e-02,2.077244424558177260e-01,1.239770164076478276e-01,-1.290205847296682640e-01,1.588412086882799723e-01,2.239770164076478332e-01,-1.624547942505882303e-01,5.281510233055640713e-01,7.006763219833374023e-01
2.025975999999999999e+00,-1.610764360142080687e-01,9.206408095883458764e-02,9.796517491340637207e-01,1.107150856081391688e-02,8.586294385005022178e-03,1.211743727635572476e-02,-6.263359750666368242e-02,2.031752535850937444e-02,4.158634692430496216e-03,1.952166172014529466e-01,1.431398345149263451e-01,4.521119352267549858e-03,1.940919000351142842e-01,1.243509272802901244e-01,-1.319648520605158637e-01,1.648940727909767590e-01,2.243509272802901300e-01,-1.665971934327799275e-01,5.292441554537513637e-01,7.364895343780517578e-01
2.048137000000000096e+00,-1.623749968047935033e-01,9.169496499749442420e-02,9.796024560928344727e-01,1.363298301321947369e-02,1.055820254334749464e-02,1.339023467248745547e-02,-7.599339434661782355e-02,1.680928884992141312e-02,1.290983869694173336e-03,1.868333136610391965e-01,1.002107898411050552e-01,1.058121334053840207e-01,-1.884383207185835740e-01,1.169174704719794511e-01,-1.615189253427570248e-01,-1.969284860300111184e-01,2.169174704719794566e-01,-1.997649748993162166e-01,5.294599621543437662e-01,7.349499464035034180e-01
2.074723999999999791e+00,-1.643835194821441636e-01,9.117185451028368692e-02,9.795545935630798340e-01,1.795881415953760191e-02,1.067509786939635497e-02,1.565248427494658756e-02,-7.264549120141726435e-02,6.991197800689004892e-03,1.157302875071763992e-02,1.529196232696755919e-01,-3.791570643574215804e-02,7.351391663917129782e-02,-2.379919662244413814e-01,7.882134101223317590e-02,2.219282463870693792e-02,-2.116170975161171808e-01,1.788213410122331815e-01,-2.245276830656454600e-02,5.285803762588586752e-01,7.273082733154296875e-01
2.100073000000000079e+00,-1.664854957648638778e-01,9.066682048761355583e-02,9.796976447105407715e-01,2.263104236208349565e-02,8.356848513135117784e-03,1.863763999134060434e-02,-7.358490275379797607e-02,1.191416607024671330e-02,1.051127910614013672e-02,1.705743597599224393e-01,-1.021554319227955532e-01,1.324662239451175338e-01,-2.181671259662951723e-01,-7.943418757456911783e-02,5.959203947888147557e-02,-1.672998607197115351e-01,2.056581242543089119e-02,6.300109172900138568e-03,5.281881955628648928e-01,7.012865543365478516e-01
2.125897000000000148e+00,-1.685364970236111481e-01,9.021057660032043291e-02,9.797753691673278809e-01,2.364637961223707910e-02,6.138299374781386319e-03,2.086279119786005332e-02,-5.451033253213373453e-02,1.728611892404567987e-02,-2.664073137566447258e-03,-4.424444472223499486e-02,-6.914975171575465929e-02,5.966448649047575992e-02,-1.113805168801914880e-01,-1.187159293863205151e-01,2.313783192326471921e-02,-5.737355798242646521e-02,-1.871592938632051298e-02,-3.643512412114893045e-02,5.292006137952459666e-01,7.046742439270019531e-01
2.151607999999999965e+00,-1.703008033920208053e-01,8.991346383463028058e-02,9.796406626701354980e-01,2.110516438041449075e-02,4.851514801343270733e-03,2.169333488171565349e-02,-6.353687652821478349e-02,1.151244206132667758e-02,-1.206535147503018379e-03,-1.617530979893912479e-01,7.760165522072547811e-03,-1.917046234077295769e-02,-7.287041042159200788e-02,1.020971748806711599e-01,-4.101276896056005317e-02,-3.047760432718842755e-02,2.020971748806711654e-01,-1.029635149095290414e-01,5.283528048739246641e-01,6.617465019226074219e-01
2.178475999999999857e+00,-1.714433041966446636e-01,8.975352526863265845e-02,9.794635772705078125e-01,1.746478401168874428e-02,4.632255590661937816e-03,2.219308380282303261e-02,-5.834672436417417257e-02,1.626992735124873496e-02,-6.890438031405210495e-03,-2.028159916951834674e-01,8.249759436069290658e-04,1.034176809319668940e-03,5.937977396751257381e-03,1.048983216104837635e-01,2.190831754537567871e-02,1.990359140526784879e-02,2.048983216104837690e-01,-4.132249644011989215e-02,5.286370788917958974e-01,6.528925895690917969e-01
2.200914000000000037e+00,-1.730086376541570270e-01,8.917814323148719191e-02,9.790651202201843262e-01,1.149696619200281725e-02,5.194713942299422627e-03,2.333369484725356102e-02,-4.402904355459086316e-02,1.516921310223481520e-02,-1.470160111784934998e-02,-1.764873842676800419e-01,-1.594988093492647266e-02,8.130216319116681523e-02,9.629643782717307865e-03,9.791807604109786789e-02,1.691677581325432000e-01,-1.347516041832827818e-02,1.979180760410978734e-01,1.030271330421057147e-01,5.289689295864364871e-01,6.375987529754638672e-01
2.225776999999999894e+00,-1.745096193785422578e-01,8.832913584491523806e-02,9.786869287490844727e-01,7.220178062318064610e-03,5.097331664398296880e-03,2.441060007674589194e-02,-4.601836012196482834e-02,3.414290090178479647e-03,-8.239018730819225311e-03,-1.771402659265355339e-01,-4.851080389689295391e-03,1.620409548898749108e-02,8.686579984928133324e-02,1.087605346590357625e-01,7.046483495040746503e-02,4.497990612547811407e-02,2.087605346590357680e-01,1.460557195413785328e-03,5.288442481355560831e-01,6.532694101333618164e-01
2.249849999999999905e+00,-1.755446710721472181e-01,8.771389557695162542e-02,9.784661531448364258e-01,6.007276670931288587e-03,4.054067409263950594e-03,2.477972325755573024e-02,-5.561333589066194683e-02,6.668970686219286015e-03,-5.325316451489925385e-03,-3.344995420464169644e-02,-8.071615492656801505e-02,-3.899386247185342158e-02,1.075767832619598935e-01,-2.128678600156870826e-01,1.324922622134225847e-01,5.332978011191155665e-02,-1.128678600156870632e-01,6.240619403764761930e-02,5.292448423712219352e-01,6.835963726043701172e-01
2.276155000000000150e+00,-1.774269777928310921e-01,8.650275043898653093e-02,9.778377413749694824e-01,5.128790545203651581e-03,9.180614646193685502e-04,2.456397976797086713e-02,-4.337832625256865526e-02,4.911696129369434553e-03,-1.627093739807605743e-02,1.815959060342171166e-02,-9.120060265034740654e-02,3.012740038054297076e-02,1.339874137342421667e-01,-2.110741826700112955e-01,7.965263333974478832e-02,7.688882291627799348e-02,-1.110741826700112900e-01,1.017096460578273930e-02,5.305664024535055034e-01,7.091565132141113281e-01
2.297979999999999912e+00,-1.782925544205421486e-01,8.570672216865318771e-02,9.774793386459350586e-01,5.497800305174963161e-03,-6.463570300754284403e-04,2.430662292499863320e-02,-4.654605191819725235e-02,-4.987997074730300164e-03,-9.473259560763835907e-03,1.843233176565247516e-02,-1.061117998922389560e-01,2.539038554295839148e-02,1.149938853825542145e-01,-2.386747045353167229e-01,1.042888125771251617e-01,6.798098888493644965e-02,-1.386747045353167174e-01,3.549759362725139061e-02,5.300173565305371648e-01,7.027335166931152344e-01
2.325540000000000163e+00,-1.793264811504500789e-01,8.425309423254405405e-02,9.771196842193603516e-01,6.863126205418702656e-03,-1.174864174232848057e-03,2.358474233866347802e-02,-2.834554975418696401e-02,-5.948027013152335819e-03,-8.695531636476516724e-03,3.953009635031065616e-02,-3.987439613245620691e-03,-5.405942645335847646e-02,-6.124475717260405294e-02,8.606278005927117669e-02,1.361013021507326559e-01,-9.906001496664589012e-02,1.860627800592711822e-01,6.931408439597672166e-02,5.294168607997161713e-01,6.709980964660644531e-01
2.349788999999999906e+00,-1.801697556574364811e-01,8.284056603649979367e-02,9.766640067100524902e-01,9.314719632625392126e-03,1.888951695186547042e-03,2.300954333686111575e-02,-3.566010420200236425e-02,-4.611926733382202756e-03,-7.909603416919708252e-03,1.457899193914959091e-01,1.759833272299590190e-01,-5.123036197491579596e-02,1.974068445094149804e-01,1.247158256047652680e-01,-1.202885184999549217e-01,1.747354562279908319e-01,2.247158256047652736e-01,-1.855164101462911108e-01,5.295846152174115140e-01,6.791473627090454102e-01
2.375605000000000189e+00,-1.808809088115865271e-01,8.142622452899433982e-02,9.760521054267883301e-01,1.208070832897775032e-02,7.070429500757313690e-03,2.205610591674300736e-02,-2.828144501659810711e-02,-4.481948181585563781e-03,-1.444479357451200485e-02,9.131433759081537815e-02,2.118758288449641147e-01,-2.554088331089091751e-02,1.761286259935024856e-01,1.241251789828274887e-01,-1.279322012338758863e-01,1.723550229069339690e-01,2.241251789828274943e-01,-1.903798489786353576e-01,5.311216971336415460e-01,7.336874008178710938e-01
2.397872000000000003e+00,-1.813772045178081993e-01,8.054323947288451191e-02,9.756128787994384766e-01,1.359608203445819737e-02,9.724872576196474938e-03,2.187089752953208510e-02,-3.254720318695837611e-02,-9.683620214840125279e-03,-9.662431664764881134e-03,6.796511871068024180e-02,1.368274227368625195e-01,4.750554399250557502e-02,-4.125085799553913218e-02,1.194248203356214066e-01,-1.614886592351914285e-01,-3.094029548172445160e-02,2.194248203356214122e-01,-2.233774190421523309e-01,5.305147055152900082e-01,7.155740261077880859e-01
2.423782999999999799e+00,-1.822809517936219981e-01,7.942128134463742606e-02,9.749208092689514160e-01,1.679067918026415362e-02,1.065827435836053105e-02,2.327723292181560488e-02,-3.850079339322739352e-02,-7.838627787271243777e-03,-7.041615899652242661e-03,1.631625152991375283e-01,-5.259764513427973853e-02,5.610036533734313879e-02,-2.449592715457570014e-01,8.346642658317343644e-02,3.215657937267088484e-02,-2.160365180745583980e-01,1.834664265831734420e-01,-3.375495567257932872e-02,5.307168976784386594e-01,7.321708202362060547e-01
2.449577999999999811e+00,-1.832347012005461073e-01,7.821389507611110903e-02,9.743917584419250488e-01,2.059601107814551871e-02,8.664708280450295064e-03,2.576395876486747838e-02,-3.744466492163960741e-02,-9.360359277141490700e-03,-6.997213698923587799e-03,1.168478462920019556e-01,-1.077177758748253944e-01,1.184756612397910719e-01,-2.094456234989613974e-01,-1.971032991949539515e-02,1.425666832677556228e-01,-1.541240808650707339e-01,8.028967008050461041e-02,6.951567094523364299e-02,5.305169271185486979e-01,7.177608013153076172e-01
2.475286000000000097e+00,-1.840531972698473961e-01,7.706163541994454080e-02,9.738203287124633789e-01,2.220981599911446211e-02,5.809310336125417251e-03,2.726173988804569959e-02,-2.085701249018015110e-02,-9.738671275162768398e-03,-7.962914183735847473e-03,-5.656591458715609644e-03,-8.643859437789241928e-02,-1.988773880264943505e-02,-1.141894996576372501e-01,-6.543315105546598787e-02,2.308078663382402695e-02,-4.767231356620926785e-02,3.456684894453401075e-02,-5.425761540227018453e-02,5.308219013644567275e-01,7.276486158370971680e-01
2.499899000000000093e+00,-1.845466958067927543e-01,7.633134371077017477e-02,9.733219742774963379e-01,2.128472276894097237e-02,4.237191299589548876e-03,2.765887392651000809e-02,-3.103509532758482251e-02,-8.549970581755935578e-03,-9.977916255593299866e-03,-1.131285574427025493e-02,-9.241924234919532410e-02,9.716457425301699632e-03,-1.295995727219249050e-01,-1.319173214562829599e-01,4.757715028321615053e-02,-7.007329640254669756e-02,-3.191732145628294742e-02,-3.100091471495500933e-02,5.307893767663154350e-01,7.131774425506591797e-01
2.522943999999999853e+00,-1.852061179099088739e-01,7.542715857000385771e-02,9.724209904670715332e-01,1.718758097494234305e-02,2.932915988198780965e-03,2.730976474181523450e-02,-1.318202933936421517e-02,-7.262325350012602265e-03,-1.909897103905677795e-02,-1.744721142605373809e-01,-4.758747833486690754e-02,2.613654448675174075e-02,4.315490808628448527e-02,4.728827757595618908e-02,5.013387276853321917e-02,7.612521905649541343e-02,1.472882775759561946e-01,-2.728893489223837079e-02,5.313855505286387837e-01,7.050893306732177734e-01
2.548932000000000198e+00,-1.857497151035495397e-01,7.459548329888550378e-02,9.713683724403381348e-01,1.164086569363359872e-02,3.453424701874485692e-03,2.719783349554405483e-02,-1.173063849216790175e-02,-6.261534854954060696e-03,-2.920427359640598297e-02,-2.447138438966537655e-01,2.573822594339978537e-02,-1.017354830461676034e-03,1.570823047494282476e-02,1.187533117937796534e-01,3.834431697125356697e-03,1.245328418319958073e-02,2.187533117937796590e-01,-7.308307316594483960e-02,5.316184884992651849e-01,6.707314252853393555e-01
2.576522999999999897e+00,-1.861789368216602569e-01,7.371554446802307259e-02,9.701114296913146973e-01,6.368350546307763836e-03,4.845710706375072618e-03,2.711539520120398450e-02,-1.636422528087531914e-02,-1.373887748073214857e-02,-1.856573112308979034e-02,-1.605007744320068319e-01,6.370071208939706575e-02,-3.485434453228915264e-02,-1.959227281671184484e-02,1.216151074588336656e-01,-5.650733410103811472e-02,-5.101260590671299194e-02,2.216151074588336711e-01,-1.329716487897222021e-01,5.313263541756486630e-01,6.891437768936157227e-01
2.597958000000000212e+00,-1.864389428963412199e-01,7.314717679188779964e-02,9.693564772605895996e-01,4.285064670214458471e-03,5.055016624299524253e-03,2.731852690173552922e-02,-1.209542047740720487e-02,-6.955436690773730488e-03,-2.469912171363830566e-02,-6.243403907408009990e-02,-3.120009460040505233e-03,3.690880612212128070e-02,4.677541544655749312e-02,1.152489487836068083e-01,2.329877442731384529e-01,-4.343487659591318238e-03,2.152489487836068138e-01,1.560077441420911204e-01,5.309755050293502032e-01,6.399931907653808594e-01
2.625277999999999778e+00,-1.866869091478214615e-01,7.284428461550501721e-02,9.681861996650695801e-01,2.532928154031935039e-03,4.470091557581934438e-03,2.754288006004723677e-02,-7.804964913235549855e-03,-1.882714738242679750e-02,-1.720566861331462860e-02,-1.219073142588823350e-01,-6.988331367765975195e-03,4.017905576280234037e-02,8.473201529758625505e-02,1.110402699190712605e-01,1.743927636295627692e-01,3.252472525146821170e-02,2.110402699190712661e-01,9.688332011976150127e-02,5.308075985692958243e-01,6.537611484527587891e-01
2.649734000000000034e+00,-1.867355042641178631e-01,7.251382015249364932e-02,9.672780036926269531e-01,1.299000948608127403e-03,4.185723637214922022e-03,2.707485096483752685e-02,-5.743262500360769157e-03,-9.702215271939344451e-03,-9.013381786644458771e-03,-6.627933216241365874e-03,-5.496672239834961282e-02,-8.411380544749384736e-02,1.110730589798695350e-01,-1.860713748798525913e-02,-3.186196569260617284e-02,4.188055190080669510e-02,8.139286251201474642e-02,-1.080712489138895699e-01,5.319039993195446847e-01,7.403465509414672852e-01
2.675447000000000131e+00,-1.867656223272394223e-01,7.232075334042536996e-02,9.664703011512756348e-01,-4.062095332681884370e-04,2.307297970598476411e-03,2.519697421512168134e-02,-2.184228033118972272e-03,-4.578736877988897648e-03,-1.413842290639877319e-02,-5.805345422068754896e-02,-8.853155961240577465e-02,-4.277917534282847656e-02,1.667016014982189986e-01,-1.460486347149017594e-01,4.222580165194010637e-02,8.406606780847430960e-02,-4.604863471490176080e-02,-2.871068377221354037e-02,5.318918837473819439e-01,7.139234542846679688e-01
2.699250000000000149e+00,-1.867807154742375242e-01,7.224685229663621588e-02,9.659794569015502930e-01,-7.117346375269071332e-04,4.372206371767717314e-04,2.438594882724687274e-02,-5.719100925488805783e-03,-5.196359410832851466e-03,-9.576478041708469391e-03,-3.359823801830514461e-02,-9.698372947263676769e-02,-3.969328065355081508e-02,1.490825158228671343e-01,-1.760124209994096689e-01,1.421262158809027676e-01,6.554749959153735595e-02,-7.601242099940964947e-02,7.343727694759236146e-02,5.314148264024437518e-01,7.013661861419677734e-01
2.724499999999999922e+00,-1.868112327109641979e-01,7.278927062555459737e-02,9.652904272079467773e-01,-2.161709452828412115e-07,-1.811489283280343088e-03,2.424817920064592514e-02,1.352516573176440126e-03,-5.378835606072383466e-03,-7.161288987845182419e-03,5.000836686098680123e-02,-3.585322380210648890e-02,-3.990912746897268965e-02,3.666339274685783550e-02,1.488944666972086273e-02,6.639810173288081263e-02,-4.257950909602401662e-02,1.148894466697208683e-01,-1.959878339480618931e-03,5.313266267439199497e-01,7.016456127166748047e-01
2.749321999999999822e+00,-1.868133241285183377e-01,7.367833013763970540e-02,9.646465778350830078e-01,2.189622921933704301e-03,-1.626025339773740086e-03,2.408811195017079854e-02,1.289250138479191036e-03,6.514629156401160331e-03,4.921095678582787514e-04,1.308266320303877184e-01,3.457248414603911885e-02,4.685749423089412280e-02,-1.076311870004507260e-01,1.058294000951549296e-01,-2.563445757342651399e-02,-1.830490722971471473e-01,2.058294000951549352e-01,-9.369798556167351078e-02,5.312512911995441733e-01,7.229634523391723633e-01
2.775898999999999894e+00,-1.865440831066327021e-01,7.457031402545506726e-02,9.640431404113769531e-01,4.858762375858381721e-03,1.163965366268282509e-03,2.312413805112467635e-02,1.960297833950064988e-02,-1.136616754159411368e-03,-6.924758665263652802e-03,2.121420387590680287e-02,1.256389320168779800e-01,-4.119699103936164813e-02,-8.260386406936562342e-02,1.195811373482040252e-01,-1.562492356334249655e-01,-1.332447127511404150e-01,2.195811373482040307e-01,-2.215572227922287807e-01,5.315537716551925751e-01,7.070128917694091797e-01
