timestamp,x,y,z,roll,pitch,yaw,vx,vy,vz,p,q,r,psp,qsp,rsp,pres,qres,rres,thrust_sp, thrust_res
0.000000000000000000e+00,-6.093366728718098251e-03,1.180225357035812918e-02,9.912547469139099121e-01,1.471732556253796745e-02,-6.435054341461965421e-03,3.874162956138960112e-04,6.583233788059840441e-03,-1.031103046589337650e-03,2.508464269340038300e-03,-8.391733744190893116e-03,1.232827026892131458e-02,-1.394767549080075386e-02,-2.765843813498179982e-01,-2.552758027000030516e-01,2.261630617316581493e-01,-1.875109309154714410e-01,-2.149531999775065316e-01,2.249416781183166403e-01,5.157641066676122987e-01,1.787993907928466797e-01
2.610399999999999873e-02,-5.610646953598667427e-03,1.106794827223027931e-02,9.911199212074279785e-01,1.460229862372919990e-02,-6.274082069404274264e-03,2.542494076451795593e-04,-3.334301234099043554e-03,-3.968198509337468073e-03,4.432082176208496094e-03,-1.335513052262351716e-02,1.663852759537211984e-02,-2.499290322430836042e-02,-2.796012039370882607e-01,-2.617071768101806306e-01,2.251442370496218592e-01,-1.886301261043908661e-01,-2.137334154437360578e-01,2.242751937443163424e-01,5.147378393951442810e-01,1.306658983230590820e-01
5.190399999999999875e-02,-5.113050261880274470e-03,1.033700973532769053e-02,9.909834265708923340e-01,1.412394642658025036e-02,-6.266591492293471788e-03,-5.220204926326132977e-05,1.457878008105891604e-02,-6.296859571426834806e-03,-3.820833750069141388e-03,-4.995759225987499164e-02,-3.029081999275289386e-02,-1.220288568698274382e-03,-2.313379464107748196e-01,-8.563392582810246123e-02,1.734287555111201085e-01,-1.415836745300207145e-01,-5.393245367703665416e-02,1.734763298252312846e-01,5.253470961160020547e-01,6.692631244659423828e-01
7.505000000000000560e-02,-4.734417377081922423e-03,9.910373004678089612e-03,9.908218383789062500e-01,1.322807021676415326e-02,-5.266550179388707065e-03,-8.381401047443670649e-04,7.967022209088748738e-03,-5.242542228598661910e-03,-5.329284816980361938e-03,-4.344779116641581118e-02,8.028919451898541837e-02,-7.821230216233866772e-02,-2.625329550104986143e-01,-2.449712295833014197e-01,2.163899547656540079e-01,-1.795460461708267008e-01,-2.120500774179832348e-01,2.186396805870901849e-01,5.227247477187649816e-01,5.196349620819091797e-01
9.868399999999999395e-02,-4.237678189633025359e-03,9.496319054857692635e-03,9.904338121414184570e-01,1.069984729183008805e-02,-3.406581175659173510e-03,-2.266375507546936063e-03,1.937703925473378136e-02,-4.696673690842345303e-03,-1.499670278280973434e-02,-1.608377103665562247e-01,1.126863714814777817e-01,-5.428218756991110006e-02,-1.804743196678497141e-01,-2.058624437115883499e-01,1.011010170897479188e-01,-1.139792697169118435e-01,-1.954965228828105250e-01,1.074219156330716018e-01,5.265039533512879677e-01,6.839424371719360352e-01
1.238520000000000038e-01,-3.563754882517858845e-03,9.309364720464089957e-03,9.895347356796264648e-01,5.387445398701226802e-03,1.079937811687248228e-03,-5.359063050576429177e-03,2.404935525772007587e-02,1.964785125154121150e-03,-3.216491267085075378e-02,-1.980580495084482973e-01,1.695660783115048864e-01,-1.199560423791015268e-01,2.943648036177189120e-02,-5.134140175968320008e-02,-5.061274085211155127e-02,5.622636428273998510e-02,-7.261534784849649204e-02,-3.557689677539434270e-02,5.291354355654557251e-01,7.540383338928222656e-01
1.484330000000000094e-01,-3.081934120476484840e-03,9.375435165615135860e-03,9.886901974678039551e-01,6.384858915232403736e-04,4.794854778803925299e-03,-7.177202375128866052e-03,2.382538664734435568e-02,6.326821727211734241e-03,-4.077458754181861877e-02,-2.513462730241206033e-01,1.673253916080431336e-01,-7.150261876403643524e-02,7.308811942359716429e-02,-9.929682681729241900e-02,-1.210437367744686271e-01,6.644659724043894267e-02,-1.442086227130809917e-01,-1.009253818907596273e-01,5.299178126901821217e-01,7.568901777267456055e-01
1.753929999999999934e-01,-2.317463876226898839e-03,9.570085784176392968e-03,9.872317314147949219e-01,-6.080693601232397931e-03,1.042684037677621411e-02,-8.601767547504524103e-03,2.463165598938472575e-02,9.163320745244453794e-03,-3.536058962345123291e-02,-1.555831742635767068e-01,1.834094928115879986e-01,-2.161752969143773337e-02,1.830857488819131740e-01,-1.110282633611087699e-01,-1.562774182009319668e-01,1.310025665847752152e-01,-1.938444192330965876e-01,-1.322666702450553122e-01,5.296372632641691558e-01,7.547357082366943359e-01
1.995740000000000014e-01,-1.831356256930115984e-03,9.750024774078363404e-03,9.863501191139221191e-01,-8.649382024983899228e-03,1.300212435784109388e-02,-8.739816170213909885e-03,3.095604962666873711e-02,4.986438605396546417e-03,-4.526098817586898804e-02,-9.005245270859259243e-02,7.452269799547840690e-02,1.532957991740860337e-02,1.945118929322705581e-01,-9.458667293642936125e-02,-1.555090500759643002e-01,1.293358404602562295e-01,-1.945866729364293668e-01,-1.312021712312775035e-01,5.305044232222080325e-01,7.566623687744140625e-01
2.251920000000000033e-01,-1.190689742697613462e-03,9.860599764204374534e-03,9.850375652313232422e-01,-9.426253369980267666e-03,1.598100937986446368e-02,-7.418616483012563378e-03,2.096807876633054180e-02,9.366095178445679736e-03,-4.461752995848655701e-02,2.019021792053294143e-02,1.077148822709465548e-01,9.409019548052921511e-02,1.100768240538717579e-01,-9.582681815782231882e-02,-9.315784179889041727e-02,3.570426107489529932e-02,-1.958268181578223244e-01,-7.257083779537093493e-02,5.306032672885402368e-01,7.564944028854370117e-01
2.500870000000000037e-01,-7.428942063045524541e-04,9.949684386048493825e-03,9.841737747192382812e-01,-7.895680263899505086e-03,1.732763104121892717e-02,-6.219052186696050200e-03,3.183050506928321310e-02,1.212993783044275659e-02,-4.248538985848426819e-02,1.011885715791450702e-01,5.076623220974801204e-02,2.804549925736955773e-02,2.576571372753630462e-02,-7.406127923799155077e-02,-1.336796198690387294e-01,-4.041033754632616937e-02,-1.740612792379915563e-01,-1.164297439053490202e-01,5.306065875743067872e-01,7.586843967437744141e-01
2.742499999999999938e-01,1.165156996974044048e-04,1.010417841022924999e-02,9.828875660896301270e-01,-3.808950953369724494e-03,1.954945624924619985e-02,-4.104684600463759381e-03,4.116126948655819684e-02,1.141336149012170918e-02,-3.507531806826591492e-02,1.490287466627493174e-01,4.131183409964551273e-02,4.833754768639662164e-02,-4.070144956480847842e-02,-5.720081972640836399e-02,-1.395133064054224770e-01,-7.955562667906602992e-02,-1.572008197264083695e-01,-1.280755374769658728e-01,5.301877590137359375e-01,7.572524547576904297e-01
2.981790000000000274e-01,8.687003152986666520e-04,1.025679191983942459e-02,9.819529652595520020e-01,-5.180412197995112834e-04,2.171848343871141118e-02,-2.808094974255048726e-03,3.880004812645468371e-02,1.962865649559997205e-02,-3.990608453750610352e-02,1.737465353452958272e-01,1.429612407329842738e-01,6.400520371352175220e-02,-1.597831582974172313e-02,-1.021089839835851998e-01,-1.192087553243594000e-01,-4.025691111226954028e-02,-2.021089839835852053e-01,-1.112488858335361763e-01,5.306063559199607482e-01,7.544946670532226562e-01
3.232349999999999945e-01,2.247115109961755897e-03,1.014355948471701470e-02,9.804661870002746582e-01,3.246530978057714754e-03,2.494687669267703356e-02,-8.162990100721856379e-04,5.460240605437664818e-02,2.694037476545977847e-02,-5.199708417057991028e-02,9.321565749353748209e-02,1.128388503450079156e-01,4.238175544619546958e-02,-7.996417363980164172e-03,-9.478120584547439220e-02,-1.580522438647801453e-01,-1.244013557828685217e-02,-1.947812058454743978e-01,-1.554540296794752752e-01,5.316050907291250960e-01,7.518167495727539062e-01
3.496480000000000143e-01,3.304059247035470454e-03,1.001218910096885947e-02,9.793959259986877441e-01,4.376149836944624033e-03,2.709221801065320179e-02,7.718016463300614305e-04,5.237175486343009084e-02,2.344233960564032562e-02,-5.205408111214637756e-02,2.835752214599027154e-02,1.206766266939909155e-01,9.197660779153976618e-02,-5.140208132847808031e-02,-1.160182256048572780e-01,-1.465036052316623372e-01,-4.471149104219828557e-02,-2.160182256048572835e-01,-1.483102704245936598e-01,5.317937695908456774e-01,7.541785240173339844e-01
3.762499999999999734e-01,5.109618001704938073e-03,1.001539574111207087e-02,9.776554703712463379e-01,4.852689928182966558e-03,3.038900476401251716e-02,3.301403426086535475e-03,7.208111982909558291e-02,3.300840973887568530e-02,-6.200176849961280823e-02,4.323839232458220536e-03,1.243527045677798870e-01,8.974956337300048215e-02,-5.444134797581948876e-02,-1.209043312198181952e-01,-1.819557827310970821e-01,-5.281147523121973442e-02,-2.209043312198182007e-01,-1.906867440321839413e-01,5.327281657228206679e-01,7.546997070312500000e-01
4.023200000000000109e-01,6.500453220642430328e-03,1.009282061748625198e-02,9.763888716697692871e-01,4.786300921245331165e-03,3.220142660225189246e-02,5.083252402769078415e-03,7.442752453589129846e-02,2.441444297928973065e-02,-5.370767042040824890e-02,-1.532644985623412420e-02,5.610242893926865870e-02,8.577491118334755471e-02,-7.158814117602473048e-02,-1.194695045227597840e-01,-1.658411835469737194e-01,-6.242851266122007026e-02,-2.194695045227597896e-01,-1.796098472783820565e-01,5.323137360758081194e-01,7.559008598327636719e-01
4.284270000000000023e-01,8.934495599771136165e-03,1.030326445367802518e-02,9.744396805763244629e-01,4.098632056190688877e-03,3.531045625334661153e-02,7.975028998599142938e-03,9.183145459385758103e-02,3.868875563835090514e-02,-5.789947882294654846e-02,-2.110627257432140524e-02,1.085607646271155302e-01,9.216327309435312642e-02,1.680104448019325777e-02,-1.247619550508568820e-01,-1.810111772705541577e-01,8.754161060094269725e-03,-2.247619550508568875e-01,-2.027313931326799601e-01,5.327789303205727744e-01,7.524805068969726562e-01
4.535600000000000187e-01,1.082738260181224585e-02,1.054612605644061028e-02,9.732113480567932129e-01,3.304921332228975828e-03,3.751665908045476172e-02,1.025246219853737095e-02,9.133989152328726713e-02,3.586113018024216642e-02,-5.847815424203872681e-02,-3.596061474080203268e-02,9.624656666969567953e-02,1.050495515950556069e-01,2.407638926075141364e-02,-1.248686267781433379e-01,-1.748407706316369992e-01,1.484042868154812275e-02,-2.248686267781433434e-01,-2.030052694665118174e-01,5.329982869901110920e-01,7.532374858856201172e-01
4.758850000000000025e-01,1.290826202962427720e-02,1.087696107212757744e-02,9.719091653823852539e-01,2.084456109399175205e-03,4.004666773831688786e-02,1.260812376229925036e-02,1.044355765337247055e-01,3.953005013044910004e-02,-6.057827547192573547e-02,-6.917725813562275450e-02,1.538100642829635378e-01,1.281884290064005949e-01,9.332269059163034175e-02,-1.271572212183938455e-01,-1.776227628826514970e-01,7.258095078207155160e-02,-2.271572212183938511e-01,-2.123813672310119194e-01,5.333160365735362118e-01,7.524106502532958984e-01
5.030160000000000187e-01,1.634169564009271478e-02,1.146326668490496234e-02,9.702616333961486816e-01,8.602505838387346400e-04,4.350894032469310169e-02,1.592785314076161640e-02,1.141740803823566852e-01,3.951376890362429117e-02,-6.455878913402557373e-02,-2.977462212175811460e-02,1.020416469814253574e-01,1.031036115615195925e-01,5.844900020888166292e-02,-1.267132839034237624e-01,-1.712421968864061839e-01,2.985673183089121441e-02,-2.267132839034237679e-01,-2.153441461461547690e-01,5.337802312725655751e-01,7.507152557373046875e-01
5.249399999999999622e-01,1.888179327637052110e-02,1.190717627736650151e-02,9.692595005035400391e-01,5.854871043716036857e-04,4.586988552304882560e-02,1.828841556779026156e-02,1.195546198543039063e-01,3.519000676002375511e-02,-6.051903963088989258e-02,-2.051290893170532037e-02,1.239570739870244770e-01,1.373143164224982504e-01,1.969241355979090696e-02,-1.265342783355503375e-01,-1.668063635922605592e-01,-7.701869661496126181e-03,-2.265342783355503431e-01,-2.175511602003038225e-01,5.335849281754907469e-01,7.472505569458007812e-01
5.514559999999999462e-01,2.232371983116073627e-02,1.333938930736567816e-02,9.678779840469360352e-01,1.394508244701818736e-03,4.908236631108264802e-02,2.210893793543489139e-02,1.479897468550731288e-01,4.511328150503597645e-02,-6.004648283123970032e-02,7.861280775566806267e-02,1.097403898455437954e-01,1.233510348293353348e-01,-1.104118669518319718e-01,-1.242393428378254228e-01,-1.675652013533834306e-01,-1.417015615176513421e-01,-2.242393428378254283e-01,-2.287398505649454461e-01,5.334512633068305698e-01,7.304518222808837891e-01
5.795430000000000303e-01,2.626345981040189431e-02,1.485281480532864816e-02,9.665204882621765137e-01,2.933380481762903197e-03,5.257376576079564323e-02,2.564806032049338214e-02,1.543501202689169516e-01,4.524852923651456749e-02,-5.635542795062065125e-02,5.514911364131264843e-02,1.530175323512273644e-01,9.694277246875090959e-02,-7.161498504799361509e-02,-1.257215702308517036e-01,-1.548872840466538059e-01,-9.270499333254568486e-02,-2.257215702308517091e-01,-2.257731357270069128e-01,5.332371411084617652e-01,7.231951951980590820e-01
6.039949999999999486e-01,2.920475393862101768e-02,1.591989972927252903e-02,9.657867550849914551e-01,3.801676824730375933e-03,5.486637750117617784e-02,2.819324425396607658e-02,1.785916042504337442e-01,5.297907083243263288e-02,-6.808763742446899414e-02,4.985870671297020461e-03,1.366093489101596892e-01,1.377579929991140650e-01,-5.653090879361905713e-02,-1.264124904849069642e-01,-1.505308613251810090e-01,-7.839598155694815773e-02,-2.264124904849069697e-01,-2.282666676256685512e-01,5.343979135482344045e-01,7.314655780792236328e-01
6.262079999999999869e-01,3.237702492072235677e-02,1.707258297104763400e-02,9.649963974952697754e-01,4.058299615613323794e-03,5.754501153547408876e-02,3.072866954159603203e-02,1.808397544580441219e-01,5.444724308798837981e-02,-6.584252417087554932e-02,2.216840597447330627e-02,1.422422318205666947e-01,1.124555137124963466e-01,-6.887261474283198903e-02,-1.259701819647467969e-01,-1.444592094098217372e-01,-9.007945634176886540e-02,-2.259701819647468024e-01,-2.292013071473616159e-01,5.343713701403096650e-01,7.306261062622070312e-01
6.534910000000000441e-01,3.758392220199960332e-02,1.780961595015499374e-02,9.638019204139709473e-01,2.928487254810612297e-03,6.150291903404769833e-02,3.446432173822699951e-02,2.000487852134339439e-01,5.879648594446913734e-02,-6.964910775423049927e-02,-6.844106293767458771e-02,1.451104350551700728e-01,9.752627196189284087e-02,1.212727349732346527e-01,-1.316548289475601707e-01,-1.255538592521383834e-01,8.931147201351777309e-02,-2.316548289475601763e-01,-2.207080206587712923e-01,5.351445062835273880e-01,7.469038963317871094e-01
6.772139999999999826e-01,4.140652583718092139e-02,1.839735603639269107e-02,9.629737734794616699e-01,2.108175333308902506e-03,6.409435623923620540e-02,3.702645051127317899e-02,2.108036524784795140e-01,6.481487811109115649e-02,-7.034538686275482178e-02,-3.647628065842165035e-02,1.378508271227428805e-01,1.456751770282165293e-01,4.353166520066284462e-02,-1.284732098410870937e-01,-1.266440937000468669e-01,1.764222153895567049e-03,-2.284732098410870993e-01,-2.266440937000468725e-01,5.352925424084895578e-01,7.429394721984863281e-01
7.047560000000000491e-01,4.762267348090835212e-02,1.943172270731708187e-02,9.617766141891479492e-01,7.781462213555967889e-04,6.792331599885592652e-02,4.066354783008696572e-02,2.260487717453961987e-01,6.224418360775508391e-02,-5.735313519835472107e-02,3.595370444896020708e-03,1.520418755973408087e-01,9.696963321783370893e-02,3.863417210087408127e-02,-1.276931322275719760e-01,-1.267790275495368213e-01,-9.483787825345198902e-03,-2.276931322275719816e-01,-2.267790275495368268e-01,5.344706201404968438e-01,7.382954359054565430e-01
7.263920000000000377e-01,5.210424656809155286e-02,2.017077161408209474e-02,9.610275030136108398e-01,4.491898212010499896e-04,6.979256893774210546e-02,4.313184133634151429e-02,2.577404089714471769e-01,6.239289558583918649e-02,-6.515665352344512939e-02,-1.898646149739637284e-03,8.379634789411717632e-02,1.287039555875197638e-01,2.301068324112427732e-03,-1.259161855699120203e-01,-1.311930761718868854e-01,-4.815271049106064488e-02,-2.259161855699120258e-01,-2.311930761718868910e-01,5.352684151287396830e-01,7.410273551940917969e-01
7.542109999999999648e-01,5.876334229327079967e-02,2.164097492452421098e-02,9.599311351776123047e-01,1.509999655392763431e-03,7.300455011907547309e-02,4.685456137675214627e-02,2.580179823021291341e-01,6.296571617615175087e-02,-6.504338979721069336e-02,4.436615155477754285e-02,1.365250313543739658e-01,1.424808530680871654e-01,-3.644886430174016506e-02,-1.243473104834361409e-01,-1.330631610077111504e-01,-8.154227971006212938e-02,-2.243473104834361465e-01,-2.330631610077111560e-01,5.353587869054067250e-01,7.367625236511230469e-01
7.759899999999999576e-01,6.341089948535377774e-02,2.281885857748118529e-02,9.591839909553527832e-01,2.463299306033883522e-03,7.513786332190108830e-02,4.904247581957599245e-02,2.859383113637506413e-01,6.694540250258787517e-02,-6.649344414472579956e-02,3.442627769437955204e-02,1.207329664270756220e-01,8.731568767569515555e-02,-1.323123107326366898e-02,-1.256270758447042279e-01,-1.299338078116942796e-01,-5.517554182043219596e-02,-2.256270758447042335e-01,-2.299338078116942852e-01,5.357111026193650538e-01,7.395586967468261719e-01
8.039849999999999497e-01,6.839408207456815214e-02,2.404023704373705120e-02,9.584073424339294434e-01,3.345089217814213155e-03,7.755001811403383627e-02,5.162320479291393482e-02,2.986481858509995591e-01,7.585739874702317198e-02,-7.182369381189346313e-02,2.340828164211195689e-02,1.409596330003974607e-01,1.421272654692076753e-01,-2.939108110901623994e-03,-1.261588730154381555e-01,-1.303893191966787879e-01,-4.611343906525547376e-02,-2.261588730154381610e-01,-2.303893191966787934e-01,5.363334244997909339e-01,7.428750991821289062e-01
8.248670000000000169e-01,7.369088293155795499e-02,2.535426592158859793e-02,9.575874805450439453e-01,4.011461138725809505e-03,7.969137551460625524e-02,5.384063607212308256e-02,3.095717397760024414e-01,7.041030424106321794e-02,-6.869971007108688354e-02,1.321928778609569519e-02,7.289009418268692364e-02,9.478445036121221912e-02,-3.223240024598344328e-02,-1.250760366824567593e-01,-1.323988091691909730e-01,-6.620255783421850893e-02,-2.250760366824567649e-01,-2.323988091691909785e-01,5.362855373397079628e-01,7.426633834838867188e-01
8.479769999999999808e-01,8.217421792838447425e-02,2.759228225417071495e-02,9.562765955924987793e-01,4.060155626074743451e-03,8.323406325495774638e-02,5.776406041400816704e-02,3.362038859357711074e-01,7.841441920354806638e-02,-7.013362646102905273e-02,-5.459158082317364796e-02,1.294576158128471766e-01,1.450624633119947660e-01,1.291636078980758495e-01,-1.337127673373142700e-01,-1.201643013278000660e-01,8.806255321722279705e-02,-2.337127673373142756e-01,-2.201643013278000716e-01,5.367994172698128397e-01,7.512519359588623047e-01
8.780139999999999612e-01,9.125362231367820098e-02,3.022619511148208135e-02,9.549957513809204102e-01,4.000983492926573314e-03,8.626215815336890635e-02,6.159086580739070449e-02,3.556394205423472066e-01,8.253322038202637323e-02,-6.829990446567535400e-02,-3.012199076800552155e-03,1.010582099713323301e-01,1.306011475197116078e-01,7.839537060704759863e-02,-1.306280118271701263e-01,-1.245805114737151276e-01,3.391029336476755751e-02,-2.306280118271701318e-01,-2.245805114737151331e-01,5.368776040265997862e-01,7.496223449707031250e-01
9.044330000000000425e-01,1.011461636549948889e-01,3.299056351107763907e-02,9.536209106445312500e-01,3.779219869719535867e-03,8.945810837412881966e-02,6.525558093351602196e-02,3.751420503599737777e-01,8.897932377000436488e-02,-6.678479164838790894e-02,9.530804057374237664e-03,1.455794046437365874e-01,1.146412389168406792e-01,1.395307233293565929e-01,-1.341803723734837916e-01,-1.186579220881893160e-01,8.827046585338151063e-02,-2.341803723734837972e-01,-2.186579220881893215e-01,5.370587372538312421e-01,7.515926361083984375e-01
9.250939999999999719e-01,1.082111333165891309e-01,3.487663635740925749e-02,9.527081251144409180e-01,4.266856610262693104e-03,9.115895472093482610e-02,6.788991888130380126e-02,4.093502096855265449e-01,9.407420240972536041e-02,-6.383698433637619019e-02,2.647561976575724813e-02,6.302403317285047712e-02,1.335029381983816876e-01,2.143952072391301297e-02,-1.263761119059918503e-01,-1.297502003559737882e-01,-2.953215465801528952e-02,-2.263761119059918558e-01,-2.297502003559737938e-01,5.371039144820739519e-01,7.520112991333007812e-01
9.494850000000000234e-01,1.195033844739611939e-01,3.789369504767262087e-02,9.513655304908752441e-01,6.126808798319444485e-03,9.379872242523545900e-02,7.173119808041872325e-02,4.191287803437238058e-01,8.801425902058479522e-02,-5.904893577098846436e-02,9.180343244436534045e-02,9.985604546786171209e-02,1.046729166199644873e-01,-4.803867648004125218e-02,-1.221009125154998431e-01,-1.295000624916191612e-01,-8.287656085597575051e-02,-2.221009125154998487e-01,-2.295000624916191667e-01,5.369454412717431513e-01,7.497944831848144531e-01
9.733500000000000485e-01,1.274985688154214314e-01,3.998542259370033852e-02,9.504917263984680176e-01,7.976611963198024582e-03,9.568851450049642438e-02,7.407602522359169051e-02,4.498139769834669233e-01,8.797053981062648298e-02,-6.473794579505920410e-02,8.644082258438315347e-02,1.093872747023943576e-01,1.009345595398348644e-01,-4.048573293011288599e-02,-1.234785922991454843e-01,-1.266608884087852271e-01,-6.392231646555189550e-02,-2.234785922991454898e-01,-2.266608884087852327e-01,5.376447805489101839e-01,7.520029544830322266e-01
1.001860999999999891e+00,1.402666904407986193e-01,4.321851084803575438e-02,9.491559863090515137e-01,1.060857999359052575e-02,9.876094481538277847e-02,7.796950033921246082e-02,4.760225568516048278e-01,1.028842790488874448e-01,-7.059405744075775146e-02,3.311829508370413289e-02,9.094459004981253480e-02,1.346292013472903948e-01,-4.196792495631852110e-02,-1.248065517123793933e-01,-1.308842793900282797e-01,-6.040138576734132431e-02,-2.248065517123793988e-01,-2.308842793900282853e-01,5.384014298241572849e-01,7.543770074844360352e-01
1.025552999999999937e+00,1.493033002592427105e-01,4.545112584123881666e-02,9.482591152191162109e-01,1.145673629557098297e-02,1.010548382453808625e-01,8.067556699251432484e-02,4.864606692728674076e-01,1.067913041208375935e-01,-6.913677603006362915e-02,1.494805870364784850e-02,1.144359871386250727e-01,1.221974009738102801e-01,4.196746525982514991e-02,-1.319394006027803934e-01,-1.218911465973583075e-01,2.724675635372364457e-02,-2.319394006027803989e-01,-2.218911465973583130e-01,5.385329051486792418e-01,7.554960250854492188e-01
1.054670999999999914e+00,1.587515896042378527e-01,4.778042779744514496e-02,9.472923278808593750e-01,1.165049213069437907e-02,1.031566515290618380e-01,8.327064160272801274e-02,5.136651107798864135e-01,1.065162713514309356e-01,-7.047809660434722900e-02,-3.422015384151922551e-02,1.280588547741727257e-01,1.479630957934353341e-01,1.227013872712950093e-01,-1.389608968915868326e-01,-1.144156162254642284e-01,1.101922255530751599e-01,-2.389608968915868381e-01,-2.144156162254642339e-01,5.389410387129003333e-01,7.575004100799560547e-01
1.078807999999999989e+00,1.636314536580740220e-01,4.905901386439401324e-02,9.468007087707519531e-01,1.163884218394548378e-02,1.042085889948576316e-01,8.458498025399086018e-02,5.262272022047163045e-01,1.095410575206260395e-01,-7.645751535892486572e-02,-4.168650756507700367e-02,1.186628672891643227e-01,1.313748778591102562e-01,1.371026791034737624e-01,-1.400736305904043966e-01,-1.133104883512122962e-01,1.218564461618208694e-01,-2.400736305904044021e-01,-2.133104883512123018e-01,5.395750906142370296e-01,7.582979202270507812e-01
1.107378999999999891e+00,1.736612178518169847e-01,5.169637745399174866e-02,9.458559155464172363e-01,1.135164637468067880e-02,1.062617809971007077e-01,8.709936650414085157e-02,5.382172162537759430e-01,1.120110999635605675e-01,-7.732754200696945190e-02,-5.627707597258710392e-02,1.024124146641579997e-01,1.168730210995784641e-01,1.664081751372286644e-01,-1.424874132361218237e-01,-1.107103610563845708e-01,1.471403043391106835e-01,-2.424874132361218293e-01,-2.107103610563845764e-01,5.398978523353286096e-01,7.590262889862060547e-01
1.123717999999999995e+00,1.788306146763906923e-01,5.301471979067006596e-02,9.453489184379577637e-01,1.126598423356914812e-02,1.071583112483212030e-01,8.853974997584734830e-02,5.509694218982775782e-01,1.119994323578093198e-01,-7.471751421689987183e-02,-2.004548098752942376e-02,6.740686792485207912e-02,1.499721938710866509e-01,7.775510741239412271e-02,-1.347588500903253717e-01,-1.199814710574531595e-01,5.810746103986581118e-02,-2.347588500903253772e-01,-2.199814710574531651e-01,5.399144056641724809e-01,7.587761878967285156e-01
1.155874999999999986e+00,1.950317573258046333e-01,5.701928920717536792e-02,9.438917040824890137e-01,1.156365735607196681e-02,1.097199571066735935e-01,9.228780388018820169e-02,5.769339575373237938e-01,1.113021167366078090e-01,-7.211924344301223755e-02,-1.237868772292046587e-02,1.234937928183132971e-01,1.221666502084112066e-01,1.422833330439487731e-01,-1.410362560006832022e-01,-1.109574622225275309e-01,1.249151956120310436e-01,-2.410362560006832078e-01,-2.109574622225275364e-01,5.400726119545495862e-01,7.586886882781982422e-01
1.178557000000000077e+00,2.063886213103791334e-01,5.969662288945792872e-02,9.429535269737243652e-01,1.281730202761009567e-02,1.111520431246708629e-01,9.489408085769057699e-02,6.005989261121429390e-01,1.154841851483776188e-01,-7.656739652156829834e-02,4.855940874837832988e-02,8.468077636439118316e-02,1.192008724007455889e-01,-2.936048433984091502e-02,-1.251862716863234304e-01,-1.229223761538930926e-01,-4.177267577151863587e-02,-2.251862716863234359e-01,-2.229223761538930981e-01,5.406462202521160609e-01,7.567274570465087891e-01
1.199759999999999938e+00,2.183328268861386146e-01,6.233617928429025651e-02,9.419780373573303223e-01,1.477967783559180903e-02,1.126922215439025710e-01,9.748979421773618093e-02,6.192857786199601478e-01,1.160830628009272142e-01,-6.797129660844802856e-02,1.164092048223134696e-01,8.593262452265822138e-02,9.474947671002317828e-02,2.305286552229778019e-02,-1.241980692165876865e-01,-1.021572554236623853e-01,2.321789206815373999e-02,-2.241980692165876921e-01,-2.021572554236623909e-01,5.402898584539667093e-01,7.553220987319946289e-01
1.224172999999999956e+00,2.308366035677048844e-01,6.499860526892468904e-02,9.410648941993713379e-01,1.738614661986088300e-02,1.143487123357158630e-01,1.000305292477827734e-01,6.428792016944263610e-01,1.121818997624869224e-01,-6.630510836839675903e-02,1.268980644946206549e-01,9.309232203656711557e-02,1.219622296037485981e-01,6.184483393662575795e-03,-1.229482064470945879e-01,-1.015500260490935780e-01,2.655054415039509105e-02,-2.229482064470945935e-01,-2.015500260490935835e-01,5.404656696881414701e-01,7.551937103271484375e-01
1.249919999999999920e+00,2.504596283088032505e-01,6.899544255877554377e-02,9.396665096282958984e-01,2.161939743946598991e-02,1.167546800087089220e-01,1.039736933502188876e-01,6.791923532904747818e-01,1.161521921586801537e-01,-5.547661334276199341e-02,1.595533592627940145e-01,9.386954637832864434e-02,1.141149814723770722e-01,-8.939723767699032930e-03,-1.210536166054919094e-01,-1.010998015177362319e-01,3.592051903639323363e-02,-2.210536166054919149e-01,-2.010998015177362375e-01,5.400989826953683792e-01,7.550332546234130859e-01
1.278594999999999926e+00,2.711274212868363120e-01,7.302261477474622509e-02,9.381924271583557129e-01,2.520555496026978190e-02,1.195424556477258093e-01,1.078495471818659013e-01,7.113352729629598414e-01,1.233472325716021556e-01,-6.080600246787071228e-02,1.192973442155066677e-01,1.017391182028856977e-01,8.922005522925459398e-02,-2.830220017685367018e-02,-1.240100281531499593e-01,-9.982613710886414915e-02,3.547535390706701985e-02,-2.240100281531499649e-01,-1.998261371088641547e-01,5.408885463086717804e-01,7.554676532745361328e-01
1.299082000000000070e+00,2.855865514044157449e-01,7.574529323583970020e-02,9.371439814567565918e-01,2.675989132341312707e-02,1.214200814343209256e-01,1.104631791057040235e-01,7.363118450921382063e-01,1.191935371451098707e-01,-6.273755431175231934e-02,6.606840093571120232e-02,7.060874039579836947e-02,1.251819180013666877e-01,-5.321022505758839227e-02,-1.258959267679875538e-01,-1.008053820455519778e-01,2.544885805656853239e-02,-2.258959267679875593e-01,-2.008053820455519833e-01,5.413631336969165764e-01,7.559716701507568359e-01
1.327185999999999977e+00,3.161028533997086720e-01,8.135672332088403347e-02,9.353218078613281250e-01,2.828783074276945350e-02,1.245654197449070910e-01,1.153708902934977854e-01,7.858916188216806820e-01,1.249615775679751434e-01,-6.338690966367721558e-02,1.894450306891639138e-02,3.297086418144885844e-02,1.100168728280815356e-01,-6.140909102560966615e-02,-1.299782897141932292e-01,-1.046957764192209261e-01,2.441545626237833291e-02,-2.299782897141932347e-01,-2.046957764192209317e-01,5.420128294655435219e-01,7.575029134750366211e-01
1.352230999999999961e+00,3.402275786489589171e-01,8.555987754144568636e-02,9.339402318000793457e-01,2.874631498676815181e-02,1.266173213795340757e-01,1.191906820729706773e-01,8.222284891494986425e-01,1.236320636343404278e-01,-5.829891934990882874e-02,3.979437250577261970e-02,6.045352877495666077e-02,1.395065002492145434e-01,-6.279224087187006142e-02,-1.302247655079693534e-01,-9.926631889726028612e-02,2.940556701596106978e-02,-2.302247655079693589e-01,-1.992663188972602917e-01,5.420956221997352831e-01,7.570271492004394531e-01
1.375877999999999934e+00,3.654411096576611895e-01,8.976552980325455677e-02,9.325200915336608887e-01,2.848492966130525619e-02,1.287821698804754167e-01,1.226636890920322909e-01,8.533938379866514712e-01,1.260377868468312845e-01,-5.823906883597373962e-02,-1.079107823660501939e-02,7.190653886874541489e-02,1.211621549853890561e-01,-5.935169098942717769e-02,-1.343546996579653985e-01,-9.752886326512219539e-02,3.072561642656123845e-02,-2.343546996579654040e-01,-1.975288632651222009e-01,5.425705905168961563e-01,7.580317258834838867e-01
1.398501999999999912e+00,3.831991502110479453e-01,9.300321557995856747e-02,9.316339492797851562e-01,2.797738506534910158e-02,1.301598936186048050e-01,1.249958828265720356e-01,8.781125331471406614e-01,1.311966302474411317e-01,-6.556758284568786621e-02,-3.245117302359785266e-02,4.427526795783268826e-02,1.019879393478370228e-01,-4.945777038117959296e-02,-1.348763410521442718e-01,-9.951054104931639221e-02,3.494767325499396199e-02,-2.348763410521442774e-01,-1.995105410493163978e-01,5.434854649244524882e-01,7.589110136032104492e-01
1.427145000000000108e+00,4.201668263197332331e-01,9.944587992257729325e-02,9.298729896545410156e-01,2.601329407627910040e-02,1.327513068182211153e-01,1.297806168817570160e-01,9.216361554054458560e-01,1.287238995640445915e-01,-6.404284387826919556e-02,-3.627949918309079924e-02,4.100016266306067553e-02,1.243401166388248685e-01,-4.076428413244391480e-02,-1.353777449824913048e-01,-9.831882216180756751e-02,3.672180782775945340e-02,-2.353777449824913104e-01,-1.983188221618075731e-01,5.440230253115472259e-01,7.592409849166870117e-01
1.450715999999999894e+00,4.492016851927702614e-01,1.043358739473967955e-01,9.285762906074523926e-01,2.397909955322650305e-02,1.344581997310552168e-01,1.334586235489270134e-01,9.738206288583204362e-01,1.329719221009999508e-01,-5.907915160059928894e-02,-4.443431943853094757e-02,3.667363800006898794e-02,1.136509861334786681e-01,-1.723187694787146895e-02,-1.367871170707686546e-01,-9.480686149183847888e-02,4.746466959958606235e-02,-2.367871170707686601e-01,-1.948068614918384844e-01,5.443101871568983841e-01,7.594652175903320312e-01
1.475764999999999993e+00,4.799231963522295197e-01,1.096664126158743008e-01,9.273171424865722656e-01,2.218363916238750427e-02,1.364145776691807477e-01,1.369448670969828363e-01,1.002947935788690126e+00,1.440497728286448120e-01,-5.464347079396247864e-02,-3.963645455343162843e-02,2.356796959617313281e-02,1.146972879141319734e-01,2.994253033773097705e-03,-1.370933835296048176e-01,-9.643220561559923132e-02,5.015006073661674307e-02,-2.370933835296048231e-01,-1.964322056155992369e-01,5.445186067071811076e-01,7.596716880798339844e-01
1.499541999999999931e+00,5.121070112897826432e-01,1.153068880973873861e-01,9.261662960052490234e-01,2.044066279755224480e-02,1.385719229005781816e-01,1.408315140635953977e-01,1.042947409582702933e+00,1.393108683388389057e-01,-4.696775600314140320e-02,-3.984824547579141757e-02,7.116477039441743146e-02,1.080382685652267610e-01,2.264785751082958043e-02,-1.394794217681807336e-01,-7.013035128459652046e-02,6.716693532777290310e-02,-2.394794217681807391e-01,-1.701303512845965260e-01,5.445791981435409435e-01,7.594649791717529297e-01
1.523003000000000107e+00,5.341374586571309147e-01,1.190541270148826464e-01,9.253886938095092773e-01,1.941615733699820004e-02,1.397479651832407299e-01,1.431849232469761812e-01,1.086014281026954409e+00,1.398349000123201014e-01,-5.248105525970458984e-02,-1.334607537740402708e-02,4.195340732978487114e-02,1.226153160658293717e-01,9.172537136092742682e-03,-1.370235194115877464e-01,-6.478651072062022176e-02,4.959334373262444529e-02,-2.370235194115877519e-01,-1.647865107206202273e-01,5.455221462240590347e-01,7.593183517456054688e-01
1.550667000000000018e+00,5.681854092730441730e-01,1.247409014510637432e-01,9.243238568305969238e-01,1.868683999610797064e-02,1.419095092161499760e-01,1.465013927339016142e-01,1.114641413787259783e+00,1.502362058495924357e-01,-4.685739055275917053e-02,-2.867187841096831974e-02,2.018037248148136023e-02,1.190581706263118961e-01,2.758016865584959898e-02,-1.384446467938869052e-01,-6.789425627057465995e-02,5.787951842999172064e-02,-2.384446467938869108e-01,-1.678942562705746655e-01,5.457070019808223371e-01,7.597249746322631836e-01
1.576956000000000024e+00,6.045989664019294496e-01,1.304094877562783084e-01,9.233973026275634766e-01,1.868529660659287023e-02,1.439284849132596023e-01,1.496984902098628112e-01,1.153197409915281080e+00,1.483321305322154171e-01,-4.072904959321022034e-02,-4.788637444247877302e-03,7.360579564222473337e-02,9.266207966575853994e-02,1.550296510110357739e-02,-1.381868190936616780e-01,3.608948312546987613e-02,5.242602613404498402e-02,-2.381868190936616836e-01,-6.391051687453012942e-02,5.459254865782193766e-01,7.589881420135498047e-01
1.599226999999999954e+00,6.294362247432264690e-01,1.342187814422811654e-01,9.228038787841796875e-01,1.884311858074726523e-02,1.450933489985297697e-01,1.518396369265526680e-01,1.189758456324933045e+00,1.535368845516435488e-01,-4.049158468842506409e-02,2.598064251493321930e-02,2.066543441009793466e-02,7.587862941599768374e-02,-3.078518469745322034e-02,-1.314310819047233569e-01,8.069686493085449774e-02,6.285574076498982865e-03,-2.314310819047233625e-01,-1.930313506914551128e-02,5.464615122376609291e-01,7.579579353332519531e-01
1.622670999999999975e+00,6.547965879790881294e-01,1.380582364941065621e-01,9.222139120101928711e-01,1.908015348026348770e-02,1.463981838091714671e-01,1.536742392712879823e-01,1.210910700920799110e+00,1.534937220612725139e-01,-3.816476464271545410e-02,3.403092040909094784e-02,7.216752857517717834e-02,7.256895013317617160e-02,-3.406854318561938766e-02,-1.321797098651713853e-01,1.958452509590574431e-01,7.065589149444595311e-03,-2.321797098651713909e-01,9.584525095905743752e-02,5.467593857971905225e-01,7.575919628143310547e-01
1.650679000000000007e+00,6.938114776508332859e-01,1.439495062136370018e-01,9.215835928916931152e-01,1.955517447382475876e-02,1.485085296262882437e-01,1.551725438364972565e-01,1.252902986896810678e+00,1.640752618230673088e-01,-4.806209728121757507e-02,1.724628782957587231e-02,8.024143632337267518e-02,1.212902901032199450e-02,-4.793045445504018343e-02,-1.303995272401017036e-01,2.696358830984192378e-01,-8.253840090893787423e-03,-2.303995272401017091e-01,1.696358830984192323e-01,5.482251146837417988e-01,7.582728862762451172e-01
1.673275000000000068e+00,7.202512726918527397e-01,1.486698107283154213e-01,9.211062788963317871e-01,1.924555019400783079e-02,1.493694523924111728e-01,1.555531383934249945e-01,1.288753353885429664e+00,1.722693711458314347e-01,-4.935652390122413635e-02,-4.281632201892808520e-02,2.210314243325346706e-02,1.736790607863357427e-02,2.395272323621879668e-02,-1.404908477033677550e-01,1.673565033392962198e-01,5.868529390112444538e-02,-2.404908477033677605e-01,6.735650333929621425e-02,5.489661655430799758e-01,7.600016593933105469e-01
1.700056999999999929e+00,7.605426062748746885e-01,1.571659380543492801e-01,9.203229546546936035e-01,1.836415419166370286e-02,1.509342846352923484e-01,1.543168937595307266e-01,1.325485914697218659e+00,1.747568034049920283e-01,-4.030650481581687927e-02,-3.421226180156401037e-02,7.753437177916991385e-02,-5.253284377094998708e-02,5.857384642804264879e-03,-1.370209629385513439e-01,2.645302844126825592e-01,3.327345353048125759e-02,-2.370209629385513495e-01,1.645302844126825259e-01,5.490904564318959125e-01,7.593131065368652344e-01
1.725918000000000063e+00,8.020082346669603623e-01,1.656330715178520041e-01,9.195006489753723145e-01,1.722266741458087017e-02,1.523421740862922480e-01,1.520987616232556405e-01,1.369281906673479599e+00,1.889716716331600321e-01,-3.893204405903816223e-02,-4.179432563799215239e-02,2.436218071447901479e-02,-8.400154928033733148e-02,1.458093742601168641e-02,-1.355602356512436713e-01,2.859634844078774996e-01,2.331094155319749991e-02,-2.355602356512436768e-01,1.859634844078774940e-01,5.498405482004928846e-01,7.578241825103759766e-01
1.748275999999999941e+00,8.302828578973475704e-01,1.712103870390361549e-01,9.189092516899108887e-01,1.641530709702422944e-02,1.533660623281802859e-01,1.507225915624466062e-01,1.393404022774190176e+00,1.890414142524536045e-01,-4.302844777703285217e-02,-6.699208403531368983e-02,7.284886817083029154e-02,-3.116645270859873598e-02,4.509380321565698013e-02,-1.397106881587874549e-01,2.965134546858078091e-01,4.911608013431906228e-02,-2.397106881587874605e-01,1.965134546858078313e-01,5.507353012517025581e-01,7.599447965621948242e-01
1.777022000000000101e+00,8.715267263587375135e-01,1.805488909661893682e-01,9.181974530220031738e-01,1.597576951699401435e-02,1.543324233110190402e-01,1.476761956363763506e-01,1.448534225282050336e+00,2.002808473964524938e-01,-3.751220181584358215e-02,5.689540912178396581e-02,6.935911366244412735e-02,-1.466928289103225369e-01,1.965125468057160943e-02,-1.338940633598524887e-01,3.209601420386254955e-01,1.089126616104245729e-02,-2.338940633598524943e-01,2.209601420386254900e-01,5.513196665095305704e-01,7.557610273361206055e-01
1.799153999999999920e+00,8.990048242878820872e-01,1.870419199249460929e-01,9.177618026733398438e-01,1.573315526231728115e-02,1.551824445731224689e-01,1.450482871448666167e-01,1.470757362415964220e+00,2.017820367354270228e-01,-4.435202851891517639e-02,-4.994422465307900814e-03,4.193597422823796411e-02,-1.014870559076566925e-01,4.349203343768197338e-02,-1.365566429590030495e-01,3.244767988802789715e-01,2.966354289990954032e-02,-2.365566429590030550e-01,2.244767988802789660e-01,5.523687232877836362e-01,7.570366859436035156e-01
1.825709999999999944e+00,9.271360522240945645e-01,1.935365850730815795e-01,9.173620939254760742e-01,1.579484769056810345e-02,1.563342647306411592e-01,1.420488798128645147e-01,1.502281385240047396e+00,2.173389598344928342e-01,-3.388420864939689636e-02,-1.520650151565429431e-02,6.000670590515093383e-02,-1.741585536846466109e-01,6.932555030433937282e-02,-1.379049952976297844e-01,3.270467200027217802e-01,4.098328569188736115e-02,-2.379049952976297899e-01,2.270467200027217747e-01,5.524073374877306319e-01,7.572596073150634766e-01
1.847887000000000057e+00,9.703979384235501549e-01,2.032269422378881196e-01,9.167256355285644531e-01,1.584468630776776632e-02,1.575379925800026726e-01,1.370899408232451044e-01,1.538275958441083446e+00,2.108850998597157078e-01,-4.194171354174613953e-02,-3.308150412930466883e-02,6.974675012366715783e-03,-1.568388160825173183e-01,7.494129988089066885e-02,-1.382970767911394228e-01,3.335777493390453818e-01,4.756947183993492922e-02,-2.382970767911394283e-01,2.335777493390454040e-01,5.538206679039099356e-01,7.560098171234130859e-01
1.876368999999999954e+00,1.013632138979549735e+00,2.123346703509431943e-01,9.161725640296936035e-01,1.636684852649603408e-02,1.585936663937275171e-01,1.318304168189148307e-01,1.574321492173096138e+00,2.291955043669517966e-01,-2.610995806753635406e-02,3.717618254660177285e-02,2.159746713988397460e-02,-1.794322396228118510e-01,9.279708260623911742e-02,-1.375098469283163038e-01,3.373585305897938147e-01,4.697970632022247656e-02,-2.375098469283163094e-01,2.373585305897938091e-01,5.536654395109895654e-01,7.541511058807373047e-01
1.898452999999999946e+00,1.042775865543514868e+00,2.182905208886154191e-01,9.157961010932922363e-01,1.666085109496600464e-02,1.596120835548318073e-01,1.279312229929352451e-01,1.596664008363530840e+00,2.288625777248202431e-01,-3.424767032265663147e-02,-1.578899583372191627e-03,1.464410673718077004e-02,-1.992865068052088184e-01,9.904987752313305915e-02,-1.377251353013662638e-01,3.381122169936073840e-01,5.221026377631816928e-02,-2.377251353013662694e-01,2.381122169936074062e-01,5.548852199923003381e-01,7.552468776702880859e-01
1.923710999999999949e+00,1.072630432402776668e+00,2.242567528502130425e-01,9.154646992683410645e-01,1.734995128372062920e-02,1.607756346877955433e-01,1.240771655910488658e-01,1.629449319873113922e+00,2.419883122398100161e-01,-2.894575893878936768e-02,2.548968168128844247e-02,6.620403136187437421e-02,-1.985055258865143224e-01,1.091197016712387446e-01,-1.371233688249406113e-01,3.385807875467079509e-01,5.171086891219622145e-02,-2.371233688249406169e-01,2.385807875467079453e-01,5.553909525396560909e-01,7.565631866455078125e-01
1.949769000000000085e+00,1.118678244095025587e+00,2.334302988462641226e-01,9.151180982589721680e-01,1.907481815350540316e-02,1.620381760456666154e-01,1.177451151554309572e-01,1.673233912177401583e+00,2.361541025790299120e-01,-1.643148995935916901e-02,6.923865106845335238e-02,5.444652750375375549e-02,-2.510378040116214571e-01,9.648390056229791401e-02,-1.354022567218079731e-01,3.397709655396434769e-01,4.672055827271747591e-02,-2.354022567218079787e-01,2.397709655396434714e-01,5.555886878706770560e-01,7.552316188812255859e-01
1.975932999999999939e+00,1.165064854619791701e+00,2.430553235621160935e-01,9.149339199066162109e-01,2.102942542886239441e-02,1.637026000314998342e-01,1.112465668764612836e-01,1.709630297987282388e+00,2.511013787884776027e-01,-2.507619000971317291e-02,4.627643642385387279e-02,1.013187692168090043e-01,-2.489775806482765197e-01,1.122323769026097040e-01,-1.349077363383024974e-01,3.411119487328756472e-01,5.242285394391950348e-02,-2.349077363383025030e-01,2.411119487328756694e-01,5.572143647592230353e-01,7.567222118377685547e-01
2.000411000000000161e+00,1.195293411525023997e+00,2.502549136979126398e-01,9.149610996246337891e-01,2.262833754564745961e-02,1.646432093069980507e-01,1.066667550866560177e-01,1.727395153819434315e+00,2.437329290126170334e-01,-1.118211913853883743e-02,1.064198839875305641e-01,9.200995793944437284e-02,-2.466738775420786456e-01,9.885762808848544414e-02,-1.334163763679277748e-01,3.414599009538439311e-01,4.694103940912058154e-02,-2.334163763679277803e-01,2.414599009538439534e-01,5.568961598107865507e-01,7.554023265838623047e-01
2.023347999999999924e+00,1.226100707428955161e+00,2.573280248409436921e-01,9.150571823120117188e-01,2.398692673063435379e-02,1.634362434396305908e-01,1.027925563273808240e-01,1.742048354300528956e+00,2.444915869392826901e-01,2.852932317182421684e-03,1.367740805819795957e-01,-2.147343054567359688e-01,-1.808051443130585523e-01,1.006174489014644291e-01,-1.323782633259718011e-01,3.430574747568514438e-01,4.731448157411385913e-02,-2.323782633259718067e-01,2.430574747568514105e-01,5.564430023309635542e-01,7.451801300048828125e-01
2.049901000000000195e+00,1.272862517885532840e+00,2.678854411787146561e-01,9.158623218536376953e-01,2.760888168184462768e-02,1.437025714129409604e-01,9.963485909227465243e-02,1.749518940261046263e+00,2.621167781943591901e-01,3.334896266460418701e-02,2.239304332017195420e-01,-9.690728715249291580e-01,-1.093216492782941446e-01,1.235094035871251161e-01,-1.329784285608318073e-01,3.453517780691564010e-01,7.287778625616915529e-02,-2.329784285608318128e-01,2.453517780691563677e-01,5.551228668773200425e-01,7.444097995758056641e-01
2.072595000000000187e+00,1.304186376528007285e+00,2.747979188524307115e-01,9.169264435768127441e-01,2.996887775447841518e-02,1.178419371976022756e-01,9.759165674875669438e-02,1.737409495997038533e+00,2.424568820228508725e-01,3.903684765100479126e-02,2.645493197166074451e-01,-1.468465686735164200e+00,-1.238705474749608321e-01,1.102038700549802797e-01,-1.327341456115994633e-01,3.448468757542060281e-01,8.807612172029199993e-02,-2.327341456115994689e-01,2.448468757542060226e-01,5.549361925052637146e-01,7.418477535247802734e-01
2.100030999999999981e+00,1.347490197752120089e+00,2.852832248080635069e-01,9.187487959861755371e-01,2.944167558843594976e-02,7.540483955700882923e-02,9.491811185264298345e-02,1.773845253850117709e+00,2.618787357209157451e-01,3.340538218617439270e-02,-3.796581909157400612e-05,-1.355754132924599009e+00,-5.828119699667352882e-02,1.525002929515298367e-01,-1.338702035673892676e-01,3.415470416356789496e-01,1.108814411894394336e-01,-2.338702035673892732e-01,2.415470416356789440e-01,5.564119974273808999e-01,7.441891431808471680e-01
2.125732000000000177e+00,1.392125142536650317e+00,2.959239787099194330e-01,9.202578067779541016e-01,2.372848018127321490e-02,3.953977448520995530e-02,9.154212518156445988e-02,1.776514723351995784e+00,2.643841508753714820e-01,3.870367631316184998e-02,-8.601799536268267543e-02,-1.069559747750162382e+00,-7.645347570513894020e-02,2.140960220369539924e-01,-1.360737551408779944e-01,3.361691235787531706e-01,1.323877053416847027e-01,-2.360737551408779999e-01,2.361691235787531651e-01,5.566320618676200427e-01,7.465500831604003906e-01
2.150437999999999850e+00,1.422442684742431629e+00,3.030218944293596728e-01,9.210381507873535156e-01,1.813614052075950347e-02,2.285956371416597577e-02,8.942436299843037339e-02,1.778537253882506608e+00,2.732888859539840398e-01,2.358666434884071350e-02,-2.349413863704224448e-01,-7.327553981265194638e-01,-7.505218293331566981e-02,2.450517511275776827e-01,-1.380740179842264159e-01,3.333996703283207408e-01,1.450517511275776772e-01,-2.380740179842264215e-01,2.333996703283207075e-01,5.581862960304494470e-01,7.483013868331909180e-01
2.179361000000000104e+00,1.468509403269554037e+00,3.135497097643084041e-01,9.220298528671264648e-01,1.062316458484143140e-02,5.288481434528868874e-03,8.689643389766166237e-02,1.777147562908509837e+00,2.621830023273862831e-01,3.477385640144348145e-02,-1.491864036454647879e-01,-4.948838403125994656e-01,-1.033460700079082140e-01,2.561052399991841089e-01,-1.400647378210327920e-01,3.288861124081817189e-01,1.561052399991841311e-01,-2.400647378210327976e-01,2.288861124081817133e-01,5.580756107238566965e-01,7.495712041854858398e-01
2.200235999999999859e+00,1.483986696296599295e+00,3.170359569892846618e-01,9.223195910453796387e-01,8.293767568874257229e-03,1.067340106852610049e-03,8.611276191856354068e-02,1.775197464416808035e+00,2.664211322082724043e-01,2.469257265329360962e-02,-2.000206297283830814e-01,-4.228966817131457057e-01,-4.402974298117259822e-02,2.599892055917428779e-01,-1.407819905160980767e-01,3.279113376129098589e-01,1.599892055917428446e-01,-2.407819905160980822e-01,2.279113376129098534e-01,5.591179724442080223e-01,7.501608133316040039e-01
2.228654000000000135e+00,1.546542647390111602e+00,3.307390542556644664e-01,9.234380722045898438e-01,3.184269003376319178e-03,-9.630026878628239473e-03,8.281223704729434587e-02,1.778157690995040952e+00,2.699342732493198449e-01,1.679471507668495178e-02,-1.108690265906536465e-01,-1.386521430343251593e-01,-8.248569632981506139e-02,2.720611488981602433e-01,-1.422613149838767577e-01,3.250094108531643711e-01,1.720611488981602377e-01,-2.422613149838767632e-01,2.250094108531643378e-01,5.605583778468193890e-01,7.520051002502441406e-01
2.250018999999999991e+00,1.577975755788086909e+00,3.375087764892852338e-01,9.239956736564636230e-01,2.519648181223178157e-03,-1.180231051828650735e-02,8.131979935986755059e-02,1.765156551425550502e+00,2.707467422993155015e-01,2.379665710031986237e-02,-5.493877120699010297e-02,-7.249748081835707958e-02,-1.016984872734296580e-01,2.762741650695878515e-01,-1.424101213283535949e-01,3.239778172481244667e-01,1.762741650695878459e-01,-2.424101213283536005e-01,2.239778172481244611e-01,5.604892685057264456e-01,7.526648044586181641e-01
2.277552000000000021e+00,1.625192943094651232e+00,3.474933652131979578e-01,9.246317744255065918e-01,2.236625426264102906e-03,-1.307082138585524689e-02,7.895361453153326714e-02,1.750647588242367769e+00,2.720642490004731573e-01,1.960070617496967316e-02,2.198633370502937195e-02,-1.197222975178179890e-04,-1.007769416619679892e-01,2.787641227070445371e-01,-1.419956363551003742e-01,3.217009635175748228e-01,1.787641227070445593e-01,-2.419956363551003797e-01,2.217009635175747895e-01,5.613306988420361243e-01,7.528746128082275391e-01
2.302407999999999788e+00,1.656810178904638109e+00,3.541637284673885278e-01,9.251077771186828613e-01,2.834062626846378663e-03,-1.274837300586928457e-02,7.755798356909426872e-02,1.745021462901977349e+00,2.745307167731377840e-01,1.756519079208374023e-02,3.634970466924325461e-02,3.137569060985717639e-02,-6.595261639907629148e-02,2.777404154089140320e-01,-1.416274662794266004e-01,3.231012809278585585e-01,1.777404154089140542e-01,-2.416274662794266059e-01,2.231012809278585529e-01,5.619997165094604563e-01,7.526729106903076172e-01
2.327732999999999830e+00,1.688398522953191483e+00,3.607692842968132640e-01,9.256082177162170410e-01,3.347803582290210730e-03,-1.177160541160526819e-02,7.612243786986927496e-02,1.726940754229298491e+00,2.745652472388344090e-01,1.031726133078336716e-02,6.015927788407380954e-03,1.100092208050799381e-01,-1.007328894716598561e-01,2.823112695629756974e-01,-1.417760277840481586e-01,3.244977710923965253e-01,1.823112695629757196e-01,-2.417760277840481642e-01,2.244977710923964920e-01,5.628325396745876841e-01,7.537269592285156250e-01
2.350912000000000113e+00,1.735835766857543261e+00,3.707188919890945789e-01,9.262097477912902832e-01,4.479294559099894837e-03,-1.015824699458045544e-02,7.410791581706765996e-02,1.732010802108470360e+00,2.861911116920393128e-01,2.316290885210037231e-02,5.068345076755565587e-02,8.395542323433323462e-02,-1.002063643839436607e-01,2.819169160432206667e-01,-1.409998242790400647e-01,3.239381227945101749e-01,1.819169160432206889e-01,-2.409998242790400702e-01,2.239381227945101971e-01,5.629076808778161745e-01,7.535223960876464844e-01
2.374260000000000037e+00,1.767469045521715687e+00,3.772739596115463057e-01,9.265488386154174805e-01,5.047612590449110544e-03,-9.109802970959091084e-03,7.291118126746276573e-02,1.721227417454643360e+00,2.809674660212972408e-01,1.749416626989841461e-02,4.335929621226627256e-02,3.996161425990161359e-02,-5.322147428568359956e-02,2.810515114038144580e-01,-1.404887376988833425e-01,3.233976055503178793e-01,1.810515114038144802e-01,-2.404887376988833481e-01,2.233976055503178737e-01,5.636878130003905030e-01,7.532659769058227539e-01
2.399465999999999877e+00,1.814917907832380495e+00,3.871359931618035266e-01,9.269461035728454590e-01,5.999186406235318923e-03,-7.715989613727991525e-03,7.121847593763663831e-02,1.707481990627625512e+00,2.944924196746041001e-01,2.680226974189281464e-02,5.832851989291897021e-02,3.374521597987351074e-02,-1.983937192000137170e-02,2.804282572943556096e-01,-1.397114890652522423e-01,3.218910875633059776e-01,1.804282572943556040e-01,-2.397114890652522479e-01,2.218910875633059721e-01,5.637461981138219835e-01,7.530096769332885742e-01
2.425507000000000080e+00,1.862351460177725349e+00,3.969190913938263621e-01,9.271739125251770020e-01,6.408664274156478449e-03,-6.237175491515367654e-03,6.932921838804784187e-02,1.681975345681224532e+00,2.940635568516378195e-01,7.940676994621753693e-03,-4.259340314224080437e-02,9.947481377917516410e-02,-5.444628688816246370e-02,2.889424208541563344e-01,-1.403457585185672873e-01,3.261458891934751469e-01,1.889424208541563566e-01,-2.403457585185672929e-01,2.261458891934751414e-01,5.654597791159936548e-01,7.550930976867675781e-01
2.450031000000000070e+00,1.893965202933356462e+00,4.034800663719366742e-01,9.273139834403991699e-01,6.832278215536112184e-03,-5.657171228228063953e-03,6.833940212633105027e-02,1.688561760385559829e+00,3.025965532507136069e-01,6.998986937105655670e-03,1.829127777813314287e-02,6.510527197145141165e-02,-5.232617966303899915e-02,2.873008455240915748e-01,-1.397830585639726342e-01,3.246321800633932275e-01,1.873008455240915693e-01,-2.397830585639726397e-01,2.246321800633932220e-01,5.663418367365101735e-01,7.545905113220214844e-01
2.472919000000000089e+00,1.925554274586696479e+00,4.100002617741248523e-01,9.274158477783203125e-01,6.926228064859446358e-03,-5.064109569905994590e-03,6.725269997632987717e-02,1.672034784896211379e+00,2.954578125603303795e-01,1.670745015144348145e-02,2.109514808036500391e-02,-4.469993770694875336e-03,-2.867160916752388086e-02,2.831041129235725151e-01,-1.387641670666897309e-01,3.198912216753337368e-01,1.831041129235725373e-01,-2.387641670666897364e-01,2.198912216753337312e-01,5.660750252782349445e-01,7.534310817718505859e-01
2.497824000000000044e+00,1.972967988198851330e+00,4.197636227317722013e-01,9.275296330451965332e-01,7.106913282376892994e-03,-3.969669353825810987e-03,6.565303168790581623e-02,1.657873731233000081e+00,2.957853662206390566e-01,6.931866984814405441e-03,3.419882334295306497e-02,1.084700241580207752e-01,-4.303065870885934563e-02,2.887248418072458911e-01,-1.393042796423738516e-01,3.248985987125990738e-01,1.887248418072458855e-01,-2.393042796423738572e-01,2.248985987125990960e-01,5.674041172339180372e-01,7.548460960388183594e-01
2.526016999999999957e+00,2.020322932085741652e+00,4.295241119537185348e-01,9.274714589118957520e-01,7.186115013034871657e-03,-3.312196143937518045e-03,6.448648873044748875e-02,1.664214401076984151e+00,2.937606057627245582e-01,4.781359806656837463e-03,1.075154983791804138e-02,2.963764241461210730e-02,-4.182437727203099087e-02,2.911338376475045564e-01,-1.390369595167934014e-01,3.218449082820875606e-01,1.911338376475045786e-01,-2.390369595167934069e-01,2.218449082820875551e-01,5.685407114119407357e-01,7.552568912506103516e-01
2.548205999999999971e+00,2.051912575088489454e+00,4.360539766118688987e-01,9.273988604545593262e-01,7.389253063157272088e-03,-2.401394154242675327e-03,6.397035176862386763e-02,1.657017587231471634e+00,3.005640250750425402e-01,7.060206262394785881e-04,-2.085424946191187859e-02,5.670098284517340048e-02,-1.141888527976077719e-02,2.896313610410209960e-01,-1.391825203095050367e-01,3.277632419544463938e-01,1.896313610410209904e-01,-2.391825203095050423e-01,2.277632419544464160e-01,5.693853224539177083e-01,7.552113533020019531e-01
2.573881000000000085e+00,2.083466735255365077e+00,4.425318392883602625e-01,9.273082017898559570e-01,7.295204209672471671e-03,-2.019617704495324517e-03,6.322976583989792232e-02,1.652165280726719088e+00,3.044927736373299609e-01,1.227521430701017380e-02,1.802045573919851956e-02,1.957413564538080727e-02,-7.174808678914890159e-02,2.914569294703911462e-01,-1.386558905968211519e-01,3.198332291225399193e-01,1.914569294703911406e-01,-2.386558905968211575e-01,2.198332291225399138e-01,5.693116120787800050e-01,7.552747726440429688e-01
2.599762000000000128e+00,2.130806228249197520e+00,4.522971912052905497e-01,9.271602034568786621e-01,6.610978849957362298e-03,-1.269286680845249649e-03,6.225641579204466147e-02,1.629485082169572996e+00,3.084416655990067091e-01,1.644923724234104156e-02,-4.678272969405852105e-02,-2.514596251135612498e-02,-5.065540342899700621e-02,2.938441474690969835e-01,-1.389959471360689147e-01,3.225705157339923690e-01,1.938441474690969779e-01,-2.389959471360689203e-01,2.225705157339923634e-01,5.696359034409697042e-01,7.558910846710205078e-01
2.626443999999999779e+00,2.178099780884379388e+00,4.619868454485774323e-01,9.267584085464477539e-01,6.298788733951618708e-03,-7.448415186819268285e-04,6.136978138232040969e-02,1.623099241122512026e+00,3.100241295820138077e-01,-8.983618579804897308e-03,-3.479685883555967002e-02,3.680201157104782961e-02,-3.228625576730252689e-02,2.945099622099612846e-01,-1.391455503457962317e-01,3.260592475271327229e-01,1.945099622099612791e-01,-2.391455503457962373e-01,2.260592475271327173e-01,5.721229002463498192e-01,7.561461925506591797e-01
2.648235000000000117e+00,2.209594290428368524e+00,4.684662170594369734e-01,9.265469908714294434e-01,6.159079923545053396e-03,-5.318649058911883998e-04,6.080756996464220521e-02,1.618757474580956313e+00,3.155537177705348140e-01,8.277216693386435509e-04,-3.604290318569510626e-02,2.814572373960626955e-02,-2.983739932858475719e-02,2.955795986626685856e-01,-1.391184552317926426e-01,3.256794829105021938e-01,1.955795986626685801e-01,-2.391184552317926482e-01,2.256794829105022160e-01,5.722158649168094247e-01,7.563608884811401367e-01
2.674396999999999913e+00,2.241035909588140029e+00,4.749141728836482890e-01,9.262211918830871582e-01,6.300207967549647549e-03,-5.540482392298873293e-04,5.996388117542661433e-02,1.622604582419114649e+00,3.104614764000329652e-01,2.440672687953338027e-04,3.363492613647500740e-02,-9.168331389731996725e-03,-4.699878064743595596e-02,2.888855093869214796e-01,-1.378309267436024221e-01,3.179414338515648142e-01,1.888855093869214463e-01,-2.378309267436024277e-01,2.179414338515648364e-01,5.730167708064656251e-01,7.545199394226074219e-01
2.699961000000000055e+00,2.288191781994272755e+00,4.846395135426572187e-01,9.257523417472839355e-01,6.211815647813756502e-03,-3.351737501824381127e-04,5.933208834785075325e-02,1.610961805064522245e+00,3.044771926980570642e-01,-2.308956813067197800e-03,1.398282779756498256e-02,-7.488873483953974175e-03,-9.157830596842102266e-03,2.860842535501840200e-01,-1.372991721166418044e-01,3.160221912781645548e-01,1.860842535501840145e-01,-2.372991721166418100e-01,2.160221912781645770e-01,5.739138391412895723e-01,7.538068294525146484e-01
2.723964000000000052e+00,2.319602265359467008e+00,4.911059567585108754e-01,9.252949357032775879e-01,5.966441679395786436e-03,6.950559419727220245e-05,5.853380053098966584e-02,1.599205489537015801e+00,3.097317916955558692e-01,-9.982199408113956451e-03,-4.355043322219210450e-02,8.417429801857462257e-02,-4.773150813710387574e-02,2.955869978687537536e-01,-1.387154940718122176e-01,3.262357228961463296e-01,1.955869978687537480e-01,-2.387154940718122231e-01,2.262357228961462963e-01,5.750688154645670069e-01,7.562870979309082031e-01
2.750480000000000036e+00,2.366660659811976153e+00,5.008786096321830028e-01,9.247450828552246094e-01,6.208669544888302874e-03,5.169687349151352862e-04,5.760594004407670887e-02,1.604655618337700540e+00,3.163302990327214181e-01,-2.122489269822835922e-03,-2.028391239188332903e-02,6.112932749677313891e-03,-6.101919807878020130e-02,2.964850808900818535e-01,-1.383259367572064746e-01,3.225772088773194435e-01,1.964850808900818757e-01,-2.383259367572064802e-01,2.225772088773194102e-01,5.757083318132056871e-01,7.563474178314208984e-01
2.773530000000000051e+00,2.398020476430783088e+00,5.073016110611939800e-01,9.243007898330688477e-01,6.662443463048795152e-03,7.297603485998394035e-04,5.703783624216773873e-02,1.602967271445685515e+00,3.147978184259945800e-01,4.040464758872985840e-03,3.354995707407793307e-03,-7.187203347585068881e-04,-7.800342897199642744e-03,2.921115752307659186e-01,-1.375746180041650668e-01,3.185733271094222108e-01,1.921115752307658853e-01,-2.375746180041650724e-01,2.200584438869190029e-01,5.760416331029660775e-01,7.552173137664794922e-01
