timestamp,x,y,z,roll,pitch,yaw,vx,vy,vz,p,q,r,psp,qsp,rsp,pres,qres,rres,thrust_sp, thrust_res
0.000000000000000000e+00,-1.075188577052189030e-02,-3.078800996503895486e-03,1.000751852989196777e+00,1.008086246017978090e-02,-2.261379780707839515e-03,-1.619490626574887583e-03,-1.496912622892037628e-03,-1.544582515643982967e-02,6.159888580441474915e-04,-4.251685530633183933e-03,-8.313708250095631219e-03,-2.141843390568909378e-02,-2.932439932082827050e-01,-1.919120114283985878e-01,2.596187209800921922e-02,-2.132484018802642822e-01,-1.692177057266235352e-01,3.045802116394042899e-02,5.180745475230762453e-01,3.332402706146240234e-01,-3.567603826522827148e-01,1.127067614945104594e+02,2.475998401641845564e-02
2.368500000000000119e-02,-1.074200919638199775e-02,-3.380586656057350901e-03,1.000776410102844238e+00,9.786160007519598136e-03,-2.015018936851076248e-03,-1.430934779575877835e-03,5.811523919848696207e-03,-3.688792623241642522e-03,-1.463322900235652924e-02,-5.398160339804709135e-02,5.794024157264595493e-02,1.302574612479473308e-02,-2.796279189553391165e-01,-1.807437747787274396e-01,2.131420080206631804e-02,-2.131177425384521429e-01,-1.657557249069213923e-01,2.529065608978271415e-02,5.187062397372336209e-01,3.064609766006469727e-01,-7.758466005325317383e-01,1.099379803899057038e+02,2.475998401641845564e-02
5.083100000000000118e-02,-1.056984426097155351e-02,-4.254718773410995185e-03,1.000728130340576172e+00,9.530525195351491688e-03,-2.390452374092300047e-03,-1.259247840688756470e-03,1.091767816767173944e-02,-1.037082035723568135e-02,-4.788307473063468933e-03,4.452593951284169842e-03,-6.654069893050681972e-02,3.021016781595085507e-02,-2.870025975866549728e-01,-1.620230454973219658e-01,-4.536066007507853076e-02,-2.144327759742736816e-01,-1.477520227432251032e-01,-4.185905456542968889e-02,5.156134663012902353e-01,1.787925958633422852e-01,-1.055766224861145020e+00,7.638027062020340452e+01,-2.761387825012207118e-03
7.405399999999999483e-02,-1.049690668127913756e-02,-4.547859385220406371e-03,1.000710129737854004e+00,9.378826459271877303e-03,-2.156511986704634509e-03,-1.391692101983666233e-03,-5.445349866358495730e-04,-8.988931340505969259e-03,-1.096064783632755280e-02,-1.373281304358876451e-02,2.888827005652919167e-03,9.356356551097264745e-03,-2.841169046262275177e-01,-1.801777302106649103e-01,-9.128157332836249471e-03,-2.144003212451934814e-01,-1.574513912200927734e-01,-5.270755290985106901e-03,5.171049471923305774e-01,2.338449954986572266e-01,-8.933104276657104492e-01,8.944886771016066973e+01,-2.761387825012207118e-03
1.073660000000000031e-01,-1.022960075471834873e-02,-5.329132611057031677e-03,1.000448226928710938e+00,7.300061445788109601e-03,-4.986959327284434806e-04,-1.584983647372713257e-03,1.530134540746798388e-02,-2.501610821996957945e-03,-2.105856500566005707e-02,-1.216970276633501380e-01,9.627578823728290269e-02,2.744540812303049651e-02,-2.668727877485555511e-01,-1.094560734046582801e-01,-3.988024788613046823e-02,-2.151948988437652477e-01,-1.121193766593933105e-01,-3.543848991394042691e-02,5.169481814681351484e-01,1.834943294525146484e-01,-9.281641244888305664e-01,1.250132665674451999e+02,-2.761387825012207118e-03
1.229309999999999986e-01,-1.010657574457583981e-02,-5.524881428308058007e-03,1.000289797782897949e+00,5.853348351080523565e-03,7.823049576232143920e-04,-1.583820107060893243e-03,1.800771289895409036e-02,2.011921596419050280e-03,-3.066118620336055756e-02,-1.901563887110058471e-01,1.575605295625613633e-01,1.706379659424590856e-02,-2.549987203038995287e-01,-8.064847961302656909e-02,-2.264250236633095006e-02,-2.152647972106933594e-01,-9.158177375793456754e-02,-1.819463968276977331e-02,5.180816334784890120e-01,2.043431997299194336e-01,-1.329275250434875488e+00,9.715457101855317035e+01,-2.761387825012207118e-03
1.511750000000000038e-01,-9.815487489881639938e-03,-5.822449280955359179e-03,9.997488856315612793e-01,1.873462171085005321e-03,3.682224042682591403e-03,-1.314097611279042756e-03,1.095451280067867225e-02,4.640336883336094488e-03,-3.489737957715988159e-02,-2.088605542726789943e-01,1.496044216014050798e-01,1.057196698685730109e-02,-2.279932409205753796e-01,-9.166453246682582101e-04,-3.415806450019022444e-02,-2.153739452362060380e-01,-2.484619617462158203e-02,-3.046928644180297782e-02,5.176906527254002688e-01,1.626980304718017578e-01,-7.486056089401245117e-01,9.934854389317715118e+01,-2.761387825012207118e-03
1.730500000000000094e-01,-9.262925623384474227e-03,-5.756770405369828446e-03,9.989818930625915527e-01,-3.330743026194352401e-03,7.197362015937569524e-03,-1.069430187150237702e-03,1.552308619822280467e-02,9.749503810894592434e-03,-5.353386327624320984e-02,-3.016270254423609742e-01,1.874644728472871502e-01,5.089244150089174135e-02,-1.856124377853474172e-01,1.402099830109405088e-01,-8.617439475734516019e-02,-2.105671584606170488e-01,8.839348554611205222e-02,-8.321149349212646207e-02,5.166503378810214375e-01,2.743351459503173828e-02,-1.000619292259216309e+00,3.830411067678171122e+01,-2.761387825012207118e-03
1.969950000000000034e-01,-8.384306642300684217e-03,-5.522631166489037902e-03,9.975026845932006836e-01,-1.140907987207749781e-02,1.214007343009493312e-02,-6.163757585538395941e-04,1.768689340804504781e-02,1.765857041419389983e-02,-5.692356079816818237e-02,-2.436023964161655453e-01,1.614161409079994114e-01,1.438015231286075141e-02,-8.895505471175281509e-02,2.787257949126401013e-01,-1.195381410156770852e-01,-1.721522569656372126e-01,1.931483745574951172e-01,-1.179969549179077093e-01,5.095177989758271631e-01,-3.756006956100463867e-01,-7.382036447525024414e-01,1.210015959395732352e+02,-2.761387825012207118e-03
2.260230000000000017e-01,-7.106574912609362263e-03,-4.895356058277892074e-03,9.949535727500915527e-01,-2.193816400926355131e-02,1.687441713775195140e-02,1.183922942973301452e-04,2.082227515328245043e-02,2.457239552341840966e-02,-7.374028116464614868e-02,-2.038432858291329697e-01,2.763830439892488514e-02,2.110696876842323849e-02,2.391497492790222168e-01,3.045074760913848988e-01,-1.691599833572521028e-01,1.391497492790222112e-01,2.045074760913848932e-01,-1.700006961822509710e-01,5.057754771456675069e-01,-6.542356014251708984e-01,-3.732216358184814453e-02,-8.735526446539002166e+01,-2.761387825012207118e-03
2.500580000000000025e-01,-5.955951852734900180e-03,-4.676686337470204770e-03,9.926552772521972656e-01,-2.905001525864188763e-02,1.803155515902576944e-02,1.321943221423740357e-03,2.305101703706550695e-02,3.845263483277780447e-02,-8.422293514013290405e-02,-2.328821105013403336e-01,3.548529162664566805e-02,3.054427746925651721e-02,2.890635132789611816e-01,3.034545123577118142e-01,-1.931348652919974429e-01,1.890635132789611761e-01,2.034545123577117809e-01,-1.975399017333984431e-01,5.062714380726701657e-01,-6.831924915313720703e-01,-1.387823700904846191e+00,1.391514849418047959e+02,-2.761387825012207118e-03
2.743720000000000048e-01,-4.818867454189221071e-03,-4.446609787097554473e-03,9.900440573692321777e-01,-3.331492385779895316e-02,1.428411215542202406e-02,3.554027183863097024e-03,1.556262214443728496e-02,3.211570468216069785e-02,-8.314891904592514038e-02,-6.424982506043717956e-02,-2.180566863023640778e-01,6.178578123892279617e-02,2.911196231842040905e-01,2.908149807816800547e-01,-1.905709830522229198e-01,1.911196231842040849e-01,1.918993771076202282e-01,-2.011749744415283203e-01,5.062897884880125376e-01,-6.928695440292358398e-01,-1.459544539451599121e+00,1.181161961850796871e+02,-7.464432716369628559e-03
2.974359999999999782e-01,-4.106114724183618572e-03,-4.168379675730816622e-03,9.881689548492431641e-01,-3.413817739244372207e-02,9.965731798372567951e-03,5.684865978132307672e-03,1.531414195394725612e-02,4.480213619315173701e-02,-9.683018922805786133e-02,1.276334189189925507e-02,-2.379785525605835894e-01,1.271891160184786540e-01,2.984153389930724876e-01,2.500383069726487273e-01,-1.849024832557133458e-01,1.984153389930725098e-01,1.778855323791503906e-01,-2.012818336486816295e-01,5.075374087115719357e-01,-6.938716173171997070e-01,-1.065084576606750488e+00,1.003771635519918988e+02,-7.464432716369628559e-03
3.246689999999999854e-01,-3.136669978814292988e-03,-3.584096899645282473e-03,9.850803613662719727e-01,-3.075834650795833056e-02,2.719440398957218008e-04,9.491889480884925512e-03,2.341041196920582920e-02,4.505573732430809275e-02,-1.057690680027008057e-01,2.016861647694935811e-01,-3.857498069829524701e-01,1.702010768081254066e-01,2.926456212997436412e-01,-1.012532486028556999e-02,-1.685511400695899054e-01,1.926456212997436357e-01,-2.623000144958495886e-02,-1.952194333076477106e-01,5.087838905403501144e-01,-6.813776493072509766e-01,-5.648127794265747070e-01,9.968078478497407957e+01,-7.464432716369628559e-03
3.488269999999999982e-01,-2.068583717483257842e-03,-2.902417989663121003e-03,9.816040396690368652e-01,-2.420353813585708613e-02,-1.003258869823575594e-02,1.351760545311800690e-02,1.617902850786130317e-02,5.847686689280231359e-02,-1.185001656413078308e-01,2.735769061208178643e-01,-3.353786279300505213e-01,1.161005521357109244e-01,2.686894178390503152e-01,-2.558805154027877782e-01,-1.570497215544550962e-01,1.686894178390502819e-01,-1.989941954612731989e-01,-1.946722626686096247e-01,5.108793093111502204e-01,-6.410389542579650879e-01,-1.105474114418029785e+00,9.426709488655193070e+01,-7.464432716369628559e-03
3.755430000000000157e-01,-1.337335132639882627e-03,-2.371748544406719270e-03,9.790294766426086426e-01,-1.886108203886091919e-02,-1.627608811383018939e-02,1.623210883580863961e-02,1.964212553922269761e-02,5.450234654338677320e-02,-1.371280997991561890e-01,2.682989271686279098e-01,-2.763539938279163666e-01,1.632696911535155559e-01,6.848890781402589001e-02,-2.974762192527020122e-01,-1.206840835133435319e-01,-3.151109218597412248e-02,-2.042411684989929033e-01,-1.658554673194885254e-01,5.174683876127820215e-01,-3.802675008773803711e-01,-8.438299894332885742e-01,1.131552453757918357e+02,-7.464432716369628559e-03
3.983320000000000194e-01,-1.640740284261820098e-04,-1.368015639277689582e-03,9.746692776679992676e-01,-1.036783150586116121e-02,-2.200285817298919255e-02,1.990951228033147405e-02,2.284607183325543245e-02,6.841682678290304798e-02,-1.556432545185089111e-01,2.959423776676183282e-01,-9.072146953755338972e-02,1.274675074925206986e-01,-3.448914289474486194e-02,-3.046873807907104492e-01,-6.994606028503100315e-02,-1.344891428947448675e-01,-2.046873807907104437e-01,-1.255952239036559892e-01,5.222620035549541129e-01,-2.213450074195861816e-01,-1.305984616279602051e+00,8.155591476567227005e+01,-7.464432716369628559e-03
4.243219999999999770e-01,6.758281919295598726e-04,-5.726504984670164299e-04,9.714111089706420898e-01,-5.277897966692742492e-03,-2.227419453736234622e-02,2.219143157097604874e-02,2.789395572881029489e-02,6.236992347040338364e-02,-1.704456061124801636e-01,2.157448057700596111e-01,6.126637889659636987e-02,1.218784382643984393e-01,-1.019955542889478955e-01,-3.037137031555176003e-01,2.187594168611496637e-02,-1.745478272438049372e-01,-2.037137031555175670e-01,-4.027558565139770230e-02,5.254562113055566419e-01,-1.292418837547302246e-01,-1.023403525352478027e+00,7.881498034231366034e+01,-7.464432716369628559e-03
4.503599999999999826e-01,2.430265202391463861e-03,6.946634584948461338e-04,9.660425186157226562e-01,4.374538960625056904e-04,-1.730275376144541077e-02,2.501334751917404231e-02,3.387375369552987625e-02,8.110632454661464985e-02,-1.903441846370697021e-01,1.448575912148741263e-01,2.584004259798270420e-01,9.808629886493683281e-02,-1.373578564076993191e-01,-2.875065712815253471e-01,2.055073560706216496e-01,-1.886886656284332275e-01,-2.002992153167724443e-01,1.353048563003539928e-01,5.303553050424818505e-01,2.676892280578613281e-02,-8.076113462448120117e-01,-3.668614131524324051e+01,-7.464432716369628559e-03
4.748910000000000076e-01,3.740752812657694576e-03,1.633175135625413409e-03,9.622058272361755371e-01,2.467059267165877274e-03,-1.200285738664885749e-02,2.630644195969010155e-02,3.564294504035935007e-02,7.344750723500034773e-02,-1.978378295898437500e-01,7.294938848508160378e-02,2.752947281164158655e-01,5.649343706845257745e-02,-1.620647920965674060e-01,-2.460451763231491229e-01,2.344138937658583333e-01,-1.925138354301452470e-01,-1.946110367774963323e-01,1.606489956378936712e-01,5.323396735724125195e-01,7.925748825073242188e-02,-9.181071519851684570e-01,1.772461546978772446e+02,-7.464432716369628559e-03
4.988190000000000124e-01,5.762787025626759513e-03,3.213796505282578465e-03,9.560288786888122559e-01,2.978435440295583610e-03,-1.912567453810298801e-03,2.683296316158481284e-02,3.839974855804676596e-02,9.045354772398483956e-02,-2.203909605741500854e-01,-6.240121563734857962e-02,4.006164633121665486e-01,2.461856501382746198e-03,-1.307432893600408985e-01,-1.297990984868908626e-01,2.272532785647025100e-01,-1.730357050895690862e-01,-1.473148941993713268e-01,1.521668314933776744e-01,5.345044813793716765e-01,7.127785682678222656e-02,-1.415497064590454102e-01,-7.928990388587216387e+01,-7.464432716369628559e-03
5.223109999999999697e-01,7.140985831919076030e-03,4.429569533194850639e-03,9.517028331756591797e-01,1.913160445107687157e-03,4.536636148470885033e-03,2.550417987761258859e-02,4.849665626233706089e-02,8.093590845329590167e-02,-2.227747589349746704e-01,-1.129683916946959688e-01,3.437532363707025418e-01,-9.289345487685808644e-02,-1.243119927229517918e-01,-2.362088776895879261e-03,2.079163742155717698e-01,-1.649639725685119462e-01,-6.970399618148803711e-02,1.366509854793548639e-01,5.352420992435739100e-01,7.199931144714355469e-02,-1.603797316551208496e+00,8.078573580467246984e+01,-7.464432716369628559e-03
5.494550000000000267e-01,9.257409760638620963e-03,6.619959470422469121e-03,9.449514746665954590e-01,-1.734796348112026656e-03,1.374934452054499268e-02,2.326715843123854793e-02,4.397321737390485347e-02,9.704041279910877171e-02,-2.396386414766311646e-01,-1.699153457823330271e-01,2.926949907342371593e-01,-5.260567097724196117e-02,3.744304833518952158e-04,2.586553633213043435e-01,1.861010702013213558e-01,-7.913966774940491000e-02,1.586553633213043102e-01,1.211864590644836370e-01,5.350741934650088405e-01,-4.563093185424804688e-02,-1.329867482185363770e+00,9.752037545993154311e+01,-7.464432716369628559e-03
5.726170000000000426e-01,1.075910817507457276e-02,8.593643839767664896e-03,9.406039118766784668e-01,-4.328958590747642582e-03,1.824602879887948781e-02,2.138972224301613489e-02,4.485106155566252056e-02,9.616504609851789231e-02,-2.303482294082641602e-01,-1.385843513115238568e-01,2.262324859685787837e-01,-1.052316647996053289e-01,1.712606443393165923e-01,2.938275992870330589e-01,8.766663965784454726e-02,7.611926794052123468e-02,1.938275992870330811e-01,2.797588706016540527e-02,5.318666827246845141e-01,-2.171059846878051758e-01,-1.249859690666198730e+00,8.930171811468191834e+01,-7.464432716369628559e-03
5.983549999999999702e-01,1.296765702953076894e-02,1.162562897267764399e-02,9.339919090270996094e-01,-8.259347161991330288e-03,2.247779146204509360e-02,1.844777630749202396e-02,4.450388918888397577e-02,9.128559054910466430e-02,-2.296618372201919556e-01,-1.426514098413984299e-01,7.319404954744576641e-02,-8.772427537426330524e-02,2.662162780761718750e-01,3.072789847850799783e-01,-1.780031548490197679e-02,1.662162780761718694e-01,2.072789847850799450e-01,-6.938055753707884910e-02,5.288863092492710472e-01,-4.185429811477661133e-01,-9.042128324508666992e-01,8.887563042368900312e+01,-7.464432716369628559e-03
6.239630000000000454e-01,1.437785125100098788e-02,1.368585634414642462e-02,9.299224615097045898e-01,-9.849510262292408835e-03,2.228382920736771133e-02,1.694619813860028315e-02,4.766865996432934766e-02,1.019076478266420227e-01,-2.255749404430389404e-01,-4.451585007978021979e-02,-6.985240693461393369e-02,-7.556953006571534570e-02,2.829080224037170410e-01,3.079453349113464578e-01,-4.566223361919886925e-02,1.829080224037170355e-01,2.079453349113464244e-01,-9.303853511810301902e-02,5.284300700256396865e-01,-4.585703611373901367e-01,-8.785279989242553711e-01,3.199750673306920845e+01,-7.464432716369628559e-03
6.513449999999999518e-01,1.577045321739293376e-02,1.580557773464249388e-02,9.259613752365112305e-01,-9.959458920138421212e-03,1.915282841892174126e-02,1.593767065376130998e-02,4.361855202056500597e-02,1.020317163409283218e-01,-2.188119292259216309e-01,4.026312433240832739e-03,-1.689361115261184820e-01,-5.181349427908430588e-02,2.861136198043823242e-01,3.045946657657623291e-01,-4.356527081366157184e-02,1.861136198043823187e-01,2.045946657657623236e-01,-8.812952041625976562e-02,5.279284060301908665e-01,-4.895055294036865234e-01,-1.138080954551696777e+00,7.790099174833923712e+01,-7.464432716369628559e-03
6.759389999999999565e-01,1.648613130576814453e-02,1.786272488758361421e-02,9.221360087394714355e-01,-7.889491608423651950e-03,1.400110740779503260e-02,1.570117144964633046e-02,4.733452197487197921e-02,9.683334273710547668e-02,-2.106352001428604126e-01,1.631173003332907490e-01,-3.189678546015332072e-01,3.332475662178289999e-02,2.671710014343261497e-01,2.926016867160797230e-01,-1.427163106554282107e-02,1.671710014343261719e-01,1.926016867160797175e-01,-5.813637971878051619e-02,5.283811099084739782e-01,-4.620155096054077148e-01,-1.110407710075378418e+00,1.003848338544298286e+02,-7.464432716369628559e-03
6.977670000000000261e-01,1.720469542620631578e-02,1.993486925307090193e-02,9.185560941696166992e-01,-3.946444103824308866e-03,8.096029748850375185e-03,1.546640754769833259e-02,3.919976247925444773e-02,1.003003705662338235e-01,-2.018870264291763306e-01,2.461466494175666431e-01,-3.164681070809519658e-01,-5.004107547406479173e-02,1.664881706237792969e-01,2.145806723111226555e-01,1.038127257686045635e-01,6.648817062377929132e-02,1.256195783615112194e-01,6.066175103187560619e-02,5.305391084851984740e-01,-3.377698063850402832e-01,-1.517404317855834961e-01,-9.678699072799059167e+00,-7.464432716369628559e-03
7.257069999999999910e-01,1.832828016816560879e-02,2.306225386680895578e-02,9.132480025291442871e-01,3.147281095683086925e-03,-1.626438261080664915e-03,1.600843812009476383e-02,4.609545958883380645e-02,9.933776539698159491e-02,-2.095315605401992798e-01,2.101244365832508343e-01,-2.958131375032418409e-01,2.170144028405370711e-04,-7.514587307983826292e-02,-5.834702589643431941e-02,1.787722669846277534e-01,-1.334498763084411566e-01,-9.132184982299804132e-02,1.340559482574462946e-01,5.359454098804848909e-01,-1.064807772636413574e-01,-1.112188935279846191e+00,9.916313840815715253e+01,-7.464432716369628559e-03
7.494929999999999648e-01,1.907861381530911310e-02,2.514887838102760134e-02,9.098005890846252441e-01,8.860008778965602905e-03,-8.516794641674874100e-03,1.626375899314584650e-02,4.454465885532677555e-02,1.035938914893786145e-01,-2.108646929264068604e-01,3.183776754157123801e-01,-3.401528850308477292e-01,1.603688635320337647e-02,-1.429672188469748861e-01,-1.624125490566652452e-01,1.961691170922612304e-01,-1.687992990016937145e-01,-1.492874264717101995e-01,1.505670189857482855e-01,5.392911556285084895e-01,4.467260837554931641e-02,-7.749255895614624023e-01,1.291335235427420400e+02,-7.464432716369628559e-03
7.762289999999999468e-01,1.987253211993468549e-02,2.883321006082898222e-02,9.046908617019653320e-01,1.697696678738345663e-02,-1.752205044900323472e-02,1.497948599208554117e-02,3.761021539170088246e-02,9.910395783857429974e-02,-2.089378535747528076e-01,2.822738463996388170e-01,-2.961915115430772127e-01,-5.806717897708670723e-02,-2.287243417633323950e-01,-2.672261721998233086e-01,2.140389800858326919e-01,-2.002365767955779918e-01,-1.912635684013366533e-01,1.716095924377441240e-01,5.401917225796420974e-01,6.703257560729980469e-02,-1.173608660697937012e+00,1.095071047363046262e+02,-7.464432716369628559e-03
8.004470000000000196e-01,2.058027218660785085e-02,3.285336064494594893e-02,8.996435403823852539e-01,2.184081197644001035e-02,-2.321023231611585302e-02,1.262529363587316066e-02,4.694695594039616227e-02,1.088414356745288220e-01,-2.224584370851516724e-01,7.874348834941426178e-02,-5.896072778785836632e-02,-9.518008512866879545e-02,-2.500327768759438851e-01,-2.922702193260192649e-01,2.041625333280528143e-01,-2.001086354255676159e-01,-1.922702193260192871e-01,1.679971039295196367e-01,5.410961180025247730e-01,2.727115154266357422e-02,-4.172073602676391602e-01,-1.417328712687937831e+01,-7.464432716369628559e-03
8.267889999999999961e-01,2.140535288540463058e-02,3.698081279796731902e-02,8.943314552307128906e-01,2.216166494691950567e-02,-2.412216994098681511e-02,9.447117197785546289e-03,5.956821233933376480e-02,1.128991687756434881e-01,-2.278595268726348877e-01,-2.090130994432782066e-02,6.704929309884935084e-04,-1.058592567549986874e-01,-2.451965766565707139e-01,-2.891411542892455833e-01,1.918393554246669575e-01,-1.975941538810729869e-01,-1.891411542892456055e-01,1.645706892013549805e-01,5.417519388562686000e-01,4.402041435241699219e-03,-1.007438063621520996e+00,1.198741502736575626e+02,-7.464432716369628559e-03
8.502499999999999503e-01,2.202974459068562929e-02,3.981739125047303873e-02,8.907241821289062500e-01,2.014953014531917566e-02,-2.103094401846350436e-02,6.861645186299998415e-03,4.308949600305268801e-02,1.165372962749082336e-01,-2.334671169519424438e-01,-1.357848381945242489e-01,1.801188872107250261e-01,-1.493503656253437617e-01,-2.256432899725900054e-01,-2.833709885284139141e-01,1.857287198368841041e-01,-1.954266071319580023e-01,-1.875956654548645020e-01,1.657785058021545299e-01,5.428069912610162806e-01,9.774684906005859375e-03,-6.018627882003784180e-01,4.284756617305252746e+01,-7.464432716369628559e-03
8.726960000000000273e-01,2.274879009791672471e-02,4.284747169588650623e-02,8.869447708129882812e-01,1.670796536677241276e-02,-1.676721305822526098e-02,4.166982461921949973e-03,5.197032023441813808e-02,1.112869954880566364e-01,-2.314323186874389648e-01,-1.840774640886520264e-01,2.239926077708603303e-01,-1.192220827714724346e-01,-1.926595684368517247e-01,-2.297481778406126052e-01,1.703796052102585223e-01,-1.827288150787353405e-01,-1.707257866859435980e-01,1.583056032657623180e-01,5.437485861384112606e-01,3.812777996063232422e-02,-5.858229398727416992e-01,4.116229554252733891e+01,-7.464432716369628559e-03
8.983750000000000346e-01,2.398975054985262589e-02,4.779746506025570052e-02,8.817279338836669922e-01,1.007371694285804503e-02,-8.152566925791138175e-03,2.236329585978899797e-04,5.313765118520803049e-02,1.194131821123861487e-01,-2.291077971458435059e-01,-2.414493283063013640e-01,3.162797543695947677e-01,-1.762321764348107611e-01,-7.920638823464393186e-02,-1.028525868412866751e-01,1.071357352203241436e-01,-1.225524187088012640e-01,-9.997522830963134766e-02,1.064928889274597140e-01,5.415714211996212057e-01,-1.125801205635070801e-01,-9.989255666732788086e-01,1.260373851315969205e+02,-7.464432716369628559e-03
9.236560000000000326e-01,2.520224140035943333e-02,5.269713254874609787e-02,8.765712380409240723e-01,2.884274065873578333e-03,8.496009283636141163e-04,-3.737620459537332757e-03,5.476402856479757608e-02,1.170939587311317642e-01,-2.232523709535598755e-01,-2.361327903023336117e-01,2.916348992448798971e-01,-1.283811928199676822e-01,1.659047388196475126e-01,1.673706798892604375e-01,4.084258853066820988e-02,7.518918514251708707e-02,1.101417124271392850e-01,5.155164599418639998e-02,5.391239119532938995e-01,-2.632740736007690430e-01,-9.336024522781372070e-01,1.913575714099336835e+02,-7.464432716369628559e-03
9.512260000000000160e-01,2.649029267182148942e-02,5.763533870655231095e-02,8.718397617340087891e-01,-3.237007049057804772e-03,9.048146796002409786e-03,-7.504627151083530928e-03,4.350677088821289229e-02,1.244102079874756933e-01,-2.215323001146316528e-01,-1.839090854713680279e-01,2.937975766455084847e-01,-7.686729060915853395e-02,2.866662979125976785e-01,2.890190780162811279e-01,-9.398174337256935684e-02,1.866662979125976451e-01,1.890190780162811224e-01,-7.263679504394530972e-02,5.367780774614531181e-01,-4.229001998901367188e-01,-9.248203039169311523e-01,8.110439828039940835e+01,-7.464432716369628559e-03
9.749649999999999705e-01,2.675523294418146944e-02,6.080768569552660874e-02,8.688801527023315430e-01,-5.900801579312554314e-03,1.287081330179051797e-02,-9.737735810901796199e-03,4.924589575904406852e-02,1.212050580060713423e-01,-2.115947902202606201e-01,-1.145995615736248724e-01,1.587316239030207021e-01,-1.234076062498263571e-01,2.997063398361206055e-01,3.032955467700958474e-01,-1.398397606713278063e-01,1.997063398361205999e-01,2.032955467700958141e-01,-1.122231602668762179e-01,5.357948429868757412e-01,-4.668914079666137695e-01,-1.093059420585632324e+00,7.694522288721184111e+01,-7.464432716369628559e-03
9.979230000000000045e-01,2.714179074015606735e-02,6.553794265514563400e-02,8.649654984474182129e-01,-5.705082364207964343e-03,1.413109655168320877e-02,-1.165294893961147868e-02,3.999392858674596235e-02,1.211372435768342110e-01,-1.836435049772262573e-01,7.405739900988420055e-02,-2.607699713993512358e-02,-6.318692891521514310e-02,3.020932912826538308e-01,3.068538188934326061e-01,-1.546506118809247154e-01,2.020932912826537975e-01,2.068538188934326005e-01,-1.216439723968505832e-01,5.328853453303720178e-01,-5.482646822929382324e-01,-7.852908372879028320e-01,6.048307362889043048e+01,-7.464432716369628559e-03
1.026005999999999974e+00,2.727705982634785406e-02,6.859310484778181893e-02,8.627179265022277832e-01,-2.651753527747531623e-03,1.139854599577860839e-02,-1.183127831224726687e-02,4.251568289458671629e-02,1.192378998647634220e-01,-1.714115887880325317e-01,1.679235622119463756e-01,-2.110030604991815772e-01,1.531642847105962532e-02,2.995571374893188366e-01,3.049711763858795055e-01,-1.287250042887028711e-01,1.995571374893188310e-01,2.049711763858794999e-01,-9.517503976821899137e-02,5.325817484787117584e-01,-5.410810708999633789e-01,-9.366738796234130859e-02,-8.107048639117029154e+01,7.059216499328613281e-03
1.049395000000000078e+00,2.733506971328526075e-02,7.010668384845286649e-02,8.616690635681152344e-01,-2.211624373687012411e-04,9.273784212053381992e-03,-1.187288633568698605e-02,3.467117832376620523e-02,1.223165340010034519e-01,-1.714915782213211060e-01,2.698694726811647349e-01,-2.219847140181680778e-01,-3.481537023257941232e-02,2.946789860725402832e-01,2.988174378871917836e-01,-1.081320791328435199e-01,1.946789860725402777e-01,1.988174378871917780e-01,-7.446877956390381137e-02,5.328759679550060246e-01,-5.449636578559875488e-01,-1.067581772804260254e+00,1.049357069361392831e+02,7.059216499328613281e-03
1.074405000000000054e+00,2.744123712165986995e-02,7.308112015758579105e-02,8.596727848052978516e-01,4.904171579856035287e-03,4.194709023644271895e-03,-1.137548309588994923e-02,2.504871373875771842e-02,1.132987949603107697e-01,-1.605913639068603516e-01,2.546936843416319762e-01,-2.775182379054745851e-01,3.469753707373126467e-02,2.496661097255541140e-01,2.332161002265684402e-01,-2.883361194241559206e-02,1.593232154846191406e-01,1.716919898986816462e-01,3.335112333297729579e-03,5.327155860517711616e-01,-5.332894325256347656e-01,-1.170034527778625488e+00,9.659936543149034094e+01,7.059216499328613281e-03
1.103021000000000029e+00,2.728151567541961184e-02,7.740597742701933737e-02,8.566472530364990234e-01,1.409727173290319102e-02,-4.733638728851685684e-03,-1.061890574941097912e-02,3.324939757169388665e-02,1.239624196076596074e-01,-1.661637723445892334e-01,2.827621640617419274e-01,-3.028533341711584503e-01,4.744937962979021290e-02,3.274572216668199948e-02,1.155811320723347004e-02,6.240517657466289336e-02,-9.896761178970337261e-03,8.755803108215331598e-04,9.222287535667418601e-02,5.371626204935378013e-01,-3.383071422576904297e-01,-1.158301234245300293e+00,1.011410177578202791e+02,7.059216499328613281e-03
1.126004999999999923e+00,2.719434778392355867e-02,8.026707890360185171e-02,8.545852303504943848e-01,2.035079523586497477e-02,-1.108791730968960998e-02,-9.959805321637892062e-03,1.906028678290386247e-02,1.171193541942700117e-01,-1.509089767932891846e-01,3.342614391073297497e-01,-3.744573023431470582e-01,5.235913859585061142e-02,-1.581361796972669265e-01,-1.918992477637174177e-01,1.135503159643286575e-01,-1.561751961708068848e-01,-1.499334096908569169e-01,1.410778284072875810e-01,5.393986885427543010e-01,-1.766510009765625000e-01,-7.784312963485717773e-01,9.582462390412496234e+01,7.059216499328613281e-03
1.148643000000000081e+00,2.709403518138001066e-02,8.305804969816354966e-02,8.525761961936950684e-01,2.627187407675929398e-02,-1.728541411919493065e-02,-9.938530775213784765e-03,2.680582766838963266e-02,1.176348502469788532e-01,-1.578483879566192627e-01,2.369483154843955997e-01,-2.882639856180021498e-01,-4.467469668534449628e-02,-2.268506828407272913e-01,-2.534526798788964141e-01,1.314153961628376777e-01,-1.897625148296356035e-01,-1.787467360496521052e-01,1.584955215454101618e-01,5.431117109664309606e-01,-2.092450857162475586e-02,-1.004357457160949707e+00,9.205028868953259291e+01,7.059216499328613281e-03
1.173702999999999941e+00,2.686713215689111658e-02,8.710980603416317025e-02,8.495067954063415527e-01,3.450152197557215805e-02,-2.639719371532089909e-02,-1.026994590217717059e-02,2.336248350536688015e-02,1.112779213229365127e-01,-1.577417105436325073e-01,2.300939182937671856e-01,-3.038873885509130179e-01,6.081034629375816139e-03,-2.875872732708359969e-01,-2.974233865737915261e-01,1.470290686837802119e-01,-1.951873719692230058e-01,-1.974233865737914928e-01,1.741674184799194280e-01,5.459533848481161744e-01,1.110503673553466797e-01,-6.533659696578979492e-01,1.124408622301218657e+02,7.059216499328613281e-03
1.197198999999999902e+00,2.708581296106727168e-02,9.108880059813133367e-02,8.462124466896057129e-01,3.947593151502511166e-02,-3.125974688707588989e-02,-1.215849142045452580e-02,2.174510814713456752e-02,1.139052494819602634e-01,-1.641215980052947998e-01,9.303188829635986035e-02,-8.372677960988800239e-02,-6.898408372302239355e-02,-2.935655474662780540e-01,-2.991569519042968639e-01,1.371008470873170404e-01,-1.935655474662780762e-01,-1.991569519042968583e-01,1.689317286014556940e-01,5.464848942933864251e-01,8.640551567077636719e-02,-5.025480985641479492e-01,-4.224955579046123688e+01,7.059216499328613281e-03
1.222504999999999953e+00,2.760909380840061850e-02,9.510069044658214787e-02,8.426139950752258301e-01,3.862950979962308240e-02,-2.936035068079134724e-02,-1.501343507954560307e-02,3.186946435790106308e-02,1.126304541426013522e-01,-1.734220683574676514e-01,-1.253503331932243614e-01,1.480698238224991414e-01,-1.492734143911595979e-01,-2.934170961380004883e-01,-2.967119932174682728e-01,1.245027175005322950e-01,-1.934170961380004827e-01,-1.967119932174682673e-01,1.646088123321533259e-01,5.470681452507921705e-01,5.140221118927001953e-02,-7.631369829177856445e-01,9.586982609605210826e+01,7.059216499328613281e-03
1.247028999999999943e+00,2.820470830029910697e-02,9.906514470012833806e-02,8.388041257858276367e-01,3.280481304939665554e-02,-2.264315099791747166e-02,-1.766178683233090782e-02,2.696777356445490686e-02,1.140904508618290486e-01,-1.678802520036697388e-01,-2.478272060045155212e-01,2.716520150785269871e-01,-8.546957074227046203e-02,-2.607916091263814407e-01,-2.919291853904724121e-01,1.137306270024566190e-01,-1.904684543609619085e-01,-1.919291853904724066e-01,1.618810772895812877e-01,5.464526657764395834e-01,7.075428962707519531e-03,-1.017174363136291504e+00,1.048773156489248350e+02,7.059216499328613281e-03
1.273854999999999960e+00,2.888369525457721090e-02,1.029299096565705895e-01,8.350368738174438477e-01,2.504613311976145243e-02,-1.391790723790742312e-02,-2.079519247784128791e-02,1.860357818238546346e-02,1.096383591155736664e-01,-1.636979877948760986e-01,-2.692318770124941252e-01,3.313431092322188798e-01,-7.968392648507439946e-02,-1.854561787381718563e-01,-2.207419568159819101e-01,8.013905079401076326e-02,-1.647365748882293757e-01,-1.607729673385620006e-01,1.377733469009399248e-01,5.436745884006495277e-01,-1.630738377571105957e-01,-8.653675317764282227e-01,9.872460611249648821e+01,7.059216499328613281e-03
1.296955000000000080e+00,2.955557786982780655e-02,1.055628798035348759e-01,8.325685858726501465e-01,1.952123139887435022e-02,-7.285768567982575661e-03,-2.319225450799648411e-02,3.060969909146777149e-02,1.050869139805712116e-01,-1.589494347572326660e-01,-3.098802703115545176e-01,3.668719138110326239e-01,-1.450215886555311084e-01,-5.751039853945847519e-02,-6.349906373653579905e-02,1.660196425546402177e-02,-7.217355966567992609e-02,-5.688647031784057478e-02,8.149439692497252585e-02,5.406251330279598921e-01,-3.404849767684936523e-01,-1.313346743583679199e+00,-3.518981420772811219e+01,7.059216499328613281e-03
1.327676999999999996e+00,3.050809704977070630e-02,1.093895590980207555e-01,8.289646506309509277e-01,1.102712719131039402e-02,2.647118850275242963e-03,-2.607760888584306769e-02,2.637424417789104719e-02,1.056504585535651269e-01,-1.535538434982299805e-01,-2.916099870392083737e-01,3.395145619764885492e-01,-8.609828433189121999e-02,2.251614857820456450e-01,2.219375044957694609e-01,-5.668659309391880369e-02,1.517985820770263727e-01,1.681444108486175593e-01,1.672933101654052596e-02,5.373106961384329638e-01,-5.336821675300598145e-01,-5.697058439254760742e-01,-4.379911056217827081e+01,7.059216499328613281e-03
1.350986000000000020e+00,3.115087091448192139e-02,1.119431782126367458e-01,8.266333341598510742e-01,6.143016948965433419e-03,8.614441053403920634e-03,-2.779935644041834145e-02,2.432151129861538294e-02,1.091152389106665177e-01,-1.414221972227096558e-01,-1.840763978641102583e-01,2.268963603397862183e-01,-5.478587905935767416e-02,2.906582832336425670e-01,2.909418447306328370e-01,-1.479643377510803659e-01,1.906582832336425615e-01,1.988474607467651256e-01,-6.953594684600829245e-02,5.360644437710447852e-01,-5.799293518066406250e-01,-1.005832314491271973e+00,9.017952036643360714e+01,7.059216499328613281e-03
1.375504000000000060e+00,3.192404890577664467e-02,1.155058307486879765e-01,8.234196901321411133e-01,8.176676045041416253e-04,1.504711950720660774e-02,-2.971848742099509819e-02,1.612198330798779444e-02,1.056715583802413788e-01,-1.304090321063995361e-01,-8.618156107318304671e-02,1.659589875170356943e-01,-2.731154450502952871e-02,3.042413115501403920e-01,3.128505945205688477e-01,-1.939595965186600435e-01,2.042413115501403864e-01,2.128505945205688421e-01,-1.100785374641418402e-01,5.351805013980678316e-01,-6.131696701049804688e-01,-9.296258687973022461e-01,1.022704714993519275e+02,7.059216499328613281e-03
1.399062000000000028e+00,3.229100785148685676e-02,1.186523370947680789e-01,8.207426667213439941e-01,1.700813677146603134e-03,1.526101234685794950e-02,-3.062262666589116514e-02,1.970579966218735310e-02,1.028479091804161694e-01,-1.166654303669929504e-01,1.580308747417129012e-01,-9.352835651485660873e-02,9.654219530213781209e-03,3.038863658905029408e-01,3.138012051582336204e-01,-1.959588262619429977e-01,2.038863658905029352e-01,2.138012051582336426e-01,-1.094872713088989175e-01,5.345296606778617843e-01,-6.202819347381591797e-01,-1.043543696403503418e+00,1.037044697155961046e+02,7.059216499328613281e-03
1.425994999999999902e+00,3.248008988674622871e-02,1.206604173614277686e-01,8.192400336265563965e-01,5.430387880571380631e-03,1.225983526721075023e-02,-3.049172557997900310e-02,4.231306579496344682e-04,9.113370954897573317e-02,-9.093149751424789429e-02,2.521406659025682839e-01,-1.943136869395112876e-01,2.043226731229899097e-03,2.937408208847046009e-01,3.063161432743072288e-01,-1.877519938729480531e-01,1.937408208847045954e-01,2.063161432743072510e-01,-1.017648696899414035e-01,5.325052605094232616e-01,-6.489496827125549316e-01,-1.171915888786315918e+00,-1.443652005617072973e+02,7.059216499328613281e-03
1.451829999999999954e+00,3.260646099869326381e-02,1.226026064475454341e-01,8.179104328155517578e-01,1.045050164380555667e-02,7.532600299149372347e-03,-2.974790123277771051e-02,1.585944370061912606e-02,9.070519455500701544e-02,-9.021514654159545898e-02,2.282912576330277110e-01,-2.538367863488894538e-01,4.752654881521241326e-02,2.590480187419674785e-01,2.754874186505190115e-01,-1.637573937443810024e-01,1.791091918945312556e-01,1.918972313404083141e-01,-7.985129356384276789e-02,5.331033452936920769e-01,-6.325100660324096680e-01,-1.000428080558776855e+00,9.628975295641366472e+01,7.059216499328613281e-03
1.472337000000000007e+00,3.268716772739002629e-02,1.245366730242673109e-01,8.166387081146240234e-01,1.640532235487424453e-02,1.640843694590499169e-03,-2.847683111465541470e-02,1.689412048940741248e-02,9.518312867790881815e-02,-9.311981499195098877e-02,3.019893127633628271e-01,-3.260609980704133881e-01,8.085068925547159169e-02,1.751474793183999124e-01,2.072180691583836443e-01,-7.486195879164456168e-02,1.288131237030029352e-01,1.632584273815154974e-01,5.268698930740355925e-03,5.346461528290680221e-01,-5.782033801078796387e-01,-1.253717303276062012e+00,1.511295193873644678e+02,7.059216499328613281e-03
1.499967000000000050e+00,3.277653163376835488e-02,1.278948780500603066e-01,8.139774799346923828e-01,2.826128444507508553e-02,-1.075214385528067140e-02,-2.639592633417893117e-02,3.770347609902843355e-03,8.744470799045363230e-02,-9.060999751091003418e-02,2.588235521063183553e-01,-2.577060034656797338e-01,4.990723108547776010e-02,-2.108599811592001549e-01,-1.870989261435131168e-01,6.519091922284889207e-02,-1.765781521797180065e-01,-1.408691883087158092e-01,1.386093735694885198e-01,5.401715292152814429e-01,-2.864056825637817383e-01,-8.373194932937622070e-01,1.400370053073186227e+02,7.059216499328613281e-03
1.523109999999999964e+00,3.279323488975385142e-02,1.294166521543804460e-01,8.125290274620056152e-01,3.406278428499521366e-02,-1.718878291195924390e-02,-2.557533517654159150e-02,1.287166959566908575e-02,8.391924995320935998e-02,-7.474224269390106201e-02,2.959446951215628507e-01,-3.168010379225656425e-01,6.470562697068782398e-02,-2.668377573200834130e-01,-2.615394704392088876e-01,8.801346306609622583e-02,-1.955737352371215709e-01,-1.820470690727233887e-01,1.586666643619537298e-01,5.430353638668233840e-01,-8.322030305862426758e-02,-9.113415479660034180e-01,-5.784903849623169947e+01,7.059216499328613281e-03
1.549045999999999923e+00,3.282985057705962301e-02,1.308878064808364217e-01,8.110414147377014160e-01,3.868522810817806579e-02,-2.234346420282240508e-02,-2.557434597645686161e-02,2.477479380778789021e-03,8.211787634883492559e-02,-8.901707082986831665e-02,1.839401226118723420e-01,-2.338545977165198686e-01,-3.275459127060859066e-02,-2.959861874580383412e-01,-2.960276365280151145e-01,1.006662534910404416e-01,-1.959861874580383356e-01,-1.960276365280151367e-01,1.706735730171203558e-01,5.481338137009683642e-01,1.262748241424560547e-01,-7.952979803085327148e-01,6.048721955371662773e+01,7.059216499328613281e-03
1.573518999999999890e+00,3.302722292826829747e-02,1.330733816835292516e-01,8.085185289382934570e-01,4.082207657281920060e-02,-2.537321709557360805e-02,-2.657337861741092960e-02,1.869418244067572524e-02,8.179304132947191885e-02,-1.002482771873474121e-01,-8.090665886948662788e-02,3.707688349286771684e-02,-3.259368431758938311e-02,-2.945940136909485085e-01,-2.954756021499633789e-01,9.361746274223800568e-02,-1.945940136909484752e-01,-1.954756021499633734e-01,1.662682414054870439e-01,5.490329609512778486e-01,1.076079607009887695e-01,-7.669786214828491211e-01,9.770744068091984502e+01,7.059216499328613281e-03
1.596608999999999945e+00,3.390827315068706965e-02,1.345085846756381709e-01,8.065796494483947754e-01,3.859971047392853766e-02,-2.359067191372865580e-02,-2.768087378423235781e-02,1.925612148364402865e-02,8.062741992927405232e-02,-9.547370672225952148e-02,-1.619381045789053952e-01,1.479849478922558026e-01,-8.822553160955527718e-02,-2.935969901998379261e-01,-2.944280385971069225e-01,8.701116567439282079e-02,-1.954598665237426702e-01,-1.944280385971069169e-01,1.629610061645507812e-01,5.480606376177655781e-01,4.964697360992431641e-02,-9.434818029403686523e-01,9.572737567072232423e+01,7.059216499328613281e-03
1.622792999999999930e+00,3.531563754900759328e-02,1.366564855936569234e-01,8.034985661506652832e-01,3.168902789353350569e-02,-1.652891131469980124e-02,-2.971545697664623731e-02,1.139059263899667475e-02,8.115778291439214309e-02,-1.002248078584671021e-01,-2.512016531500443906e-01,2.587526977940892703e-01,-8.711419536629703975e-02,-2.372575757276685071e-01,-2.535731397697249534e-01,6.406737127160702649e-02,-1.858369588851928600e-01,-1.762160181999206376e-01,1.463710427284240778e-01,5.452866901752035922e-01,-1.518080234527587891e-01,-5.728305578231811523e-01,1.108117391696687548e+02,7.059216499328613281e-03
1.655091000000000090e+00,3.624961419897342052e-02,1.379814232228635806e-01,8.013938069343566895e-01,2.608235375009509971e-02,-1.051021074056124327e-02,-3.117445205555081575e-02,1.551154408397834548e-02,7.536439085487241230e-02,-8.441483974456787109e-02,-2.610788091804203681e-01,3.087153063948643306e-01,-6.949866849357334841e-02,-1.828447014811383775e-01,-1.526422366166506894e-01,2.077561972454450290e-02,-1.652481615543365534e-01,-1.192626714706420815e-01,1.077311038970947266e-01,5.410068321798859881e-01,-3.505820035934448242e-01,-8.529070615768432617e-01,1.056919796319889429e+02,7.059216499328613281e-03
1.677491999999999983e+00,3.715229015542076407e-02,1.393368443340494700e-01,7.993879318237304688e-01,1.999073141457478192e-02,-4.014101176580853192e-03,-3.268420068996110567e-02,2.884986157399231296e-02,7.555695311455483398e-02,-9.435442835092544556e-02,-3.420048348533863414e-01,3.408798341544194144e-01,-9.253917660595743777e-02,5.117857093286385523e-03,1.039947568768980896e-01,-6.187036671804455740e-02,-1.877685785293578893e-02,8.545040488243102472e-02,2.984032630920410017e-02,5.399383303146124691e-01,-4.722713828086853027e-01,-9.677678346633911133e-01,1.858057887468722242e+02,7.059216499328613281e-03
1.698520999999999948e+00,3.806031564447497767e-02,1.407305471355853321e-01,7.974387407302856445e-01,1.401766696716944677e-02,2.030127985863661166e-03,-3.381518444669219525e-02,2.137524733396138632e-02,7.686284203470064580e-02,-8.817643672227859497e-02,-2.548989189134684974e-01,2.850008768961846406e-01,-5.129232514581310437e-02,2.161631907178789280e-01,2.265214064105294245e-01,-1.259440064552423966e-01,1.514351606369018499e-01,1.751253426074981523e-01,-3.082154989242553642e-02,5.375833748141112256e-01,-6.007394194602966309e-01,-8.750072717666625977e-01,9.014666032633668635e+01,7.059216499328613281e-03
1.725081000000000087e+00,3.944924152350962748e-02,1.428889727237576124e-01,7.947226762771606445e-01,6.051270745490727396e-03,1.043827078016890120e-02,-3.585378697828432021e-02,1.457550394979186849e-02,7.563542857609159564e-02,-6.624294072389602661e-02,-1.586523823811551437e-01,2.185828645435687057e-01,-7.376051128762858844e-02,2.919865131378173717e-01,3.086106657981872448e-01,-2.187021970748901367e-01,1.919865131378173662e-01,2.086106657981872392e-01,-1.187021970748901312e-01,5.357119598798757432e-01,-6.418967843055725098e-01,-8.900121450424194336e-01,8.495714406666351692e+01,7.059216499328613281e-03
1.747851999999999961e+00,4.033145187757351119e-02,1.442478469200108582e-01,7.931257486343383789e-01,1.774138790062076716e-03,1.469932245654126390e-02,-3.664267577797502423e-02,1.755661118131837672e-02,6.655618992089455677e-02,-7.024711370468139648e-02,-2.064785450045764637e-01,1.955480697899718845e-01,-2.398351924333894450e-02,3.020064234733581543e-01,3.151058137416839489e-01,-2.204004287719726618e-01,2.020064234733581487e-01,2.151058137416839433e-01,-1.204004287719726562e-01,5.362720905305579100e-01,-6.466449499130249023e-01,-6.889177560806274414e-01,-9.297207735953917052e+01,7.059216499328613281e-03
1.773925999999999892e+00,4.148748004706970943e-02,1.462545799735566476e-01,7.910171747207641602e-01,3.829819236716420594e-04,1.569157031687384851e-02,-3.652815476246398102e-02,1.487753201391190175e-02,6.085934411869562549e-02,-4.947712644934654236e-02,5.927688431401624027e-03,-5.964423960313259415e-02,6.803230879027318337e-03,3.046192526817321777e-01,3.161285579204559104e-01,-2.225293874740600641e-01,2.046192526817321722e-01,2.161285579204559326e-01,-1.225293874740600586e-01,5.350167264727522243e-01,-6.550686955451965332e-01,-9.753161668777465820e-01,9.484055073907703104e+01,7.059216499328613281e-03
1.802721000000000018e+00,4.207658708410491610e-02,1.480323826478438798e-01,7.894406914710998535e-01,4.914493887200133485e-03,1.050358713707066904e-02,-3.491459678143221668e-02,4.901023004063411945e-03,5.806440133163890543e-02,-2.325799688696861267e-02,2.030796294436202076e-01,-2.552807379041082125e-01,5.638967553116867176e-02,2.940714120864867942e-01,3.108942091464996227e-01,-2.263083923306750123e-01,1.940714120864868164e-01,2.108942091464996171e-01,-1.279243111610412487e-01,5.333664309418819638e-01,-6.602714657783508301e-01,-8.972138166427612305e-01,1.283562753359512669e+02,7.059216499328613281e-03
1.823291999999999913e+00,4.193563895372375006e-02,1.490896771689231848e-01,7.885141372680664062e-01,9.888433990388812919e-03,5.055690516719169025e-03,-3.334098712362674327e-02,3.574324839106348024e-03,5.794512735491533229e-02,-3.272322565317153931e-02,2.208822402401319218e-01,-2.644464173380859928e-01,8.122800587476955436e-02,2.658360917781107391e-01,2.574139947107877413e-01,-1.898377826003306290e-01,1.770024418830871415e-01,1.925316631793975719e-01,-9.599876403808593750e-02,5.344758888339369296e-01,-6.525335311889648438e-01,-9.594060182571411133e-01,1.629488065762346878e+02,7.059216499328613281e-03
1.848152999999999935e+00,4.172329580235228236e-02,1.506262151438873542e-01,7.873442769050598145e-01,1.911536388084141697e-02,-4.537999142980142508e-03,-3.058185238818616342e-02,1.045691497193431546e-02,5.640817805507562094e-02,-2.366344816982746124e-02,2.910192530252553866e-01,-3.280662352418891037e-01,1.346582244517015303e-01,3.113140170787332892e-02,8.436745847639219587e-02,-2.043786285016535587e-02,1.206243038177490104e-03,7.658457756042480469e-02,6.528282165527343750e-02,5.365260142378407426e-01,-5.201566219329833984e-01,-9.306310415267944336e-01,1.037925518351325849e+02,7.059216499328613281e-03
1.873123000000000093e+00,4.144747129168768751e-02,1.520905004524547854e-01,7.861182093620300293e-01,2.841205923853491744e-02,-1.434109670691041671e-02,-2.787108427837746080e-02,-2.595995874366724670e-03,5.531106069152510324e-02,-1.921541243791580200e-02,2.740442268691181682e-01,-2.871185861955324881e-01,1.197541713492401294e-01,-2.115935016279149317e-01,-2.403570288393458987e-01,7.851035056627078679e-02,-1.820604979991912731e-01,-1.739789128303527721e-01,1.558242380619049017e-01,5.414839631307606371e-01,-2.439148426055908203e-01,-1.008405089378356934e+00,8.194253762364084537e+01,7.059216499328613281e-03
1.896702000000000110e+00,4.124113950512862253e-02,1.526644030922269246e-01,7.853047251701354980e-01,3.444223094288802883e-02,-2.082610042409416273e-02,-2.651635407733506436e-02,9.354972382447614837e-03,5.561644474610132755e-02,-2.021346427500247955e-02,3.037122107328976139e-01,-3.006140814702798481e-01,3.532204007594659523e-02,-2.568062463212866797e-01,-2.853883128421515480e-01,7.232737087652238439e-02,-1.896994829177856279e-01,-1.873141050338744951e-01,1.453590452671051081e-01,5.446033137403163416e-01,-8.901476860046386719e-02,-1.064396739006042480e+00,1.037029260928436827e+02,-4.010531902313232283e-02
1.923591000000000051e+00,4.103658914866348262e-02,1.530457405818393957e-01,7.836941480636596680e-01,4.034950271849006148e-02,-2.732802925849497910e-02,-2.627003732452167298e-02,8.678387032967572794e-08,4.174260615181084322e-02,-2.167331241071224213e-02,9.406134981883483570e-02,-1.082318163183234733e-01,-3.415837084346400043e-02,-2.904876947402953991e-01,-2.932855606079101674e-01,7.831879984577624909e-02,-1.904876947402953935e-01,-1.932855606079101618e-01,1.498785138130187822e-01,5.464856195583486231e-01,-6.824135780334472656e-03,-1.063611865043640137e+00,1.172457841980099431e+02,-4.010531902313232283e-02
1.947262999999999966e+00,4.100277259086614057e-02,1.533363487507770628e-01,7.824452519416809082e-01,4.105439297222744643e-02,-2.807446703149674150e-02,-2.676565461473635540e-02,1.775020893298407884e-02,5.598859515164870265e-02,-3.556887805461883545e-02,2.155071079556081064e-03,4.594026968289432328e-02,-4.606473609264912644e-02,-2.873350262641906627e-01,-2.910397291183471902e-01,6.774877161084885691e-02,-1.873350262641906572e-01,-1.910397291183471569e-01,1.407400846481323131e-01,5.462995258776317531e-01,-9.089994430541992188e-02,-9.050863981246948242e-01,7.825301969816169390e+01,-4.010531902313232283e-02
1.974861999999999895e+00,4.106442579256326664e-02,1.538146123483847827e-01,7.801418304443359375e-01,3.713749063868519718e-02,-2.401784674781382023e-02,-2.780959408009393841e-02,9.264692192182904726e-03,4.375904671085725089e-02,-3.248276934027671814e-02,-1.717481853277412485e-01,1.855371125741709093e-01,-6.454419540042898029e-02,-2.840992125251165512e-01,-2.895775318145751842e-01,6.874808744104982106e-02,-1.926645755767822099e-01,-1.895775318145751787e-01,1.450613021850585826e-01,5.470549134618820641e-01,-5.717986822128295898e-02,-6.431549787521362305e-01,1.009568553672292239e+02,-4.010531902313232283e-02
1.998169000000000084e+00,4.125446993654981187e-02,1.544051471054739555e-01,7.786106467247009277e-01,3.240559142893172095e-02,-1.890710166064768494e-02,-2.847646619349034069e-02,5.005614042698783121e-03,4.204247273138104340e-02,-4.411781206727027893e-02,-2.483054496529590316e-01,2.916557970799354416e-01,-1.825738731510929969e-02,-2.549520987802321170e-01,-2.752891927002989458e-01,6.224221149647238271e-02,-1.948954224586486872e-01,-1.851197719573974554e-01,1.409196496009826605e-01,5.471093476340184170e-01,-1.194499135017395020e-01,-7.989324331283569336e-01,8.644855002288166190e+01,-4.010531902313232283e-02
2.023038999999999810e+00,4.174613986014594214e-02,1.555639627860936069e-01,7.763096094131469727e-01,2.457413650994462809e-02,-1.019694622194000644e-02,-2.992276670733459015e-02,1.162409694748901649e-02,4.481868049001129506e-02,-3.493819013237953186e-02,-2.338961939162418069e-01,2.868333547552159302e-01,-7.579805588869498179e-02,-1.661120936216224642e-01,-1.644445611126397477e-01,-2.262349675070832178e-02,-1.604262113571166826e-01,-1.367022514343261552e-01,6.089317202568053644e-02,5.426844020959762371e-01,-3.531576395034790039e-01,-1.000259041786193848e+00,7.231845957363438515e+01,-4.010531902313232283e-02
2.051429000000000169e+00,4.218876428139415463e-02,1.566637385529325022e-01,7.742450237274169922e-01,1.607205286697839866e-02,-7.563573586828464812e-04,-3.137466721095141103e-02,1.270611458066724965e-02,3.848255631445469255e-02,-2.808813191950321198e-02,-2.836241768539732311e-01,3.423046988706992533e-01,-3.376994337572248456e-02,-6.695249329529855131e-03,4.936568811178401739e-02,-1.338747422318643798e-01,-5.226495265960693498e-02,1.517726182937621966e-02,-4.571964740753173967e-02,5.409099443377384242e-01,-4.455372095108032227e-01,-1.647648692131042480e+00,7.486161903938609896e+01,-6.394169330596924383e-02
2.075597999999999832e+00,4.249571319059061714e-02,1.574014040395783909e-01,7.729377746582031250e-01,1.058665354910240212e-02,5.274555494415578139e-03,-3.195428559469394580e-02,5.668748332934903100e-03,4.320322733041211116e-02,-2.341565303504467010e-02,-2.392440103064996937e-01,2.691331645442724962e-01,-1.812455004585068058e-02,1.974650298101052193e-01,2.209904364167281088e-01,-1.967139531236870575e-01,1.113035202026367160e-01,1.524893045425415039e-01,-1.067171573638916043e-01,5.383258111622291064e-01,-5.885394811630249023e-01,-1.438511490821838379e+00,1.114628474428677407e+02,-6.394169330596924383e-02
2.098647000000000151e+00,4.274455027470396712e-02,1.581127008702814807e-01,7.717596292495727539e-01,6.067366622507636836e-03,1.036192038819860883e-02,-3.214449370232051739e-02,3.578577963897920135e-03,3.620849350073789691e-02,-1.369093824177980423e-02,-1.898616316935290704e-01,2.050069661051088232e-01,2.323413204607096064e-02,2.566905736923217884e-01,2.889588356018066295e-01,-2.134752356796160710e-01,1.566905736923217829e-01,1.889588356018066240e-01,-1.228185296058654785e-01,5.372119829601110785e-01,-6.282296776771545410e-01,-1.011907219886779785e+00,1.254967346776553825e+02,-6.394169330596924383e-02
2.122183999999999848e+00,4.287721536631380892e-02,1.591936152700486329e-01,7.702890038490295410e-01,2.055099509565117000e-03,1.508968763493445664e-02,-3.125524657001191309e-02,9.177222741120073801e-03,4.142966943634727311e-02,2.404464641585946083e-03,-3.456013984367883179e-02,8.098742034334020790e-02,3.544170382030450289e-02,2.886293888092040794e-01,3.110806047916412354e-01,-2.123903343443221403e-01,1.886293888092041016e-01,2.110806047916412298e-01,-1.240922927856445285e-01,5.358778148016856147e-01,-6.561034917831420898e-01,-7.398995161056518555e-01,8.350579716992751855e+01,-6.394169330596924383e-02
2.150042000000000009e+00,4.288313676076636882e-02,1.598271887984178963e-01,7.696558237075805664e-01,2.352947539933604101e-03,1.484891434311230718e-02,-2.984966572705850807e-02,3.038050395659880332e-03,3.084093097321611784e-02,2.810347452759742737e-02,8.043041959211501279e-02,-8.258780458607188624e-02,7.613829863513033036e-02,2.819411754608154297e-01,3.112998306751251221e-01,-1.909429744007723195e-01,1.819411754608154241e-01,2.112998306751251165e-01,-1.066374421119689886e-01,5.343747534445945080e-01,-6.495284438133239746e-01,-5.568896532058715820e-01,3.412968688627208991e+01,-6.394169330596924383e-02
2.177077999999999847e+00,4.280342930321518607e-02,1.606587655920102553e-01,7.689949870109558105e-01,7.011243845942988738e-03,1.048889581006218208e-02,-2.719352866277895825e-02,-5.519931242749420014e-03,2.812497584119541191e-02,4.189564287662506104e-02,2.075663931404741758e-01,-1.842046951961960610e-01,5.027670414175614694e-02,2.401730298995971569e-01,2.898430801884600561e-01,-1.513962652666579201e-01,1.401730298995971513e-01,1.923234343528747448e-01,-7.460846900939940851e-02,5.341357027198913032e-01,-6.202447414398193359e-01,-7.778121232986450195e-01,1.444432286427855274e+02,-6.394169330596924383e-02
2.201419000000000015e+00,4.269126947455938181e-02,1.611714343386021209e-01,7.687763571739196777e-01,1.177074210544666946e-02,5.347805673452166175e-03,-2.490494841666650999e-02,8.437391288434419392e-03,2.408545671829375248e-02,3.353046998381614685e-02,2.133382990867737083e-01,-2.581777916456603483e-01,1.373878140722351038e-01,1.698908600625825549e-01,2.564786812211091727e-01,-1.183113594444713951e-01,9.759761095046996793e-02,1.808524131774902344e-01,-4.800052642822265347e-02,5.350617837753931516e-01,-6.130602955818176270e-01,-1.135600924491882324e+00,1.005470371868392903e+02,-6.394169330596924383e-02
2.224946999999999786e+00,4.180537379374033718e-02,1.610541728803170924e-01,7.685163617134094238e-01,2.038509237033510335e-02,-4.067673589443598914e-03,-2.192981425629703454e-02,-1.606942958757311135e-02,1.994164948929675121e-02,3.859239071607589722e-02,2.448285254478551609e-01,-3.189713668921194123e-01,1.090001433337842718e-01,-1.441917070256046873e-01,-6.852326372978527480e-02,5.243750491485187071e-02,-1.584543764591216930e-01,-6.297347545623778464e-02,1.138039648532867404e-01,5.385338711534369827e-01,-4.112804532051086426e-01,-5.182756185531616211e-01,7.205275838473171746e+01,-6.394169330596924383e-02
2.247227999999999781e+00,4.120450569648935468e-02,1.609534924641253528e-01,7.684058547019958496e-01,2.621210366942535591e-02,-1.038060015849118223e-02,-2.019732774051489349e-02,2.598862750384945981e-03,1.927765377820819109e-02,4.995546862483024597e-02,2.746845114785611552e-01,-3.189440461155054196e-01,7.030944996385586621e-02,-2.212296494129631641e-01,-5.877501143171955794e-02,1.211325659153617840e-01,-1.988723695278167558e-01,-2.904174327850341658e-02,1.773856043815612848e-01,5.398869222474758089e-01,-3.011264801025390625e-01,-2.698603868484497070e-01,-9.195569056952791698e+00,-2.231366634368896554e-02
2.274887000000000103e+00,4.031056064687048301e-02,1.607751502954196110e-01,7.681545615196228027e-01,3.303826651552582011e-02,-1.918362974348575278e-02,-1.823561857112221754e-02,-9.063040501195872636e-03,2.288032476298085607e-02,4.045556858181953430e-02,1.773126040921513269e-01,-2.618527589780377252e-01,4.296766880146352802e-02,-2.712187556330892813e-01,-2.826697897669898651e-01,1.377214380686481721e-01,-2.073154985904693548e-01,-1.843170404434203991e-01,1.876047849655151367e-01,5.466120612257782119e-01,2.616107463836669922e-02,-9.245160818099975586e-01,9.140135924667885092e+01,-2.231366634368896554e-02
2.297680999999999862e+00,3.975278642292638664e-02,1.606793910869900033e-01,7.678436040878295898e-01,3.485361174074885077e-02,-2.289884865481717213e-02,-1.795943502348498408e-02,-8.060959099064695169e-03,1.636396046037535967e-02,2.708251401782035828e-02,1.815978469777319859e-02,-1.448785618709279854e-01,3.913362788712544151e-03,-2.877656828424217106e-01,-2.918965339660644642e-01,1.383205384450133246e-01,-2.069772183895111084e-01,-1.918965339660644587e-01,1.871352016925811601e-01,5.498315136552904825e-01,1.431635618209838867e-01,-8.389021158218383789e-01,9.922318260115073940e+01,-2.231366634368896554e-02
2.325012000000000079e+00,3.959745487643996642e-02,1.602739037795364307e-01,7.671578526496887207e-01,3.344977990161836223e-02,-2.439228734206966287e-02,-1.899409192135623897e-02,5.138176442228241381e-03,2.134394755250347900e-02,3.374907374382019043e-02,-1.103307383021303045e-01,3.562736524190161791e-02,-5.788590422508523708e-02,-2.713891743499262099e-01,-2.918375611305236705e-01,1.346922629684608186e-01,-2.049000442028045543e-01,-1.918375611305236650e-01,1.864162266254424938e-01,5.488424394234441284e-01,1.006460189819335938e-01,-8.371268510818481445e-01,4.526480768636047713e+01,-2.231366634368896554e-02
2.348624000000000045e+00,3.954411618715890364e-02,1.600431505384533326e-01,7.665809392929077148e-01,2.964276622316925139e-02,-2.244955549950100604e-02,-2.025959534134697676e-02,6.640086469096785626e-03,2.242441292260650282e-02,1.905778609216213226e-02,-2.369851250483558380e-01,1.417262902800734692e-01,-5.823988143268017670e-02,-2.445808052440440750e-01,-2.956035614013671764e-01,1.323223132800235569e-01,-2.028768181800842119e-01,-1.956035614013671708e-01,1.878234207630157526e-01,5.490099746734632413e-01,3.903758525848388672e-02,-6.269844770431518555e-01,-4.468103483309407409e+01,-2.231366634368896554e-02
2.375027999999999917e+00,3.953728727558182554e-02,1.597591593822837719e-01,7.656241059303283691e-01,2.167772773409808867e-02,-1.609630955604535174e-02,-2.182245152420830142e-02,2.461998754086937823e-03,2.105931437414465535e-02,2.342939190566539764e-02,-2.679648968160027178e-01,1.957186673246665010e-01,-3.605276998507084968e-02,-1.754934354075305125e-01,-2.308736655980692110e-01,1.078282131517208087e-01,-1.847021162509918102e-01,-1.600793838500976507e-01,1.682627499103546143e-01,5.433106871926787207e-01,-2.773856520652770996e-01,-1.478638768196105957e+00,3.709195700477954460e+01,-2.231366634368896554e-02
2.398076999999999792e+00,3.951642108096854733e-02,1.595929684547606753e-01,7.649195194244384766e-01,1.579803295249430223e-02,-1.065923231564935847e-02,-2.331335766738579229e-02,-6.400778389709180054e-03,1.283871124956440651e-02,2.466569282114505768e-02,-2.868737915688030493e-01,3.053464585567604583e-01,-9.908423851587677689e-02,-7.627183797821603106e-02,-1.506270840846846981e-01,9.369259801252510789e-02,-1.180962681770324624e-01,-1.094374537467956571e-01,1.586455285549163707e-01,5.401191573350978548e-01,-4.631061553955078125e-01,-8.584483861923217773e-01,-2.318524447724295001e+01,-2.231366634368896554e-02
2.421145000000000103e+00,3.955681357871609904e-02,1.594560750644940239e-01,7.640601992607116699e-01,7.433164534226171030e-03,-2.397971741771698362e-03,-2.515943110818479392e-02,7.242996412954457765e-03,1.740163468040999833e-02,2.917423844337463379e-02,-2.804382797259472038e-01,2.844463461998221754e-01,-5.230249826488815590e-02,2.591310262680053822e-01,2.032584961823072633e-01,-8.618451669836774132e-02,1.591310262680053766e-01,1.795711398124694713e-01,-1.557183265686035156e-02,5.364250830366590339e-01,-6.642765998840332031e-01,-8.590401411056518555e-01,9.216692099979972852e+01,-2.231366634368896554e-02
