timestamp,x,y,z,roll,pitch,yaw,vx,vy,vz,p,q,r,psp,qsp,rsp,pres,qres,rres,thrust_sp, thrust_res
0.000000000000000000e+00,1.508687336307191866e-02,1.840364712670291766e-02,1.007944583892822266e+00,1.556669355672419056e-02,-9.079578319072911796e-03,-1.284905021655047448e-02,1.169887876052060852e-03,1.814880729137165541e-02,-1.869281288236379623e-03,1.131118758535008297e-02,4.102583230553249333e-02,3.083668619929076996e-02,1.325752017728998866e-01,1.522164750120823529e-01,1.553057506620468264e-01,2.071440696716308483e-01,2.013096928596496415e-01,1.910756528377532959e-01,4.983513906713259445e-01,-6.933393478393554688e-01,-1.011207938194274902e+00,4.793310304789599741e+01,0.000000000000000000e+00
2.655499999999999874e-02,1.507659373035894791e-02,1.910581231755532905e-02,1.007996082305908203e+00,1.591805528701316710e-02,-9.141692054688732583e-03,-1.296889026099870210e-02,-7.805682778088591373e-03,1.789488030132600077e-02,9.501972235739231110e-03,4.011728188046741889e-02,-9.856473532652962246e-04,-1.320923598387201310e-02,1.238610719679252292e-01,1.342380856440596459e-01,1.482059320462255081e-01,2.030319929122924860e-01,1.911232709884643499e-01,1.842784166336059459e-01,4.974810888921418206e-01,-6.927028894424438477e-01,-5.447138547897338867e-01,1.100870560987304003e+02,0.000000000000000000e+00
4.420000000000000318e-02,1.504227832642220271e-02,1.979559093811317574e-02,1.008024334907531738e+00,1.614672605474131578e-02,-8.919610278127931835e-03,-1.288179448475642447e-02,-4.241488226357884874e-04,7.276716080853951919e-03,-1.114428276196122169e-03,6.519718829321151377e-02,-1.128420196021398016e-02,-1.930465072226543238e-03,1.147010282765086042e-01,1.531415912666159729e-01,1.550108934509875636e-01,2.033622980117797685e-01,2.011891543865203802e-01,1.908870220184326061e-01,4.982849006448966112e-01,-6.922016143798828125e-01,-7.642887830734252930e-01,8.171352138077031668e+01,0.000000000000000000e+00
7.174500000000000322e-02,1.494864205936183646e-02,2.172000795335997728e-02,1.008135557174682617e+00,1.676555848042218799e-02,-9.010991278083801959e-03,-1.301993691699777564e-02,-6.565777782250756429e-03,2.171965605584627243e-02,-2.217125147581100464e-03,4.560433210967712592e-02,-8.659726014020477022e-03,-1.226246414019779678e-02,1.274520463449637653e-01,1.418141131942224631e-01,1.515828160957831405e-01,2.055943965911865290e-01,1.967052340507507158e-01,1.877850115299224687e-01,4.983128027995757936e-01,-6.944888830184936523e-01,-7.265738248825073242e-01,1.379377056847801839e+02,0.000000000000000000e+00
9.373800000000000188e-02,1.483475352875126413e-02,2.292968189161128517e-02,1.008190631866455078e+00,1.705196897982853843e-02,-8.989577087405553613e-03,-1.332615713501913469e-02,-6.771803783726716187e-03,5.620783939365545274e-03,-4.512384068220853806e-03,1.730506780191010466e-02,-2.424299761333690781e-02,-3.379109823877467222e-02,1.074540082910690475e-01,1.440224084773746027e-01,1.511189780518914227e-01,2.017346620559692383e-01,1.979524791240692139e-01,1.882047414779663141e-01,4.985065211813076713e-01,-6.929013133049011230e-01,-1.218044877052307129e+00,8.755375659285975587e+01,0.000000000000000000e+00
1.240239999999999954e-01,1.498761342898620452e-02,2.322102161710977095e-02,1.007981300354003906e+00,1.870284247753102244e-02,-1.001590276119834755e-02,-1.496160219574229656e-02,-8.332340698483198943e-03,1.792319593933979632e-02,-3.098072670400142670e-02,3.513367995998980392e-02,-2.235061429740953232e-02,-2.249518771800580394e-02,1.077376519644170638e-01,1.357439544013322452e-01,1.457056880567048074e-01,2.002458214759826605e-01,1.977208077907562089e-01,1.872895359992980957e-01,5.004754472578056834e-01,-6.965770125389099121e-01,-1.589445948600769043e+00,8.598072987605996786e+01,0.000000000000000000e+00
1.462340000000000029e-01,1.513274728212021976e-02,2.288536289981421556e-02,1.007564663887023926e+00,2.101186348968120052e-02,-1.190572355476549049e-02,-1.680600739244311401e-02,-1.357763386700026366e-02,-1.010479682556021316e-02,-2.905758470296859741e-02,1.283709614635754614e-01,-1.287430732504238340e-01,-1.090539275382020473e-01,7.653419971466063343e-02,1.028113076294314837e-01,1.364234800373564926e-01,1.765341997146606390e-01,1.807835519313812089e-01,1.831151247024536133e-01,5.004026376951333788e-01,-6.953409314155578613e-01,-9.821654558181762695e-01,5.451206419985734186e+01,0.000000000000000000e+00
1.694690000000000085e-01,1.517924083363957587e-02,2.249147071325758099e-02,1.006808161735534668e+00,2.342729469303093948e-02,-1.434212211736518583e-02,-1.837962911483835213e-02,-1.090894715506217881e-02,8.650701296698435142e-03,-5.742247402667999268e-02,1.004820670811276823e-01,-9.845264762537592196e-02,-6.371834393648452555e-02,7.616763114929198109e-02,8.740547848924304364e-02,1.319450324131808128e-01,1.761676311492919866e-01,1.786633014678954967e-01,1.828765511512756292e-01,5.025722867687952844e-01,-6.991994976997375488e-01,-1.036795258522033691e+00,9.018613881973935520e+01,0.000000000000000000e+00
1.975739999999999996e-01,1.515934925757633604e-02,2.177241245442738254e-02,1.005016088485717773e+00,2.740583071104188764e-02,-1.901673218967414591e-02,-2.120801290865592312e-02,-2.305441051903977384e-02,-1.235472363595102076e-02,-6.849192082881927490e-02,1.062829922257184367e-01,-1.827760058134040022e-01,-1.024592005980164700e-01,5.951683521270750843e-02,1.345032453536985917e-02,1.148841497776948162e-01,1.595168352127075140e-01,1.134503245353698647e-01,1.734718322753906194e-01,5.036155572391979307e-01,-6.982122063636779785e-01,-8.785945177078247070e-01,9.469021827544504788e+01,0.000000000000000000e+00
2.224029999999999896e-01,1.513411821792830757e-02,2.126291061557507994e-02,1.003330111503601074e+00,3.011520890199108347e-02,-2.175010739618987721e-02,-2.308812600138952092e-02,-1.150974652704674257e-02,1.336150322958964617e-03,-1.096752211451530457e-01,1.377255896869471197e-01,-1.199398670578321752e-01,-6.775187670130064510e-02,3.282631635665891889e-02,1.658153533935545487e-02,1.099405108192323122e-01,1.328263163566589244e-01,1.165815353393554604e-01,1.736046195030212236e-01,5.068555006885253622e-01,-7.019778490066528320e-01,-8.160361051559448242e-01,8.313441929418641507e+01,0.000000000000000000e+00
2.448460000000000081e-01,1.501466978883389883e-02,2.081252957992415012e-02,1.001201748847961426e+00,3.217970269908015934e-02,-2.451857360826026344e-02,-2.508027707927115019e-02,-2.767666968815702538e-02,-1.964763737569699686e-02,-1.160440370440483093e-01,7.948519917670267276e-02,-1.477608662328662448e-01,-1.154444982500837658e-01,-5.838449001312256276e-02,-1.231575846672058189e-01,9.888673740873443752e-02,4.161550998687744279e-02,-2.315758466720580985e-02,1.679292798042297252e-01,5.077154643930977818e-01,-6.957333683967590332e-01,-1.881284356117248535e+00,1.049757455050538937e+02,0.000000000000000000e+00
2.731919999999999904e-01,1.471952867907386220e-02,2.000569779526314984e-02,9.971978664398193359e-01,3.474832946080123192e-02,-2.803588071542284510e-02,-2.753359170934505801e-02,-1.848977056703133420e-02,-1.869605040294560622e-02,-1.538928598165512085e-01,8.607791758042170061e-02,-1.228233168668504960e-01,-6.472604804996064110e-02,-9.980344772338867188e-02,-1.304261922836303655e-01,7.376825962868507891e-02,1.965522766113281196e-04,-3.042619228363037040e-02,1.494601428508758600e-01,5.109698644706848203e-01,-6.960868239402770996e-01,-9.264014959335327148e-01,1.138608995397025296e+02,0.000000000000000000e+00
2.949430000000000107e-01,1.443396042505751611e-02,1.939260852395817414e-02,9.940289258956909180e-01,3.607097554778485038e-02,-3.003274663178645554e-02,-2.940450854114245310e-02,-3.278354688235195213e-02,-2.139834590572387008e-02,-1.685809195041656494e-01,7.265886588111938882e-02,-8.710316629205061556e-02,-1.255380909954108837e-01,-1.051765561103820829e-01,-1.871754765510559304e-01,4.348449417430769182e-02,-5.176556110382079905e-03,-8.717547655105591098e-02,1.241787314414977972e-01,5.124575399212012439e-01,-6.961279511451721191e-01,-4.320229291915893555e-01,-7.928775920647278497e+01,0.000000000000000000e+00
3.252709999999999768e-01,1.389775767854929678e-02,1.830636408815453434e-02,9.886021018028259277e-01,3.745169467774933647e-02,-3.164923090713189779e-02,-3.196987609012596349e-02,-3.544277612035016956e-02,-3.223225099186094456e-02,-1.996835768222808838e-01,1.838791262097353579e-02,-3.243887787374929998e-02,-7.938193557918002408e-02,-1.625805497169494629e-01,-2.105933427810668945e-01,-2.133554227686791649e-02,-6.258054971694945734e-02,-1.105933427810668890e-01,6.645260453224181851e-02,5.153818484124307320e-01,-6.946691274642944336e-01,-1.121878981590270996e+00,1.252296059792161884e+02,0.000000000000000000e+00
3.486710000000000087e-01,1.378418209839274607e-02,1.753308793224632456e-02,9.845399856567382812e-01,3.776159372728982860e-02,-3.131257400432896354e-02,-3.345485491377665765e-02,-2.925880596524870272e-02,-2.695429433855995802e-02,-2.204106897115707397e-01,1.376854663400895774e-02,2.948079289215743345e-02,-8.263227698423449008e-02,-1.624083518981933594e-01,-1.681562185287475697e-01,-5.436511081556590769e-02,-6.240835189819335382e-02,-6.815621852874755027e-02,3.758432865142822404e-02,5.174811296876115074e-01,-6.916893720626831055e-01,-1.092690110206604004e+00,9.216357420710642145e+01,0.000000000000000000e+00
3.749160000000000270e-01,1.359549830641457527e-02,1.671712323288441007e-02,9.801506400108337402e-01,3.708725171405857085e-02,-3.001404720558342731e-02,-3.488029694140862280e-02,-3.830824985659481846e-02,-3.672352113601685258e-02,-2.370375990867614746e-01,-6.908456368815937831e-02,6.558933940628310089e-02,-6.492305808028181469e-02,-1.766976237297058216e-01,-1.568587541580200306e-01,-1.045960444146609436e-01,-7.669762372970580222e-02,-5.685875415802001814e-02,-8.556747436523437153e-03,5.192956619191442247e-01,-6.899753212928771973e-01,-1.291807532310485840e+00,8.775707766407269617e+01,0.000000000000000000e+00
4.002220000000000222e-01,1.332857958946465256e-02,1.586678697692355672e-02,9.753854274749755859e-01,3.590192794963233125e-02,-2.760831423126242079e-02,-3.588985941745735653e-02,-3.126275575563664672e-02,-3.621225914020790443e-02,-2.532079815864562988e-01,-4.516986414199265776e-02,1.349119892093663398e-01,-4.867744049603088541e-02,-1.608569979667663630e-01,-5.545848608016968467e-02,-1.524626665746678378e-01,-6.085699796676635742e-02,4.454151391983032088e-02,-5.338829755783081055e-02,5.211873574257588349e-01,-6.844260096549987793e-01,-1.269009947776794434e+00,9.770151207672027738e+01,0.000000000000000000e+00
4.236690000000000178e-01,1.299949138972844934e-02,1.494036638000134816e-02,9.703994989395141602e-01,3.392224732534226961e-02,-2.444936094426330975e-02,-3.686943592646555606e-02,-4.193867034564237317e-02,-3.952505847112889464e-02,-2.726482450962066650e-01,-9.880307919192050925e-02,1.742510955830797181e-01,-3.005811802935665078e-02,-1.573207557201385387e-01,-6.133699417114266139e-03,-1.916259407997131237e-01,-5.732075572013854703e-02,9.386630058288573941e-02,-9.162594079971313199e-02,5.235043185324296244e-01,-6.706727147102355957e-01,-1.187059998512268066e+00,8.165554673509524264e+01,0.000000000000000000e+00
4.460430000000000228e-01,1.264980356427872557e-02,1.397467955409143273e-02,9.651369452476501465e-01,3.166539073709689900e-02,-2.039955739993715156e-02,-3.736985737150629733e-02,-4.406192982078219883e-02,-4.047768654827085810e-02,-2.817510068416595459e-01,-1.102140306088369992e-01,2.157051114374271827e-01,-1.719305558977310064e-02,-1.881307005882263406e-01,5.434548258781432550e-02,-2.260159373283386341e-01,-8.813070058822632113e-02,1.543454825878143311e-01,-1.260159373283386286e-01,5.250432860501208499e-01,-6.597030162811279297e-01,-1.477923035621643066e+00,6.509702350758495015e+01,0.000000000000000000e+00
4.700509999999999966e-01,1.238628902692261169e-02,1.199764408368387582e-02,9.596701860427856445e-01,2.892438441389786480e-02,-1.585570262017133025e-02,-3.760518617658639012e-02,-4.354270984724029070e-02,-4.593141598078386012e-02,-3.006096482276916504e-01,-1.348952315541313007e-01,2.294804561483730354e-01,-1.627252936202716084e-03,-2.512295424938201793e-01,7.598255872726439319e-02,-2.565108299255370872e-01,-1.512295424938201738e-01,1.759825587272643987e-01,-1.565108299255371094e-01,5.273343248894292179e-01,-6.481367349624633789e-01,-1.265578150749206543e+00,5.365310644002570939e+01,0.000000000000000000e+00
4.975430000000000130e-01,1.186052371224490497e-02,9.024692315299846085e-03,9.512234926223754883e-01,2.416338700860088187e-02,-9.198721290984313015e-03,-3.684830359680216910e-02,-4.370625355479605678e-02,-4.513764740839824180e-02,-3.092413842678070068e-01,-1.626872148452646327e-01,2.231910667943449444e-01,7.937812149227792269e-02,-2.796860456466674916e-01,1.216620404455956705e-01,-2.585852146148681641e-01,-1.796860456466674860e-01,2.023824512958526667e-01,-1.585852146148681585e-01,5.289291078950167924e-01,-6.464279294013977051e-01,-1.614563822746276855e+00,9.486399877849768814e+01,0.000000000000000000e+00
5.196589999999999820e-01,1.141679042701847224e-02,7.026727026616686259e-03,9.454082250595092773e-01,2.102815494962993401e-02,-5.158000248055572001e-03,-3.629744192270974168e-02,-5.316585460310982447e-02,-5.260430084249180516e-02,-3.128101825714111328e-01,-1.424857753464230103e-01,2.114784765426392099e-01,4.802370928945554410e-03,-2.798542916774749978e-01,1.443484716913971955e-01,-2.558547258377075195e-01,-1.798542916774749645e-01,2.057470500469207597e-01,-1.558547258377075140e-01,5.300428441564722926e-01,-6.410901546478271484e-01,-1.334427237510681152e+00,5.053998134841476286e+01,0.000000000000000000e+00
5.429159999999999542e-01,1.089476074530698439e-02,4.980543502817623945e-03,9.396935701370239258e-01,1.786709934848652870e-02,-1.990543538074485141e-03,-3.495809868421970168e-02,-5.251112095442845434e-02,-4.902857172996617080e-02,-3.272712528705596924e-01,-1.780033406977667987e-01,1.644882665926950815e-01,1.037911568982281402e-01,-2.599330604076385276e-01,1.731973424343404844e-01,-2.375380624182980849e-01,-1.599330604076385498e-01,2.124584913253784180e-01,-1.397753119468689020e-01,5.320246344857711973e-01,-6.314424276351928711e-01,-1.411845564842224121e+00,9.405490822979631105e+01,0.000000000000000000e+00
5.721220000000000194e-01,9.670468017970437410e-03,1.512454768835168589e-03,9.308719635009765625e-01,1.324226276980423021e-02,1.018249732596343549e-03,-3.235341955716936752e-02,-5.504486208515987911e-02,-5.331018670592460595e-02,-3.347623348236083984e-01,-2.196145057871814743e-01,1.143655867399571979e-01,1.179391323111414203e-01,-2.344886422157287653e-01,1.954601122074349495e-01,-2.230235429305449657e-01,-1.344886422157287598e-01,2.174784243106842041e-01,-1.324758052825927568e-01,5.335926006930183929e-01,-6.299772858619689941e-01,-1.604030966758728027e+00,8.635172526120756231e+01,0.000000000000000000e+00
5.956500000000000128e-01,8.729400366226545624e-03,-9.098032059429959906e-04,9.249358773231506348e-01,1.013002635268928260e-02,1.518641651625518563e-03,-3.024799505401673527e-02,-5.438522347068117796e-02,-5.780690638871376075e-02,-3.127508759498596191e-01,-1.465003319409452498e-01,-2.431643228672906998e-02,9.942961020857418730e-02,-2.040619492530822976e-01,2.013635728360538002e-01,-2.269392608922446986e-01,-1.040619492530822782e-01,2.198409318923950084e-01,-1.422646522521972545e-01,5.325283042041748516e-01,-6.444723606109619141e-01,1.942218542098999023e-01,-1.695152035952177982e+01,0.000000000000000000e+00
6.222609999999999530e-01,7.240934593867666934e-03,-4.416803055972305311e-03,9.158774614334106445e-01,3.711299851166663995e-03,1.414835526662328036e-03,-2.653412184827682804e-02,-5.585700679998378826e-02,-4.922452296592035731e-02,-3.299250900745391846e-01,-2.028157474879901945e-01,-2.082145622160561788e-02,1.030686570935085561e-01,-1.434571613670070078e-01,2.000271377059306133e-01,-2.269683548476333912e-01,-8.739248514175414206e-02,2.210807561874389704e-01,-1.526684761047363281e-01,5.348575339207621848e-01,-6.405225992202758789e-01,-1.301634192466735840e+00,5.259126986372989698e+00,0.000000000000000000e+00
6.464509999999999978e-01,6.210712523523740161e-03,-6.633080495711225939e-03,9.096823930740356445e-01,-1.620436920858291585e-03,4.331971828337444208e-04,-2.396374364693643066e-02,-4.973341811015510872e-02,-5.919275236791873840e-02,-3.326478898525238037e-01,-3.068517169328977556e-01,-5.726261738262721640e-02,1.422013103780880305e-01,-8.615422128765222454e-02,1.990361526446497997e-01,-2.245461467576987946e-01,-5.515521168708801408e-02,2.221500098705291582e-01,-1.574077606201171875e-01,5.359199238231666662e-01,-6.383779048919677734e-01,-8.871022462844848633e-01,1.539786371769868936e+02,0.000000000000000000e+00
6.680850000000000399e-01,5.065323479195563486e-03,-8.973824404213237571e-03,9.034438729286193848e-01,-7.130627071492558894e-03,-1.154162932437863276e-03,-2.112469561458667905e-02,-5.147072602159706578e-02,-4.377302755616790941e-02,-3.362343311309814453e-01,-2.616069363503429335e-01,-7.915958259821113951e-02,1.529545533604237395e-01,-7.667111335555469587e-03,1.852811380923156670e-01,-2.200645420544678488e-01,-2.367441058158874581e-02,2.216191649436950739e-01,-1.608231067657470703e-01,5.370234832327109853e-01,-6.376825571060180664e-01,-1.030915141105651855e+00,1.091990085632236855e+02,0.000000000000000000e+00
6.956200000000000161e-01,3.116309218579110373e-03,-1.262996740316545477e-02,8.940276503562927246e-01,-1.579016758940401943e-02,-5.000613530703912346e-03,-1.726254360438079713e-02,-6.186310031025205047e-02,-4.451704269689431975e-02,-3.375859260559082031e-01,-2.700529738922274325e-01,-1.445956069389324750e-01,1.076103277379294731e-01,1.763824332613438406e-01,1.491467056090258758e-01,-2.110923644211172567e-01,1.087420105934143039e-01,2.188107848167419323e-01,-1.624393701553344671e-01,5.382535125899621242e-01,-6.344947218894958496e-01,-1.604352474212646484e+00,2.278061041043305224e+01,0.000000000000000000e+00
7.195500000000000229e-01,1.784620774298557346e-03,-1.489335674654800740e-02,8.877444267272949219e-01,-2.147957671247855208e-02,-8.489969867425228855e-03,-1.456553250688640000e-02,-5.992689497881754923e-02,-3.888324528682091802e-02,-3.232700824737548828e-01,-2.632282563301841516e-01,-1.750291424679545071e-01,1.100811657154848744e-01,2.823168635368347168e-01,1.257677487373085323e-01,-1.977378497356675757e-01,1.823168635368347112e-01,2.163478553295135332e-01,-1.564386606216430498e-01,5.378686155485156162e-01,-6.457926034927368164e-01,-1.084501862525939941e+00,1.752739239146577006e+02,0.000000000000000000e+00
7.463279999999999914e-01,-3.023518174177447851e-04,-1.800174883285097366e-02,8.782790303230285645e-01,-2.924272792202530641e-02,-1.423363212009909340e-02,-1.052789632825243925e-02,-6.147057186043443366e-02,-3.503987655756580361e-02,-3.222056031227111816e-01,-2.404497491920984387e-01,-1.931663770284287318e-01,9.067300338558495487e-02,3.089005947113037109e-01,1.093808174133300559e-01,-1.743874465456642098e-01,2.089005947113037054e-01,2.093808174133300615e-01,-1.439486861228942705e-01,5.386724356273483449e-01,-6.566704511642456055e-01,-1.341474175453186035e+00,1.034530231314912498e+02,0.000000000000000000e+00
7.690139999999999754e-01,-1.767309532943810288e-03,-1.989400413512869628e-02,8.720023036003112793e-01,-3.384133915299926409e-02,-1.852968279002253915e-02,-7.568509594655683376e-03,-7.228129578445260939e-02,-3.313861656034999825e-02,-3.332656621932983398e-01,-2.650663677127100271e-01,-2.190424226011681297e-01,1.767982941559448351e-01,3.133309602737426869e-01,8.611331582069395307e-02,-1.512501102147947030e-01,2.133309602737426813e-01,1.861133158206939586e-01,-1.286629557609557939e-01,5.402820950508244735e-01,-6.590284705162048340e-01,-1.371919512748718262e+00,1.158414426631419616e+02,0.000000000000000000e+00
7.954999999999999849e-01,-3.760742937681305510e-03,-2.319308391779948894e-02,8.628659248352050781e-01,-3.877413112659040123e-02,-2.495976420444301347e-02,-3.127156922676351848e-03,-7.176614606040172817e-02,-1.630880999893529609e-02,-3.325171172618865967e-01,-1.506238417715979327e-01,-1.890488494047081192e-01,1.750264754292188418e-01,3.151129841804504172e-01,-1.057844161987304965e-02,-1.036396907307885473e-01,2.151129841804504395e-01,8.942155838012695590e-02,-9.298896789550781250e-02,5.413369385172674964e-01,-6.568328738212585449e-01,-1.372441411018371582e+00,1.182711048754555776e+02,0.000000000000000000e+00
8.252749999999999808e-01,-5.929587329842445076e-03,-2.609952357946028478e-02,8.542518615722656250e-01,-4.046375924082148273e-02,-3.173461011191958114e-02,8.086050155930433504e-04,-7.581407601193906887e-02,-1.271120445591498137e-02,-3.259330689907073975e-01,-3.484298964970296980e-02,-1.808149290046516811e-01,1.343448995465524876e-01,3.163561701774597057e-01,-1.802270174026489313e-01,-7.713949940736149202e-02,2.163561701774597001e-01,-8.022701740264892578e-02,-7.696173191070555808e-02,5.417140749662542332e-01,-6.675516963005065918e-01,-1.400640606880187988e+00,9.955068334166367094e+01,0.000000000000000000e+00
8.460140000000000438e-01,-6.705210710932352561e-03,-2.699311804675895432e-02,8.514525890350341797e-01,-3.989611962047626137e-02,-3.387903584104945409e-02,2.026803048725595805e-03,-7.786870574174305226e-02,-1.337240138341743746e-02,-3.098855018615722656e-01,6.182913630488802437e-02,-1.865963605141973403e-01,1.159618524343149770e-01,3.171727418899535911e-01,-2.324564933776855358e-01,-5.795599699502961000e-02,2.171727418899536133e-01,-1.324564933776855302e-01,-6.105841398239135465e-02,5.409735661347135904e-01,-6.794232130050659180e-01,-1.453857064247131348e+00,8.118347138042064159e+01,0.000000000000000000e+00
8.744539999999999536e-01,-8.299528137446526843e-03,-2.868697292039044250e-02,8.462653756141662598e-01,-3.783845154959922241e-02,-3.766192181737837430e-02,4.760775090806320005e-03,-8.844297297167534599e-02,-1.302772481862778282e-02,-3.105158507823944092e-01,1.115683864297381395e-01,-1.592479524644862254e-01,1.724281883621633926e-01,3.049478769302368386e-01,-2.867137908935546986e-01,-1.023001393587551558e-02,2.049478769302368053e-01,-1.867137908935546931e-01,-2.080364227294921944e-02,5.416946668743631843e-01,-6.857092380523681641e-01,-7.711805105209350586e-01,1.632469033523707083e+02,0.000000000000000000e+00
8.965710000000000068e-01,-9.136213840471434436e-03,-2.946376525128125215e-02,8.437380790710449219e-01,-3.591426944526577431e-02,-3.964018749575970446e-02,5.835082314438340065e-03,-7.757645754106740066e-02,-5.252758468563294668e-03,-3.009983599185943604e-01,1.467705226776015726e-01,-1.742910183153243975e-01,1.158987077202908444e-01,2.985965490341186412e-01,-2.901886463165282981e-01,1.477562712871367465e-02,1.985965490341186357e-01,-1.901886463165283203e-01,1.055556535720825152e-03,5.416107131989844614e-01,-6.853569746017456055e-01,-9.494086503982543945e-01,9.620365842192565253e+01,0.000000000000000000e+00
9.218560000000000088e-01,-1.244163650026691367e-02,-3.199869879458743654e-02,8.338130116462707520e-01,-2.600857209580767840e-02,-4.547988713989270515e-02,1.022508940312577205e-02,-8.794716164393458213e-02,6.635362026369663081e-03,-2.940326333045959473e-01,2.874540856386693655e-01,-1.159849179952979203e-01,8.991521733276007511e-02,2.540447711944580078e-01,-3.014007806777954102e-01,5.126770982473662086e-02,1.540447711944580023e-01,-2.014007806777954046e-01,2.483092546463012626e-02,5.424084130668606063e-01,-6.758597493171691895e-01,-1.325566172599792480e+00,9.864863391835842776e+01,0.000000000000000000e+00
9.482429999999999470e-01,-1.426070574172145014e-02,-3.305159855246113387e-02,8.290447592735290527e-01,-2.003769783600429372e-02,-4.716326193904962771e-02,1.180852422612387563e-02,-1.028027731547158097e-01,-2.072127135470227914e-03,-2.889384031295776367e-01,3.029590638447899886e-01,-7.643547166061144538e-02,9.359976878039903692e-02,2.462815999984741266e-01,-3.036674976348877064e-01,5.331058686620189502e-02,1.462815999984741211e-01,-2.036674976348877009e-01,2.218769788742065360e-02,5.429584087407777204e-01,-6.673110723495483398e-01,-1.241144299507141113e+00,1.369514536893870229e+02,0.000000000000000000e+00
9.761410000000000364e-01,-1.710261528067082495e-02,-3.439026745833411586e-02,8.221598863601684570e-01,-1.054521830492182073e-02,-4.683362736984331143e-02,1.375851577058188717e-02,-1.010470672253511032e-01,1.955084447342460979e-02,-3.108670413494110107e-01,2.987341369412832015e-01,9.902412210399828829e-02,9.246453901087321736e-02,1.717696306943222728e-01,-3.027949571609497292e-01,2.514749437275207861e-02,1.106456279754638589e-01,-2.027949571609496959e-01,-1.242331266403198277e-02,5.455123664305532305e-01,-6.626311540603637695e-01,-1.008248448371887207e+00,9.821141984920757295e+01,0.000000000000000000e+00
9.932969999999999855e-01,-1.809121468102620547e-02,-3.476795715294497824e-02,8.198927640914916992e-01,-7.392987936167071117e-03,-4.584690964680371295e-02,1.411727859409547987e-02,-1.048806191649972047e-01,4.734875031713240909e-03,-2.908239662647247314e-01,3.369835304424182443e-01,1.162370065224070659e-01,3.302883195934001176e-02,1.005889716749037988e-01,-3.052377700805664062e-01,1.656615457811351153e-02,7.348626852035522461e-02,-2.052377700805664007e-01,-2.210093736648559640e-02,5.448240540048980840e-01,-6.547219157218933105e-01,-1.088878273963928223e+00,1.054254383298183626e+02,0.000000000000000000e+00
1.026418999999999970e+00,-2.239228533764081597e-02,-3.691856944998731654e-02,8.109421133995056152e-01,5.149209983652429552e-03,-3.828107822850346231e-02,1.548611543160678498e-02,-1.107508765762845737e-01,1.247063175234709546e-02,-2.860544323921203613e-01,3.577434173631726666e-01,2.514293479986193236e-01,-1.421616593513534005e-02,-1.440730470465662605e-01,-3.036416769027709961e-01,-3.721441384789971052e-02,-9.612489938735961637e-02,-2.036416769027709905e-01,-8.077833652496337058e-02,5.455856913994756585e-01,-6.525480151176452637e-01,-9.257177114486694336e-01,1.092557810956048314e+02,0.000000000000000000e+00
1.048229999999999995e+00,-2.349669467618360416e-02,-3.743845908146332252e-02,8.087649345397949219e-01,8.140884545477546086e-03,-3.578393298996251914e-02,1.590010105416226477e-02,-1.211439981421192635e-01,5.541691641743133091e-03,-2.923074662685394287e-01,3.278514057723609931e-01,2.366262386713733623e-01,4.268640284151011682e-02,-1.940564066302345458e-01,-2.977511167526245006e-01,-5.360389170284216021e-02,-1.206062078475952093e-01,-1.977511167526244951e-01,-9.846367835998534601e-02,5.465492974456066522e-01,-6.563811302185058594e-01,-9.631670713424682617e-01,1.054695886726133267e+02,0.000000000000000000e+00
1.076128999999999891e+00,-2.814913017006245161e-02,-3.940340145123082810e-02,8.001783490180969238e-01,2.139556656658523487e-02,-2.413687732746860881e-02,1.576123819789469402e-02,-1.205258754696314077e-01,5.524886367225420765e-03,-2.857690453529357910e-01,3.701778387531547976e-01,2.847455272175239416e-01,2.452762871870079603e-02,-2.763386130332946555e-01,-1.790439128875732644e-01,-5.317212233755956585e-02,-1.763386130332946777e-01,-7.904391288757324496e-02,-9.827066659927367887e-02,5.466776795620058582e-01,-6.816036105155944824e-01,-1.222742915153503418e+00,1.312751156966211852e+02,0.000000000000000000e+00
1.096597000000000044e+00,-2.934425290828409499e-02,-3.988541358341929355e-02,7.981570363044738770e-01,2.413948273927040908e-02,-2.079858146043722655e-02,1.561713128445201861e-02,-1.300343765931776252e-01,-5.843121825954375806e-03,-2.825565040111541748e-01,2.430604511459344419e-01,3.238397541593609485e-01,2.455556219280131264e-02,-2.821352243423461692e-01,-1.486129283905029408e-01,-5.104699085812067216e-02,-1.821352243423461914e-01,-4.861292839050292830e-02,-9.576144218444823664e-02,5.470340062114794621e-01,-6.815859079360961914e-01,-1.281102776527404785e+00,1.027629144781315063e+02,0.000000000000000000e+00
1.123675999999999897e+00,-3.324184390736997785e-02,-4.076741292932400257e-02,7.919957637786865234e-01,3.282063122933567140e-02,-1.085150466820139492e-02,1.571845976915980936e-02,-1.162619916202797671e-01,1.237849037303966580e-02,-3.026762008666992188e-01,2.420971419835007965e-01,3.785876711215772072e-01,3.630891944263991977e-02,-2.971295952796936257e-01,8.870554566383359596e-02,-6.453954038298405360e-02,-1.971295952796935924e-01,1.887055456638336015e-01,-1.095986723899841225e-01,5.496742495235015236e-01,-6.619269251823425293e-01,-1.059632658958435059e+00,9.721284619255170867e+01,0.000000000000000000e+00
1.154900999999999955e+00,-3.720034597015767219e-02,-4.140760500397563243e-02,7.862648367881774902e-01,3.960593438454342030e-02,-9.094957949109527817e-04,1.591308388595396098e-02,-1.231696620616979793e-01,-4.680142698568244899e-03,-2.785856723785400391e-01,1.999741408525248232e-01,3.072808681724036317e-01,2.820060664933539754e-02,-2.999577164649963601e-01,1.035252332687377763e-01,-3.757552182679356478e-02,-1.999577164649963268e-01,2.035252332687377819e-01,-8.291823863983154019e-02,5.489079842739869042e-01,-6.577608585357666016e-01,-1.706649959087371826e+00,9.613959807770010002e+01,0.000000000000000000e+00
1.172755999999999910e+00,-3.982548361987313379e-02,-4.189815939318398963e-02,7.823965549468994141e-01,4.260772867389132912e-02,6.253739002270108926e-03,1.619699678106739302e-02,-1.100933909513910347e-01,-1.834004289467149659e-03,-2.732837498188018799e-01,1.272265235042878695e-01,3.856034436685342737e-01,7.587704315148532073e-03,-2.971194922924041970e-01,1.617481165221297257e-01,1.467965593740584718e-02,-1.971194922924041637e-01,2.119565606117248535e-01,-3.108258247375488004e-02,5.491817756140449092e-01,-6.608029603958129883e-01,-6.367787122726440430e-01,1.117862978812028558e+02,0.000000000000000000e+00
1.195510999999999990e+00,-4.361554748365144979e-02,-4.259726091603635578e-02,7.768612504005432129e-01,4.323686351943402395e-02,1.767659627805651112e-02,1.722713258778242953e-02,-1.195190707447050527e-01,-1.229668250355384941e-02,-2.786682248115539551e-01,-6.031481373413308950e-02,3.880827773391832825e-01,3.880560794190991095e-03,-2.944304704666137473e-01,2.321130838747652303e-01,4.850567222669869422e-02,-1.944304704666137695e-01,2.186201512813568115e-01,3.904938697814941189e-04,5.506117248214849047e-01,-6.490602493286132812e-01,-1.291831851005554199e+00,1.142729238711943793e+02,0.000000000000000000e+00
1.218245000000000022e+00,-4.649243757004112992e-02,-4.301019939297105743e-02,7.730858325958251953e-01,4.131374366186640196e-02,2.504251538440005476e-02,1.835691357842676730e-02,-1.070967329714059835e-01,-8.538002144647460073e-03,-2.756071686744689941e-01,-1.426803265486254746e-01,3.624235179570136633e-01,9.380869589533599728e-02,-3.056064307689666526e-01,2.901696088562579767e-01,3.287923021882131758e-02,-2.056064307689666748e-01,2.208014667034149114e-01,-1.796089410781860282e-02,5.512332785433329274e-01,-6.414979696273803711e-01,-1.167472243309020996e+00,9.846524333914359772e+01,0.000000000000000000e+00
1.244259000000000004e+00,-5.063418437137531813e-02,-4.366634128057284708e-02,7.676293849945068359e-01,3.567940619818360526e-02,3.385905348390738645e-02,1.985918710674006160e-02,-1.124731407645419984e-01,-1.507891960857098319e-02,-2.716898024082183838e-01,-2.066667264565505147e-01,2.135725372224308583e-01,7.274621198974229319e-02,-3.108795464038848766e-01,3.221045196056365745e-01,1.690309752554367689e-02,-2.108795464038848710e-01,2.221045196056365967e-01,-3.791520595550536971e-02,5.519123523481116456e-01,-6.348898410797119141e-01,-1.229195475578308105e+00,1.256237078943259178e+02,0.000000000000000000e+00
1.273117000000000054e+00,-5.455733114178450138e-02,-4.442340138407718797e-02,7.622669339179992676e-01,2.826182338224825577e-02,3.927658000482803224e-02,2.121304433280142912e-02,-9.260346652811797530e-02,-1.350676342490807029e-02,-2.731501460075378418e-01,-2.357248766554998487e-01,1.382533595477067057e-01,3.103511726568430190e-02,-3.118528485298156516e-01,3.239918828010558971e-01,4.400715239922493860e-02,-2.118528485298156738e-01,2.239918828010558915e-01,-1.455069780349731341e-02,5.528986534814185339e-01,-6.310180425643920898e-01,-9.969948530197143555e-01,-9.982983317304210402e+01,0.000000000000000000e+00
1.294664999999999955e+00,-5.702149217454981212e-02,-4.500017519217466844e-02,7.588583827018737793e-01,2.307617116930827869e-02,3.987604916139320110e-02,2.205733468817124010e-02,-9.833750973027291509e-02,-2.581375854592753150e-02,-2.405673563480377197e-01,-2.250203869088047148e-01,-3.057250429792523344e-02,3.472477304937681558e-02,-3.109673082828521840e-01,3.240953445434570090e-01,3.735860891019271435e-02,-2.109673082828521784e-01,2.240953445434570312e-01,-2.381622791290283203e-02,5.510361606190343764e-01,-6.457080245018005371e-01,-1.407080054283142090e+00,1.373038641298029745e+02,0.000000000000000000e+00
1.321469000000000005e+00,-6.141330486583892329e-02,-4.445633069532029663e-02,7.538492083549499512e-01,1.430851710199709803e-02,3.848338778745508115e-02,2.278797471941669192e-02,-8.554381196818060251e-02,-2.231015067802480031e-02,-2.387551367282867432e-01,-2.912908938110492230e-01,-6.648929399858391487e-02,-1.734522540017231773e-02,-2.975031733512878418e-01,3.244744658470153920e-01,4.350363570967427651e-02,-1.975031733512878362e-01,2.244744658470153864e-01,-2.000459432601928503e-02,5.517349833850859753e-01,-6.427130103111267090e-01,-1.036338210105895996e+00,1.069359210043883479e+02,0.000000000000000000e+00
1.343750999999999918e+00,-6.414668503814931200e-02,-4.411795682256025586e-02,7.506096363067626953e-01,7.623445509424884615e-03,3.553431911715532188e-02,2.312999907139444422e-02,-7.836999380009097849e-02,-1.847106645416274687e-02,-2.459878921508789062e-01,-3.675342829100824993e-01,-1.554924309125404747e-01,6.677288580667829765e-02,-2.696894063237701422e-01,3.245242655277252308e-01,3.475349903190155798e-02,-1.846573591232299749e-01,2.245242655277252253e-01,-2.993774414062500000e-02,5.528808220341127067e-01,-6.439378261566162109e-01,-1.314522862434387207e+00,9.038118853186740864e+01,0.000000000000000000e+00
1.370138000000000078e+00,-6.797943929830568832e-02,-4.357603199481960982e-02,7.459040284156799316e-01,-2.103790129691131012e-03,2.886948394316846134e-02,2.343768567545339437e-02,-8.319341375927667703e-02,-2.366228408461297159e-02,-2.253540605306625366e-01,-2.928757585907930117e-01,-2.557491362410359570e-01,4.092603109866661121e-02,-1.492748204437157888e-01,3.144091991205705816e-01,-9.809198586830325528e-03,-1.233300447463989147e-01,2.243898689746856578e-01,-7.558679580688476562e-02,5.520479154743646033e-01,-6.524952650070190430e-01,-1.045750975608825684e+00,1.588976028134466674e+02,0.000000000000000000e+00
1.396382000000000012e+00,-7.174590656590955351e-02,-4.299834636101476648e-02,7.415187954902648926e-01,-1.205339969356265632e-02,2.001752652653432385e-02,2.370163328403650238e-02,-5.592527498401109881e-02,-2.440830107778932650e-03,-2.202742099761962891e-01,-3.075256118184339083e-01,-3.235903739518036226e-01,1.609164462393538469e-02,1.385075140071352351e-01,2.745727049525630847e-01,-3.800196347499423810e-02,8.476724624633788507e-02,2.249331057071685680e-01,-1.045314073562622070e-01,5.522270733056912073e-01,-6.625646352767944336e-01,-6.479603052139282227e-01,-8.919658784297708110e+01,0.000000000000000000e+00
1.420188999999999924e+00,-7.442556339684204547e-02,-4.256096155430859340e-02,7.386643886566162109e-01,-1.899115775442217213e-02,1.360134414977798301e-02,2.374096406467293002e-02,-6.940702390328014337e-02,-6.910426725064555166e-03,-1.956813484430313110e-01,-3.164631796085602966e-01,-3.697077163765581376e-01,-2.526794640835152567e-02,2.726369234454513180e-01,2.169103555248896864e-01,1.860029660924921585e-02,1.795350909233093262e-01,2.242997467517852672e-01,-4.783086776733398021e-02,5.508738525850509493e-01,-6.766995191574096680e-01,-1.457482695579528809e+00,1.211504257615878117e+02,0.000000000000000000e+00
1.442385000000000028e+00,-7.701043977810866081e-02,-4.205203146635311251e-02,7.358617186546325684e-01,-2.630955754402029487e-02,7.092121516534710679e-03,2.400945925467026093e-02,-6.444588077715118768e-02,5.160373542401521484e-03,-2.095465362071990967e-01,-4.004514973211942830e-01,-3.230961005267593555e-01,5.311862377960294146e-02,3.101104497909545898e-01,1.774909632603135501e-01,-4.100939690806937321e-03,2.101104497909545843e-01,2.235455989837646373e-01,-7.102775573730468750e-02,5.524132971228673528e-01,-6.789667606353759766e-01,-1.462979316711425781e+00,1.075428908876233969e+01,0.000000000000000000e+00
1.472804000000000002e+00,-8.075852740034708543e-02,-4.095699253145399649e-02,7.317571640014648438e-01,-3.683000482592858199e-02,-3.648640278990811225e-03,2.441955473640269186e-02,-6.587507445780918514e-02,2.071555459737869920e-02,-2.067808061838150024e-01,-3.659312863071710331e-01,-3.527952689439061151e-01,4.668243976879325741e-02,3.228559494018554688e-01,1.155588388442992942e-01,1.027843855566875492e-01,2.228559494018554632e-01,2.155588388442992998e-01,3.541703224182128629e-02,5.524778808161365795e-01,-7.044471502304077148e-01,-1.287408232688903809e+00,1.017461520277158940e+02,0.000000000000000000e+00
1.496272000000000046e+00,-8.319725449823738017e-02,-4.001819900373462802e-02,7.292288541793823242e-01,-4.307025788722076282e-02,-1.096436657388588642e-02,2.441398181399759976e-02,-6.806718210671164337e-02,2.619295077935534719e-02,-1.819270253181457520e-01,-2.460390418971234450e-01,-4.372335335602625661e-01,-2.784924686594643026e-02,3.230683803558349609e-01,7.683249711990355890e-02,9.675149857743749193e-02,2.230683803558349554e-01,1.768324971199035645e-01,3.004531860351562431e-02,5.513475739357893701e-01,-7.029181718826293945e-01,-1.392087101936340332e+00,1.024857863827474063e+02,0.000000000000000000e+00
1.519970999999999961e+00,-8.548416325286850581e-02,-3.922216864733349406e-02,7.267928123474121094e-01,-4.914470623810724553e-02,-1.786080570069592532e-02,2.498253252601944849e-02,-7.064285590450775087e-02,3.595069346383068798e-02,-1.773827970027923584e-01,-3.262573021148856833e-01,-3.170031079071205515e-01,1.934239311093633243e-02,3.229972839355468861e-01,-6.807581186294556219e-02,-1.322378022448500445e-02,2.229972839355468806e-01,3.192418813705444336e-02,-8.081692457199096680e-02,5.515096025137420366e-01,-7.080984115600585938e-01,-1.620079874992370605e+00,1.191870742242893044e+02,0.000000000000000000e+00
1.544089999999999963e+00,-8.880210352436075649e-02,-3.815635416334530600e-02,7.231719493865966797e-01,-5.484095003748265529e-02,-2.851829799311378366e-02,2.586057731913624438e-02,-7.564093834364823965e-02,4.876938701970830875e-02,-1.709021329879760742e-01,-1.219730828146272233e-01,-3.533793562519460529e-01,1.818483474507691898e-03,3.209048032760620228e-01,-2.304821729660034291e-01,-2.049937006818322582e-02,2.209048032760620173e-01,-1.304821729660034235e-01,-8.946486711502074640e-02,5.519088483592105021e-01,-6.969016790390014648e-01,-1.412681221961975098e+00,6.692338877088968729e+01,0.000000000000000000e+00
1.571693000000000007e+00,-9.221841620159798580e-02,-3.676946462000695720e-02,7.198010087013244629e-01,-5.505328156340748985e-02,-3.866472322879466184e-02,2.671710018647281693e-02,-7.939677179342288782e-02,5.867259093551251137e-02,-1.524333953857421875e-01,4.800008882639448214e-03,-2.748618033137144034e-01,4.245554939925975935e-02,3.172281384468078613e-01,-2.703735589981078880e-01,4.295863059502678244e-02,2.172281384468078558e-01,-1.703735589981079102e-01,-2.763429880142211775e-02,5.515049297927819838e-01,-6.819732785224914551e-01,-1.598956227302551270e+00,1.564132171255029107e+02,0.000000000000000000e+00
1.595132999999999912e+00,-9.459085346376119863e-02,-3.567776330604134627e-02,7.176856994628906250e-01,-5.171225650265807300e-02,-4.507000817883644039e-02,2.712619367741058232e-02,-8.884651600772132396e-02,6.750130692811366628e-02,-1.490226238965988159e-01,2.423910826184405010e-01,-2.928845665177248758e-01,1.291656318068205508e-02,3.127611875534057617e-01,-2.882792711257934348e-01,1.125352534925971593e-01,2.127611875534057562e-01,-1.882792711257934570e-01,4.099393486976623396e-02,5.516767563380570172e-01,-6.891905069351196289e-01,-1.658633828163146973e+00,1.222991952780922560e+02,0.000000000000000000e+00
1.619599000000000011e+00,-9.663073730010186824e-02,-3.479762173007388409e-02,7.157300114631652832e-01,-4.684588682756520017e-02,-5.013163900029082853e-02,2.667956253999239843e-02,-1.003892451122215812e-01,7.452152115074191230e-02,-1.315251439809799194e-01,2.524962184360899919e-01,-2.133312415556083141e-01,-4.332876267537303511e-02,3.109000921249389648e-01,-2.952228307723999134e-01,1.574474746348025200e-01,2.109000921249389593e-01,-1.952228307723999079e-01,8.705484867095947266e-02,5.508934676955841159e-01,-6.933751702308654785e-01,-1.480525970458984375e+00,1.457708398325175949e+02,0.000000000000000000e+00
1.646829000000000098e+00,-1.003648439533162545e-01,-3.334124149615660254e-02,7.119444608688354492e-01,-3.417242113815059656e-02,-5.605021298460988177e-02,2.570581964983898252e-02,-1.122183798097056012e-01,9.304325645913789911e-02,-1.176375150680541992e-01,3.485809942491229774e-01,-8.984617240519274239e-02,-8.436926318264427807e-04,2.957610249519347922e-01,-3.092484951019286998e-01,1.963800829756405797e-01,1.957610249519348145e-01,-2.092484951019286943e-01,1.275739073753356934e-01,5.507219863633994184e-01,-6.842074990272521973e-01,-1.460351705551147461e+00,-9.660572433760762578e+01,0.000000000000000000e+00
1.669840999999999909e+00,-1.024261475770955471e-01,-3.230695738771912490e-02,7.100921273231506348e-01,-2.743676594857759679e-02,-5.695121802013503043e-02,2.554343944512867462e-02,-1.023891817167648793e-01,1.003702471746376196e-01,-1.239032372832298279e-01,3.160592866276351054e-01,-5.379767706281013417e-03,7.555311149345009768e-03,2.717534303665161133e-01,-3.100243687629699596e-01,2.225294777254485934e-01,1.717534303665161077e-01,-2.100243687629699540e-01,1.533859133720398005e-01,5.517647834473780044e-01,-6.777030825614929199e-01,-1.652428269386291504e+00,1.414892264682683845e+02,0.000000000000000000e+00
1.697260999999999909e+00,-1.057441622519729590e-01,-3.045641753768710269e-02,7.072158455848693848e-01,-1.775354996793110721e-02,-5.486085804323748150e-02,2.567204824237907801e-02,-1.207471511173122541e-01,1.005304611479543031e-01,-1.147453561425209045e-01,2.449294471558135233e-01,1.317324597416361653e-01,2.568664441374407872e-02,1.783043384552002175e-01,-3.098787784576416127e-01,2.204979181620547457e-01,7.830433845520019809e-02,-2.098787784576416071e-01,1.499452829360961859e-01,5.519249007548592267e-01,-6.653369665145874023e-01,-1.457148075103759766e+00,1.075456383312170487e+02,0.000000000000000000e+00
1.722078999999999915e+00,-1.077276469966496342e-01,-2.923211754551626254e-02,7.053882479667663574e-01,-1.090667276491759721e-02,-5.160546693588341505e-02,2.517166534390330446e-02,-1.180338092445640530e-01,1.174512658070107213e-01,-1.238331422209739685e-01,3.557574873826758188e-01,2.183145808375594743e-01,-8.259854848505956970e-03,1.994813799858093373e-01,-3.032881259918213113e-01,2.105395296357154278e-01,9.948137998580931785e-02,-2.032881259918212780e-01,1.404160737991332897e-01,5.532220940174794599e-01,-6.560642123222351074e-01,-1.539773583412170410e+00,1.194970008880678023e+02,0.000000000000000000e+00
1.745174999999999921e+00,-1.097969280388103042e-01,-2.792736957799861822e-02,7.035312056541442871e-01,-3.990089875537608174e-03,-4.729136912041509433e-02,2.397436792516445536e-02,-1.344884455022742065e-01,9.778660783108254761e-02,-9.591237455606460571e-02,3.395600722205129873e-01,2.087501571672390199e-01,-5.694441907602967867e-02,2.181619253304555028e-02,-3.045113563537597545e-01,2.042066032707244572e-01,-3.970389962196350236e-02,-2.045113563537597490e-01,1.369550943374633623e-01,5.519323575979863117e-01,-6.464185714721679688e-01,-3.221377134323120117e-01,-1.063463663959895200e+02,0.000000000000000000e+00
1.777039000000000035e+00,-1.130653555375261410e-01,-2.590844205255926277e-02,7.007338404655456543e-01,6.653128538193914254e-03,-3.890703110954052413e-02,2.180446130808291402e-02,-1.228594073924290653e-01,1.171144255390422495e-01,-1.030613929033279419e-01,3.188829063079873238e-01,3.245642873796246164e-01,-6.015614990644600757e-02,-8.941942367656494084e-02,-2.886894345283508301e-01,1.691289588846649483e-01,-9.899339675903319480e-02,-1.886894345283508245e-01,1.068160593509673989e-01,5.531665625403302533e-01,-6.357728838920593262e-01,-1.391125798225402832e+00,1.041742637870879236e+02,0.000000000000000000e+00
1.798561999999999994e+00,-1.141900437631978432e-01,-2.520547969122651638e-02,6.998240351676940918e-01,1.026599649903129838e-02,-3.614004236163004258e-02,2.098067591611595117e-02,-1.376011266843102654e-01,1.115938962223124720e-01,-1.008219048380851746e-01,3.567486737481662673e-01,3.087695776833944694e-01,-7.290122217269737193e-02,-1.626307136096850625e-01,-2.899607658386230691e-01,1.377887989655396384e-01,-1.433350682258605902e-01,-1.899607658386230358e-01,7.756261825561523715e-02,5.535387569878915670e-01,-6.303507089614868164e-01,-1.014847636222839355e+00,-1.120806653740520744e+02,0.000000000000000000e+00
1.826205000000000078e+00,-1.178118959503141466e-01,-2.299778394660459413e-02,6.970564126968383789e-01,2.023983312217956729e-02,-2.672950499270498881e-02,1.789380085164232401e-02,-1.406087085874032361e-01,1.108049427313269053e-01,-9.938604384660720825e-02,2.977890825498918370e-01,3.716436044151862350e-01,-1.380489172246496810e-01,-2.474676381903532230e-01,-2.760883450508117565e-01,4.600312712668960108e-02,-1.649689972400665283e-01,-1.760883450508117509e-01,-6.107890605926513325e-03,5.539648318574288410e-01,-6.318491697311401367e-01,-1.563274741172790527e+00,2.863190028369416140e+01,0.000000000000000000e+00
1.848621999999999987e+00,-1.204284801425252460e-01,-2.144876312401499535e-02,6.952655911445617676e-01,2.646172681934511745e-02,-2.062154581350150728e-02,1.592799105734208492e-02,-1.327355972854549204e-01,1.109719177670266538e-01,-9.349977970123291016e-02,2.921475558134620787e-01,3.103259267529649978e-01,-5.561639368526040406e-02,-2.754271805286407360e-01,-2.322929143905639593e-01,5.677636488245596524e-02,-1.754271805286407304e-01,-1.322929143905639537e-01,1.001822948455810547e-02,5.537562088011039885e-01,-6.471462845802307129e-01,-1.736270666122436523e+00,1.248598741790650593e+02,0.000000000000000000e+00
1.875780000000000003e+00,-1.243832826462227537e-01,-1.912856780489211733e-02,6.926084160804748535e-01,3.477784306440744044e-02,-1.077477026123085935e-02,1.252719017639946503e-02,-1.509657817191369655e-01,1.000584135789316237e-01,-8.188736438751220703e-02,2.841241785979313761e-01,3.043546912589612519e-01,-1.224020523722939846e-01,-2.841346681118011586e-01,-2.006221413612365723e-01,7.244361643296656772e-02,-1.841346681118011530e-01,-1.006221413612365667e-01,3.515932559967040877e-02,5.533006337503089123e-01,-6.582934260368347168e-01,-1.478002905845642090e+00,1.351365085023745394e+02,0.000000000000000000e+00
1.896600999999999981e+00,-1.270244082834899590e-01,-1.763496991200867725e-02,6.909019947052001953e-01,3.917920582024279202e-02,-3.978894872076921274e-03,1.051493979944620634e-02,-1.336212903608321179e-01,9.842871432648273022e-02,-8.795461803674697876e-02,1.392586522752995992e-01,3.880674022226504039e-01,-1.040910155338905518e-01,-2.847378432750701793e-01,-9.629225730896001645e-03,6.539731888834092455e-02,-1.847378432750701738e-01,9.037077426910400391e-02,3.406233787536620816e-02,5.538045545313596829e-01,-6.792974472045898438e-01,-6.189974546432495117e-01,1.080358273475705175e+02,0.000000000000000000e+00
1.921545000000000059e+00,-1.309476968489726167e-01,-1.540812555099027592e-02,6.881147623062133789e-01,4.285050841259218507e-02,5.961961209936417205e-03,8.014107951350688680e-03,-1.442720350918629824e-01,1.032648933169877797e-01,-8.970437943935394287e-02,2.085873023837084977e-02,3.335041243043681547e-01,-3.298961427758829307e-02,-2.921327114105224387e-01,1.066314637660980003e-01,2.261448814849977701e-02,-1.921327114105224609e-01,2.066314637660980058e-01,-1.332128047943115104e-03,5.542965571981736117e-01,-6.905576586723327637e-01,-1.289091467857360840e+00,1.262939816783359532e+02,0.000000000000000000e+00
1.945303000000000004e+00,-1.351460382613753897e-01,-1.333351975188440224e-02,6.853403449058532715e-01,4.328215079321218184e-02,1.580287005802061273e-02,5.690464261729452460e-03,-1.375082566385423533e-01,9.396288976101337120e-02,-8.793073892593383789e-02,-1.409719765622362980e-02,3.275070587625070195e-01,-6.311979535337938763e-02,-3.036967694759368785e-01,1.455296058564128359e-01,3.596110967343152387e-02,-2.036967694759368730e-01,2.178446173667907548e-01,1.925343275070190430e-02,5.544140044883898444e-01,-7.075902819633483887e-01,-1.295233130455017090e+00,1.388829219036398968e+02,0.000000000000000000e+00
1.969673999999999925e+00,-1.378323603633412331e-01,-1.198867595569712459e-02,6.835396885871887207e-01,4.162692354035932990e-02,2.217183597659522221e-02,4.542334119870518327e-03,-1.302506724752412748e-01,8.600156041853544708e-02,-7.336282730102539062e-02,-1.366078369964481287e-01,3.261557025761065431e-01,-6.117024827419259569e-02,-3.063626527786255105e-01,1.906600309531863158e-01,7.079899811067072446e-02,-2.063626527786254772e-01,2.200833499431610052e-01,5.778118371963500421e-02,5.537948310959535103e-01,-7.115364074707031250e-01,-1.064405798912048340e+00,-1.092019728653234694e+02,0.000000000000000000e+00
1.999873999999999929e+00,-1.404285682905471178e-01,-1.068819057035390319e-02,6.818127036094665527e-01,3.868859659229367809e-02,2.837584770158052550e-02,4.133225747135733409e-03,-1.266861284929713116e-01,9.341680689216332045e-02,-8.746687322854995728e-02,-1.668194238154744602e-01,3.148782971111738216e-01,-3.748464266527759840e-05,-3.054082512855529896e-01,2.336138257607891511e-01,5.355731941382315536e-02,-2.054082512855529841e-01,2.227118253707885687e-01,4.209569692611694197e-02,5.551755840282768251e-01,-7.162033915519714355e-01,-1.392927289009094238e+00,1.237213362859372836e+02,0.000000000000000000e+00
2.018567000000000000e+00,-1.440874824666888432e-01,-8.773512927319619334e-03,6.791058778762817383e-01,3.205615321257967998e-02,3.683948804756975726e-02,3.405578363350788944e-03,-1.120965463951134333e-01,8.445649203339353206e-02,-6.900884211063385010e-02,-2.537493541697843913e-01,2.716930471691188509e-01,2.739614735297620559e-03,-3.013479948043823464e-01,2.962640244454984861e-01,1.508604572622044004e-01,-2.013479948043823131e-01,2.239735007286071666e-01,1.419261217117309404e-01,5.543278507448989867e-01,-7.209047675132751465e-01,-4.914005994796752930e-01,1.145066119634572033e+02,0.000000000000000000e+00
2.046623999999999999e+00,-1.483699092660200891e-01,-7.585940072077891616e-03,6.765447258949279785e-01,2.403779735704026851e-02,4.263864321855348472e-02,2.781011533316313320e-03,-1.105493944358682673e-01,8.175418247225660351e-02,-6.346525251865386963e-02,-2.444519515918115171e-01,1.191871822314084645e-01,2.239472996412570846e-02,-2.887566328048706277e-01,3.244375586509704590e-01,2.020904955973048811e-01,-1.887566328048705944e-01,2.244375586509704534e-01,1.950015842914581132e-01,5.546195196208989486e-01,-7.122445702552795410e-01,-3.441917896270751953e-02,-4.316993402640420641e+01,0.000000000000000000e+00
2.071082999999999785e+00,-1.510802105299769993e-01,-6.804041902883575452e-03,6.747182607650756836e-01,1.860510790301662595e-02,4.430901656980723580e-02,2.048229832897289701e-03,-1.052873975839222764e-01,6.684702250031235304e-02,-4.812425747513771057e-02,-2.591995693728630923e-01,8.909413208148140792e-03,-4.391651636598974812e-02,-2.626942235826602579e-01,3.247973680496215598e-01,2.150025307516689743e-01,-1.739181876182556152e-01,2.247973680496215820e-01,2.098669409751892090e-01,5.541642093554550730e-01,-7.031030058860778809e-01,-1.311419367790222168e+00,1.858754156952713572e+02,0.000000000000000000e+00
2.095120999999999789e+00,-1.549179376304943012e-01,-5.629529131498002895e-03,6.723274588584899902e-01,1.002970855837828808e-02,4.382290616772155367e-02,1.838782213277847166e-03,-9.505588979974111119e-02,6.766951906673099315e-02,-4.398733749985694885e-02,-3.421678434639318089e-01,-4.189303519923815583e-02,-9.972048166045631087e-03,-1.740865592306447829e-01,3.248381018638610840e-01,2.195019411242941920e-01,-1.442447304725646973e-01,2.248381018638610784e-01,2.147490441799163874e-01,5.545179755159765911e-01,-6.944807171821594238e-01,-1.145335793495178223e+00,1.070038540658732842e+02,0.000000000000000000e+00
2.119486999999999899e+00,-1.572695556339102074e-01,-4.818979123536925625e-03,6.706650257110595703e-01,3.996037177417969231e-03,4.143100361386253816e-02,1.763498891681550707e-03,-9.066695295781571073e-02,8.503728311799774175e-02,-5.532036349177360535e-02,-3.050850521925451697e-01,-1.329669281277541248e-01,1.651587397097189006e-02,9.189118545543240382e-03,3.246009588241577370e-01,2.180493371911165490e-01,-1.254116892814636196e-02,2.246009588241577037e-01,2.133646130561828447e-01,5.556481195376845594e-01,-7.011349797248840332e-01,-1.708873569965362549e+00,7.437081530600731583e+01,0.000000000000000000e+00
2.144467999999999819e+00,-1.599904268312802857e-01,-3.410457331166108410e-03,6.691347956657409668e-01,-2.489123580664285521e-03,3.751625526271795685e-02,1.422152596873126973e-03,-9.603409311578041396e-02,7.257862283064087094e-02,-3.166710585355758667e-02,-2.915377725906691531e-01,-2.399735203958534291e-01,-1.331417859547524840e-02,1.748886885796541169e-01,2.946695650785998710e-01,2.124897567595212811e-01,1.207035899162292453e-01,2.241558194160461481e-01,2.085601329803466741e-01,5.545367426722969117e-01,-6.953322291374206543e-01,-1.391060709953308105e+00,1.097465028667135698e+02,0.000000000000000000e+00
2.179644000000000137e+00,-1.637657608996840597e-01,-1.121117947101589463e-03,6.670017242431640625e-01,-1.233092533638241277e-02,3.012998507211617216e-02,2.658304518001068152e-04,-6.791923700783464302e-02,8.846443533271300397e-02,-2.814070694148540497e-02,-3.029400349750792087e-01,-2.640301149707112716e-01,-9.795684519008995839e-02,2.901621818542480247e-01,2.630081688228300685e-01,2.026755870374669921e-01,1.901621818542480469e-01,2.231363475322723222e-01,2.018939673900604082e-01,5.548974668510304742e-01,-6.863241791725158691e-01,-8.485366106033325195e-01,1.036949757526497820e+02,0.000000000000000000e+00
2.226323999999999970e+00,-1.671816054000965779e-01,1.394059009449628806e-03,6.651185154914855957e-01,-2.206743337042970168e-02,2.098741628803413306e-02,-1.499194359496873593e-03,-6.799398674345913385e-02,8.323769467450484183e-02,-1.628673076629638672e-02,-3.195345887577713540e-01,-3.282074029119032010e-01,-7.029794150218846016e-02,3.165424227714538352e-01,1.942021750746844300e-01,2.024856186164740723e-01,2.165424227714538574e-01,2.200657367706298773e-01,2.067640900611877330e-01,5.548268563935853104e-01,-6.688926815986633301e-01,-7.957135438919067383e-01,1.084521956793744977e+02,0.000000000000000000e+00
2.256279999999999841e+00,-1.725261255020847651e-01,6.989944666008397409e-03,6.620080471038818359e-01,-3.676652917265295362e-02,3.776777748499160481e-03,-5.249282540612377861e-03,-5.421753770712427895e-02,1.106961951913522368e-01,-1.514935214072465897e-02,-2.291978907562985668e-01,-3.654213788000680307e-01,-4.227482119110618358e-02,3.166821479797363170e-01,1.077784299850463867e-01,1.855681129812653818e-01,2.166821479797363115e-01,2.077784299850463923e-01,2.009974658489227239e-01,5.550363764318907434e-01,-6.826428174972534180e-01,-4.893664121627807617e-01,9.916444980447779756e+01,0.000000000000000000e+00
2.274434999999999985e+00,-1.746086629117787059e-01,9.729523545460860845e-03,6.608840823173522949e-01,-4.093116976654526118e-02,-3.791641802451284349e-03,-7.101548338867119323e-03,-6.023717496297823631e-02,1.219073177803313979e-01,-8.241508156061172485e-03,-1.616541982770630104e-01,-3.704285371029466534e-01,-1.184892041106587607e-01,3.186070442199707142e-01,1.072029173374176025e-01,1.635821368312245228e-01,2.186070442199707087e-01,2.072029173374176081e-01,1.846454322338104137e-01,5.549746267306625569e-01,-6.814960837364196777e-01,-8.197752237319946289e-01,7.528832144740430010e+01,0.000000000000000000e+00
2.298725000000000129e+00,-1.776512413049376460e-01,1.403206597060484284e-02,6.595125794410705566e-01,-4.314460134769974170e-02,-1.494298098383350926e-02,-9.720111070428241393e-03,-5.718665477042065431e-02,1.232124234075547553e-01,3.298870986327528954e-03,-6.928503178671600871e-02,-3.389605361585568688e-01,-9.172215443438325178e-02,3.199938178062439187e-01,4.424129724502562366e-02,4.518140330847864039e-02,2.199938178062438854e-01,1.442412972450256292e-01,7.413303852081298828e-02,5.546992176940033215e-01,-6.738706827163696289e-01,-5.835603475570678711e-01,8.530316145001637551e+01,0.000000000000000000e+00
2.321792999999999996e+00,-1.796548244953657392e-01,1.704947376031971593e-02,6.586862802505493164e-01,-4.162356337916488930e-02,-2.226017441663197260e-02,-1.142205889004263737e-02,-6.147405319307511912e-02,1.459277026919558462e-01,8.842048235237598419e-03,1.505728347418615054e-01,-3.381401213646222925e-01,-7.374300855378737585e-02,3.172364354133606068e-01,-1.719692111015319880e-01,-5.187102583929846522e-02,2.172364354133606013e-01,-7.196921110153198242e-02,-1.808710098266601632e-02,5.547680434474210331e-01,-6.691322326660156250e-01,-5.888189077377319336e-01,8.479735862122024059e+01,0.000000000000000000e+00
2.344174000000000202e+00,-1.823913385609103321e-01,2.149854673404887756e-02,6.575701236724853516e-01,-3.658157279628368452e-02,-3.208369393050314322e-02,-1.420075902787009542e-02,-7.341604547904732880e-02,1.481055093115149768e-01,2.566853351891040802e-02,2.229433599218965389e-01,-3.172660331681912971e-01,-8.517918622343456647e-02,3.108428001403808483e-01,-2.916977643966675027e-01,-9.616297469232469586e-02,2.108428001403808427e-01,-1.916977643966674694e-01,-5.461449623107909879e-02,5.539133658949372263e-01,-6.723253726959228516e-01,-6.506112813949584961e-01,1.068139474861902585e+02,0.000000000000000000e+00
2.373580000000000023e+00,-1.851303464572217061e-01,2.607810428732238242e-02,6.566597819328308105e-01,-2.838755624954045209e-02,-4.099399961078042942e-02,-1.714728057873538686e-02,-7.155833863324742583e-02,1.609590194923236073e-01,3.189947083592414856e-02,3.451066623771439357e-01,-2.892115861786611064e-01,-1.047819350943315769e-01,3.090830564498901478e-01,-3.088310360908508301e-01,-7.004055433746728121e-02,2.090830564498901423e-01,-2.088310360908508245e-01,-2.093353271484374792e-02,5.537503361058832008e-01,-6.766683459281921387e-01,-6.031705141067504883e-01,6.665151309097733190e+01,0.000000000000000000e+00
2.397361000000000075e+00,-1.870812009642377205e-01,2.932363918545796352e-02,6.562007069587707520e-01,-2.230161228610917992e-02,-4.624328771601793342e-02,-1.894774114582847141e-02,-8.689367659511267050e-02,1.585447718575880016e-01,2.831354737281799316e-02,2.756745786584202107e-01,-2.515005289037733349e-01,-4.758791902773891469e-02,3.034508109092712291e-01,-3.160293340682983620e-01,-4.520238815974109148e-02,2.034508109092712236e-01,-2.160293340682983287e-01,8.434653282165527344e-03,5.542920590817372872e-01,-6.787876486778259277e-01,-8.516892194747924805e-01,9.106187152417254538e+01,0.000000000000000000e+00
2.421753999999999962e+00,-1.890852312515678146e-01,3.269431926317086651e-02,6.556740403175354004e-01,-1.524427671020214294e-02,-5.026908761828763339e-02,-2.086426831974357368e-02,-9.016751700553625459e-02,1.795971319430338109e-01,3.897084668278694153e-02,3.779515164614287159e-01,-1.679890030533678635e-01,-1.083649439518678675e-01,2.836851477622985840e-01,-3.195075511932373158e-01,-6.830770106888875426e-02,1.836851477622985784e-01,-2.195075511932373102e-01,-1.036223173141479457e-02,5.540009611941065781e-01,-6.717640757560729980e-01,-3.893069028854370117e-01,-6.227878756452108533e+00,0.000000000000000000e+00
