timestamp,x,y,z,roll,pitch,yaw,vx,vy,vz,p,q,r,psp,qsp,rsp,pres,qres,rres,thrust_sp, thrust_res
0.000000000000000000e+00,-2.318529408546849292e-03,-9.076563650381593365e-03,9.876919388771057129e-01,1.063196224633118463e-02,-7.282996585709300419e-03,-2.734590562107551328e-03,9.771062868351654968e-03,-6.511219201166421576e-03,2.109489589929580688e-02,4.946979548492788648e-02,-6.086216074315779767e-02,2.017415759415872381e-02,1.258558905106473280e-01,1.365417594064632922e-01,1.684109093105852217e-01,2.059400796890258623e-01,1.774254977703094427e-01,1.759889602661132701e-01,4.998697026061000859e-01,-6.030042171478271484e-01,-9.409779310226440430e-01,9.440883497220804088e+01,0.000000000000000000e+00
2.415099999999999886e-02,-2.403175293695845871e-03,-9.560511390597352041e-03,9.879218339920043945e-01,1.041375733685221544e-02,-7.210150095527723124e-03,-3.081258376181965266e-03,2.854053628644663294e-03,-1.491465638696730205e-02,1.095182076096534729e-02,-5.755078114903934561e-02,-2.759509310735948351e-02,-2.509890660567119444e-02,1.853906910961083954e-02,1.484388531043346338e-01,-2.047158801324491517e-01,1.034040927886962918e-01,1.959210991859436091e-01,-1.961678981781005693e-01,4.986502798706325956e-01,-7.059940099716186523e-01,-1.001448035240173340e+00,8.275683960667893757e+01,0.000000000000000000e+00
4.988499999999999879e-02,-2.636820935361254385e-03,-1.041124607771954508e-02,9.882866740226745605e-01,1.058935956815850073e-02,-7.365367176692672047e-03,-3.260603059960689998e-03,9.798178234488055111e-03,-1.212813133968755272e-02,4.258292727172374725e-03,-2.305989808495137461e-02,1.381887878678057097e-02,2.386249976450055890e-02,1.360462069985556299e-01,1.779028829366398612e-01,-5.300026942307291961e-02,2.191408753395080455e-01,2.199086844921112061e-01,-4.394659996032714705e-02,5.104129834800598120e-01,-1.114337444305419922e-01,-9.171324968338012695e-01,9.978485637735757052e+01,0.000000000000000000e+00
7.389600000000000335e-02,-2.929428525616809172e-03,-1.124855581950291207e-02,9.885728955268859863e-01,1.101287779112287459e-02,-7.813221991347596429e-03,-2.881635148033699894e-03,-7.465361950769681953e-03,-8.701776991566335592e-03,7.760108914226293564e-03,2.308498483480284427e-02,-3.475478655362302521e-02,5.763143800036669290e-02,3.380183962074666260e-02,1.009811382271106617e-01,-2.604239302548176996e-02,1.179419159889221191e-01,1.610605180263519343e-01,-1.809139251708984444e-02,4.987795631297374799e-01,-7.098218202590942383e-01,-5.107952356338500977e-01,8.932562377677696475e+01,0.000000000000000000e+00
1.005000000000000060e-01,-3.193141769356486973e-03,-1.180169867507184153e-02,9.888204336166381836e-01,1.176751638786713641e-02,-8.776091473815972321e-03,-1.862813167594657175e-03,-5.468909347012702524e-03,-1.065771286265394108e-02,1.449041813611984253e-02,3.378402377931410960e-02,-1.822601562884006501e-02,2.651714779919143311e-02,-5.633585974696867643e-02,1.423943421892222283e-01,1.216281668628409196e-01,3.523664474487304271e-02,2.047777175903320312e-01,1.267170667648315485e-01,5.001024028483909145e-01,-6.129220724105834961e-01,-1.012041926383972168e+00,9.280708730994834355e+01,0.000000000000000000e+00
1.258340000000000014e-01,-3.693033757455076171e-03,-1.274473814161105126e-02,9.894192814826965332e-01,1.416540909333641879e-02,-1.268775162063984219e-02,-1.162391295611052162e-03,-1.135009575272646204e-02,-2.127684231417738964e-02,2.542000450193881989e-02,1.198112932257442420e-01,-1.710139198915617553e-01,-2.435628078524897794e-02,1.010391473770141380e-01,1.883467733668066357e-02,2.028985427983608925e-01,2.010391473770141435e-01,1.120768904685974093e-01,2.059433341026306041e-01,5.012198810048941189e-01,-5.081897377967834473e-01,-1.113826394081115723e+00,1.183052011797922773e+02,0.000000000000000000e+00
1.490889999999999993e-01,-3.891256932231803960e-03,-1.354529296410133220e-02,9.897961616516113281e-01,1.558684087486840626e-02,-1.529237372174807597e-02,-9.786068514643130392e-04,-1.303492229142580797e-02,-1.536578452418861304e-02,1.092109177261590958e-02,1.965732245354224680e-02,-7.531628432019303598e-02,-2.396437951049491290e-03,1.039338588714599498e-01,9.411236047744750421e-02,9.408526304688068567e-03,2.039338588714599554e-01,1.941123604774475098e-01,1.184390187263488665e-02,4.989283390740142377e-01,-6.838344335556030273e-01,-1.736158132553100586e-01,-1.985298130384861182e+01,0.000000000000000000e+00
1.734940000000000093e-01,-4.011628443099326917e-03,-1.447272936546300029e-02,9.900457262992858887e-01,1.663750751483603768e-02,-1.823344484467193105e-02,-1.866675987177192570e-03,1.026067320953061301e-02,-1.411855022244249379e-02,9.777396917343139648e-03,2.515815174420486453e-02,-1.227815964601218501e-01,-6.679699608585694393e-02,6.458520889282226562e-02,6.653751730918883167e-02,1.474250560988486780e-01,1.645852088928222712e-01,1.665375173091888372e-01,1.523233473300933671e-01,4.994901010137894337e-01,-6.579988598823547363e-01,-8.529020547866821289e-01,8.673379238299972371e+01,0.000000000000000000e+00
1.978999999999999926e-01,-4.196204474184324004e-03,-1.580961363482290272e-02,9.901983737945556641e-01,1.706288794840990844e-02,-2.162300068307732026e-02,-4.106045669166315248e-03,-1.893092358521186042e-02,-2.729593027716629983e-02,6.752279587090015411e-03,-2.690906482675832143e-02,-1.132769237949445701e-01,-7.251763226430857356e-02,-1.884816229343414529e-01,8.634600639343259498e-02,-1.056020179426015587e-01,-8.848162293434143344e-02,1.863460063934326005e-01,-9.453145265579222800e-02,4.988580134550091305e-01,-7.027276754379272461e-01,-9.114528894424438477e-01,2.230999330114624968e+01,0.000000000000000000e+00
2.249829999999999885e-01,-4.534050618038162721e-03,-1.724821491994480566e-02,9.900738596916198730e-01,1.863235290086428034e-02,-2.481158875435540700e-02,-5.746309102929370548e-03,2.866786089960323119e-03,-2.559558230337497312e-02,-1.271479763090610504e-02,4.690885136699413094e-02,-8.970013148397226743e-02,-3.598169267431196305e-02,5.367312431335446998e-02,-2.100433826446533314e-01,1.918633208057196615e-01,1.536731243133544755e-01,-1.100433826446533120e-01,2.074617326259612926e-01,5.044605306026864744e-01,-4.871698021888732910e-01,-7.193671464920043945e-01,8.865892218170284877e+01,0.000000000000000000e+00
2.486389999999999989e-01,-4.767176043889161975e-03,-1.834370358650351876e-02,9.898533821105957031e-01,2.007441400685852639e-02,-2.682555900097471913e-02,-6.617143697923049891e-03,-2.934985834617266989e-02,-3.366739663577357489e-02,8.883907576091587543e-04,6.823971417373614345e-02,-1.074296930187684102e-01,-4.524764901688656249e-02,2.580997943878171608e-02,-2.836040735244750866e-01,1.930856659050150803e-01,1.258099794387817216e-01,-1.836040735244750810e-01,2.109805941581726074e-01,5.035684571712112367e-01,-4.820069074630737305e-01,-5.733412504196166992e-01,8.770349483003394653e+01,0.000000000000000000e+00
2.721270000000000078e-01,-4.965248770916068193e-03,-1.957595393903336853e-02,9.894997477531433105e-01,1.988302322304977623e-02,-2.762192268389629390e-02,-6.590584468242251422e-03,-1.680444142645320937e-02,-2.020530890006097188e-02,-2.092893049120903015e-02,-7.666454304929590235e-02,4.211284848916052592e-02,5.974481006594627858e-03,1.189135313034057617e-01,-6.804482340812684216e-02,1.882740502889169998e-01,2.189135313034057673e-01,3.195517659187317033e-02,2.060603320598602128e-01,5.055561923101226096e-01,-4.661256670951843262e-01,-8.475471735000610352e-01,-3.269612836345573204e+00,0.000000000000000000e+00
2.981690000000000174e-01,-5.260023098591767518e-03,-2.135499090376098696e-02,9.887424111366271973e-01,1.872405214323455414e-02,-2.741387976974651863e-02,-8.841976640469996138e-03,-1.646699878934007946e-02,-3.018655736230333939e-02,-1.641785353422164917e-02,-1.449910216876397484e-03,1.221600912533209009e-02,-9.224259642045999630e-02,-2.110636591911315973e-01,-3.053764939308166726e-01,1.166062020015883327e-01,-1.110636591911315918e-01,-2.053764939308166393e-01,1.408144533634185791e-01,5.017704776209824802e-01,-6.520873308181762695e-01,-1.237527966499328613e+00,5.697317943329886702e+01,0.000000000000000000e+00
3.259810000000000207e-01,-5.535785505354598110e-03,-2.322183742312572061e-02,9.877943396568298340e-01,1.797354757041219261e-02,-2.405669205745830652e-02,-1.208127168777678971e-02,-1.538064106083290340e-02,-3.380252194606515881e-02,-2.527025528252124786e-02,2.162582256375352244e-02,1.410356702618544567e-01,-1.429388432807963960e-01,-1.488964557647705078e-01,1.150478780269622581e-01,1.856302714614579685e-01,-4.889645576477050920e-02,2.150478780269622636e-01,2.190148651599883867e-01,5.067902234131338446e-01,-4.282631874084472656e-01,-9.710618257522583008e-01,9.387638074527052368e+01,0.000000000000000000e+00
3.497239999999999793e-01,-5.653497861342977361e-03,-2.461801023051765971e-02,9.870332479476928711e-01,1.847803388012866921e-02,-2.137801081291046401e-02,-1.412495966443659025e-02,-1.459850375165655870e-02,-3.871844295413361114e-02,-3.539426624774932861e-02,7.102771298527058019e-02,1.306434839471765641e-01,-6.533447311574124006e-02,-2.589629769325256237e-01,1.098500072956085094e-01,1.835734961821786360e-01,-1.589629769325256181e-01,2.098500072956085150e-01,2.227320492267608476e-01,5.029393620622740757e-01,-6.768040657043457031e-01,-1.632524728775024414e-01,-6.450915595591112606e+00,0.000000000000000000e+00
3.754330000000000167e-01,-5.578358726366610364e-03,-2.678873787087610037e-02,9.857530593872070312e-01,1.700135586638054988e-02,-1.487307694115536094e-02,-1.744807187835536316e-02,-2.318743220685505479e-02,-3.829496970368666264e-02,-4.952418804168701172e-02,-6.700571556970005838e-02,1.985342003396189103e-01,-1.240268701750159852e-01,-1.456952035427093450e-01,1.236693024635314719e-01,4.993743581998140446e-02,-4.569520354270934642e-02,2.236693024635314775e-01,9.853044748306273581e-02,5.194784612163370063e-01,1.396174430847167969e-01,-1.109800696372985840e+00,8.217716145181995557e+01,0.000000000000000000e+00
4.021910000000000207e-01,-5.622097886714033307e-03,-2.816273547221351606e-02,9.848110079765319824e-01,1.480173535369898319e-02,-1.160510761274236025e-02,-1.980221716229729409e-02,-2.214333037221804384e-02,-3.238884366555500050e-02,-5.493760854005813599e-02,-1.342933428058707412e-01,1.654946973771176111e-01,-1.120119392978433798e-01,1.121095895767211803e-01,1.079480647221591066e-01,-2.486099968080147937e-01,2.121095895767211859e-01,2.016712009906768688e-01,-1.933402776718139704e-01,5.173078322593406275e-01,-5.732595920562744141e-03,-9.553698301315307617e-01,8.628406540728940399e+01,0.000000000000000000e+00
4.227429999999999799e-01,-5.780328751229896374e-03,-2.952409259172086853e-02,9.837552905082702637e-01,1.167851508761302143e-02,-1.107327287163584195e-02,-2.210690999891584685e-02,-3.083677039546931647e-02,-3.394428708911993026e-02,-4.726386442780494690e-02,-1.465452082116631694e-01,-3.783067136724854729e-02,-9.931077464989557235e-02,1.099165797233581376e-01,1.016500393669236557e-01,-2.641375942109107644e-01,2.099165797233581432e-01,1.990518271923065186e-01,-2.023453474044799860e-01,5.037854386198560297e-01,-7.020999193191528320e-01,-9.376319646835327148e-01,9.505094788627010871e+01,0.000000000000000000e+00
4.478030000000000066e-01,-6.298067590266740075e-03,-3.144433414347382744e-02,9.822590947151184082e-01,6.528645253900984026e-03,-1.249080200375152216e-02,-2.415950076197987198e-02,-4.777893020659261525e-02,-4.457463156157131373e-02,-3.993373364210128784e-02,-1.375252299707361292e-01,-8.309150562368504411e-02,-5.256859183541393032e-02,3.494946883946117855e-02,8.568484187126157448e-02,-2.475538084575993614e-01,1.305281639099120927e-01,1.856848418712615800e-01,-1.798665761947631780e-01,5.034186421316279025e-01,-7.016143202781677246e-01,-9.108599424362182617e-01,1.222162494608116248e+02,0.000000000000000000e+00
4.728169999999999873e-01,-7.210574785338270953e-03,-3.189003311516798445e-02,9.814406633377075195e-01,3.901315275790026051e-03,-1.474602802905700116e-02,-2.335011193051831496e-02,-4.906203541707434418e-02,-3.214503203604281850e-02,-4.208617657423019409e-02,-1.522567794381738671e-01,-6.128317858552378983e-02,6.736776679044241545e-02,4.161247464707597266e-02,8.006218075752258301e-02,-2.252673220863554704e-01,1.090533971786498968e-01,1.800621807575225886e-01,-1.598147749900817871e-01,5.041682268005346357e-01,-6.766905784606933594e-01,-5.472887754440307617e-01,-4.144434137411384711e+01,0.000000000000000000e+00
5.044739999999999780e-01,-8.831713809636205018e-03,-3.263972043230846387e-02,9.805017113685607910e-01,2.761745380225678545e-03,-1.956165447160329585e-02,-2.100960980205815801e-02,-6.079575087958070251e-02,-4.711753355185340636e-02,-2.481416799128055573e-02,-2.668273532964674302e-02,-1.833157291433339109e-01,9.514521231818855174e-02,-2.347569087944668953e-02,8.070755600929258033e-02,-2.700780310853198030e-01,5.121953487396239957e-02,1.807075560092925859e-01,-2.110281944274902399e-01,5.023814520796437977e-01,-7.088712453842163086e-01,-5.940297842025756836e-01,1.199709750353316622e+02,0.000000000000000000e+00
5.260529999999999928e-01,-9.949517244255972823e-03,-3.312399220161844904e-02,9.800180196762084961e-01,3.193185670102038822e-03,-2.251385929027316379e-02,-1.903257588883901230e-02,-4.925508445252273909e-02,-2.531904277737141024e-02,-2.550187334418296814e-02,1.143005929171216420e-02,-1.169330597895988089e-01,1.034781564976341717e-01,5.095385573575747507e-02,-3.275102972984314520e-02,-2.701783966382996782e-01,1.091267108917236273e-01,6.724897027015686035e-02,-2.167870044708251898e-01,5.025503597486490337e-01,-7.063364982604980469e-01,-1.981824636459350586e-01,1.152181742409999572e+02,0.000000000000000000e+00
5.496560000000000334e-01,-1.113486249141320931e-02,-3.361103719444011317e-02,9.796505570411682129e-01,3.995106925791126924e-03,-2.501180519773171795e-02,-1.738331252837299612e-02,-5.807737904564018450e-02,-4.295299576746206688e-02,-1.467343419790267944e-02,7.168044680924562373e-02,-1.249166745601985873e-01,5.624377764165548049e-02,7.948164172996914634e-02,-2.102836012840271218e-01,-2.342144861976719616e-01,1.608735680580139216e-01,-1.102836012840271024e-01,-1.853378534317016435e-01,5.023284343950179531e-01,-6.789540052413940430e-01,-1.205994725227355957e+00,1.033709037671001880e+02,0.000000000000000000e+00
5.757449999999999513e-01,-1.299087210150552674e-02,-3.398808932155443496e-02,9.791444540023803711e-01,4.512896081151592138e-03,-2.749990383850109410e-02,-1.422176815979092970e-02,-5.151222323366465294e-02,-2.503390798022271310e-02,-2.428181096911430359e-02,-8.787313087775932077e-03,-4.251020808670541440e-02,9.584351554699203912e-02,-2.447035458739189595e-01,-1.422008395195007435e-01,-1.919735264541671260e-01,-1.766071736812591386e-01,-4.220083951950073103e-02,-1.520849704742431585e-01,5.033104811911004450e-01,-6.691146492958068848e-01,-1.007768273353576660e+00,1.675136678853643275e+02,0.000000000000000000e+00
6.008000000000000007e-01,-1.507117648489111894e-02,-3.413988715968301058e-02,9.785478115081787109e-01,4.626428252539910128e-03,-2.872140423073421545e-02,-1.033370299037342580e-02,-6.494204857521708452e-02,-3.308661337420806814e-02,-2.015614695847034454e-02,-4.494356068305965096e-02,2.453102054329591233e-02,1.249386121412685569e-01,-1.367903121609479744e-01,8.593909740447996937e-02,1.529557612396146293e-01,-5.845359563827514510e-02,1.859390974044799749e-01,1.820348381996154674e-01,5.065841846569399953e-01,-4.850651025772094727e-01,-1.052238345146179199e+00,4.572801062530323435e+01,0.000000000000000000e+00
6.232680000000000442e-01,-1.647524395432693051e-02,-3.424462274015923485e-02,9.781547188758850098e-01,5.069592836346731822e-03,-2.823351387576855664e-02,-7.897967896419326450e-03,-6.548791751100549452e-02,-1.796947137394385580e-02,-3.107606805860996246e-02,6.717644901463440399e-02,3.922311135194690712e-02,1.233031082498151354e-01,-2.444687615116909046e-02,8.911198973655698463e-02,4.003308354124974350e-02,4.368309974670409740e-02,1.891119897365569902e-01,6.216378808021544994e-02,5.043753715763501511e-01,-6.487355828285217285e-01,-8.436917066574096680e-01,9.416829620020769198e+01,0.000000000000000000e+00
6.497789999999999955e-01,-1.855860687465724773e-02,-3.429966647792137557e-02,9.773532748222351074e-01,3.857740413698278453e-03,-2.469916925404191943e-02,-5.995835707651116231e-03,-6.302175533569878696e-02,-1.699134198211687402e-02,-2.281499095261096954e-02,-4.325540426493818674e-02,8.091533558037102003e-02,-2.745574239297090408e-02,1.605969156203330417e-01,-2.569660186767578347e-01,-2.208871684599014729e-01,2.225636243820190430e-01,-1.569660186767578014e-01,-2.040151834487914928e-01,5.070110901851857532e-01,-4.824040532112121582e-01,-9.631866216659545898e-01,1.031114863522339391e+02,0.000000000000000000e+00
6.739859999999999740e-01,-1.960249938817546986e-02,-3.383821909846666809e-02,9.767456650733947754e-01,1.739992409199901929e-03,-2.279172985620681047e-02,-5.929984294573238321e-03,-6.761371503096968993e-02,-1.354854413471003917e-02,-2.529403008520603180e-02,-1.044606050042437700e-01,7.696307225866999557e-02,1.379877879700074257e-02,1.781079208306234896e-01,-2.322110891342163141e-01,-2.225108898735972118e-01,2.236028194427490123e-01,-1.322110891342163086e-01,-2.057499647140502985e-01,5.059914900773270219e-01,-5.510006546974182129e-01,-1.184320330619812012e+00,1.325767311863721716e+02,0.000000000000000000e+00
7.012939999999999729e-01,-2.142254849411933185e-02,-3.306683903650264877e-02,9.757481813430786133e-01,-1.401517912234477321e-03,-2.242438930339840653e-02,-5.413650808824827312e-03,-7.727358743349158066e-02,-1.141557447374205898e-02,-4.500421881675720215e-02,-1.327748385651693896e-01,1.317862328145821653e-02,7.210334919966077116e-02,1.993680758381932427e-01,1.110869884490966741e-01,-2.263409777622193697e-01,2.228044867515563965e-01,2.110869884490966797e-01,-2.108882904052734319e-01,5.055717896009562784e-01,-6.586251258850097656e-01,-8.111790418624877930e-01,1.147307309606928243e+02,0.000000000000000000e+00
7.268529999999999713e-01,-2.277063082788315790e-02,-3.256993116884755735e-02,9.750970602035522461e-01,-1.789129122322282708e-03,-2.226109122389630102e-02,-3.842066960391900873e-03,-7.738574253617305776e-02,-1.148519909812744343e-02,-3.157369419932365417e-02,4.798274435625476952e-02,3.905624738144064436e-03,9.085001838176948175e-02,1.381594089984480300e-01,5.477401018142699640e-02,1.092019063687985209e-01,1.593416690826416071e-01,1.547740101814270020e-01,1.202727913856506264e-01,5.046772195814456241e-01,-6.581614017486572266e-01,-1.045277476310729980e+00,3.645584782699791759e+01,0.000000000000000000e+00
7.480360000000000342e-01,-2.413134511192117221e-02,-3.210586573895365947e-02,9.744902253150939941e-01,-1.239490694487857623e-03,-2.071236814828458783e-02,-1.993152005593413958e-03,-7.734887744046184399e-02,-1.944143640408695084e-02,-3.021268732845783234e-02,1.960088537188073299e-02,8.881436316964812228e-02,9.675389028201152042e-02,1.828937964304141461e-01,1.223888874053954967e-01,1.893575249844546282e-01,2.138197302818298229e-01,2.223888874053955023e-01,1.952563405036926159e-01,5.148993765706416648e-01,-1.150404810905456543e-01,-7.716752290725708008e-01,5.746225171372304175e+01,0.000000000000000000e+00
7.745800000000000463e-01,-2.642968599260390322e-02,-3.135809887018301684e-02,9.737002253532409668e-01,2.380463928245933006e-03,-1.801086321766920406e-02,1.166977162337590451e-03,-8.426992089589703527e-02,-1.394133038694708379e-02,-2.749339118599891663e-02,1.578208522365565913e-01,1.020598999178187333e-01,9.740953354468634418e-02,1.706316600460380251e-01,1.088024437427520530e-01,2.175689676757167901e-01,2.191692352294921931e-01,2.088024437427520585e-01,2.144148766994476152e-01,5.037238844954876615e-01,-7.035221457481384277e-01,-6.349917650222778320e-01,5.726495145426346767e+01,0.000000000000000000e+00
7.994130000000000402e-01,-2.918013098817218848e-02,-3.051690292050584716e-02,9.729520678520202637e-01,8.246937895866444587e-03,-1.789740953924323641e-02,9.615238403055688778e-04,-9.160759879022077612e-02,-1.481377469443081324e-02,-4.032954573631286621e-02,1.558739592162133036e-01,2.002082817203663934e-02,-2.971070041706001461e-02,-2.009612744694378450e-01,-2.536880373954772949e-01,1.742506715654058291e-01,-1.132772684097290011e-01,-1.536880373954772894e-01,1.714293301105499212e-01,5.068702540687991531e-01,-5.947828292846679688e-01,-9.774624109268188477e-01,7.358526841937498375e+01,0.000000000000000000e+00
8.235200000000000298e-01,-3.106976219662972369e-02,-3.000167485771696244e-02,9.724672436714172363e-01,1.267892806791823951e-02,-1.911420164357324758e-02,-6.427300029870667512e-04,-8.760217490247608485e-02,-1.496058442197531826e-02,-3.260762989521026611e-02,2.239263016705358433e-01,-4.389525860114070616e-02,-9.110836374520639436e-02,-2.767290532588958518e-01,-3.088616490364074485e-01,2.129447269512115548e-01,-1.767290532588958740e-01,-2.088616490364074707e-01,2.144148766994476152e-01,5.112579028264225833e-01,-3.362706303596496582e-01,-7.527483701705932617e-01,2.155914206795028321e+00,0.000000000000000000e+00
8.490499999999999714e-01,-3.398601349313406378e-02,-2.928735368549175572e-02,9.717740416526794434e-01,1.844286491825384774e-02,-2.168313186947212756e-02,-3.717876770103854551e-03,-9.491153014576543534e-02,-2.195997963797692229e-02,-3.982525318861007690e-02,1.463723400177266709e-01,-8.798649909374785250e-02,-1.250591893467955240e-01,-2.921818494796752930e-01,-3.160784006118774192e-01,2.011824933972255203e-01,-1.921818494796752874e-01,-2.160784006118774414e-01,2.109758913516998347e-01,5.095771128567848640e-01,-4.606904983520507812e-01,-9.958080053329467773e-01,8.445604723820554227e+01,0.000000000000000000e+00
8.767530000000000046e-01,-3.711634790218878294e-02,-2.879995502767071849e-02,9.706141948699951172e-01,1.879000788877268138e-02,-1.979212426932819291e-02,-6.486649914683256801e-03,-8.403659310357751433e-02,-2.534826224623114386e-03,-5.691537261009216309e-02,-1.185662357295716451e-01,1.974144140315147455e-01,-8.600335211653596657e-02,1.184724688529968095e-01,-1.240301251411438099e-01,-6.356356870245347124e-02,2.184724688529968151e-01,-2.403012514114379744e-02,-4.609683752059936385e-02,5.109892297600820976e-01,-4.615250825881958008e-01,-8.081661462783813477e-01,9.428473043498890149e+01,0.000000000000000000e+00
8.980679999999999774e-01,-3.817264198380410090e-02,-2.864064523880016991e-02,9.700669646263122559e-01,1.775039706576310439e-02,-1.808017057623279022e-02,-7.673884202249797379e-03,-7.141138129591023676e-02,5.471981648006697891e-04,-6.546530127525329590e-02,-1.432289778519071077e-01,2.053025257145534577e-01,-9.584600512105463654e-02,1.198367834091186301e-01,-1.302747726440429688e-01,-1.155660807027358850e-01,2.198367834091186357e-01,-3.027477264404296667e-02,-9.466856718063354492e-02,5.120469389789947812e-01,-4.456447362899780273e-01,-2.148598432540893555e-01,-4.668944854344173834e+00,0.000000000000000000e+00
9.230270000000000419e-01,-4.124975766275321837e-02,-2.808610446844569952e-02,9.683665037155151367e-01,1.218796813902749132e-02,-1.064497702354527675e-02,-1.088311816880105538e-02,-9.888988709524761112e-02,-1.301431099873635649e-03,-6.231497228145599365e-02,-1.809247948194069588e-01,2.387520900540696933e-01,-6.362111885668654543e-02,1.203446149826049583e-01,-2.385716438293457031e-01,-2.504912335912090615e-01,2.203446149826049638e-01,-1.385716438293456976e-01,-2.203261971473693681e-01,5.116449750889071613e-01,-4.670189023017883301e-01,-1.220527768135070801e+00,1.197069745635323414e+02,0.000000000000000000e+00
9.478469999999999951e-01,-4.445633777112425328e-02,-2.762228631259491807e-02,9.666987061500549316e-01,8.561573284166243761e-03,-3.033366332957143641e-03,-1.195406247304552950e-02,-8.473722816582070216e-02,1.436917322273315901e-03,-4.676016047596931458e-02,3.753022492669710539e-03,2.055592174001605876e-01,-3.043039210513436357e-02,1.460326561439538873e-01,1.243371009826660101e-01,1.912478201990991389e-01,2.243961095809936523e-01,2.243371009826660156e-01,2.245984375476837158e-01,5.064264842829072633e-01,-6.925557851791381836e-01,-1.276296496391296387e+00,9.547602470926584317e+01,0.000000000000000000e+00
9.760959999999999637e-01,-4.777148774223072270e-02,-2.775518879135957170e-02,9.654289484024047852e-01,9.643311663403420636e-03,2.041399592317638678e-03,-1.070256108354564542e-02,-1.011846726683480191e-01,-1.742944113684335994e-02,-2.973967604339122772e-02,1.247937036078241163e-01,1.086780002957996732e-01,6.897080813284475753e-02,1.246041774749755693e-01,1.286549170671539843e-01,1.927268402643916856e-01,2.246041774749755748e-01,2.209960162639617864e-01,2.226157486438751221e-01,5.050122167515116445e-01,-7.091571092605590820e-01,-9.264978170394897461e-01,9.231008859499236507e+01,0.000000000000000000e+00
9.972050000000000081e-01,-4.885138523197388172e-02,-2.809040306006488352e-02,9.650403261184692383e-01,1.036192972131749941e-02,4.045447858819439801e-03,-1.017199219984270958e-02,-9.772910248574341596e-02,-1.561004956604932978e-02,-5.069265514612197876e-02,7.427515731920715514e-02,1.817626825156164749e-01,4.855197672292885236e-02,1.266847491264343206e-01,1.493418957206690267e-01,1.987677090844050531e-01,2.266847491264343262e-01,2.242801129817962591e-01,2.271638810634613037e-01,5.062651631849115486e-01,-7.313509583473205566e-01,-5.909086465835571289e-01,-1.192908111374034661e+02,0.000000000000000000e+00
1.028154000000000012e+00,-5.310156591799391340e-02,-2.954689227504005491e-02,9.637000560760498047e-01,1.642352714265382999e-02,7.850564872093235280e-03,-1.222181310798960835e-02,-9.140121150938575190e-02,-2.436684145341758145e-02,-3.339928761124610901e-02,1.656501503073608550e-01,-1.138672802077422483e-02,-7.151469730103138245e-02,-2.181897878646850697e-01,5.714507510975322391e-02,1.822256742349206982e-01,-1.181897878646850503e-01,1.063013792037963839e-01,2.163382172584533691e-01,5.079756840877863722e-01,-5.813984870910644531e-01,-8.750621080398559570e-01,6.122355492737902694e+01,0.000000000000000000e+00
1.050853999999999955e+00,-5.414069399693522550e-02,-2.994249654831328961e-02,9.634256362915039062e-01,1.825983073479443483e-02,7.627023602990723461e-03,-1.345001557531029859e-02,-9.811962780099220405e-02,-3.121269661739450862e-02,-3.226827085018157959e-02,1.842809355329176058e-01,-6.304980914451642493e-02,-1.513837888464604486e-01,-2.925546944141387828e-01,-8.113001316863838186e-02,1.831493939891130351e-01,-1.925546944141387773e-01,-2.314792871475219657e-02,2.206671774387359564e-01,5.104369384426062917e-01,-4.512323141098022461e-01,-9.272073507308959961e-01,9.977932392412985507e+01,0.000000000000000000e+00
1.075539000000000023e+00,-5.623754344283842660e-02,-3.082010245314689006e-02,9.628531932830810547e-01,2.151539639040726468e-02,6.517421090611152934e-03,-1.538982473666985172e-02,-8.837476686102539725e-02,-1.919652574823831059e-02,-3.954434022307395935e-02,1.583986546671857232e-01,-4.966875956708664136e-02,-9.111273194891623961e-02,-2.991837918758392112e-01,-1.248889262838879244e-01,1.801063841502879570e-01,-1.991837918758392334e-01,-6.659510135650634211e-02,2.229947626590728649e-01,5.132122343199970738e-01,-3.376907110214233398e-01,-9.809612035751342773e-01,-8.973370708911771487e+01,0.000000000000000000e+00
1.102703999999999906e+00,-5.850409383763998522e-02,-3.176940679399732625e-02,9.621936678886413574e-01,2.433544026748090533e-02,4.390798820002483893e-03,-1.779191666603586325e-02,-8.586872604186648883e-02,-3.152207054914007989e-02,-4.037144035100936890e-02,8.004556047073371761e-02,-9.644190152937034965e-02,-1.307159886317409703e-01,-2.940694808959961049e-01,-2.645854495464851075e-01,1.524906038810475151e-01,-1.940694808959960993e-01,-1.912979006767272783e-01,2.020381093025207520e-01,5.086893123614238954e-01,-5.884575843811035156e-01,-4.300025701522827148e-01,-6.601291772433781091e+01,0.000000000000000000e+00
1.127194000000000029e+00,-6.086844375749946023e-02,-3.283333833467640822e-02,9.613279700279235840e-01,2.498436504952662382e-02,2.407420053228470636e-03,-1.990459975273341578e-02,-8.563203793643034412e-02,-1.571893840810065571e-02,-5.329889431595802307e-02,2.063309280191086975e-02,-9.546945997306614806e-02,-9.590731065892756091e-02,-2.758631646633148415e-01,-2.470738871475841036e-01,8.884045123870756844e-02,-1.758631646633148082e-01,-1.588783979415893388e-01,1.441977381706237848e-01,5.081254555013622332e-01,-6.772748231887817383e-01,-1.569035410881042480e+00,1.106477873088317807e+02,0.000000000000000000e+00
1.151840999999999893e+00,-6.311345212666488735e-02,-3.379806511357249382e-02,9.603356719017028809e-01,2.296924974133839406e-02,1.984472500690115382e-03,-2.240190312747455947e-02,-9.114601106482413118e-02,-3.175395704817157022e-02,-5.862137302756309509e-02,-1.303619742149575711e-01,2.112692092019811604e-02,-1.255069693447791457e-01,1.231318950653076116e-01,1.032114775259177636e-01,-2.409549315875844921e-01,2.231318950653076172e-01,1.999300003051757701e-01,-1.785498976707458330e-01,5.080992366236737334e-01,-7.090954780578613281e-01,-9.969969987869262695e-01,2.935098601460768819e+01,0.000000000000000000e+00
1.175691000000000042e+00,-6.522653320906814101e-02,-3.471305860783312908e-02,9.592052102088928223e-01,1.913278811495344733e-02,2.798824425691570639e-03,-2.477328678953458554e-02,-7.111148400815453519e-02,-1.616469181521238557e-02,-6.845097243785858154e-02,-2.162640401930737699e-01,5.954269122972472711e-02,-1.349155152355268339e-01,1.254007577896117942e-01,9.575996648501289288e-02,-2.841643629443749708e-01,2.254007577896117998e-01,1.723035871982574463e-01,-2.150250434875488337e-01,5.092657338409239953e-01,-6.950670480728149414e-01,-8.642386198043823242e-01,9.148501540363317019e+01,0.000000000000000000e+00
1.200598999999999972e+00,-6.724909590210009780e-02,-3.561060621758267708e-02,9.580330848693847656e-01,1.393475884675176787e-02,5.013992792242349950e-03,-2.715713582917694130e-02,-6.493066688450842283e-02,-1.911258314809321027e-02,-7.176948338747024536e-02,-3.102011114669590564e-01,1.643662837636294394e-01,-1.181372714366905607e-01,1.249088048934936523e-01,1.000109990832341450e-01,-2.936864119840020271e-01,2.249088048934936579e-01,1.614321827888488825e-01,-2.177497386932372991e-01,5.102759634947173772e-01,-6.649001836776733398e-01,-9.848028421401977539e-01,-1.168080920156171771e+02,0.000000000000000000e+00
1.224488000000000021e+00,-6.909429974073533209e-02,-3.634059127711360832e-02,9.567390084266662598e-01,8.041231720996952492e-03,8.132151997722880665e-03,-2.895031192236112438e-02,-6.742790370934848010e-02,-1.734884421726210976e-02,-6.874239444732666016e-02,-2.704936033432580045e-01,1.445509331016558152e-01,-8.077990111426226749e-02,1.292970116264522407e-01,1.272122390511009338e-01,-3.020728266063903433e-01,2.253354907035827470e-01,1.725588083267211859e-01,-2.210348725318908580e-01,5.102173278761508168e-01,-6.669356822967529297e-01,-5.387290716171264648e-01,7.452775939275586836e+01,0.000000000000000000e+00
1.250286999999999926e+00,-7.170321292791866086e-02,-3.727827851852648366e-02,9.547156691551208496e-01,7.633416937507646891e-04,1.338118032650514877e-02,-2.992089685052344919e-02,-7.125088137568884317e-02,-1.463986146235607411e-02,-5.829236656427383423e-02,-1.236499735936640726e-01,1.527304006645489876e-01,6.570973891946921622e-03,-1.345412439814324679e-01,2.063167407718637381e-01,-3.097071648055548243e-01,-8.644287586212158481e-02,2.221129775047302191e-01,-2.259190320968627874e-01,5.214928584603460981e-01,-3.449368476867675781e-02,-9.438370466232299805e-01,9.844226658277567310e+01,0.000000000000000000e+00
1.276134000000000102e+00,-7.440414338464447497e-02,-3.837123146795194673e-02,9.531629085540771484e-01,-2.126322856023032341e-04,1.448090211223251877e-02,-2.802105160239532280e-02,-7.614147425689074544e-02,-2.575042411663271483e-02,-3.595326095819473267e-02,9.159775146442808436e-02,-9.031559392517533869e-02,6.097950749483013050e-02,9.790306819034584607e-02,1.582593642109959009e-01,-9.583818722978179605e-02,1.498247265815734752e-01,1.726219475269317460e-01,-1.736340522766113142e-02,5.077113907929033942e-01,-6.944719552993774414e-01,-8.992391824722290039e-01,9.971163674945502464e+01,0.000000000000000000e+00
1.302413999999999961e+00,-7.704278424865353136e-02,-3.955049632196522280e-02,9.520619511604309082e-01,2.538879992349620841e-03,1.287712282311082035e-02,-2.445017401791377970e-02,-5.916434032294626971e-02,-2.449836882301103733e-02,-3.604479134082794189e-02,1.568513202818003494e-01,-9.752831225151618877e-02,1.321107175525326749e-01,-7.326938814525653376e-02,1.921956424644985506e-01,-8.173551955485497400e-03,-5.784094333648681641e-03,2.052501618862151989e-01,6.029459238052367609e-02,5.078468901281038006e-01,-6.956375241279602051e-01,-1.025840163230895996e+00,4.694122980681591883e+01,0.000000000000000000e+00
1.326427999999999940e+00,-7.878102560188424142e-02,-4.047543307272120222e-02,9.514978528022766113e-01,5.338020666632161543e-03,1.103909505935041224e-02,-2.197281986438417989e-02,-7.312405513180855743e-02,-3.411302129354430029e-02,-2.506824396550655365e-02,1.311351686627280355e-01,-1.230728781749011042e-01,9.880024439906608114e-02,-4.312594371530881210e-02,1.185121628906143920e-01,-8.119636808035295139e-02,5.119943618774414062e-02,1.587641000747680720e-01,-1.964814662933349679e-02,5.074610398979398918e-01,-6.794963479042053223e-01,-7.221807241439819336e-01,6.204304102399715504e+01,0.000000000000000000e+00
1.349498000000000086e+00,-8.128976593655427851e-02,-4.206193856405795323e-02,9.507962465286254883e-01,7.961605635571248479e-03,8.343292995619755459e-03,-1.793713409291359043e-02,-5.791294848866359452e-02,-2.224603550434110788e-02,-2.890003658831119537e-02,5.353090512690735631e-02,-7.082326030218416557e-02,8.349200441691868868e-02,-6.684732437133800165e-03,1.024485817049442804e-01,-1.576538831868020130e-01,9.331526756286620539e-02,1.484980881214141846e-01,-1.074397444725036649e-01,5.074379748352553232e-01,-7.017646431922912598e-01,-1.074356436729431152e+00,1.104095912917167510e+02,0.000000000000000000e+00
1.375747000000000053e+00,-8.359583908195379609e-02,-4.354142264286199604e-02,9.502133131027221680e-01,8.954364786706055582e-03,4.428050586817500189e-03,-1.573032680771376327e-02,-6.198879569959012820e-02,-3.248562313519968298e-02,-2.463335357606410980e-02,-2.437146325643945594e-02,-1.568987905075219236e-01,2.367041371692559307e-02,6.022150516510008100e-02,1.032741636035466037e-01,-2.501120128077284344e-01,1.602215051651000866e-01,1.820881605148315374e-01,-2.060682535171508845e-01,5.069094849531676772e-01,-7.194777131080627441e-01,-9.044467210769653320e-01,8.724772996709734230e+01,0.000000000000000000e+00
1.402088000000000001e+00,-8.583474085927192410e-02,-4.497078928123146579e-02,9.495197534561157227e-01,8.534637045645138143e-03,-4.726638834500196396e-04,-1.394242584702242056e-02,-5.351441874300444379e-02,-2.008531025498854275e-02,-2.755072340369224548e-02,-3.652642034427296125e-02,-1.573013563790387759e-01,1.014881025116462221e-01,-2.536571025848390060e-02,8.840635418891906738e-02,-2.422788450591313036e-01,7.463428974151610495e-02,1.884063541889190729e-01,-2.032655239105224665e-01,5.074812223835858394e-01,-7.069087028503417969e-01,-3.176261186599731445e-01,6.642201190467572758e+01,0.000000000000000000e+00
1.422164999999999901e+00,-8.737756576985694634e-02,-4.540605496066659613e-02,9.490567445755004883e-01,7.967705801658536702e-03,-3.899180834700866072e-03,-1.285974834417945301e-02,-6.363332978982223775e-02,-2.423431136204006950e-02,-2.697567455470561981e-02,-2.861149055646845969e-03,-2.151456873631843736e-01,3.771395644521034762e-02,1.026865959167480302e-01,6.391043663024900678e-02,-2.454148031265822594e-01,2.026865959167480358e-01,1.639104366302490123e-01,-2.093978404998779186e-01,5.072689836205074299e-01,-7.222097516059875488e-01,-5.668450593948364258e-01,7.957255760429480063e+01,0.000000000000000000e+00
1.447642000000000095e+00,-8.967067498482129972e-02,-4.609886885546570640e-02,9.484017491340637207e-01,7.139450947514697221e-03,-8.279560014855746886e-03,-9.942090943346698281e-03,-4.982558959336395171e-02,-2.168081835489856640e-02,-2.638987451791763306e-02,1.234097183749834591e-02,-1.461875829730765186e-01,1.275660535835993481e-01,1.646824539657798514e-02,1.384121179580687089e-02,-2.384973093632463959e-01,1.156813144683837835e-01,1.138412117958068764e-01,-2.106299757957458552e-01,5.076305420548882230e-01,-7.067151069641113281e-01,-1.177682280540466309e+00,8.331517342038162610e+01,0.000000000000000000e+00
1.473381000000000052e+00,-9.195564079130887081e-02,-4.672690807857323575e-02,9.478131532669067383e-01,6.603820909326021428e-03,-1.221056670872688876e-02,-5.924782808430743321e-03,-7.003381757617821446e-02,-1.475645233266113278e-02,-2.624380402266979218e-02,-2.408906878679751076e-02,-1.110896962559615592e-01,1.199236487414973434e-01,-1.013454794931103881e-01,7.354464530944823664e-02,-2.003203615193718534e-01,-1.033047437667846714e-02,1.735446453094482422e-01,-1.836995601654052568e-01,5.084086326984150750e-01,-6.720198392868041992e-01,-1.056357502937316895e+00,3.367942032561734322e+01,0.000000000000000000e+00
1.498372000000000037e+00,-9.417927331979140948e-02,-4.719279043611770280e-02,9.473018646240234375e-01,6.998713618815924874e-03,-1.586259681615187489e-02,-1.651564623128104568e-03,-6.304503630794422442e-02,-2.317005244742174203e-02,-1.572858914732933044e-02,7.186913215090051654e-02,-1.259520436424182988e-01,1.012549236590284257e-01,-6.758253574371339556e-02,-2.592808723449707142e-01,-2.068084341148012095e-01,3.241746425628661693e-02,-1.592808723449707087e-01,-2.021085619926452637e-01,5.078568024237266609e-01,-6.650237441062927246e-01,-5.781415700912475586e-01,-8.324437167944527971e+01,0.000000000000000000e+00
1.522934999999999928e+00,-9.617508540799733774e-02,-4.741095515098408403e-02,9.470375776290893555e-01,7.836583973928213515e-03,-1.819801173231194724e-02,2.612837177799571305e-03,-6.017729167284852076e-02,-2.325795845167362777e-02,-1.687777228653430939e-02,1.751228793091524558e-02,-7.512778066548302103e-02,1.006981819129078859e-01,-2.831681251525878795e-01,-2.641142129898071400e-01,-1.892535487604363742e-01,-1.831681251525878740e-01,-1.641142129898071345e-01,-1.965371847152709850e-01,5.082547095746841048e-01,-6.530211567878723145e-01,-7.358502149581909180e-01,9.811852244630622977e+01,0.000000000000000000e+00
1.549015000000000031e+00,-9.822428641627070633e-02,-4.751645512407921823e-02,9.466480016708374023e-01,6.729972373068254972e-03,-1.906036933483434836e-02,6.891601916337542107e-03,-6.495140733862862781e-02,-2.035040801376666875e-02,-2.843086235225200653e-02,-1.287906762616475853e-01,1.121401592212988713e-02,1.561038830526136345e-01,1.483610563541015726e-02,7.803044319152829811e-02,-8.039358976618174446e-02,1.110204935073852567e-01,1.780304431915283037e-01,-9.961506128311156671e-02,5.096551119026211385e-01,-6.302308440208435059e-01,-1.238636851310729980e+00,9.545150433014551083e+01,0.000000000000000000e+00
1.573234999999999939e+00,-9.953938071383906794e-02,-4.747287141600980975e-02,9.463460445404052734e-01,4.822923469239848160e-03,-1.772103318033280139e-02,9.710322691729406791e-03,-6.032686125464121335e-02,-3.522949570386689749e-03,-4.243408516049385071e-02,-1.318717396409236076e-01,8.538596751698018794e-02,1.221668523380172178e-01,1.524692298020448866e-01,8.978116512298572882e-03,-1.528664299035159546e-01,2.233051300048828069e-01,1.089781165122985784e-01,-1.799868822097778209e-01,5.115504441362362931e-01,-5.903080701828002930e-01,-1.570144534111022949e+00,5.341300480013224927e+01,0.000000000000000000e+00
1.597962000000000105e+00,-1.015377598418071015e-01,-4.738761093588078621e-02,9.457182288169860840e-01,-4.031393712561990726e-04,-1.319435979074223830e-02,1.328567716697439706e-02,-6.187007721461239285e-02,-1.489445581763508032e-02,-3.203679248690605164e-02,-1.253250081160263985e-01,9.425669374450328097e-02,8.947312042632692142e-02,1.757273485446253780e-01,1.649523973464964155e-02,-1.537489005797659514e-01,2.237853884696960338e-01,1.164952397346496471e-01,-1.905725240707397405e-01,5.109987783169409603e-01,-5.858317017555236816e-01,-8.442620038986206055e-01,1.012651154648502398e+02,0.000000000000000000e+00
1.626285999999999898e+00,-1.038233669719514779e-01,-4.740089815086531710e-02,9.452981948852539062e-01,-3.230902007802005909e-03,-1.056294879772190498e-02,1.623339159522286385e-02,-6.364869666109647384e-02,1.660575488264927693e-03,-3.648612275719642639e-02,-2.218945008040074801e-02,6.687016114306285064e-02,1.129521705367563661e-01,2.061450513231357362e-01,1.202594101428985374e-01,-1.164948714567378141e-01,2.210204601287841797e-01,2.202594101428985429e-01,-1.615719079971313366e-01,5.229868301464007940e-01,3.431248664855957031e-02,-8.650435209274291992e-01,9.309614091562328042e+01,0.000000000000000000e+00
1.649675000000000002e+00,-1.054491677585067816e-01,-4.743976570245619917e-02,9.451377391815185547e-01,-3.129593557614792406e-03,-1.057844229024929028e-02,1.838299559521313839e-02,-7.356951174682492545e-02,-2.588500618500799016e-02,-2.058456651866436005e-02,3.651605741300141539e-02,-3.874017479782090184e-02,1.167148504832500461e-01,-1.400119162347182589e-01,-6.809648275375367044e-02,-1.168282079584366528e-02,-1.004151999950408936e-01,3.190351724624633512e-02,-6.259875297546386996e-02,5.086841115227759280e-01,-6.751261949539184570e-01,-5.627466440200805664e-01,1.315881108228843210e+01,0.000000000000000000e+00
1.673227000000000020e+00,-1.070958765306954663e-01,-4.750150000384060350e-02,9.451318979263305664e-01,-1.306416272495927646e-03,-1.122936237747773625e-02,2.068740305695095788e-02,-7.279338858589930183e-02,1.315176559822899775e-03,-2.405133284628391266e-02,1.195844475190486339e-01,-7.025740804424337842e-03,1.080062943545581355e-01,-1.353650772913179423e-01,-9.299548268318176547e-02,-1.099771343493368692e-01,-1.092344641685485812e-01,7.004517316818237478e-03,-1.675907850265502819e-01,5.093102512697644801e-01,-6.590086817741394043e-01,-7.318991422653198242e-01,1.076920451436235560e+01,0.000000000000000000e+00
1.698352000000000084e+00,-1.096544440968575396e-01,-4.779323384131770741e-02,9.452397227287292480e-01,2.921632842286876926e-03,-1.327209039574372973e-02,2.339416097687056773e-02,-8.084441582293068473e-02,-1.816685562171118859e-02,-1.047018263489007950e-02,1.760083139724686330e-01,-1.283111612290477876e-01,6.500515561844612267e-02,-1.851626587243447308e-01,-2.972387433052062766e-01,1.437168097228594954e-01,-1.121790289878845243e-01,-1.972387433052062988e-01,7.849833369255065918e-02,5.118820627024326386e-01,-4.723236560821533203e-01,-8.617283105850219727e-01,8.789790933456919220e+01,0.000000000000000000e+00
1.723654000000000019e+00,-1.112918734063376019e-01,-4.815911521049733024e-02,9.453329443931579590e-01,4.236052498472921493e-03,-1.358154697971114544e-02,2.467675837333487693e-02,-7.413720118047546770e-02,2.068876247331772125e-03,-1.595988869667053223e-02,-7.562177438210610598e-04,6.852367054379120137e-02,3.794742639989451966e-02,1.605658364991019438e-01,1.186889588832855114e-01,2.920984108228296128e-01,2.237032055854797363e-01,2.186889588832855169e-01,2.230819702148437444e-01,5.082580966347935991e-01,-6.891121268272399902e-01,-6.982318162918090820e-01,1.047915967748411816e+02,0.000000000000000000e+00
1.748337999999999948e+00,-1.137041350724212058e-01,-4.846895634982680695e-02,9.452672600746154785e-01,3.191576404402793592e-03,-1.177086657626857935e-02,2.623556341135700395e-02,-7.379576832576446865e-02,6.808680252769971734e-03,-2.294312231242656708e-02,-1.192542712713086789e-01,1.128927324360715911e-01,2.402369191747315627e-02,1.664012403475859658e-01,-1.551693916320800726e-01,-9.338355576017107196e-02,2.219364166259765458e-01,-5.516939163208007396e-02,-1.667222499847411943e-01,5.107996935767287194e-01,-5.860225558280944824e-01,-8.484908342361450195e-01,9.478704303711914747e+01,0.000000000000000000e+00
1.772372999999999976e+00,-1.151402738568444162e-01,-4.857593778344544699e-02,9.451938867568969727e-01,5.826550066020720359e-04,-8.767815563748948549e-03,2.530702571239867513e-02,-7.564647580962430284e-02,8.721599719908523438e-03,-2.860137633979320526e-02,-1.776025668575954564e-01,1.861538519033543448e-01,-7.095267867409414675e-02,1.865656299904758231e-01,-9.010953307151794989e-02,-1.240364544263622693e-01,2.243985056877136064e-01,9.890466928482055664e-03,-1.946749448776245173e-01,5.121576171145704182e-01,-5.406775474548339844e-01,-8.215593099594116211e-01,1.059479068201893170e+02,0.000000000000000000e+00
1.797833999999999932e+00,-1.173537846912448002e-01,-4.868219489917241516e-02,9.450861811637878418e-01,-1.593155649288791314e-03,-5.863997172575352579e-03,2.398163192351680101e-02,-6.303692579601134771e-02,8.473107920431109110e-05,-2.181526646018028259e-02,-3.064915335131939561e-02,7.799217591282552042e-02,-3.130123882438349409e-02,1.904430815063166138e-01,1.204157829284667747e-01,-1.389722196832879342e-01,2.216392993927001898e-01,2.204157829284667802e-01,-2.058041095733642578e-01,5.127965314241850203e-01,-4.836915731430053711e-01,-7.346361875534057617e-01,9.412207631009422926e+01,0.000000000000000000e+00
1.825717999999999952e+00,-1.195972981461965318e-01,-4.893304528665884390e-02,9.453426599502563477e-01,-4.099703814178022425e-04,-3.489677281714786972e-03,2.504985108788821205e-02,-7.274185439635899586e-02,-4.953021550904058859e-04,-9.338938631117343903e-03,3.473863209980447564e-02,1.075828726576168737e-01,5.802581282863190221e-02,1.888276669954572773e-01,1.238358139991760087e-01,2.941866918180033874e-01,2.269416332244872936e-01,2.238358139991760143e-01,2.243130147457122747e-01,5.075937575138520508e-01,-7.138704061508178711e-01,-5.782240629196166992e-01,9.416155480349689810e+01,0.000000000000000000e+00
1.849188000000000054e+00,-1.210787419122534847e-01,-4.907642893876460605e-02,9.456206560134887695e-01,2.571480826365986610e-03,-2.064996460411583357e-03,2.617575811733139496e-02,-6.590020015573069823e-02,7.397303081277376360e-03,-1.358982268720865250e-02,1.529951203101132529e-01,6.460114287797229238e-02,5.482477368234101034e-02,1.564877597050435831e-01,1.139653742313384843e-01,2.909955086164654481e-01,2.078171968460083008e-01,2.139653742313384899e-01,2.178150415420532227e-01,5.081790041407147074e-01,-7.015240788459777832e-01,-8.767167329788208008e-01,9.522696186118133710e+01,0.000000000000000000e+00
1.872951999999999950e+00,-1.225388579206568435e-01,-4.927070907659508031e-02,9.460050463676452637e-01,6.296339020008795591e-03,-1.432344458031975520e-03,2.676642462571447376e-02,-7.460313583338980259e-02,-1.100591407636608652e-03,1.182379107922315598e-02,2.162014602099606164e-01,1.857360069112708352e-03,-2.224538707935204765e-02,-2.080077218019776852e-01,-1.306268930435180720e-01,2.334846366879453627e-01,-1.244370818138122448e-01,-3.062689304351806641e-02,1.585699975490570124e-01,5.078958634713961473e-01,-6.175011992454528809e-01,-1.346474528312683105e+00,7.432834689729546973e+00,0.000000000000000000e+00
1.901467000000000018e+00,-1.246926494488012072e-01,-4.958619869963166310e-02,9.466373920440673828e-01,1.157368861310743673e-02,-2.426926519055294662e-03,2.436351146910029422e-02,-6.386181747654320895e-02,-4.635629634369606809e-04,-4.473309498280286789e-03,1.385480218076440007e-01,-3.580158869981635988e-02,-1.409343486191417250e-01,-2.210475742816924993e-01,-2.597646355628967507e-01,2.803722917197366549e-01,-1.210475742816924938e-01,-1.597646355628967174e-01,2.119937717914581188e-01,5.103815226197938593e-01,-5.498093366622924805e-01,-1.180023074150085449e+00,1.509866591506844600e+02,0.000000000000000000e+00
1.930204999999999949e+00,-1.254562262137860484e-01,-4.990264397941471253e-02,9.468390345573425293e-01,1.352615128847477720e-02,-3.340734649052601313e-03,2.317772857970330780e-02,-6.855750863134429940e-02,2.652303775889632877e-03,-1.387516036629676819e-03,1.889282972960563967e-01,-4.948178012727090513e-02,-1.460267145517390730e-01,-2.813698828220367321e-01,-2.684720516204833762e-01,2.787760667138881043e-01,-1.813698828220367265e-01,-1.684720516204833984e-01,2.136209607124328613e-01,5.109042372601872994e-01,-5.121160149574279785e-01,-1.297583460807800293e+00,1.949973245771201391e+01,0.000000000000000000e+00
1.948803999999999981e+00,-1.261941782346255869e-01,-5.020629237445608378e-02,9.470593929290771484e-01,1.497190603662449521e-02,-4.177913097120677932e-03,2.198533861214503268e-02,-6.291087161823798179e-02,1.418791577616511672e-03,-4.951563663780689240e-03,1.431432421663487442e-01,-8.831791798150374906e-02,-1.271495327356923499e-01,-1.861507833003998025e-01,-2.946511626243591420e-01,2.716997000192824530e-01,-8.615078330039978305e-02,-1.946511626243591364e-01,2.098365247249603105e-01,5.117594406910660476e-01,-4.824508428573608398e-01,-1.243001103401184082e+00,8.598444549896845501e+01,0.000000000000000000e+00
1.973697999999999952e+00,-1.282859570941524696e-01,-5.098894368993145410e-02,9.475215673446655273e-01,1.588159758928394880e-02,-4.126672312760648609e-03,1.777682913335622630e-02,-6.385478489837875804e-02,4.917348440693676201e-03,-1.461974810808897018e-02,-7.447613431600234347e-03,4.797144091427989893e-02,-1.892283370595372605e-01,-1.631469249725341908e-01,2.205070257186889093e-02,2.141386573979448260e-01,-6.314692497253417136e-02,1.220507025718688965e-01,1.640051722526550126e-01,5.092427712569611575e-01,-6.561824679374694824e-01,-1.619040966033935547e-02,-2.734944005947047430e+01,0.000000000000000000e+00
1.998224999999999918e+00,-1.301188424661109400e-01,-5.152419939434639551e-02,9.475739002227783203e-01,1.145750168792278485e-02,5.281572125717115540e-04,1.338985346840764791e-02,-5.507587646189938263e-02,1.821908278673758236e-02,-3.062292374670505524e-02,-2.695449793239328984e-01,2.678486290242559353e-01,-1.167384365549865993e-01,1.209208250045776256e-01,7.821111679077147327e-02,-5.650216632648152881e-02,2.209208250045776312e-01,1.782111167907714788e-01,-9.418934583663940430e-02,5.137636400753176069e-01,-4.820414781570434570e-01,-7.238360643386840820e-01,9.312118038912055340e+01,0.000000000000000000e+00
2.024343000000000004e+00,-1.316947789849094441e-01,-5.176479042676962461e-02,9.473572969436645508e-01,5.053890853836348097e-03,7.419992573133082914e-03,8.236805612523347836e-03,-3.750019542315533028e-02,2.081144242183530571e-02,-2.796115912497043610e-02,-1.958700665395813334e-01,2.189837981380174936e-01,-1.682453832096436896e-01,1.494030977107655977e-01,1.354121024696181563e-01,8.052845890033744070e-03,2.134888172149658203e-01,2.209222018718719482e-01,-1.500982046127319336e-02,5.165975485154070679e-01,-3.239771723747253418e-01,-4.019554853439331055e-01,-6.400759808968416564e+00,0.000000000000000000e+00
2.050173000000000023e+00,-1.326196027454128734e-01,-5.169394387885264258e-02,9.472401738166809082e-01,6.155971955604772712e-04,1.217406930863407233e-02,4.924367717001300153e-03,-5.196962373854796535e-02,7.553735686456366366e-03,-2.931111678481101990e-02,-2.291317809615887047e-01,2.035242870240227264e-01,-1.543089990577779513e-01,1.700452808729050191e-01,1.513534258218806050e-01,-1.958335664669667298e-01,2.163871765136718694e-01,2.209058582782745250e-01,-2.095299482345580888e-01,5.130361723707819177e-01,-5.256033539772033691e-01,-8.096317052841186523e-01,1.010572659782175862e+02,0.000000000000000000e+00
2.073373000000000133e+00,-1.335708349830712904e-01,-5.164214496920855463e-02,9.471460580825805664e-01,-2.341032141959007752e-03,1.508109507160648732e-02,2.689477624993051250e-03,-4.567344697919945712e-02,1.627496907226026399e-02,-2.967597357928752899e-02,-1.089236508433668038e-01,8.723028945158628478e-02,-8.070269662684953493e-02,1.988696516310506091e-01,1.775857038595974602e-01,-1.752843794615742967e-01,2.176650524139404352e-01,2.223278582096099854e-01,-1.827401876449585016e-01,5.117882333237457892e-01,-5.975947380065917969e-01,-7.068878412246704102e-01,6.987666011516564879e+01,0.000000000000000000e+00
2.097792999999999797e+00,-1.350944419418649289e-01,-5.162635816675633510e-02,9.473674893379211426e-01,-2.809534911413479660e-03,1.563720417058567236e-02,7.897124305888010825e-04,-4.764263158874353088e-02,1.144340527406863955e-02,-1.189360208809375763e-02,8.677176552711363122e-02,-6.621009690522863811e-02,-2.389771610970838067e-02,1.952522662432438494e-01,1.184443854408548380e-01,2.130088406192202077e-01,2.165403127670288141e-01,1.640527009963989313e-01,2.108855545520782471e-01,5.096414614439741531e-01,-6.442637443542480469e-01,-1.077832818031311035e+00,9.803395787419231056e+01,0.000000000000000000e+00
2.123813000000000173e+00,-1.366647590049538674e-01,-5.179515090107912612e-02,9.479918479919433594e-01,2.435274520311903393e-04,1.313688872380702755e-02,2.238448028356476867e-04,-5.090640164480566415e-02,1.932546381024331100e-02,4.524222575128078461e-03,1.491242713958812749e-01,-1.187583473788381694e-01,-1.194635214156385215e-03,1.763892341237744132e-01,1.022459050373802081e-01,2.069537197919205929e-01,2.110576272010803167e-01,1.685044527053833063e-01,2.063962876796722468e-01,5.092895742894424371e-01,-5.981694459915161133e-01,-1.009947657585144043e+00,9.127916716242732775e+01,0.000000000000000000e+00
2.149465000000000181e+00,-1.382661662553429927e-01,-5.231532582136808746e-02,9.489221572875976562e-01,5.044662934760373377e-03,8.846705870279913952e-03,8.993232240160238793e-04,-3.780076712272303907e-02,8.644549118515622299e-03,1.763791032135486603e-02,1.936999242602935323e-01,-2.029750848152217790e-01,-1.489956290874514845e-02,1.336751719304476171e-01,7.184609487092716296e-02,2.047755148612147580e-01,2.095970392227172741e-01,1.572436273097991832e-01,2.022872865200042725e-01,5.093568759917203037e-01,-5.403932332992553711e-01,2.067826986312866211e-01,-6.019414125907325719e+00,0.000000000000000000e+00
2.177172000000000107e+00,-1.395851345895717521e-01,-5.291702256408989391e-02,9.500600099563598633e-01,1.094693194819536600e-02,4.495721333210855875e-03,-2.023428295822722080e-03,-4.041843417708775033e-02,1.055281180397976866e-02,2.317496016621589661e-02,2.237416782946232974e-01,-1.087091753674401390e-01,-1.382065598584211463e-01,2.757186889648435835e-02,-1.950622797012329102e-01,2.143318501245244645e-01,1.275718688964843639e-01,-9.506227970123290461e-02,2.198768377304076982e-01,5.110096617076707037e-01,-4.278044700622558594e-01,-8.868912458419799805e-01,9.575477155948324537e+01,0.000000000000000000e+00
2.201006000000000018e+00,-1.403771409438848983e-01,-5.331474884673555875e-02,9.509060978889465332e-01,1.473429584778069602e-02,1.951599774403289800e-03,-4.802987775425599480e-03,-2.379061835821836765e-02,2.151938448653635885e-03,1.847640797495841980e-02,1.651645840487572792e-01,-1.031023139756481466e-01,-1.273141950632525887e-01,-5.850694179534912664e-02,-2.639716625213622825e-01,2.016485518230220764e-01,4.149305820465087891e-02,-1.639716625213623047e-01,2.149011611938476396e-01,5.108263526265560683e-01,-4.536865949630737305e-01,-9.492322206497192383e-01,7.992406645974033097e+01,0.000000000000000000e+00
2.225207999999999853e+00,-1.410991619466152314e-01,-5.368494708621959766e-02,9.516669511795043945e-01,1.849018224185784362e-02,-2.298530391486863778e-04,-7.740577510383047678e-03,-3.460360624792287870e-02,7.558750441299250111e-03,2.672399021685123444e-02,2.173190708670426907e-01,-1.483263109636102639e-01,-1.678225326593818789e-01,-1.902551174163818470e-01,-2.913251876831054465e-01,1.915101843981737162e-01,-9.025511741638182761e-02,-1.913251876831054688e-01,2.127995252609252985e-01,5.098963557097847543e-01,-4.692693948745727539e-01,-6.182152032852172852e-01,4.758817166462118564e+01,0.000000000000000000e+00
2.248517999999999795e+00,-1.415935197684291547e-01,-5.424986950486923587e-02,9.523788690567016602e-01,2.110782895379343521e-02,-1.407268275810835689e-03,-1.079383326032794070e-02,-2.550861894372572630e-02,5.208717076941007029e-04,2.169797942042350769e-02,7.816324153738470060e-02,7.840281118004412825e-03,-1.465479045824970850e-01,-2.564304172992706299e-01,-3.589563369750976840e-02,1.878515682245152640e-01,-1.564304172992706243e-01,6.410436630249023715e-02,2.176400899887084850e-01,5.066822096623365690e-01,-6.576188206672668457e-01,-7.949804067611694336e-01,9.107396778919263625e+01,0.000000000000000000e+00
2.276889000000000163e+00,-1.421478747071481530e-01,-5.502735011125395315e-02,9.532137513160705566e-01,2.369469058761503391e-02,-1.256456178944098667e-04,-1.564348087517258845e-02,-1.649228999710864937e-02,9.189586586682514657e-03,1.323836855590343475e-02,7.906811244519315607e-02,1.046988664707680927e-01,-1.405764645632280596e-01,-2.750304639339447021e-01,1.109498202800750510e-01,1.792247937914236977e-01,-1.750304639339446966e-01,2.109498202800750566e-01,2.225210666656494141e-01,5.064724614189161089e-01,-7.000633478164672852e-01,-6.253587007522583008e-01,6.186885753978349101e+01,0.000000000000000000e+00
2.304034000000000137e+00,-1.423609718774888067e-01,-5.549268892030490008e-02,9.537051320075988770e-01,2.348176393333175835e-02,3.492486518763326941e-03,-1.915226122054390981e-02,-1.609659992557292696e-02,-9.535016666467123134e-03,1.420414820313453674e-02,-1.826172220117732586e-02,1.794972090153429123e-01,-1.890715773350981066e-01,9.243268966674803022e-02,1.236977517604827825e-01,1.718769516837570510e-01,1.924326896667480358e-01,2.236977517604827881e-01,2.251445353031158447e-01,5.066230812754451973e-01,-6.884059906005859375e-01,-1.271555304527282715e+00,1.218078451295798743e+02,0.000000000000000000e+00
2.327211000000000141e+00,-1.424560726664497179e-01,-5.590886618557232984e-02,9.540846943855285645e-01,2.190867425563508553e-02,8.935897358526068146e-03,-2.234205083918221202e-02,-1.066700607417389590e-02,6.521218744387851339e-03,7.954763248562812805e-03,-7.862722483160196341e-02,2.635811760722035491e-01,-1.717535137311020921e-01,8.905131816864012007e-02,1.499121981935713221e-01,1.590290756155976482e-01,1.890513181686401256e-01,2.245608329772949274e-01,2.213345468044281006e-01,5.076183722889346939e-01,-6.602833271026611328e-01,-1.087595343589782715e+00,9.703323270794788868e+01,0.000000000000000000e+00
2.349350999999999967e+00,-1.425296844776245964e-01,-5.621040138944002895e-02,9.543936252593994141e-01,1.923747367520739840e-02,1.371259790089252029e-02,-2.567779083886534072e-02,1.628546569305209992e-03,3.033531219241315541e-03,7.486982271075248718e-03,-1.065244993350160929e-01,2.172230540938857313e-01,-1.686870555751680822e-01,2.933461666107176069e-02,1.894226426013484177e-01,1.445616494248867234e-01,1.293346166610717662e-01,2.244044780731201116e-01,2.163598179817199652e-01,5.087786301661164634e-01,-6.009731888771057129e-01,-7.547050714492797852e-01,7.385394757075577843e+01,0.000000000000000000e+00
2.374658999999999853e+00,-1.427204491579490697e-01,-5.631079245301700426e-02,9.548764824867248535e-01,1.324853456482709760e-02,1.784712129374521616e-02,-3.070486456689033167e-02,-1.481260307776153216e-02,-3.680444122151826578e-04,-2.804743591696023941e-03,-2.239154762656585529e-01,8.717658573481025519e-02,-1.889904376327394553e-01,1.203114271163940319e-01,1.976237395130975016e-01,-1.861512560502381897e-01,2.203114271163940374e-01,2.203996896743774248e-01,-1.002218484878539956e-01,5.081094814389556236e-01,-6.785019636154174805e-01,-7.232793569564819336e-01,-4.391034360790651192e+01,0.000000000000000000e+00
2.400262000000000118e+00,-1.429614653174063332e-01,-5.653160617193025289e-02,9.554401040077209473e-01,9.634365047241241070e-03,1.656738966080206765e-02,-3.533290576297419550e-02,2.633503172843718217e-03,-7.994661336071302860e-03,5.489498376846313477e-03,-1.140787015385035241e-01,-6.702888268878108569e-02,-1.339498241475022555e-01,6.940553188323972389e-02,1.844674446714612559e-01,-3.009973445192178909e-01,1.694055318832397294e-01,1.998923599720001110e-01,-2.020845651626586859e-01,5.070428360221819197e-01,-7.012153267860412598e-01,-1.414957404136657715e+00,7.743688551687875510e+00,0.000000000000000000e+00
