timestamp,x,y,z,roll,pitch,yaw,vx,vy,vz,p,q,r,psp,qsp,rsp,pres,qres,rres,thrust_sp, thrust_res
timestamp,x,y,z,roll,pitch,yaw,vx,vy,vz,p,q,r,psp,qsp,rsp,pres,qres,rres,thrust_sp, thrust_res
0.000000000000000000e+00,-1.631532417679201416e-02,-4.872809699634155813e-03,9.869955778121948242e-01,1.221823942043015823e-02,-2.386360368957340938e-03,1.313041677326956275e-03,2.082682932291544942e-02,3.672364165852335521e-02,2.587607502937316895e-02,5.029506190887507444e-02,-3.316263130176163969e-03,-8.010970956610459492e-02,-2.676437942355317512e-01,2.047169604717214708e-01,-6.271244605763122426e-02,-2.149921238422393688e-01,2.135556936264038086e-01,-6.642011404037474753e-02,5.245334872938197668e-01,7.282772064208984375e-01,-7.407382726669311523e-01,1.851630406252173486e+02,0.000000000000000000e+00
2.412399999999999961e-02,-1.616384757652634604e-02,-3.554100928215223575e-03,9.870778322219848633e-01,1.317060264795891396e-02,-2.683167840353828382e-03,9.774165458299143017e-04,2.087144440636847648e-02,4.249709319035522431e-02,1.717825233936309814e-02,8.941182601421858445e-02,-2.603968917619678414e-02,7.877285813722673807e-03,-2.842364002825741864e-01,1.947164136451101646e-01,2.308179304769962872e-02,-2.255647301673888994e-01,2.084297776222228948e-01,2.029384374618530343e-02,5.256571115761843327e-01,7.555406093597412109e-01,-2.962614297866821289e-01,1.220911750367303483e+02,0.000000000000000000e+00
5.003400000000000208e-02,-1.614567002107493085e-02,-1.305646885816894162e-03,9.870864152908325195e-01,1.484692995565842742e-02,-2.523171934915469095e-03,-4.955577622348031065e-05,2.140136725653361133e-02,3.215252547383292553e-02,2.293241396546363831e-02,6.688049448740992012e-03,2.864129963473962051e-02,-3.721923065531698716e-02,-7.251561074415457941e-02,2.099553444470076413e-01,2.144460316988995030e-01,4.703199863433837370e-03,2.222085714340209794e-01,2.145377755165100153e-01,5.198251600098379166e-01,4.629700183868408203e-01,-7.708460092544555664e-01,7.831343955155962533e+01,0.000000000000000000e+00
7.531699999999999506e-02,-1.641765908123065526e-02,1.084916118520766991e-03,9.872436523437500000e-01,1.623188633259470617e-02,-2.481241686271840052e-03,-1.018712097493117488e-03,1.483331962454691177e-02,4.261516242267561483e-02,1.423208322376012802e-02,6.824722435970892453e-02,-3.682215448934874485e-02,-5.961119374106057384e-02,-2.905363654845164456e-01,1.688994797979547213e-01,-1.781239590942985604e-02,-2.159117996692657415e-01,1.864877521991729625e-01,-1.503943204879760673e-02,5.257671511840150691e-01,7.510747909545898438e-01,-9.342805147171020508e-01,9.543735900837441477e+01,0.000000000000000000e+00
9.946199999999999486e-02,-1.667193068480992899e-02,3.655061204549967056e-03,9.870113730430603027e-01,1.437216501414126553e-02,-3.255159039455612913e-03,-2.536939713249676542e-03,2.355606265532320456e-02,5.428442232280691893e-02,7.979355286806821823e-04,-1.092938893082552460e-01,-6.909382067547636952e-02,-6.274185207979440793e-02,1.555169620321276702e-01,2.105669415381016540e-01,-2.346833645303923743e-01,2.084553837776184082e-01,2.254098773002624345e-01,-2.276455879211425615e-01,5.269439517154055341e-01,7.604188919067382812e-01,-9.774786233901977539e-01,2.729904692377411735e+01,0.000000000000000000e+00
1.217229999999999979e-01,-1.681436248669016323e-02,5.406331206376802263e-03,9.867460727691650391e-01,1.180040207219056753e-02,-4.899042016428323265e-03,-4.148296258076472620e-03,9.992000142155989251e-03,5.558438730285216595e-02,2.935983240604400635e-03,-1.942137776859563514e-01,-9.878750527057801600e-02,-7.079568944158799726e-02,1.686842838046155868e-01,1.871945596362336595e-01,-2.388817454993540923e-01,2.042565107345581110e-01,2.251048743724822776e-01,-2.274142384529113659e-01,5.268118881112258123e-01,7.600929737091064453e-01,-8.924354314804077148e-01,1.122818144451089495e+02,0.000000000000000000e+00
1.470779999999999865e-01,-1.699976272176336248e-02,7.796960732257736566e-03,9.862269759178161621e-01,6.803514277317319371e-03,-8.993233431982883275e-03,-5.133861219579311311e-03,9.744330034242759718e-04,6.259065630687186965e-02,-6.840730784460902214e-04,-2.046953245462540261e-01,-1.788259646080035681e-01,-9.856456774057813924e-03,2.634388479605113964e-02,1.506570127743436516e-01,-2.389489314200452519e-01,2.227138280868530204e-02,2.206457555294036865e-01,-2.247883558273315319e-01,5.270826784499641482e-01,7.576266527175903320e-01,-7.975748777389526367e-01,7.402644399824444577e+01,0.000000000000000000e+00
1.733999999999999986e-01,-1.702290364374955955e-02,9.547798214715817744e-03,9.858939647674560547e-01,3.056525908239370471e-03,-1.392009413609618385e-02,-3.806466603484087458e-03,8.946851044374144355e-04,5.239380652680084016e-02,-1.933502731844782829e-03,-1.324929106060009909e-01,-1.857294884234989563e-01,1.038809059902749271e-01,-6.168498863322061099e-02,1.099518597126006858e-01,-2.064435454188821017e-01,-8.221036791801451804e-02,2.099518597126006914e-01,-1.959864377975463756e-01,5.271253390775614278e-01,7.530522346496582031e-01,-6.457582712173461914e-01,9.939290597183638454e+01,0.000000000000000000e+00
1.989430000000000087e-01,-1.718510205846545194e-02,1.119385707975332350e-02,9.857034683227539062e-01,2.895560195750171862e-03,-2.003308344536569585e-02,-1.989111760852080996e-03,-1.047655351974668622e-02,4.828904888562814135e-02,1.379442214965820312e-02,5.616093903832353879e-02,-2.486903700138729800e-01,4.383939393663020129e-02,5.163709623964723994e-02,-1.791766285896301270e-01,1.185800811089262052e-01,3.050304651260375699e-02,-7.917662858963012140e-02,1.238579034805297741e-01,5.254834974221730404e-01,7.249431610107421875e-01,-1.065878748893737793e+00,8.268883141311312102e+01,0.000000000000000000e+00
2.219079999999999941e-01,-1.727426840732616126e-02,1.227469280506155933e-02,9.856319427490234375e-01,3.361275253451990672e-03,-2.327546539465430442e-02,-2.446974383662323029e-04,3.420372602161531224e-03,6.815336799537176360e-02,-2.511918777599930763e-03,7.809238176719843216e-02,-1.180875430855020808e-01,1.088981684569981651e-01,-1.052655910532832723e-01,5.969977974891660377e-02,1.982647618351429386e-01,-1.407441973686218151e-01,1.596997797489166093e-01,1.985354661941528265e-01,5.270893141820496286e-01,7.465639114379882812e-01,-9.877415895462036133e-01,9.911562078210137372e+01,0.000000000000000000e+00
2.485269999999999979e-01,-1.749436044676248858e-02,1.402606813055853538e-02,9.854581952095031738e-01,3.591043836461012360e-03,-2.697154076104646414e-02,1.151233604314507927e-03,2.441262602444825396e-04,6.740894203815460395e-02,3.382887691259384155e-03,-9.237495473382846545e-02,-5.315344544690013551e-02,8.481543145506148821e-04,-1.013460908509826591e-01,-6.271691918373109575e-02,-1.164055892972350043e-01,-1.332368016242981013e-01,3.728308081626891674e-02,-1.201152563095092690e-01,5.265582007174578472e-01,7.396910190582275391e-01,-1.050885081291198730e+00,9.162211779084283592e+01,0.000000000000000000e+00
2.785900000000000043e-01,-1.713632716753622429e-02,1.522758351785123698e-02,9.852500557899475098e-01,3.500455439350489556e-03,-2.798635035277130534e-02,-5.407329417406338658e-05,-1.391708003625182627e-02,5.834802459466619656e-02,3.578044008463621140e-03,4.019993025466835589e-03,-4.454512018868250767e-02,-1.213052972869829715e-01,1.018274878672431605e-01,-9.607771635055542547e-02,1.152849913305267898e-01,7.547893524169921320e-02,3.922283649444580078e-03,1.149502158164977944e-01,5.266153355234211020e-01,7.422518730163574219e-01,-1.028628706932067871e+00,8.103660182269786105e+01,0.000000000000000000e+00
3.000090000000000257e-01,-1.698483679768442167e-02,1.607024574262256103e-02,9.848870635032653809e-01,2.727300580673042412e-03,-2.814208010531604742e-02,-1.747735203119691466e-03,5.241823232479056460e-03,7.229721803302498195e-02,-1.040033623576164246e-02,-3.529960762389861006e-02,-2.232609175330850862e-02,-8.372122079353976065e-02,2.281809474148957240e-01,1.176915526390075462e-01,-2.243194155396136535e-01,1.835457086563110352e-01,2.176915526390075517e-01,-2.199239015579223522e-01,5.278323307676057174e-01,7.504787445068359375e-01,-1.395902037620544434e+00,8.367677729542043608e+01,0.000000000000000000e+00
3.250149999999999983e-01,-1.685019115577459856e-02,1.744905734803150338e-02,9.842337965965270996e-01,5.315317449504828283e-04,-2.744105990687684127e-02,-2.852811363347683340e-03,-5.669657573460125562e-03,7.200705045183565522e-02,-1.531681977212429047e-02,-1.049402490880806393e-01,9.821279900730181533e-02,-2.912276491477734652e-02,-1.475586789999789872e-01,1.199515998363494818e-01,4.445162074180900730e-02,-2.052994966506958008e-01,2.199515998363494873e-01,5.202230215072631975e-02,5.275399226711574574e-01,7.109467983245849609e-01,-1.353519320487976074e+00,1.111436453821963539e+02,0.000000000000000000e+00
3.460750000000000215e-01,-1.679124937713479329e-02,1.844232459076960637e-02,9.838225245475769043e-01,-5.303785609321706902e-04,-2.709218381930966757e-02,-3.932010367059285416e-03,-1.603041339758050354e-02,7.042056801964910462e-02,-6.913420278578996658e-03,-2.629307688618500935e-02,2.692175538041429936e-02,-7.524965338503768197e-02,-8.584620733669298676e-02,1.233070254325866477e-01,2.001386493814754919e-01,-1.503074705600738470e-01,2.233070254325866533e-01,2.107679665088653398e-01,5.274657053448784660e-01,7.372622489929199219e-01,-7.816463708877563477e-01,8.932813728639152373e+01,0.000000000000000000e+00
3.710120000000000084e-01,-1.644841028059618182e-02,1.913495513653260677e-02,9.832288026809692383e-01,-6.088711233795548826e-05,-2.637062585327254460e-02,-4.199425257747314497e-03,-1.511910777672480222e-02,6.921683090717486997e-02,-9.562196210026741028e-03,4.103186527055343452e-02,2.274293589200563487e-02,1.828254909465025155e-02,-1.499106674818226070e-01,1.188736021518707053e-01,-2.109031964775719414e-01,-2.112997591495513749e-01,2.188736021518707109e-01,-1.995309591293334961e-01,5.273789381838839274e-01,7.184268236160278320e-01,-9.358488321304321289e-01,1.208407723053761060e+02,0.000000000000000000e+00
4.009679999999999911e-01,-1.586921825527400423e-02,1.954099146653835370e-02,9.827512502670288086e-01,2.119509660181890381e-03,-2.748611756024188502e-02,-6.569019590987738508e-03,-2.813514108086186821e-02,6.974185709932474719e-02,-6.908858660608530045e-03,1.539287243110317978e-03,-6.066632436521483818e-02,-1.532933618091566474e-01,1.534879436218815618e-01,-7.723366022109985629e-02,1.152050668300331759e-01,1.050631999969482422e-01,2.276633977890014579e-02,1.330693960189819336e-01,5.276042662133324512e-01,7.379615306854248047e-01,-8.094667196273803711e-01,1.013466747537293600e+02,0.000000000000000000e+00
4.267219999999999902e-01,-1.566785684116621044e-02,2.018588468630375110e-02,9.821774363517761230e-01,1.427876475122491278e-03,-2.922344127076703657e-02,-8.386688121924551834e-03,-3.675461953914388458e-02,8.851396079555358398e-02,-1.646208204329013824e-02,-2.752946967988468413e-02,-8.616442888121868260e-02,-2.826093067408080861e-02,3.978063624955113786e-02,-3.177834987640381081e-01,1.836217812778923320e-01,-2.874460816383361816e-02,-2.177834987640380748e-01,2.064508616924285722e-01,5.277055184935788290e-01,7.012383937835693359e-01,-1.646832346916198730e+00,8.718634022683725959e+01,0.000000000000000000e+00
4.462260000000000115e-01,-1.562085940490175011e-02,2.043264241036565551e-02,9.819531440734863281e-01,4.675728416608376250e-04,-2.971587692033783590e-02,-8.341087947265226829e-03,-4.404527576566674013e-02,8.495038165778771855e-02,-1.624696142971515656e-02,-8.842991721927745408e-02,-5.786108856732833511e-02,3.346838040109360868e-02,5.419031799341433864e-02,-2.850865840911865345e-01,1.607910369225656610e-01,-1.548110246658325126e-02,-1.850865840911865290e-01,1.835573673248291071e-01,5.274343208691858464e-01,6.847748756408691406e-01,-1.204222321510314941e+00,6.409566484129501696e+00,0.000000000000000000e+00
4.708910000000000040e-01,-1.558219940794712717e-02,2.170620921779438384e-02,9.813420772552490234e-01,-2.669227169477625655e-03,-3.159372123807968613e-02,-9.490274460554943073e-03,-3.656891315242735002e-02,7.806090202982440829e-02,-7.688112556934356689e-03,-1.373086123466022712e-01,-7.230473776246054696e-02,-5.495022006079170601e-02,2.735032219663351416e-01,-2.773820281028747670e-01,1.868686688888004099e-01,1.870868682861328014e-01,-1.773820281028747614e-01,2.130299627780914140e-01,5.268333967726337441e-01,6.823083162307739258e-01,-7.269607782363891602e-01,1.029680660400420038e+02,0.000000000000000000e+00
4.968170000000000086e-01,-1.544117964819975708e-02,2.300629836921379290e-02,9.807862043380737305e-01,-4.105788658054940372e-03,-3.128361105980159707e-02,-1.268655598255931209e-02,-2.508287008907797780e-02,8.705427873244381276e-02,-1.210542116314172745e-02,1.081041918673035333e-02,2.484573439282030879e-02,-1.475020451652863107e-01,1.652568578720092773e-01,1.166236221790313554e-01,1.827626044408094397e-01,6.525685787200927179e-02,2.166236221790313610e-01,2.178896963596343994e-01,5.280730038455421216e-01,7.285277843475341797e-01,-1.191592574119567871e+00,1.250819372893605106e+02,0.000000000000000000e+00
5.219799999999999995e-01,-1.529575129022234942e-02,2.441254984808134340e-02,9.801692962646484375e-01,-3.966042919841442950e-03,-2.742199759909635937e-02,-1.641041856688477130e-02,-2.895299969457131722e-02,9.093217427478712811e-02,-2.523249015212059021e-02,2.989369935325633318e-02,2.175977753560279782e-01,-1.362260777622489316e-01,-1.179788172245025413e-01,1.220542013645171953e-01,1.647012299698509541e-01,-2.179788172245025468e-01,2.220542013645172008e-01,2.102642297744750921e-01,5.295958102316928873e-01,7.550648450851440430e-01,-8.300629854202270508e-01,9.665996286980669083e+01,0.000000000000000000e+00
5.474999999999999867e-01,-1.519909039911379253e-02,2.590196187064254529e-02,9.795127511024475098e-01,-1.564069479347465763e-03,-2.120305917125708817e-02,-2.090383864771482372e-02,-4.653667877074180170e-02,8.245092447054125362e-02,-1.601801812648773193e-02,1.153683889999275597e-01,2.847409547039236877e-01,-1.953143386948191784e-01,3.094487457351151605e-01,1.233381211757659801e-01,1.643855464671856170e-01,2.242270946502685491e-01,2.233381211757659857e-01,2.225213527679443248e-01,5.288121787309403299e-01,7.441672086715698242e-01,-9.158853292465209961e-01,1.045646774000458521e+02,0.000000000000000000e+00
5.720229999999999482e-01,-1.534734991482479896e-02,2.744647180623607449e-02,9.788959026336669922e-01,3.252237797171012631e-03,-1.677245224381840316e-02,-2.554454045311683671e-02,-4.210385797328710517e-02,8.987615543911238458e-02,-1.670775748789310455e-02,2.368685425139435696e-01,6.594032857283571580e-02,-1.647811589685316824e-01,-9.094653388591279752e-02,1.140545129776000810e-01,-3.296443555010624554e-02,-1.533188760280609075e-01,2.140545129776000866e-01,3.804384469985961498e-02,5.283126020019937030e-01,7.096359729766845703e-01,-1.139575362205505371e+00,1.311908499452834498e+01,0.000000000000000000e+00
5.967649999999999899e-01,-1.574164306661666318e-02,2.899173337247634361e-02,9.783304333686828613e-01,6.543897892155793594e-03,-1.476485704120023001e-02,-3.009717752937080340e-02,-4.631890456275263718e-02,9.057543392716307928e-02,-1.253224909305572510e-02,4.456780294027595096e-02,7.043905113554378705e-02,-1.281274349598706397e-01,2.448338408422694457e-01,1.252559900283813366e-01,1.436438493088506019e-01,2.031589865684509111e-01,2.252559900283813421e-01,2.273247420787811168e-01,5.280311497632359519e-01,7.067074775695800781e-01,-1.158357024192810059e+00,9.940656635017640497e+01,0.000000000000000000e+00
6.211640000000000494e-01,-1.618471592274041415e-02,3.018394497869427567e-02,9.780834913253784180e-01,8.541037149011474622e-03,-1.549071758872710980e-02,-3.300053605626654396e-02,-5.533878840325455462e-02,8.802335784654947981e-02,2.553562866523861885e-03,4.680788818377808191e-02,-8.560401123859789907e-02,-1.371416776827395767e-01,8.445978375676543859e-02,-3.714514970779420056e-02,-1.052112187385882691e-02,5.666613578796386719e-02,6.285485029220580500e-02,8.117566108703612449e-02,5.270455788076287007e-01,7.104732990264892578e-01,-9.919844865798950195e-01,-5.594791681246118031e+01,0.000000000000000000e+00
6.479200000000000514e-01,-1.697926920603917353e-02,3.203200823919253454e-02,9.775404334068298340e-01,1.059568115715736093e-02,-1.756535684927640339e-02,-3.591091993514776426e-02,-5.966252019190933925e-02,9.567959586345840817e-02,-1.678574830293655396e-02,7.591011528069967207e-02,-1.102987192953148871e-01,-1.142136552680055178e-01,6.417039004542891834e-02,-1.005461692810058622e-01,-7.304532347994552310e-03,4.204509258270263533e-02,-5.461692810058593099e-04,9.234693646430969238e-02,5.285551097383358599e-01,7.120063304901123047e-01,-6.495240926742553711e-01,1.386273772060330316e+02,0.000000000000000000e+00
6.730770000000000364e-01,-1.818391318996367620e-02,3.369395158301340815e-02,9.770465493202209473e-01,1.220593044814014157e-02,-2.054087057938280836e-02,-3.917091595639658058e-02,-7.020423092649526187e-02,9.323867241083792778e-02,-4.941837862133979797e-03,5.831874298573792165e-02,-1.162024023377676157e-01,-1.158927861563522344e-01,5.082901342399174377e-02,-2.297459959983825795e-01,-2.660120725631714977e-02,4.069719314575195174e-02,-1.297459959983825739e-01,7.339879274368285578e-02,5.275957536748712151e-01,7.029049396514892578e-01,-1.093844532966613770e+00,8.984801030487787443e+01,0.000000000000000000e+00
6.976379999999999804e-01,-1.952549839115197416e-02,3.532525690858285411e-02,9.765666127204895020e-01,1.471075401983234880e-02,-2.306856580008820323e-02,-4.172017232980768098e-02,-6.647527860525428989e-02,9.760861486278368804e-02,-8.532424457371234894e-03,1.384933162045160759e-01,-9.942993747267619975e-02,-9.560049949089974297e-02,-4.510867811209200162e-02,-2.074227929115295410e-01,5.665439963340757057e-02,-4.442274570465087891e-02,-1.074227929115295355e-01,1.566543996334075761e-01,5.275532343091503540e-01,6.827876567840576172e-01,-1.216314673423767090e+00,8.714566645032984127e+01,0.000000000000000000e+00
7.225800000000000001e-01,-2.100775286722477916e-02,3.714955533700190632e-02,9.760692715644836426e-01,1.639436162103830030e-02,-2.293807224207955464e-02,-4.394772578925025541e-02,-4.983957505676243904e-02,9.970918486319158003e-02,-1.843036711215972900e-02,1.144085542216762529e-02,7.125286938107039392e-02,-3.619042285866099634e-02,-2.361998702770919945e-01,1.239628076553344616e-01,-2.278857231140136719e-01,-2.273598790168762096e-01,2.239628076553344671e-01,-1.278857231140136663e-01,5.297008155244582461e-01,7.571121454238891602e-01,-7.263876199722290039e-01,7.039620528457183468e+01,0.000000000000000000e+00
7.474260000000000348e-01,-2.186967703458071732e-02,3.819692587273906120e-02,9.757720232009887695e-01,1.743819271768849363e-02,-2.107708987613099438e-02,-4.584541834225974027e-02,-6.994210782038222385e-02,8.798817757966997943e-02,-8.264939300715923309e-03,2.239535783561215007e-02,1.367942318074262531e-01,-1.356653804182905154e-01,-2.519860245964407608e-01,1.241523683071136253e-01,1.161890149116515947e-01,-2.271673142910003440e-01,2.241523683071136308e-01,2.161890149116516002e-01,5.289285824484044607e-01,7.520985603332519531e-01,-1.075198054313659668e+00,9.480984903875783232e+01,0.000000000000000000e+00
7.718810000000000393e-01,-2.320801282006485292e-02,4.004081859661190457e-02,9.751210808753967285e-01,1.808093899819571138e-02,-1.650945213606780371e-02,-4.818304342561339354e-02,-6.622325607665323355e-02,1.019214259125021532e-01,-1.427532080560922623e-02,8.990833547057781872e-02,1.529684243652403297e-01,-5.768526139329832603e-02,-1.781970636813366010e-02,1.236746490001678356e-01,-3.160724997520446555e-01,-2.962839603424072092e-03,2.236746490001678411e-01,-2.160724997520446777e-01,5.293274306627082648e-01,7.451798915863037109e-01,-1.401978373527526855e+00,-3.191164442501298026e+01,0.000000000000000000e+00
7.961650000000000116e-01,-2.429098043747612151e-02,4.164564737491397578e-02,9.745686650276184082e-01,1.617619672578085241e-02,-1.262460905483342444e-02,-4.950862156422069366e-02,-5.557208587797112659e-02,1.003876386289360295e-01,-1.104849390685558319e-02,-1.212085514048115847e-01,9.864768159855977214e-02,-2.625979010755041809e-02,-2.065537637838338048e-01,1.211934089660644531e-01,-2.703337907791137917e-01,-2.023337066173553356e-01,2.211934089660644587e-01,-1.703337907791137584e-01,5.288468478242688287e-01,7.278881072998046875e-01,-1.111689686775207520e+00,9.387677006605321139e+01,0.000000000000000000e+00
8.207160000000000011e-01,-2.555665773482636641e-02,4.340055184106167419e-02,9.739710688591003418e-01,1.230906637184153198e-02,-1.201018857690372421e-02,-5.187820000413026489e-02,-7.248587529462176271e-02,1.057740158509035688e-01,-5.783116910606622696e-03,-1.529891387070989039e-01,-3.459540945510050647e-02,-7.329518331080832338e-02,2.387324711758692375e-01,1.205894291400909368e-01,-3.263758659362793191e-01,2.123481273651122991e-01,2.205894291400909424e-01,-2.263758659362792858e-01,5.290804486951767860e-01,7.568013668060302734e-01,-3.856933116912841797e-02,1.394607149262879489e+02,0.000000000000000000e+00
8.463220000000000187e-01,-2.717606308185499878e-02,4.531764691539271611e-02,9.736887812614440918e-01,7.716576972529831137e-03,-1.432780851503889785e-02,-5.138239633476848062e-02,-9.540746285256462844e-02,1.053168374049558292e-01,-1.710875192657113075e-03,-1.827255716101673089e-01,-9.691937316865614771e-02,4.853013984956255217e-02,1.270597275874651433e-01,8.888148069381712757e-02,-2.929753184318542591e-01,7.068064212799071711e-02,1.888814806938171331e-01,-1.929753184318542536e-01,5.285358933060915199e-01,7.399976253509521484e-01,-1.507231473922729492e+00,9.770515256754789846e+01,0.000000000000000000e+00
8.742419999999999636e-01,-2.934508158065795083e-02,4.713885766420689710e-02,9.736482501029968262e-01,4.092413440123753889e-03,-1.845906116181472711e-02,-4.971710462612456000e-02,-8.780506892764466942e-02,1.112554076382415852e-01,3.922890871763229370e-03,-5.440059558454478361e-02,-2.058300930151256702e-01,9.628448536496705956e-02,2.112595038180969942e-01,-2.562958955764770286e-01,-1.118302583694458091e-01,1.240081429481506292e-01,-1.562958955764770508e-01,-1.183025836944580009e-02,5.272380503706801669e-01,6.900882720947265625e-01,-1.489537835121154785e+00,5.485106014874341440e+01,0.000000000000000000e+00
8.994550000000000045e-01,-3.073491079073918664e-02,4.807540622369547989e-02,9.738110303878784180e-01,3.338817246501026622e-03,-2.143477417812178487e-02,-4.842599884809663247e-02,-8.680483356804827300e-02,1.036386473345078801e-01,1.221505180001258850e-02,-6.278784783465075903e-02,-1.387686505980466611e-01,1.027372451084337668e-01,2.104709321651398735e-01,-2.844526529312133567e-01,-1.558633685111999456e-01,1.237666010856628418e-01,-1.844526529312133789e-01,-5.586336851119994701e-02,5.268614688306886285e-01,7.024723291397094727e-01,-6.915346384048461914e-01,-8.793824160161811676e+00,0.000000000000000000e+00
9.233599999999999586e-01,-3.328893040589699093e-02,4.977321719467819872e-02,9.743086695671081543e-01,5.051696099017260154e-03,-2.584806815716644834e-02,-4.695473338595596707e-02,-9.800288947799751238e-02,1.020453068632696664e-01,2.001693844795227051e-02,1.263362060803301656e-01,-9.816147172001454813e-02,4.368338441536894975e-03,1.156227308809457816e-01,-3.099331736564636119e-01,6.516027450561512335e-03,3.847242593765258512e-02,-2.099331736564636064e-01,1.065160274505615179e-01,5.262178744781969009e-01,6.994234323501586914e-01,-1.105749726295471191e+00,9.091818483460298239e+01,0.000000000000000000e+00
9.498729999999999674e-01,-3.559029007862127281e-02,5.126080124246511216e-02,9.751055836677551270e-01,7.863256278718941047e-03,-2.649420849634021025e-02,-4.653549238985146830e-02,-9.759300035613881208e-02,9.332811546682957815e-02,3.368197381496429443e-02,6.173935313559834187e-02,5.479842080045072700e-02,2.962004553912395838e-02,-7.152581411309613668e-02,1.066649377346038652e-01,-3.195766806602478027e-01,-1.254887938499450739e-01,2.066649377346038707e-01,-2.195766806602477972e-01,5.256978695079300712e-01,7.289168834686279297e-01,-8.465534448623657227e-01,9.206020612420745408e+01,0.000000000000000000e+00
9.743429999999999591e-01,-3.780631366599918053e-02,5.279241819931035362e-02,9.757702946662902832e-01,1.195146860160469469e-02,-2.258231757952011698e-02,-4.668358157768333350e-02,-9.558640186934534710e-02,8.955008898289437691e-02,2.797820791602134705e-02,2.130960443210871691e-01,1.743799912630674687e-01,-5.203214064460746219e-02,9.992638413297985633e-02,1.159186661243438721e-01,-3.132949113845825417e-01,7.320692539215087336e-02,2.159186661243438776e-01,-2.132949113845825084e-01,5.261455413276520110e-01,7.335696220397949219e-01,-1.330234885215759277e+00,9.974457875182200439e+01,0.000000000000000000e+00
9.974560000000000093e-01,-3.936779020082324665e-02,5.377508602779649399e-02,9.762742519378662109e-01,1.443525803906881531e-02,-1.838252808089380075e-02,-4.699767787810032321e-02,-8.513278313992116153e-02,1.045825939489250650e-01,2.427354082465171814e-02,2.121056259637467412e-01,2.273222845002451920e-01,2.372514722766191908e-02,1.190705506033534755e-01,1.243859887123107688e-01,-3.216435194015502819e-01,9.478247165679931641e-02,2.243859887123107744e-01,-2.216435194015502763e-01,5.263716038106682760e-01,7.328648567199707031e-01,-1.216913819313049316e+00,1.032188637561757076e+02,0.000000000000000000e+00
1.022629000000000010e+00,-4.174086269534819926e-02,5.530869818266034160e-02,9.770414233207702637e-01,1.727472056423385791e-02,-1.233839743980302828e-02,-4.580276248958030372e-02,-9.225113643463857260e-02,1.020579091935652077e-01,2.968689426779747009e-02,8.999841424802336454e-02,1.945609461976872401e-01,6.948882025381809824e-02,-2.242917807164162836e-01,1.256748437881469449e-01,-3.273523330688476451e-01,-2.269000053405761663e-01,2.256748437881469505e-01,-2.273523330688476396e-01,5.260478294511509167e-01,7.397580146789550781e-01,-1.261793971061706543e+00,9.419672344753328730e+01,0.000000000000000000e+00
1.050168999999999908e+00,-4.450546764731279359e-02,5.710133928487352156e-02,9.780615568161010742e-01,2.062403507342405046e-02,-1.023625159332386403e-02,-4.318728493130427615e-02,-1.112530113813604421e-01,9.961678415533951891e-02,2.832910977303981781e-02,1.241379489060021601e-01,2.324198881842661629e-02,1.226305357970035870e-01,-2.415154929059867284e-01,9.570845365524291437e-02,-3.057800412178039440e-01,-2.219133496284484697e-01,1.957084536552429199e-01,-2.057800412178039384e-01,5.262682104903171343e-01,7.500103712081909180e-01,-8.650096654891967773e-01,1.189291253000945972e+02,0.000000000000000000e+00
1.073064999999999936e+00,-4.636623765598606867e-02,5.809653125549135710e-02,9.788090586662292480e-01,2.276543919961031281e-02,-1.110693680142738060e-02,-4.157589836366159392e-02,-1.204525627937221843e-01,8.924812824038268200e-02,4.622982069849967957e-02,7.325235928932234686e-02,-9.849158869667047622e-02,5.443960411424256934e-02,-7.870192390541895511e-02,-3.167890787124633678e-01,-1.370760679244995006e-01,-3.877032995223998746e-02,-2.167890787124633623e-01,-3.707606792449950894e-02,5.235168661635249965e-01,6.754021644592285156e-01,-8.301535844802856445e-01,7.380332220862763393e+01,0.000000000000000000e+00
1.102900999999999909e+00,-4.965649191280189362e-02,5.907608495566758766e-02,9.800567030906677246e-01,2.397694845383933210e-02,-1.344405940159587587e-02,-3.825535689800904637e-02,-1.180526495553212152e-01,9.543175758483234128e-02,4.213191196322441101e-02,3.136935188209195174e-02,-1.036965394679171537e-01,1.651862546259920683e-01,-1.119381096961226674e-01,-3.161665916442871205e-01,-2.829973936080932839e-01,-7.219660878181456687e-02,-2.161665916442871149e-01,-1.829973936080932506e-01,5.237834823274046814e-01,6.793794631958007812e-01,-1.102415204048156738e+00,8.598625549909851884e+01,0.000000000000000000e+00
1.125706000000000095e+00,-5.195323472264052472e-02,5.990523970756551214e-02,9.809118509292602539e-01,2.257833582230094407e-02,-1.502286722129486662e-02,-3.629577483836037011e-02,-1.118382948070452965e-01,9.883181266433715972e-02,4.388560727238655090e-02,-1.663773018697101702e-01,-5.863745073807728747e-02,1.087470537756396044e-01,-6.954616416143581670e-02,-2.499859809875488170e-01,-2.512002071888139731e-01,-4.221289157867431224e-02,-1.499859809875488115e-01,-1.515064001083374079e-01,5.234942095313932509e-01,6.752126216888427734e-01,-1.147041678428649902e+00,7.472937974686547591e+01,0.000000000000000000e+00
1.148979999999999890e+00,-5.419038920557610328e-02,6.076562449173848052e-02,9.817632436752319336e-01,2.030050479143894956e-02,-1.605211423879748800e-02,-3.510554020875050751e-02,-1.135627816742512536e-01,9.578962161558399191e-02,4.481538757681846619e-02,-1.458836652408885548e-01,-3.828116126048810436e-02,-4.954226228516108756e-03,-4.735362332887736725e-02,-2.742857217788696178e-01,-2.547684922627777571e-01,-3.304204344749450684e-02,-1.742857217788696123e-01,-1.583784341812133623e-01,5.227455078352903906e-01,6.428742408752441406e-01,-8.445023298263549805e-01,8.658349407031360556e+01,0.000000000000000000e+00
1.173524000000000012e+00,-5.628054351714917997e-02,6.165109814144049960e-02,9.825193881988525391e-01,1.675021517691609868e-02,-1.521789967787134934e-02,-3.377690174456097344e-02,-1.079305278856121375e-01,1.055816076692386030e-01,3.460757434368133545e-02,-1.811726620316633507e-01,1.185121179904027183e-01,6.926381970598702309e-02,-1.020564780793772053e-01,1.095720052719116044e-01,-2.015978040637992907e-01,-1.202260136604308971e-01,2.095720052719116100e-01,-1.087543487548828097e-01,5.241110521931375832e-01,6.801035404205322266e-01,-9.931885004043579102e-01,1.062755646550531736e+02,0.000000000000000000e+00
1.202565000000000106e+00,-5.938191629923585818e-02,6.277330814114917557e-02,9.836115241050720215e-01,1.148567335483443447e-02,-1.097203630859389101e-02,-3.128293135738967334e-02,-1.067149230102649032e-01,9.508103896070259353e-02,4.214964061975479126e-02,-2.665684893925081012e-01,2.251758106119461922e-01,9.776315531109755486e-02,-7.184270039273796260e-02,1.150506138801574707e-01,-1.657987021154490592e-01,-1.157381236553192139e-01,2.150506138801574763e-01,-7.946419715881347656e-02,5.234119074669073557e-01,6.778876781463623047e-01,-7.078334093093872070e-01,3.842200657204529790e+01,0.000000000000000000e+00
1.223149999999999959e+00,-6.148964563603422778e-02,6.354498109219003377e-02,9.840045571327209473e-01,8.624241545816622306e-03,-7.074574824909252158e-03,-2.966894179187667610e-02,-1.153016840958588363e-01,1.065394683267178594e-01,2.316709049046039581e-02,-1.252508036497431976e-01,2.093755234644734953e-01,4.098905694163396812e-02,-1.468752037104102404e-01,1.212239503860473577e-01,-2.340428664780944690e-01,-2.205082476139068604e-01,2.212239503860473633e-01,-1.520766019821166992e-01,5.257427634008009498e-01,7.303452491760253906e-01,-1.260807156562805176e+00,1.060016330882006343e+02,0.000000000000000000e+00
1.248339000000000087e+00,-6.449623014465025173e-02,6.466373997802463136e-02,9.846602678298950195e-01,4.876445490349948231e-03,-7.976161513438828621e-04,-2.674938942807862999e-02,-1.128580081043841499e-01,1.050994924436621791e-01,1.340009365230798721e-02,-1.384987284839488964e-01,2.532071740637299451e-01,1.375291049275632338e-01,-1.299737492817046869e-01,1.248597204685211182e-01,-1.035145662610351819e-01,-2.262165963649749589e-01,2.248597204685211237e-01,-2.934490442276000907e-02,5.267312655763838336e-01,7.482197284698486328e-01,-1.029826998710632324e+00,1.050364658867753036e+02,0.000000000000000000e+00
1.272794999999999899e+00,-6.759899891885541579e-02,6.587217193062458453e-02,9.853178858757019043e-01,2.983214775333223497e-03,2.782376075159076478e-03,-2.455574178946833691e-02,-1.123269116781859672e-01,1.075031135826251538e-01,3.001808002591133118e-02,-5.110551565611348018e-02,7.144498182363548389e-02,6.856675717781800239e-02,-1.268104195594787487e-01,1.263363838195800670e-01,-1.919117784489200451e-01,-2.268104195594787542e-01,2.263363838195800726e-01,-1.237445354461669811e-01,5.255374688756023760e-01,7.518718242645263672e-01,-9.888178110122680664e-01,9.480903624624659187e+01,0.000000000000000000e+00
1.297616000000000103e+00,-7.071774016737425450e-02,6.716052066944439014e-02,9.861227869987487793e-01,1.394440921061221262e-03,2.612380871567010487e-03,-2.244147559427995750e-02,-1.090914535648600941e-01,1.073138825566232052e-01,2.547408081591129303e-02,-1.180011884560459162e-01,-9.549797377516034552e-03,1.264774712373567256e-01,2.695013761520385631e-01,1.066439628601074108e-01,-2.354947071580451856e-01,1.695013761520385576e-01,2.066439628601074163e-01,-1.732153415679931474e-01,5.255981122663285765e-01,7.409305572509765625e-01,-1.108030915260314941e+00,1.008767235878866302e+02,0.000000000000000000e+00
1.323056999999999928e+00,-7.386565864331934295e-02,6.797182209729675517e-02,9.870232939720153809e-01,-4.401879481158793507e-04,3.343506449402511294e-04,-2.060363661921826850e-02,-1.213475381998895125e-01,1.115963677665764708e-01,3.789076581597328186e-02,-7.650027897886702011e-02,-5.529564674114348377e-02,2.640777933632969515e-03,2.497020959854125977e-01,-1.760980963706970104e-01,-3.408488067076161088e-02,1.497020959854125921e-01,-7.609809637069701871e-02,2.294654846191406319e-02,5.238966518314308596e-01,7.012944221496582031e-01,-1.149079203605651855e+00,6.754261372104303973e+01,0.000000000000000000e+00
1.348360999999999921e+00,-7.682847732727153545e-02,6.885376328696617143e-02,9.878860116004943848e-01,-3.725453423302618316e-03,-2.777029329963154325e-03,-1.890283233583320982e-02,-1.277327038154866534e-01,1.131599105059068883e-01,2.609787881374359131e-02,-1.928050946997666992e-01,-9.172194992980335637e-02,1.079727591356928335e-01,2.783005237579345703e-01,-4.908275008201599954e-02,-8.916077535835395529e-02,1.783005237579345648e-01,5.091724991798400601e-02,-3.689643144607544084e-02,5.247623667955350069e-01,7.053704261779785156e-01,-1.288419365882873535e+00,9.678307702959617131e+01,0.000000000000000000e+00
1.372222999999999971e+00,-7.980579056045461472e-02,6.997878952427315224e-02,9.886846542358398438e-01,-6.793442870819568595e-03,-6.648952146276698727e-03,-1.698445050790204150e-02,-1.186817357997166228e-01,1.051596774588493266e-01,4.936307296156883240e-02,-6.583262432051852076e-02,-2.136882514655376597e-01,3.215869356726912265e-02,2.596505165100097545e-01,-3.014861822128295787e-01,2.739589304634006128e-02,1.596505165100097490e-01,-2.014861822128295732e-01,7.436535358428954245e-02,5.223973579179553850e-01,6.746711730957031250e-01,-9.480308294296264648e-01,9.490105938493417170e+01,0.000000000000000000e+00
1.397831000000000046e+00,-8.267280882246640095e-02,7.126888609284613707e-02,9.896217584609985352e-01,-6.637526908821095133e-03,-1.031311405034318618e-02,-1.520725840271976333e-02,-1.145515673565452724e-01,1.136036659484483818e-01,3.990680724382400513e-02,8.497808069681672682e-02,-1.050942664593249448e-01,4.708269559072027211e-02,2.309139728546142634e-01,-3.066873788833618386e-01,2.371440408661286414e-02,1.309139728546142578e-01,-2.066873788833618053e-01,6.556143164634704867e-02,5.234769249360623489e-01,7.004153728485107422e-01,-1.010825753211975098e+00,1.011176585108588313e+02,0.000000000000000000e+00
1.423259000000000052e+00,-8.528863620025771419e-02,7.294807051400141462e-02,9.906455874443054199e-01,-3.856831510645061627e-03,-1.252965327108701565e-02,-1.466191822790294252e-02,-1.067021133166883018e-01,1.138980894138685585e-01,3.823376819491386414e-02,1.544386624733385949e-01,-4.181552067548055529e-02,2.227309412959093370e-03,1.731482028961181530e-01,-1.834420919418335016e-01,1.209639692685340190e-02,7.314820289611816129e-02,-8.344209194183349609e-02,5.223918557167053084e-02,5.233134792617710751e-01,6.905934810638427734e-01,-1.046882987022399902e+00,9.855518327013432156e+01,0.000000000000000000e+00
1.449721999999999955e+00,-8.769397745589767312e-02,7.460751985977825962e-02,9.913309216499328613e-01,1.406204194412007200e-03,-1.176651990381460955e-02,-1.463458270834992227e-02,-1.003395407527429423e-01,1.111133454775496965e-01,3.920695930719375610e-02,2.484439986212952922e-01,6.827700810051713642e-02,1.910214253925884495e-02,6.908360719680786688e-02,7.268762588500976562e-02,-1.012031291500091190e-01,-3.091639280319213867e-02,1.726876258850097712e-01,-6.135349273681640209e-02,5.235848653297211497e-01,7.135252952575683594e-01,-9.903916120529174805e-01,8.371831850595245328e+01,0.000000000000000000e+00
1.473478000000000065e+00,-8.997532955051824877e-02,7.633400433590072087e-02,9.919990897178649902e-01,7.745688931357356394e-03,-7.558235675170665857e-03,-1.573636538974891932e-02,-9.803519060143373043e-02,1.085511761499318717e-01,3.102822229266166687e-02,2.094043998895875336e-01,2.110363478512021218e-01,-4.143334471961393484e-02,2.893158727546186748e-01,1.242724955081939697e-01,-2.437074923929377634e-01,1.944555759429931474e-01,2.242724955081939753e-01,-2.008988142013549694e-01,5.245653793762037331e-01,7.381666898727416992e-01,-1.292288184165954590e+00,6.704666685521924308e+01,0.000000000000000000e+00
1.499581999999999971e+00,-9.219762824241399535e-02,7.820994239081141552e-02,9.928128719329833984e-01,1.425745006866064972e-02,-1.163283606638865209e-03,-1.684499156635255873e-02,-9.896163181634944073e-02,1.119954812817108986e-01,3.073442727327346802e-02,2.611728511408172859e-01,2.571378747075913629e-01,-7.623942897528872276e-02,2.703864434950283835e-01,1.253003001213073564e-01,-1.697799900027852638e-01,2.130960345268249345e-01,2.253003001213073619e-01,-1.238608717918395913e-01,5.246375807261324242e-01,7.448158264160156250e-01,-1.328039050102233887e+00,9.095475366741922585e+01,0.000000000000000000e+00
1.525565999999999978e+00,-9.471266615681259160e-02,8.056651812756940312e-02,9.934855699539184570e-01,2.036435853631171633e-02,4.166837721831351260e-03,-1.680428434960832759e-02,-1.066315065052710481e-01,1.066141429946780017e-01,2.542304061353206635e-02,1.676060919402562743e-01,1.723828199060672972e-01,6.441213684362516456e-02,1.979057574138309017e-01,1.239888429641723411e-01,-2.414691275380000668e-01,1.833987951278686357e-01,2.239888429641723466e-01,-1.956084609031677191e-01,5.249734208585788986e-01,7.453451156616210938e-01,-1.099334597587585449e+00,3.180853247420788321e+01,0.000000000000000000e+00
1.552084000000000019e+00,-9.723106988324529965e-02,8.278227175677868588e-02,9.942640662193298340e-01,2.716788424680506228e-02,6.048325215000982524e-03,-1.563461493215926451e-02,-1.041487928287894438e-01,1.045860918213743773e-01,3.393269702792167664e-02,2.968753325126323173e-01,-2.010381083414996065e-02,1.153282093052221749e-02,-2.431383976327800567e-01,8.994565606117246870e-02,4.985717496601689558e-02,-2.150867342948913630e-01,1.899456560611724742e-01,9.238647222518921176e-02,5.240924182640140927e-01,7.355496883392333984e-01,-1.723814785480499268e+00,1.120810478646455834e+02,0.000000000000000000e+00
1.572038000000000046e+00,-9.901722988187348917e-02,8.425317380471315787e-02,9.949437379837036133e-01,3.220506995450203580e-02,5.460215534975443319e-03,-1.434418580581921579e-02,-1.090256511250588395e-01,1.043046275649133631e-01,3.387495502829551697e-02,2.946517344546124018e-01,-6.471312826581683553e-02,7.931568382456127830e-02,-2.703339245142937219e-01,-7.318735122680691818e-04,3.404899665429365896e-02,-2.113661170005798340e-01,9.926812648773193637e-02,7.271386384963988980e-02,5.238460321399840414e-01,7.255674600601196289e-01,-5.133010149002075195e-01,-2.489981320421290789e+01,0.000000000000000000e+00
1.596986000000000017e+00,-1.019048166896554114e-01,8.657979390144743270e-02,9.960042834281921387e-01,3.979989287999343567e-02,2.516030807727887009e-03,-1.239523141108312201e-02,-1.139994046788094240e-01,9.002097247173816708e-02,5.202946439385414124e-02,2.463940296791340134e-01,-1.373595485432783092e-01,2.474626731501077676e-02,-3.026683390140533225e-01,-2.527937173843383678e-01,5.840893015540964128e-02,-2.026683390140533447e-01,-1.527937173843383623e-01,9.110738039016723355e-02,5.219533987283365706e-01,7.014603614807128906e-01,-9.482456445693969727e-01,-1.477033325751459927e+02,0.000000000000000000e+00
1.621793000000000040e+00,-1.050794506472462198e-01,8.935427702139100981e-02,9.968330860137939453e-01,4.373862349713134728e-02,-8.128313826956112820e-04,-1.181396730812782868e-02,-1.082611485134212931e-01,9.061490895721162342e-02,2.577450498938560486e-02,8.632684513595317854e-02,-1.712164139961233067e-01,1.444153139180718616e-02,-2.329859256744384877e-01,-3.179501175880432018e-01,-8.290251616175478566e-02,-1.329859256744384821e-01,-2.179501175880431962e-01,-5.223820209503173689e-02,5.235384746620713736e-01,6.879518032073974609e-01,-1.185231089591979980e+00,8.198030173956185251e+01,0.000000000000000000e+00
1.647690000000000099e+00,-1.081530849110610426e-01,9.227039311232453078e-02,9.971339702606201172e-01,4.227671460035111600e-02,-2.746788297795399458e-03,-1.246916375837815033e-02,-1.003319912461054231e-01,1.046754499239532094e-01,7.166203111410140991e-03,-1.314742350592732201e-01,-5.663648672272796752e-02,-2.978370970948919505e-02,-1.640206813812256081e-01,-2.403171539306640514e-01,-2.099390725280481651e-01,-6.402068138122558871e-02,-1.403171539306640458e-01,-1.775919198989868164e-01,5.245099354631969080e-01,6.679219007492065430e-01,-8.295537233352661133e-01,2.010629252959687197e+00,0.000000000000000000e+00
1.670908999999999978e+00,-1.110861134403933886e-01,9.537448033815114357e-02,9.971792101860046387e-01,3.648449590526595815e-02,-1.794393638307356653e-03,-1.333915158342829053e-02,-8.862868568214363196e-02,1.049223608671373542e-01,-3.477570833638310432e-03,-2.522886050588434292e-01,1.281541151537414769e-01,-2.809348563550047306e-02,-1.989328709413056562e-01,1.096428871154785101e-01,-1.227414893556136311e-01,-1.214803934097289928e-01,2.096428871154785156e-01,-8.757698535919189453e-02,5.251846624045340972e-01,6.627490520477294922e-01,-7.316097021102905273e-01,8.596668700712642419e+01,0.000000000000000000e+00
1.697076000000000029e+00,-1.140311998289271767e-01,9.841175973365227925e-02,9.969190359115600586e-01,2.890812718486276273e-02,2.724431353092304775e-03,-1.297259060461258655e-02,-8.566920035531513933e-02,9.840577877574636922e-02,-4.277519881725311279e-03,-2.657002588089970030e-01,1.939645204739044448e-01,5.342854884688218176e-02,-2.161102683417142623e-01,1.205375730991363470e-01,-1.536380380468375106e-01,-1.851085960865020696e-01,2.205375730991363525e-01,-1.188980340957641602e-01,5.262167264191570659e-01,7.144052982330322266e-01,-6.807256937026977539e-01,9.525826461814750701e+01,0.000000000000000000e+00
1.721546999999999938e+00,-1.169955382077786515e-01,1.012697636358204090e-01,9.969146847724914551e-01,2.237622154318036002e-02,8.431387954492830517e-03,-1.205186457744939106e-02,-9.358504070990862622e-02,8.853018944929974543e-02,-1.710512209683656693e-03,-2.284459764432801299e-01,1.945734721868721817e-01,1.212623122858233482e-02,-1.980758947999061714e-01,1.230342447757720725e-01,-1.829919102887712923e-01,-2.050079584121703991e-01,2.230342447757720781e-01,-1.503416061401367243e-01,5.263509631115705911e-01,7.312617301940917969e-01,-9.972399473190307617e-01,1.189456543578860277e+02,0.000000000000000000e+00
1.747656000000000098e+00,-1.190375206915472717e-01,1.031812864649957057e-01,9.968769550323486328e-01,1.955259476717089925e-02,1.054866467210535674e-02,-1.123340513446043076e-02,-8.078270822185164290e-02,9.637883210929608369e-02,4.987480584532022476e-03,-1.195425980271078020e-01,9.881916163146831078e-02,3.417002106417452861e-02,-1.781787858092775956e-01,1.357102638822525464e-01,-1.916339832232803186e-01,-2.135488450527191218e-01,2.233693778514861950e-01,-1.610218048095703181e-01,5.260251677915162016e-01,7.398959398269653320e-01,-7.458120584487915039e-01,6.060478759990006381e+01,0.000000000000000000e+00
1.771867999999999999e+00,-1.220637612984906417e-01,1.059031732540475640e-01,9.970284104347229004e-01,1.499444580806722632e-02,1.101679942728117645e-02,-9.723792829030653354e-03,-9.128315724772879947e-02,9.422837553855578641e-02,-8.996681426651775837e-04,-2.341552925549658382e-01,3.266478571107789275e-03,9.604139519651866408e-02,9.643783224673084520e-02,1.097557398697159986e-01,-9.667948431977212154e-02,3.202486038208007812e-02,2.068602561950683427e-01,-7.028968334197997769e-02,5.254166502023560614e-01,6.831098794937133789e-01,-7.623935937881469727e-01,-8.207373872740761911e+00,0.000000000000000000e+00
1.799700000000000077e+00,-1.251027107599480270e-01,1.086826615869494195e-01,9.972838163375854492e-01,1.059559804002344063e-02,8.673295286348414734e-03,-7.762268914024069225e-03,-9.538681490308958955e-02,9.283226100241856460e-02,6.139131728559732437e-03,-1.530400211612263084e-01,-1.220937253913270265e-01,4.257451288043222898e-02,2.153949292408039451e-01,-1.172519683837890681e-01,-4.259831751823252299e-02,1.201858878135681069e-01,-1.725196838378906250e-02,-2.176784276962280204e-02,5.255158076638992704e-01,7.170379161834716797e-01,-1.748423457145690918e+00,1.016097736405582452e+02,0.000000000000000000e+00
1.823612999999999928e+00,-1.283096276765846588e-01,1.118061432642495495e-01,9.975104331970214844e-01,5.612039234182523290e-03,4.931510987425502535e-03,-5.565454450647938298e-03,-9.792652393476450334e-02,8.588634501998537729e-02,1.067010778933763504e-02,-2.149844798138823843e-01,-1.564118393095828008e-01,9.711563811448822858e-02,2.302879095077514648e-01,-1.722980856895446888e-01,6.969233777227645116e-03,1.302879095077514593e-01,-7.229808568954466941e-02,2.159573435783386161e-02,5.247704048857008141e-01,6.955820322036743164e-01,2.100306749343872070e-01,-1.627804833943288787e-01,0.000000000000000000e+00
1.851158000000000081e+00,-1.312499501463692264e-01,1.147245684762770029e-01,9.977218508720397949e-01,3.683429932379882286e-03,3.093549297064068782e-04,-4.514961344268696511e-03,-8.475167053369798975e-02,8.749255107506158369e-02,1.720502413809299469e-02,2.957125657394799739e-03,-2.192491740288809166e-01,5.849495907509665200e-03,2.319144368171691950e-01,-2.585711956024169811e-01,2.585435177630474729e-02,1.319144368171691895e-01,-1.585711956024169755e-01,3.743703961372375072e-02,5.244179753543044553e-01,7.040824890136718750e-01,-7.311259508132934570e-01,8.173339040106588982e+01,0.000000000000000000e+00
1.874101999999999935e+00,-1.331594437233741546e-01,1.165936086645863595e-01,9.980109930038452148e-01,4.351315060760720804e-03,-1.873932430255909054e-03,-4.173060197335995772e-03,-8.152038555640965523e-02,8.770691526643895064e-02,1.706146821379661560e-02,6.161410163616041352e-02,-1.183565009517916489e-01,2.621031755200723540e-02,2.401395559310913197e-01,-2.771446704864501953e-01,4.521238511410143740e-02,1.401395559310913141e-01,-1.771446704864501898e-01,5.570218563079833846e-02,5.243633196184082079e-01,7.022213935852050781e-01,-5.990685224533081055e-01,1.026688491128820857e+02,0.000000000000000000e+00
1.899291999999999980e+00,-1.357907991489524235e-01,1.193518725119528945e-01,9.982829093933105469e-01,8.094345100751505415e-03,-2.445163503299818686e-03,-4.614390112594343035e-03,-7.955379234642390163e-02,8.337354337851153596e-02,1.129324268549680710e-02,1.405376515783855196e-01,6.911681218455041631e-02,-5.822663840436916038e-02,8.464789390563964844e-02,1.135172843933105469e-01,-2.957699697640154765e-02,-1.535210609436035017e-02,2.135172843933105524e-01,-1.802616119384765556e-02,5.248497037070792848e-01,7.074069976806640625e-01,-8.224402666091918945e-01,9.453647754741723475e+01,0.000000000000000000e+00
1.924693999999999905e+00,-1.381957546526541847e-01,1.222435196984593547e-01,9.982967376708984375e-01,1.370039330270025717e-02,3.384307270761777175e-04,-5.300658690299150065e-03,-7.979468109895684891e-02,8.253282080295959444e-02,5.805113818496465683e-03,2.577274701794155520e-01,1.392389778030287129e-01,-3.999011682706730963e-02,-3.410649436281648628e-02,1.183171510696411077e-01,-7.218071795600859708e-02,-1.150168418884277288e-01,2.183171510696411133e-01,-5.881572961807250699e-02,5.254860664853845398e-01,7.202224731445312500e-01,-7.637656927108764648e-01,8.542040847730881126e+01,0.000000000000000000e+00
1.947230000000000016e+00,-1.397117450150323903e-01,1.241740518405633209e-01,9.982306361198425293e-01,1.767534767091042194e-02,3.704655118813571235e-03,-5.632758895608815271e-03,-5.675685859050984272e-02,8.562581824866662139e-02,1.012418884783983231e-03,2.545666664928545875e-01,1.678138729449860367e-01,3.307662005862690990e-02,1.840007047370569027e-02,1.233401596546173096e-01,-1.973948336821500504e-01,-4.106926918029785156e-02,2.233401596546173151e-01,-1.828976154327392467e-01,5.261692677113686267e-01,7.390198707580566406e-01,-8.846207857131958008e-01,8.086421467823591058e+01,0.000000000000000000e+00
1.975589000000000039e+00,-1.418689510854967695e-01,1.269856954667605564e-01,9.980510473251342773e-01,2.372645746825314747e-02,8.590212080202386247e-03,-6.310711551954228948e-03,-5.252335618981580218e-02,8.383097703243827525e-02,-2.516173059120774269e-03,1.675560885125927102e-01,1.674836829667993299e-01,-3.711375393995805516e-02,2.145026349352088524e-01,1.241823911666870006e-01,-2.169085389304900857e-01,1.940469503402710016e-01,2.241823911666870062e-01,-2.003634810447692816e-01,5.265226101902550360e-01,7.432243824005126953e-01,-7.567857503890991211e-01,1.320297696376375711e+02,0.000000000000000000e+00
1.996455000000000091e+00,-1.434914667018197254e-01,1.290311725799611620e-01,9.978421926498413086e-01,2.720823401214160497e-02,9.980341988618635085e-03,-6.113766037062164614e-03,-7.374447219710662804e-02,8.372101817936462853e-02,1.573604968143627048e-04,1.950140042445114297e-01,1.403060854387585231e-02,-2.605019506613558827e-02,-2.143619031264883124e-01,1.120967686176299882e-01,1.080787444978948547e-01,-2.144060611724853405e-01,2.120967686176299938e-01,1.238626599311828530e-01,5.262413065394586642e-01,7.360005378723144531e-01,-8.971711397171020508e-01,9.650455557562139575e+01,0.000000000000000000e+00
2.021453999999999862e+00,-1.454789964560773141e-01,1.322272915599946586e-01,9.975485801696777344e-01,3.045590714741706548e-02,9.721806526914233970e-03,-4.525038144145274166e-03,-6.711308342875510480e-02,8.467873333631815991e-02,-2.604193985462188721e-03,5.412739090920573592e-02,-2.517951386682779069e-02,1.116485055169912505e-01,-2.050382953192757540e-01,1.207864284515372533e-03,-9.474924405221153700e-02,-1.876792609691619873e-01,1.012078642845153781e-01,-8.344194889068602683e-02,5.262740401807595170e-01,7.256753444671630859e-01,-9.079653024673461914e-01,9.351371136072118873e+01,0.000000000000000000e+00
2.050283999999999995e+00,-1.473685118076645817e-01,1.355886484676357417e-01,9.971441626548767090e-01,3.280595475704560504e-02,7.326054116140179318e-03,-2.825696645416653652e-03,-6.249319447951087042e-02,8.242063488898158929e-02,-3.088878467679023743e-03,6.564190860063023880e-02,-1.195399208398172791e-01,-5.374905945086432208e-04,-4.394867968675166686e-02,-1.971753954887390248e-01,-1.768128808685547060e-02,-1.246329545974731411e-02,-9.717539548873900535e-02,-1.137996912002563372e-02,5.261777608439206499e-01,7.166152000427246094e-01,-1.003484368324279785e+00,9.071400315955462190e+01,0.000000000000000000e+00
2.071401999999999965e+00,-1.486086640437455364e-01,1.377367891752553919e-01,9.968788027763366699e-01,3.361826647878118912e-02,5.011652592663118355e-03,-2.832174092235037119e-03,-7.594314057291501330e-02,7.990595439014355761e-02,-7.245333399623632431e-03,4.378451699835862049e-02,-1.580073387427653464e-01,-1.664952791410333546e-02,1.264234931552796204e-02,-2.400707125663757435e-01,-1.546120696098064393e-02,4.918695688247680387e-02,-1.400707125663757380e-01,-9.535181522369384072e-03,5.264231283292106767e-01,7.110068798065185547e-01,-9.324015378952026367e-01,6.669852528303452743e+01,0.000000000000000000e+00
2.103479999999999794e+00,-1.503334025168120147e-01,1.408957775358589681e-01,9.962328672409057617e-01,3.179144018745796302e-02,2.354290303345329960e-03,-2.780030671728133795e-03,-5.888592234453635110e-02,8.516255433189846846e-02,-1.981277018785476685e-02,-1.283287045737468712e-01,-7.445466108566843599e-02,2.128009245799493410e-02,6.333028998495865425e-02,-1.785129427909851185e-01,-1.555266172368680033e-01,8.114318847656250278e-02,-7.851294279098509910e-02,-1.497588157653808594e-01,5.271621685976718430e-01,6.983983516693115234e-01,-9.784070253372192383e-01,1.034215769405525123e+02,0.000000000000000000e+00
2.124343000000000092e+00,-1.516156877751123622e-01,1.438408384839969245e-01,9.957193732261657715e-01,2.927456906383786583e-02,1.773455063222906247e-03,-2.801633418738856945e-03,-6.030451828474008708e-02,8.387758623408572700e-02,-2.183508872985839844e-02,-1.743276945581288540e-01,1.846593320090054655e-02,-3.418984386553879790e-02,-8.253357410155055807e-02,1.039509534835815208e-01,-1.712339189625529945e-01,-8.178480863571166437e-02,2.039509534835815263e-01,-1.654372930526733232e-01,5.271546666177276963e-01,6.862361431121826172e-01,-1.010488867759704590e+00,9.493705448186014451e+01,0.000000000000000000e+00
2.150701999999999892e+00,-1.528898155720933016e-01,1.472820485106130783e-01,9.952130913734436035e-01,2.650613012652293377e-02,1.914669993270168291e-03,-2.655603529153018148e-03,-5.370619323712417376e-02,7.894591346626919637e-02,-1.558840181678533554e-02,-1.033722280446730535e-01,-3.552126489757997246e-02,5.095837201062269027e-03,5.231046356503810807e-02,-1.400545358657837025e-01,-1.642635822450308758e-01,3.562896251678466381e-02,-4.005453586578369002e-02,-1.587193250656127874e-01,5.269768181241019089e-01,6.985321044921875000e-01,-1.152692198753356934e+00,8.060849922589980565e+01,0.000000000000000000e+00
2.174850000000000172e+00,-1.541821815498453652e-01,1.507184257094969504e-01,9.947079420089721680e-01,2.381963166486461211e-02,3.673826787465417354e-03,-2.695408487650785903e-03,-5.171670809883745223e-02,8.977312354432735730e-02,-3.220994770526885986e-02,-1.396033719118310312e-01,1.724506136206366003e-01,1.447981609968548161e-02,-1.631958334706517522e-01,1.240314543247222900e-01,-1.939649594234029439e-01,-2.089250385761260986e-01,2.240314543247222956e-01,-1.881467342376708929e-01,5.289681182459260445e-01,7.366855144500732422e-01,-9.894467592239379883e-01,9.912300421659415406e+01,0.000000000000000000e+00
2.201325999999999894e+00,-1.548550274828039697e-01,1.524360894606339722e-01,9.943885207176208496e-01,2.284954237910662156e-02,4.645229918337934194e-03,-2.523888169451327275e-03,-3.828957331417494336e-02,8.243661069436994393e-02,-2.850644849240779877e-02,-1.060078699067140834e-01,1.521153398334552376e-01,4.842227365377178155e-02,-1.731007670437739732e-01,1.225680947303771917e-01,-1.858610508479866530e-01,-2.197610914707183727e-01,2.225680947303771973e-01,-1.802886128425598145e-01,5.288928364466339849e-01,7.453379631042480469e-01,-1.327324032783508301e+00,7.485911235996070445e+01,0.000000000000000000e+00
2.223716000000000026e+00,-1.560016294413816840e-01,1.557130748570154932e-01,9.937295317649841309e-01,2.153142517042408097e-02,7.060317112701053333e-03,-1.942098834079326614e-03,-6.184829508083277555e-02,7.821462434162161637e-02,-2.511277794837951660e-02,-5.479311182600345165e-02,1.547101881059957662e-01,1.162430040236601264e-02,-1.697267445745361536e-01,1.250998854637145885e-01,-2.143325730546035424e-01,-2.256315529346465953e-01,2.250998854637145941e-01,-2.104284524917602595e-01,5.287957777996300512e-01,7.475967407226562500e-01,-8.849717378616333008e-01,9.605473980745186680e+01,0.000000000000000000e+00
2.251673999999999953e+00,-1.577742742673556020e-01,1.604270024744456902e-01,9.929471611976623535e-01,2.050901004349000092e-02,9.892530497400908729e-03,-7.757265036022867907e-05,-5.632202372853465505e-02,7.204193702374760144e-02,-2.327188290655612946e-02,1.596960717846257483e-02,-2.529373088799098408e-03,9.557286956795564559e-02,1.506931515137970579e-01,7.263854146003723145e-02,-9.751294432782392496e-02,8.840060234069824219e-02,1.726385414600372370e-01,-9.852844476699829102e-02,5.284653952281703759e-01,7.327100038528442383e-01,-6.485677957534790039e-01,9.825870524883157486e+01,0.000000000000000000e+00
2.280079999999999885e+00,-1.590140577941101530e-01,1.632374919480371611e-01,9.923125505447387695e-01,2.048834120402245190e-02,1.090689124703514423e-02,1.137604547042923289e-03,-4.222365521118855852e-02,8.050034914165422884e-02,-2.626570314168930054e-02,-4.638321635358356315e-02,6.753847303165351479e-02,6.994512476380783383e-02,-1.510455634436080607e-01,1.276322206095847622e-01,-2.195788995546208711e-01,-2.237382352352142167e-01,2.247435986995696966e-01,-2.238557696342468317e-01,5.289550926444355206e-01,7.432410717010498047e-01,-1.020607829093933105e+00,1.584426575732104823e+02,0.000000000000000000e+00
2.302796999999999983e+00,-1.601747218879221446e-01,1.658278567300836837e-01,9.918826818466186523e-01,2.051422485147089136e-02,1.142450468125488783e-02,2.575509083471082174e-03,-5.817848217712905806e-02,7.603647247912435903e-02,-1.595523022115230560e-02,8.212758071562261883e-03,3.018305506699897958e-02,3.917367222791497128e-02,-1.518664645523971068e-01,1.238845050334930198e-01,-2.195246732672164469e-01,-2.227182090282440186e-01,2.238845050334930253e-01,-2.279685974121093694e-01,5.268579311020846756e-01,6.655504703521728516e-01,-7.375231981277465820e-01,9.677021578338903396e+01,0.000000000000000000e+00
2.325648999999999855e+00,-1.620219304430474128e-01,1.699020612667003216e-01,9.911010861396789551e-01,1.971025599213153609e-02,1.076668160707860977e-02,5.148959986011733027e-03,-4.959755570535633734e-02,7.722338233181298695e-02,-2.544041536748409271e-02,-9.475512900487993717e-02,-4.735695790177890663e-02,1.400040537411322283e-01,2.288449167117995453e-01,8.430718779563903253e-02,-5.180333436397061009e-02,1.478735446929931585e-01,1.843071877956390381e-01,-6.740820407867431641e-02,5.286204409449036801e-01,7.196216583251953125e-01,-5.646165609359741211e-01,9.741945941494459760e+01,0.000000000000000000e+00
2.348701000000000150e+00,-1.630645004797612596e-01,1.724350086620822231e-01,9.906554222106933594e-01,1.849225475620860579e-02,9.470633218035429124e-03,6.641392157168926613e-03,-3.793246562097575547e-02,8.004339000324366127e-02,-2.306243218481540680e-02,-1.043135799465308156e-01,-7.439913460057935579e-02,5.764228511054542842e-02,2.657175036238450527e-01,2.200480103492735706e-02,-1.272964056528186894e-01,1.720322370529174805e-01,1.220048010349273626e-01,-1.470861911773681530e-01,5.288248075833149597e-01,7.368863821029663086e-01,-8.400532007217407227e-01,9.406697717405972980e+01,0.000000000000000000e+00
2.376236000000000015e+00,-1.658001577463109610e-01,1.776133488462389720e-01,9.902305006980895996e-01,1.475236953789463984e-02,5.529017173814487762e-03,1.005954761751654512e-02,-5.366841083964916242e-02,8.228046311577980054e-02,-1.142156962305307388e-02,-1.241588085174470252e-01,-6.635892063765153059e-02,1.149455506587165055e-01,2.455909490585327093e-01,-1.123075485229492465e-02,-5.444145541612024908e-02,1.455909490585327037e-01,8.876924514770508090e-02,-8.417930603027343195e-02,5.275170666568976818e-01,7.069144248962402344e-01,-9.113796949386596680e-01,1.096713571254650930e+02,0.000000000000000000e+00
2.401537999999999951e+00,-1.675628237025314493e-01,1.801424622062213765e-01,9.903180003166198730e-01,1.421708966964555475e-02,2.753821693866509435e-03,1.125896318552550845e-02,-6.082342335295829600e-02,6.138957435220631503e-02,2.025092579424381256e-02,-4.423702486270121581e-02,-1.806118607805349274e-01,7.633184207295033719e-02,2.095362305641174372e-01,-2.390059471130371038e-01,7.352046956524377341e-02,1.095362305641174316e-01,-1.390059471130370983e-01,4.026364088058471263e-02,5.251227176540473884e-01,7.032641172409057617e-01,-1.201227307319641113e+00,8.658826154235427452e+01,0.000000000000000000e+00
2.423684999999999867e+00,-1.692538293701394692e-01,1.825998780381911657e-01,9.903861880302429199e-01,1.413245462369971950e-02,1.344358766199871269e-04,1.302085890127853765e-02,-4.728258760303568481e-02,8.928959971897920678e-02,-2.208480145782232285e-03,4.649748682542344247e-02,-1.588261825102008362e-01,7.996591163499447430e-02,2.609340429306030162e-01,-2.349873900413513295e-01,1.726541121841588394e-02,1.609340429306030107e-01,-1.349873900413513239e-01,-2.114031314849853377e-02,5.268700627001290382e-01,7.076537609100341797e-01,-1.224342703819274902e+00,1.170618745244181724e+02,0.000000000000000000e+00
