timestamp,x,y,z,roll,pitch,yaw,vx,vy,vz,p,q,r,psp,qsp,rsp,pres,qres,rres,thrust_sp, thrust_res
0.000000000000000000e+00,-1.318169105778683667e-03,3.047102021243463469e-03,1.000562191009521484e+00,1.200142434186606683e-02,-5.706213059886833250e-03,-1.799718661046826243e-05,6.731023506652440529e-03,6.272280271834632798e-03,1.091911923140287399e-02,-8.336571752968381308e-03,-2.119036313208282367e-04,-8.098072426377190061e-03,-3.400735180036494609e-02,4.971848997052961960e-03,-3.780053499520539401e-02,3.697788715362548828e-02,3.742451965808868408e-02,-3.784158229827880998e-02,5.251918551962386772e-01,7.586346864700317383e-01,-8.502706289291381836e-01,1.284886563548971594e+01,0.000000000000000000e+00
2.497399999999999967e-02,-1.190309363320109746e-03,2.834952554976360398e-03,1.000828146934509277e+00,1.161189464522103219e-02,-5.863471391520880260e-03,2.815168610755582881e-04,-1.831350398399465580e-03,-6.454686226753399321e-03,7.407918106764554977e-03,-9.857054436594039210e-03,1.155962236189287274e-03,-3.361413781756854725e-03,-6.761556183358868877e-02,-4.249239874961695251e-03,-3.631871791021418217e-02,1.220723390579223772e-02,3.707244098186492781e-02,-3.720435500144958496e-02,5.253049489644686654e-01,7.523853778839111328e-01,-1.140706896781921387e+00,8.831817770438924242e+01,0.000000000000000000e+00
4.969099999999999906e-02,-1.001295143201995320e-03,2.523831145086483877e-03,1.001114845275878906e+00,1.129582534134852996e-02,-5.984598008264674363e-03,1.047852531826972810e-04,-8.303922691948420476e-03,1.244519603943691852e-03,8.131258189678192139e-03,-1.176537118582438035e-02,4.067200992357001784e-04,-4.393715014957492136e-03,-4.158918494239978447e-02,-9.056198040432450469e-03,-3.699548429142659328e-02,2.825452089309692452e-02,3.694030642509460449e-02,-3.740624189376830916e-02,5.252653705762745373e-01,7.546782493591308594e-01,-1.110124468803405762e+00,1.047363473746449500e+02,0.000000000000000000e+00
7.636600000000000332e-02,-7.203647564665348422e-04,2.047711362972704646e-03,1.001536369323730469e+00,1.096348247890375181e-02,-6.446492884084609187e-03,2.856248349481362936e-04,7.356449049449655456e-03,-6.381834886795208737e-03,1.261586975306272507e-02,-1.512719716068391083e-02,3.722646779299795946e-04,-3.290342035956756589e-03,-5.938561178342623148e-02,1.864559297970420915e-03,-3.639805594722624743e-02,1.592676043510437081e-02,3.703246116638183455e-02,-3.727612495422363142e-02,5.248836414300103170e-01,7.540160417556762695e-01,-9.273675680160522461e-01,9.881002445825666314e+01,0.000000000000000000e+00
1.012310000000000015e-01,-4.278234585191786530e-04,1.665566301840028501e-03,1.001883029937744141e+00,9.469429326078158959e-03,-5.976609501116447731e-03,9.364450884885823978e-04,-4.631836229494592887e-03,7.422854304308076565e-03,5.468564108014106750e-03,-1.876316365343724119e-02,3.660836009929964831e-04,-2.657938339799183897e-04,-6.301082442121240523e-02,-6.815209463735150131e-03,-3.306555862669031953e-02,-9.495234489440918316e-03,3.713236153125763078e-02,-3.578894138336181918e-02,5.253409404346750522e-01,7.523734569549560547e-01,-8.625947237014770508e-01,7.865832312351025735e+01,0.000000000000000000e+00
1.249170000000000003e-01,-1.734291567835002273e-04,1.321412824358944279e-03,1.002173066139221191e+00,8.500565674613073594e-03,-6.130801480583647489e-03,1.240753175710050714e-03,6.132645014166010315e-03,3.296653043409325263e-03,1.477490272372961044e-02,-2.156422312575312014e-02,-7.538434264569385008e-05,2.549893333746518936e-04,-4.938305004320844849e-02,2.805380294294987364e-03,-3.256885240071281246e-02,3.415089845657348893e-03,3.709019720554351807e-02,-3.610851764678955217e-02,5.246237424061273025e-01,7.521588802337646484e-01,-9.297055006027221680e-01,1.134471813212965259e+02,0.000000000000000000e+00
1.482670000000000099e-01,3.826892803486375556e-04,7.313674736223949036e-04,1.002733945846557617e+00,6.478562465803819337e-03,-6.257557360752841191e-03,1.635179043849664844e-03,-1.490000907615403845e-03,-4.333906869220253283e-03,2.352294698357582092e-02,-2.504861083190002002e-02,-1.005239487146352556e-03,2.437028817832372508e-03,-4.334395741830084775e-02,-6.036722490068639757e-03,-2.998753862069393483e-02,2.270931005477905360e-03,3.650605380535126149e-02,-3.462045192718506137e-02,5.238787534281360569e-01,7.498009204864501953e-01,-1.327799558639526367e-01,-1.037923264388899725e+02,0.000000000000000000e+00
1.732549999999999923e-01,7.005009444480544360e-04,3.497393615475196315e-04,1.003229022026062012e+00,5.129451438887772628e-03,-6.105505315402437461e-03,2.075163077282061053e-03,7.124943871524909433e-03,5.678847055201741503e-03,1.465591602027416229e-02,-2.887948824245448187e-02,-4.861226443659708647e-04,3.600477096594847937e-03,-2.042870447050649726e-02,3.510608127253782296e-03,-1.967848847845546020e-02,7.400512695312500000e-03,3.670856356620788574e-02,-2.553168535232544153e-02,5.242499404241871552e-01,7.377603054046630859e-01,-7.631510496139526367e-01,1.318430322657294198e+02,0.000000000000000000e+00
2.026519999999999988e-01,1.213043960021600648e-03,-1.379660016110803827e-04,1.004190683364868164e+00,3.061031302594656878e-03,-6.482002628884764306e-03,2.527039204662258516e-03,-3.127467323778769948e-03,-3.383734273988699571e-03,3.171326220035552979e-02,-3.212177115439437958e-02,-1.459678787180054924e-03,4.451430580382827878e-03,-1.366044457717646016e-02,-8.859788027367893060e-03,-2.364181433709458199e-02,9.875279664993286827e-03,3.608672320842742920e-02,-3.074172735214233607e-02,5.230766374859414647e-01,7.470982074737548828e-01,-1.417094349861145020e+00,1.189360237911563161e+02,0.000000000000000000e+00
2.258590000000000042e-01,1.525105923746771473e-03,-4.346666484899999283e-04,1.004937410354614258e+00,2.114708161471991893e-03,-6.715648216225389433e-03,2.707535961456128317e-03,2.141654917976264661e-03,4.672301333743577277e-03,4.290008917450904846e-02,-3.546556154235434855e-02,-2.115210785891558174e-03,4.845879682912686455e-03,9.402854267108214439e-03,-4.126428181272186191e-03,-2.498489160393150416e-02,1.905894875526428431e-02,3.629367649555206160e-02,-3.258987665176391740e-02,5.222562954021330306e-01,7.521946430206298828e-01,-1.300113081932067871e+00,7.300433350970871516e+01,0.000000000000000000e+00
2.493549999999999933e-01,1.519427795022605752e-03,-1.102500601144395945e-03,1.006262898445129395e+00,7.096957146132146189e-04,-7.132120285666454507e-03,3.013066832277858185e-03,-7.674188691565277456e-03,-3.259505558976645567e-03,4.725499451160430908e-02,-4.025580857017835301e-02,-3.330192503618605200e-03,6.759416221701642150e-03,6.201277648422667821e-03,-1.655890509769238073e-02,-2.224855891418912185e-02,1.482900977134704590e-02,3.542316854000091692e-02,-3.068616390228271623e-02,5.217600258020690385e-01,7.504510879516601562e-01,-1.050510525703430176e+00,1.303820411418853382e+02,0.000000000000000000e+00
2.739849999999999786e-01,1.564671603527256283e-03,-1.500582005119333864e-03,1.007242083549499512e+00,-4.220936554538522309e-05,-7.135128437369742116e-03,3.504280814069741113e-03,-6.435366548439972779e-04,1.281181307713634247e-02,3.951393812894821167e-02,-4.435959169883637448e-02,-5.178288667781773096e-03,7.396938570681012466e-03,3.193412862379713113e-02,-8.584813348551066647e-03,-2.342297162821389833e-02,2.160164117813110490e-02,3.614141643047332625e-02,-3.324945569038391391e-02,5.222619478945053073e-01,7.532265186309814453e-01,-1.198057770729064941e+00,9.815173765624000168e+01,0.000000000000000000e+00
2.974029999999999729e-01,1.547579413899713213e-03,-2.006567459654051699e-03,1.008969783782958984e+00,-5.371527632185240210e-04,-7.572460634052147199e-03,3.837086928084374512e-03,-7.485446630956147339e-03,4.131921955574502543e-03,5.676257610321044922e-02,-4.663472926530926044e-02,-5.891012711853874616e-03,8.577997143224078830e-03,2.309905369620044932e-02,-1.895956872987826503e-02,-2.058783763870463551e-02,1.932685375213623324e-02,3.532723188400268416e-02,-3.132588863372803151e-02,5.207968232259833075e-01,7.522654533386230469e-01,-6.326409578323364258e-01,-9.873245399985283655e+01,0.000000000000000000e+00
3.242650000000000254e-01,1.572350964295895874e-03,-2.289261590446659347e-03,1.010255932807922363e+00,-1.060905239262399180e-03,-7.701068155806733984e-03,3.956033205078093688e-03,-1.978195499056265363e-03,3.213690931287167558e-03,5.536999553442001343e-02,-4.737076993232495342e-02,-6.796595193880842697e-03,9.806463516676505038e-03,2.712681094824432454e-02,-1.426158456240684408e-02,-2.038325524708465425e-02,1.959800124168396135e-02,3.530913889408111850e-02,-3.144984841346740861e-02,5.207464817825829817e-01,7.524125576019287109e-01,-7.717801332473754883e-01,1.005650552258697843e+02,0.000000000000000000e+00
3.465440000000000187e-01,1.732169815627718776e-03,-2.972539816064598012e-03,1.011630058288574219e+00,-6.169499274943491098e-04,-7.622210565648046554e-03,4.091920726320437580e-03,9.825270154070352494e-03,1.556788365536912813e-02,5.973925441503524780e-02,-4.619805344992111706e-02,-7.263985513962485999e-03,8.400455668211778693e-03,3.885157795604120279e-02,-4.070707186065190830e-03,-2.228109871187490543e-02,2.434167861938476771e-02,3.594008088111877441e-02,-3.374706506729126254e-02,5.203080738119413295e-01,7.549563646316528320e-01,-1.071262240409851074e+00,5.510906371445147300e+01,0.000000000000000000e+00
3.741720000000000046e-01,1.960325972447690256e-03,-3.857773510316743829e-03,1.013745784759521484e+00,-4.560747094184999079e-04,-7.876413023672590441e-03,4.391511375382984965e-03,-9.393581945675109207e-03,3.138103961340160415e-03,6.584425270557403564e-02,-4.341426336580057194e-02,-8.061539435521229702e-03,8.565738740883184488e-03,2.026672123506224193e-02,-2.629577137943248794e-02,-1.702416580525124845e-02,1.938131451606750488e-02,3.286103010177612166e-02,-2.931048274040222446e-02,5.195530044727763030e-01,7.507053613662719727e-01,-1.295014739036560059e+00,1.255553377007340998e+02,0.000000000000000000e+00
4.011219999999999786e-01,2.132158058808480538e-03,-4.643267937936709604e-03,1.016016364097595215e+00,5.248877959095463088e-04,-7.889552185713855081e-03,4.682241307918238830e-03,4.853218738690299322e-03,1.116525863173475387e-02,6.669568270444869995e-02,-3.884768227497275433e-02,-7.493846958674543583e-03,7.481715303388853863e-03,2.427647500425706567e-02,-1.005304330160302489e-02,-1.927274428824554686e-02,2.181920409202575684e-02,3.439817428588867049e-02,-3.239667415618896484e-02,5.193156426580605167e-01,7.543756961822509766e-01,-7.905744314193725586e-01,9.110249748935576974e+01,0.000000000000000000e+00
4.240160000000000040e-01,2.243960432633789609e-03,-5.080777026438536119e-03,1.017600417137145996e+00,1.539505699601546439e-03,-7.722700589278153060e-03,4.760886855605323334e-03,-1.420996384996652678e-02,2.684247629930668240e-03,7.213029265403747559e-02,-3.084048556537719726e-02,-8.026758226087457940e-03,6.449788104150712062e-03,6.069022731076997856e-03,-3.252605503487616956e-02,-1.383722690999247482e-02,1.862688064575195382e-02,2.870669066905975550e-02,-2.718279361724853724e-02,5.186105396703816206e-01,7.485966682434082031e-01,-8.862658739089965820e-01,1.142763389657793880e+02,0.000000000000000000e+00
4.472140000000000004e-01,2.620393419656513040e-03,-5.359277358609849246e-03,1.019947886466979980e+00,2.339174955516679089e-03,-7.339596913748192009e-03,5.100079325375399784e-03,1.220871953285010934e-02,2.172866268683698934e-02,7.089337706565856934e-02,-2.282533631193018470e-02,-6.528794049291632498e-03,5.496251252965797356e-03,2.241934161896686623e-02,1.999829024404778388e-04,-1.856879016132885474e-02,2.338566184043884555e-02,3.388844430446624756e-02,-3.288187384605407992e-02,5.185781116885336273e-01,7.557241916656494141e-01,-7.902182340621948242e-01,-1.557319194161725022e+02,0.000000000000000000e+00
4.737729999999999997e-01,2.850160258985048271e-03,-5.456576317417075571e-03,1.021489262580871582e+00,2.745576674700639114e-03,-7.188428195547880151e-03,5.023286378343428706e-03,-1.096327852135118783e-02,5.803895650554641295e-03,7.691808789968490601e-02,-1.272207365948481092e-02,-4.783543828411234919e-03,5.047895558521144424e-03,-4.417088667901405627e-03,-2.893547431203043196e-02,-9.166670374982501673e-03,1.518251299858093366e-02,2.685240209102630893e-02,-2.326158285140991419e-02,5.177856447455293498e-01,7.479591369628906250e-01,-8.802357912063598633e-01,9.879891174047705249e+01,0.000000000000000000e+00
4.994410000000000238e-01,3.210256334505164327e-03,-5.541866831689390427e-03,1.023872494697570801e+00,3.262918537662226875e-03,-6.621755688540176266e-03,5.036162342848265680e-03,9.948513561651536885e-03,2.625347089203651507e-02,6.271215528249740601e-02,-4.416276614670126659e-03,-2.533339207559930951e-03,3.882003502706896699e-03,1.969002357175442947e-03,-2.227642698965175833e-03,-3.499513079762438944e-03,5.702990293502807791e-03,2.874165177345276018e-02,-1.764048933982849052e-02,5.186329867270847993e-01,7.511037588119506836e-01,-9.466859102249145508e-01,7.382916764444696867e+01,0.000000000000000000e+00
5.238099999999999978e-01,3.406755529216906435e-03,-5.528307282926556848e-03,1.025536417961120605e+00,3.667776779447606914e-03,-6.489766853674749925e-03,5.027003481245954052e-03,-7.860127204598821998e-03,1.653003140209536106e-02,7.588510215282440186e-02,2.316528271725743458e-03,4.756794998127899621e-04,2.747093217549068534e-03,-5.362410246806750130e-02,-1.931224946632163764e-02,6.853877362675508955e-03,-3.629706501960754811e-02,2.860400080680847168e-02,-7.269918918609619141e-03,5.173718998812995018e-01,7.470273971557617188e-01,-7.622898817062377930e-01,7.772314045254127279e+01,0.000000000000000000e+00
5.495560000000000445e-01,3.868499766316997775e-03,-5.318360247657886661e-03,1.028020143508911133e+00,3.607307262110170942e-03,-6.168291918265067508e-03,4.886162380177082841e-03,1.342869832654556422e-03,2.736129335948141172e-02,7.486782222986221313e-02,6.215563451693826777e-03,2.689030782540873486e-03,1.841679330400226855e-03,-4.194585780305520872e-02,-1.098332676638474892e-03,-9.759343337762016457e-03,-3.564831316471100270e-02,3.405147790908813477e-02,-2.348792552947998047e-02,5.169631682403512674e-01,7.359578609466552734e-01,-1.300790905952453613e+00,3.026542198597275135e-01,0.000000000000000000e+00
5.722059999999999924e-01,4.195413459172843244e-03,-5.149842272801128870e-03,1.029713988304138184e+00,3.917705979328327259e-03,-6.104328044601370351e-03,4.963174076633007983e-03,-4.479744871610116894e-04,2.231402552383571214e-02,7.474413514137268066e-02,9.851892664442611289e-03,5.108452399179481442e-03,3.922285073865681981e-05,-4.762349017893070802e-02,-1.289959906409010593e-03,-1.776142682210003765e-02,-3.367645442485809465e-02,3.611517250537872592e-02,-3.170417547225952426e-02,5.162454663252610265e-01,7.088975906372070312e-01,-1.160692095756530762e+00,2.473972210780427172e+00,0.000000000000000000e+00
5.989729999999999777e-01,4.649722876756582496e-03,-4.705371639240662866e-03,1.032220244407653809e+00,3.298862177126497125e-03,-5.601400860158811668e-03,4.567356901967206499e-03,-3.624196059042556969e-03,3.372436565634492206e-02,8.015186339616775513e-02,1.230730910856212348e-02,5.990269505217268517e-03,-9.215830001821634365e-04,-3.220571953350701011e-02,-2.464242511696634885e-04,-1.906071792638865114e-02,-3.297032713890075961e-02,3.592849671840667863e-02,-3.190170526504516879e-02,5.155136286750492403e-01,7.064661979675292969e-01,-1.613536715507507324e+00,9.742587979276440535e+01,0.000000000000000000e+00
6.226580000000000448e-01,4.910832256899757935e-03,-4.380405389559440671e-03,1.033892035484313965e+00,2.554815612923149078e-03,-5.480289252455472493e-03,4.636528447815087967e-03,5.353281756757395128e-03,3.092178556343852872e-02,7.287266850471496582e-02,1.198380893259611522e-02,7.771720199548082242e-03,-1.856877378043670420e-03,-1.997789379523279632e-02,9.481882152304520195e-03,-2.259801397263022649e-02,-2.178027033805847446e-02,3.674308359622955461e-02,-3.561195731163024902e-02,5.138358547264325615e-01,5.998797416687011719e-01,-2.132314443588256836e-01,1.349384876579575234e+02,0.000000000000000000e+00
6.494320000000000093e-01,4.984730352089926375e-03,-3.724223553375928010e-03,1.036337733268737793e+00,1.152786361752272930e-03,-5.509665862212020926e-03,4.431834984683129253e-03,-8.071853731939821613e-03,3.024372408521623992e-02,7.198169082403182983e-02,1.074853475157285139e-02,7.640831104865871901e-03,-3.372242442362086319e-03,1.213952702534503054e-02,-3.261839698041689439e-03,-2.364196445668816787e-02,7.786989212036133680e-04,3.668015301227569441e-02,-3.608599901199340682e-02,5.123694811496554147e-01,5.331511497497558594e-01,-6.580394506454467773e-01,1.002270496544133636e+02,0.000000000000000000e+00
6.736290000000000333e-01,4.875623716017762378e-03,-3.230853240628959143e-03,1.037995457649230957e+00,6.941216791863645021e-04,-5.775043026908122101e-03,4.314579457306932583e-03,8.488934174589209472e-03,3.565157329915789181e-02,7.044184952974319458e-02,4.678957215050644040e-03,7.805202351632826822e-03,-4.874234424835170373e-03,5.626112822917423567e-02,1.118209774502519280e-02,-2.445116643109499638e-02,3.692635297775268693e-02,3.705288767814636508e-02,-3.655632734298706193e-02,5.056489753111780283e-01,1.823632717132568359e-01,-8.717514276504516602e-01,9.802558406226987131e+01,0.000000000000000000e+00
7.000709999999999988e-01,4.726327471495782306e-03,-2.372825138498522394e-03,1.040410637855529785e+00,-6.416314460509014387e-04,-6.282479476950930675e-03,4.414150628726051621e-03,-1.404875298863361016e-02,2.718274765335616100e-02,7.671926915645599365e-02,-1.854115528004118872e-03,6.703186518362701588e-03,-5.499225004270143213e-03,-1.410366862882142178e-02,-1.393268762715560438e-02,3.710693962133790325e-02,-3.501645028591156283e-02,3.667398095130920688e-02,2.472624778747558802e-02,5.152165759438951387e-01,7.314016819000244141e-01,-1.261728167533874512e+00,1.115449872978263102e+02,0.000000000000000000e+00
7.216930000000000289e-01,4.577619841386519270e-03,-1.759482833178667915e-03,1.041921019554138184e+00,-9.504213162759561758e-04,-6.580735332743614663e-03,4.600964527339154037e-03,1.161162662006575384e-02,4.309127495356464971e-02,6.893182545900344849e-02,-9.320103761503143250e-03,4.715281428310711537e-03,-6.761869542198310767e-03,5.379376945947893229e-02,9.306777498381213487e-03,2.010523055365749309e-02,1.590183973312378138e-02,3.703729212284088274e-02,7.199037075042724783e-03,5.153863213018012868e-01,7.210693359375000000e-01,-8.071221113204956055e-01,8.836741653811587582e+01,0.000000000000000000e+00
7.468230000000000146e-01,4.489630041110036912e-03,-1.351012342627677274e-03,1.043387651443481445e+00,-8.693972091543461294e-04,-7.163535204782744970e-03,4.223921669967382192e-03,-1.481312680467981521e-02,2.058251964170196638e-02,8.200878649950027466e-02,-1.488084732538225499e-02,2.647265972498823432e-03,-7.316381859946081631e-03,5.093648769674577470e-02,-2.127855067922149873e-02,-2.343817588499941262e-02,3.425528407096863071e-02,3.635122478008270125e-02,-3.527539968490600586e-02,5.146084556274280741e-01,7.433362007141113281e-01,-7.487641572952270508e-01,8.478065197851039159e+01,0.000000000000000000e+00
7.742689999999999850e-01,4.457129937971582127e-03,-1.025689930547530942e-03,1.045493125915527344e+00,-3.060689158697463600e-04,-7.433495394744360496e-03,3.767670864780080318e-03,8.292345052072096212e-03,4.503976443334085922e-02,5.676594749093055725e-02,-1.681506848620870423e-02,-5.778372780939396852e-04,-7.683881960015730150e-03,7.299888876537374838e-02,9.540953225497111889e-04,-2.609877865249268097e-02,3.598020076751708846e-02,3.696695566177368025e-02,-3.668773770332336287e-02,5.163793075152057765e-01,7.517168521881103516e-01,-4.157489538192749023e-01,1.136997617168035930e+02,0.000000000000000000e+00
7.984510000000000218e-01,4.409494499290582750e-03,-5.615545703236498763e-04,1.047441124916076660e+00,5.202918160348959974e-04,-7.589991756244751642e-03,3.334579722592096243e-03,-1.508685378544163090e-02,3.134494004540858830e-02,6.337047368288040161e-02,-1.424566341114983856e-02,-3.771532538661125002e-03,-8.751143164714779432e-03,4.885723117083116962e-02,-2.868355145965844483e-02,-2.538256295716042471e-02,3.177474141120911061e-02,3.143156170845031600e-02,-3.476688861846923689e-02,5.155203544197500820e-01,7.451529502868652344e-01,-8.050869703292846680e-01,9.137503569761761923e+01,0.000000000000000000e+00
8.227269999999999861e-01,4.330289645018046973e-03,-2.160120961027249716e-04,1.048675894737243652e+00,1.554560927781571808e-03,-7.655979484847419414e-03,3.008677610399934123e-03,6.910226012505831872e-04,4.910938340884280634e-02,5.988784879446029663e-02,-1.109999398546777406e-02,-6.789856185080570157e-03,-1.025603961336170322e-02,6.100676298278019660e-02,-1.006034110033007800e-02,-2.771819059582358857e-02,3.339957594871521135e-02,3.377467691898346225e-02,-3.621202707290649414e-02,5.157927849694849964e-01,7.561171054840087891e-01,-1.391050696372985840e+00,1.828561442330455407e+02,0.000000000000000000e+00
8.482760000000000300e-01,4.251807596274992732e-03,1.831926818222582025e-04,1.049909234046936035e+00,2.572020148914166537e-03,-7.548942588122553587e-03,3.098236098332089305e-03,-1.364600270878037203e-02,3.135466952120041784e-02,5.518469959497451782e-02,-7.244232742545838807e-03,-7.600607756298530422e-03,-1.050556691697771862e-02,2.952207753639380164e-02,-3.766766405910271925e-02,-2.042676165514120332e-02,2.561805844306945870e-02,1.993235349655151506e-02,-2.917311191558838099e-02,5.157463666512241973e-01,7.453718185424804688e-01,-5.692368745803833008e-01,1.423810032870619295e+02,0.000000000000000000e+00
8.719879999999999853e-01,4.390545289741411457e-03,9.982943923262982324e-04,1.051726102828979492e+00,4.658890454567959395e-03,-7.052920506037674286e-03,3.080916825972895932e-03,1.403997826763627972e-03,5.587476975602616303e-02,4.999076202511787415e-02,-1.323852656657254542e-03,-7.799310033700396043e-03,-1.159540454164298059e-02,3.358153581748304917e-02,-1.967549916021398698e-02,-1.502750665134731239e-02,1.943995952606201311e-02,1.981520652770996094e-02,-2.375199794769287248e-02,5.159775014171256169e-01,7.492033243179321289e-01,-1.183381199836730957e+00,7.442191195118817859e+01,0.000000000000000000e+00
9.007009999999999739e-01,4.526677508428518688e-03,1.890546703750969502e-03,1.053460121154785156e+00,6.390110640057664916e-03,-6.377279522404410983e-03,3.118440939676088344e-03,-1.108183519029177014e-02,3.199094996218428827e-02,6.076241284608840942e-02,4.912116266331385123e-03,-5.711866920962011852e-03,-1.142755551100308603e-02,-2.523340017937648894e-02,-3.447867968471819700e-02,1.382311902529500570e-02,-5.328294634819031456e-03,1.330397725105285714e-02,4.991418123245239605e-03,5.143418663791567980e-01,7.170159816741943359e-01,-1.363234400749206543e+00,7.319524412719974293e+01,0.000000000000000000e+00
9.226649999999999574e-01,4.611837735234051300e-03,2.502943976503785480e-03,1.054685711860656738e+00,7.408752270770998724e-03,-5.656451480908986085e-03,3.005246291486770530e-03,3.292400398728648637e-03,5.162389308472044996e-02,5.145008489489555359e-02,1.373379205567878958e-02,-3.069456266359663413e-03,-1.041454201730336246e-02,-3.925811237966224387e-02,-2.940457552090325333e-03,1.147099776671196489e-02,-3.327137231826782227e-02,2.612954378128051758e-02,2.969118952751159841e-03,5.151581983757623773e-01,7.338054180145263672e-01,-7.602137327194213867e-01,1.030597340088927467e+02,0.000000000000000000e+00
9.465090000000000447e-01,4.684728487737098088e-03,3.154894538440310234e-03,1.055848956108093262e+00,8.465194171640542595e-03,-4.972996644069027639e-03,2.792317129956184592e-03,-2.313499525722243193e-03,3.893064666211701330e-02,6.027860939502716064e-02,2.345573921109787158e-02,-3.122850285278005875e-05,-1.096600848537283499e-02,-6.232411377836526156e-02,-3.627194729520118177e-04,1.604056607300774311e-03,-3.658099174499512135e-02,3.110250532627105782e-02,-6.302434206008911306e-03,5.145375013355065752e-01,7.460501194000244141e-01,-4.926501512527465820e-01,-7.788051484120754431e+00,0.000000000000000000e+00
9.734660000000000535e-01,4.936871573829704901e-03,4.250739181405767918e-03,1.057477712631225586e+00,8.539793850386060564e-03,-3.619618082052022956e-03,2.323745547351946210e-03,-1.379257969870313887e-03,5.195637755633976396e-02,4.974041879177093506e-02,3.103030702376852190e-02,4.464075974178691349e-03,-1.129810551447042732e-02,-4.978518812458582188e-02,1.337542590584502727e-02,-1.583326924005568070e-02,-3.723520636558532576e-02,3.422642350196838240e-02,-2.240794897079467773e-02,5.150437652763248941e-01,7.431170940399169922e-01,-7.580858469009399414e-01,8.592983813655420988e+01,0.000000000000000000e+00
1.000310999999999950e+00,5.117199899383385701e-03,5.441906235277705998e-03,1.058983087539672852e+00,7.925649250492616121e-03,-2.816041273863811867e-03,1.693852112714043425e-03,-1.426726093505305271e-02,3.515767682748849321e-02,5.034631490707397461e-02,3.507057891644148329e-02,8.973097977221433305e-03,-1.240571045931802494e-02,-5.966654672521254366e-02,7.302581215723649710e-03,-1.614844908579810001e-02,-3.607717156410217285e-02,3.380157351493835727e-02,-2.096104621887207031e-02,5.141182250710133461e-01,7.075994014739990234e-01,-4.350832700729370117e-01,3.588757950314744249e+01,0.000000000000000000e+00
1.024326999999999988e+00,5.272405118950259338e-03,6.273000931757743807e-03,1.059942603111267090e+00,7.304100696309727761e-03,-2.220068214905390747e-03,1.512598967000074179e-03,-1.628081983676206326e-04,5.867241227755913557e-02,4.119693860411643982e-02,3.459090784663065160e-02,1.428134868627457810e-02,-1.389634898572649283e-02,-2.861857484907343041e-02,2.782517687080928240e-02,-2.794762268900082003e-02,-3.195329308509826938e-02,3.657761216163635254e-02,-3.221153020858764926e-02,5.133773905165386342e-01,6.403558254241943359e-01,-9.235495328903198242e-01,5.308952704104044784e+01,0.000000000000000000e+00
1.050238000000000005e+00,5.307045264121850944e-03,7.465120538385905738e-03,1.061334013938903809e+00,5.952305827938365185e-03,-1.863030472975202301e-03,1.181995129731448812e-03,-1.496263369401426221e-02,3.783218214479899810e-02,4.941666126251220703e-02,2.835867844382938818e-02,1.906192388486930081e-02,-1.460829354013264483e-02,-7.639903624675229918e-03,1.591750288739898767e-02,-3.276789263360838783e-02,1.542210578918457085e-04,3.691031336784363071e-02,-3.612592220306396623e-02,5.068610105602762150e-01,3.378182649612426758e-01,-1.079252123832702637e+00,9.410310204457992711e+01,0.000000000000000000e+00
1.078818000000000055e+00,5.175375598638547875e-03,8.199538570676914717e-03,1.062195658683776855e+00,4.570716753942940906e-03,-1.843525645309540550e-03,1.154409086778280429e-03,-1.546672572336106914e-03,5.573009882601936277e-02,4.006110504269599915e-02,2.015518807445809343e-02,2.236097024675748682e-02,-1.370639737134985402e-02,5.510996569088582459e-02,2.940954101908194868e-02,-3.259597917240364406e-02,3.516027927398681502e-02,3.686954379081726352e-02,-3.584802150726318359e-02,5.101306909591494243e-01,4.824492931365966797e-01,-8.950673341751098633e-01,1.925699436479893052e+02,0.000000000000000000e+00
1.102046000000000081e+00,5.012005759621953813e-03,8.929637596838005051e-03,1.063021421432495117e+00,3.896468135044591982e-03,-2.125810124036009441e-03,1.220340355919918851e-03,5.876085971393719010e-04,5.673377624246770529e-02,4.324168339371681213e-02,1.142518688033609432e-02,2.358007901607464540e-02,-1.398683229284022368e-02,6.054117630583130683e-02,2.676958214785648757e-02,-6.542721183527600709e-03,3.731790184974670410e-02,3.640775084495544850e-02,-9.983342885971070030e-03,5.135734827298736871e-01,6.870825290679931641e-01,-1.688143730163574219e+00,8.304493015568090186e+01,0.000000000000000000e+00
1.126260999999999957e+00,4.874025226749792265e-03,9.707955736701247632e-03,1.063832402229309082e+00,3.014962004826889259e-03,-2.595748032568456765e-03,1.203504943668692439e-03,-1.271771880744244909e-02,4.387858857179863237e-02,3.942469507455825806e-02,1.840141573571169725e-03,2.276676452555985788e-02,-1.273276848289009444e-02,-1.230298278813506466e-02,1.243393697878698509e-02,3.199011383438198075e-02,-3.106628358364105225e-02,3.669730126857757846e-02,2.857365906238555978e-02,5.146185179368494289e-01,7.364230155944824219e-01,-7.171865701675415039e-01,1.039552127902164358e+02,0.000000000000000000e+00
1.151067000000000062e+00,4.612587131951653187e-03,1.091674149071428408e-02,1.064901590347290039e+00,2.932601998619503453e-03,-3.158067203511860654e-03,1.514070802618599143e-03,-2.531887320591177763e-03,5.560160056796671635e-02,2.313747070729732513e-02,-6.936327336784242799e-03,1.976080558630142689e-02,-1.205596125092700359e-02,-5.456223132153707744e-03,1.957136402171285455e-02,2.578945742384364248e-02,-3.736100196838378767e-02,3.710057735443115373e-02,2.150928974151611328e-02,5.157192537743851002e-01,7.394479513168334961e-01,-1.075189232826232910e+00,1.687530876725331836e+02,0.000000000000000000e+00
1.176695000000000046e+00,4.602337679552971801e-03,1.169753888321676226e-02,1.065536856651306152e+00,3.087727930585064482e-03,-3.923342584058797655e-03,1.400573435227015244e-03,-1.251278535899529899e-02,4.490630238396459140e-02,3.347244858741760254e-02,-1.486272664291475587e-02,1.525091224089092888e-02,-1.223048782131427523e-02,-1.343004092257094398e-02,4.507509100778142597e-03,-1.510662949344477451e-03,-3.448601663112640242e-02,3.694025874137878834e-02,-5.498093366622925499e-03,5.137534928315008464e-01,6.826922893524169922e-01,-8.763128519058227539e-01,9.203158080139593267e+01,0.000000000000000000e+00
1.198579999999999979e+00,4.698850495359007361e-03,1.239572987864666180e-02,1.066148161888122559e+00,3.672494700831442464e-03,-4.487715524731372696e-03,1.131337376521796435e-03,2.340705857294031987e-03,6.307419344187226162e-02,2.014819718897342682e-02,-2.118722574959140681e-02,1.054603174835598220e-02,-1.158094530662417444e-02,2.419146676465248891e-03,1.522257950571206248e-02,1.047970160315623428e-02,-3.219800293445587019e-02,3.732687234878540039e-02,7.251539826393127962e-03,5.150361684606274970e-01,7.050580978393554688e-01,-6.530088186264038086e-01,-8.638681877316308544e+01,0.000000000000000000e+00
1.224050000000000082e+00,4.894038889038973376e-03,1.355601661053641716e-02,1.066850662231445312e+00,4.152871456332004989e-03,-4.973995256909891083e-03,7.584823135008780283e-04,-4.511183079071837826e-03,4.518805698713387886e-02,2.580746263265609741e-02,-2.341033186865579957e-02,4.730530542277733286e-03,-1.146471271000279457e-02,4.384647754582983448e-02,4.159224355392988903e-03,-3.266169053300754105e-02,2.895116806030273438e-02,3.729032278060913363e-02,-3.486109972000122487e-02,5.151823509964553738e-01,7.429964542388916016e-01,-9.124034643173217773e-01,1.011024545097663889e+02,0.000000000000000000e+00
1.247581000000000051e+00,5.039858305430121657e-03,1.478280478113334732e-02,1.067620396614074707e+00,4.434657980714879801e-03,-5.220525144854493149e-03,3.580533671683201573e-04,1.333517692114705167e-03,5.992248435071236001e-02,2.441598661243915558e-02,-2.224412619566136159e-02,-1.298561933609749348e-03,-1.175549868382063171e-02,6.501607196352834905e-02,8.374336520621243618e-03,-3.567573011945188860e-02,3.585702180862426758e-02,3.708211481571197649e-02,-3.676089048385620256e-02,5.152808026417312615e-01,7.500858306884765625e-01,-1.014737010002136230e+00,1.089695142071112599e+02,0.000000000000000000e+00
1.273115999999999914e+00,5.234928287040420750e-03,1.627803312669151570e-02,1.068292737007141113e+00,4.448162701589360689e-03,-5.551586771733729719e-03,-6.178614162097051951e-05,-9.724776267722319220e-03,5.982225827599955970e-02,2.365643344819545746e-02,-1.948254666074458741e-02,-6.997410724066496779e-03,-1.137978646611767682e-02,6.264520716962314328e-02,-6.353341997982930867e-03,-3.594395245194047933e-02,3.462830781936645369e-02,3.453424572944641113e-02,-3.588725328445434987e-02,5.151851884951458294e-01,7.492429018020629883e-01,-9.967581033706665039e-01,1.090994517258815790e+02,0.000000000000000000e+00
1.299806999999999935e+00,5.388504149537906053e-03,1.787609235422876058e-02,1.068924307823181152e+00,5.169997936483485337e-03,-6.115095858775676518e-03,2.086821375486418747e-04,-2.200501524829126879e-03,4.909163920066583753e-02,1.666492223739624023e-02,-1.461614647702454486e-02,-1.104597873760141194e-02,-9.821067636832084627e-03,4.249808506899956095e-02,-6.298868598876027763e-03,-3.454330390045340371e-02,2.688533067703247070e-02,3.017023801803589075e-02,-3.522771596908569336e-02,5.155606246291838390e-01,7.486817836761474609e-01,-8.587573766708374023e-01,1.003803669107126382e+02,0.000000000000000000e+00
1.322575999999999974e+00,5.495847868369387566e-03,1.898910161503883018e-02,1.069381952285766602e+00,5.773380177769457840e-03,-6.317017204775066119e-03,6.992800358991896944e-04,-1.113535762555725554e-02,6.113219280023573371e-02,1.286057103425264359e-02,-8.164399880487182432e-03,-1.431707177393521865e-02,-9.122735419211446678e-03,3.787894730676016897e-02,-4.940451390257177139e-02,-8.579139594310570757e-03,1.353555917739868164e-02,-3.113478422164916992e-03,-1.068966388702392682e-02,5.150891073711474366e-01,7.140265703201293945e-01,-1.291148781776428223e+00,9.490661232872939479e+01,0.000000000000000000e+00
1.349467999999999890e+00,5.612658709544087084e-03,2.061761396956176412e-02,1.070138096809387207e+00,7.674160105962471619e-03,-7.082261878954110301e-03,1.060911149516818733e-03,-2.744694702158091866e-03,5.245876630193634788e-02,1.669857092201709747e-02,-4.394828682986871740e-04,-1.683417181666143486e-02,-7.128480560940839324e-03,-3.367957172491827661e-05,-4.497554031154962773e-02,3.460185517905489498e-03,-4.356431961059570486e-03,-2.163463830947876063e-03,3.418743610382080512e-04,5.147465235683897911e-01,7.183580398559570312e-01,-1.100782275199890137e+00,1.131940135295208307e+02,0.000000000000000000e+00
1.374109000000000025e+00,5.746398304978981089e-03,2.189670413928286596e-02,1.070585370063781738e+00,8.595035188119739405e-03,-6.920112519305243737e-03,1.284854515940917147e-03,-8.289389558733852026e-03,5.588927901951824123e-02,1.402352284640073776e-02,8.733113220936936094e-03,-1.745743012256281007e-02,-5.524921854654171564e-03,-2.911966454719143189e-03,-4.973268715421683833e-02,1.473331319155324337e-02,-6.538346409797668457e-03,-2.168828248977661220e-03,1.095375418663024902e-02,5.149863594290182700e-01,7.265071868896484375e-01,-1.181822419166564941e+00,1.054883853532091962e+02,0.000000000000000000e+00
1.400412999999999908e+00,5.900960517440007741e-03,2.383801623173164089e-02,1.071182250976562500e+00,1.009232592441208949e-02,-6.328472744088875501e-03,1.343113509470780396e-03,-3.446981121824803720e-03,6.207392496775159668e-02,4.624304710887372494e-04,1.805338860006608023e-02,-1.677898166310697742e-02,-4.794370774311980041e-03,-1.304036929951182464e-02,-2.856677124078278035e-02,2.158903059581143355e-02,-1.295908689498901506e-02,1.015574634075164934e-02,1.765987873077392786e-02,5.159532032366029863e-01,7.305326461791992188e-01,-3.262554407119750977e-01,1.652545828173826123e+02,0.000000000000000000e+00
1.423060999999999909e+00,6.041093550889015812e-03,2.516425430073235617e-02,1.071485757827758789e+00,1.038461926843533938e-02,-5.631971824084480716e-03,1.268223758071596128e-03,-1.163137820017662305e-02,5.704870279924637716e-02,7.035230752080678940e-03,2.569527785418869795e-02,-1.403485004405134219e-02,-4.063120109126522848e-03,-3.511082657806320617e-02,-2.841615647219278284e-02,1.754794570479058236e-02,-2.929816544055938859e-02,1.326809227466583391e-02,1.381831169128418073e-02,5.155537947925467046e-01,7.403056621551513672e-01,-1.181882023811340332e+00,1.076032987881902869e+02,0.000000000000000000e+00
1.449025999999999925e+00,6.216990937874064364e-03,2.713444301514927187e-02,1.071785092353820801e+00,1.117763099355985855e-02,-4.135462694635716474e-03,9.029741093800918621e-04,2.237926952743664235e-03,6.054813171719843762e-02,-4.997586947865784168e-04,2.974996949671585011e-02,-8.395487495732784772e-03,-4.259239076802479040e-03,-4.189363919017247834e-02,6.219517353637373652e-03,9.435345877096913692e-03,-3.610300719738007008e-02,2.526597082614898820e-02,6.818825006484985872e-03,5.162215709913174910e-01,7.509499788284301758e-01,-7.447112798690795898e-01,1.291089895032433503e+02,0.000000000000000000e+00
1.473635000000000028e+00,6.394606693843867505e-03,2.849856578717383307e-02,1.071922183036804199e+00,1.104170545980349277e-02,-3.068646722116596948e-03,9.067323083529960689e-04,-5.439459251182471311e-03,5.673544526332034016e-02,-5.646305624395608902e-03,3.006393991176491837e-02,-1.797047295457426070e-03,-4.332723806091448929e-03,-4.436113712589657976e-02,1.041381364546013419e-02,-1.833142120800990149e-03,-3.689648509025574008e-02,3.090171515941619873e-02,-4.464507102966308594e-03,5.164556157893607224e-01,7.471131086349487305e-01,-4.615010023117065430e-01,5.484481052565285353e+01,0.000000000000000000e+00
1.499686999999999992e+00,6.570920157073737757e-03,3.059850388958695877e-02,1.072083711624145508e+00,1.094269335189944001e-02,-1.868365146132644483e-03,7.042457592682341587e-04,2.998279308721246445e-03,6.738011082771734606e-02,-1.313256565481424332e-02,2.682061987864450131e-02,6.290201251547422254e-03,-3.801476625609063933e-03,-3.259803094874148821e-02,3.121750274487739701e-02,-1.911759383681137583e-02,-3.680202066898346364e-02,3.559894859790802002e-02,-2.111087441444397042e-02,5.164930486738805726e-01,7.228107452392578125e-01,-3.744355440139770508e-01,8.512496181457073874e+01,0.000000000000000000e+00
1.523541000000000034e+00,6.708000954090767749e-03,3.201153217384423294e-02,1.072127103805541992e+00,1.042359032180927188e-02,-1.457161956765817834e-03,5.544220677137679139e-04,-7.090061493214080621e-03,5.128842578150940440e-02,-1.019299682229757309e-02,2.367710433483618399e-02,1.344138125291831701e-02,-2.681897215353020066e-03,-3.756823567186422241e-02,2.583355242483187375e-02,-3.168702943360689889e-02,-3.146439194679260393e-02,3.712327480316162526e-02,-3.328789472579956471e-02,5.156876837559363214e-01,6.948889493942260742e-01,-3.529928922653198242e-01,8.622592683707425465e+01,0.000000000000000000e+00
1.551425999999999972e+00,6.889189148131376512e-03,3.414335492252231624e-02,1.072242140769958496e+00,9.927894978905928147e-03,-1.267423526401412204e-03,7.442455297635197685e-04,7.833720210484824628e-03,7.200400113882431119e-02,-9.034180082380771637e-03,2.023023857265974362e-02,1.776093601130745991e-02,-2.713446194603640060e-03,4.279218834569908925e-02,4.131482892363719933e-02,-3.295653469991185330e-02,2.423394918441772530e-02,3.724947869777679721e-02,-3.502068519592285017e-02,5.163368934438982150e-01,7.372369766235351562e-01,-3.735774755477905273e-01,1.005814613402561548e+02,0.000000000000000000e+00
1.573795000000000055e+00,7.047728253315383058e-03,3.541432738569082195e-02,1.072264194488525391e+00,9.313043129500535311e-03,-1.515403528036696201e-03,7.168429659981540589e-04,-5.517860924387204234e-03,4.729927795538420299e-02,1.304307486861944199e-03,1.657173435688658394e-02,2.070247135150661208e-02,-2.317234544184565512e-03,3.467480706817815950e-02,2.633738715850537232e-02,-3.305919635378461868e-02,3.449042439460754672e-02,3.715013265609741488e-02,-3.510988950729370534e-02,5.155067116543924355e-01,7.380106449127197266e-01,-1.513946413993835449e+00,9.251793808162503296e+01,0.000000000000000000e+00
1.599083999999999950e+00,7.409212899953949993e-03,3.697047407748230152e-02,1.072295188903808594e+00,8.115381909344892425e-03,-1.927482545903469457e-03,1.436688897114582041e-03,1.097700652208713663e-02,7.048499544814622320e-02,-1.572217419743537903e-02,1.090757788025558880e-02,2.176338804595034926e-02,-1.835005067589180793e-03,6.824307196089637872e-02,3.940323042055795394e-02,-1.560088867539016766e-02,3.613921999931335449e-02,3.681142032146453996e-02,-1.961207389831542969e-02,5.168962474257804418e-01,7.474819421768188477e-01,-1.061013340950012207e+00,1.061609950619153722e+02,0.000000000000000000e+00
1.622730000000000006e+00,7.651609656890528272e-03,3.803546233749675182e-02,1.072309136390686035e+00,8.001502542717361249e-03,-2.611670658370979226e-03,1.805525913292583369e-03,-2.750518506470873460e-03,5.262165786979056126e-02,-1.016640663146972656e-02,4.867101548516024681e-03,2.062307037058607601e-02,-2.437055527634801773e-03,-1.320272985891469963e-02,2.061077106261491668e-02,3.684738906769329664e-02,-2.884710431098938196e-02,3.617639839649200439e-02,3.172994852066040455e-02,5.163261679132032933e-01,7.425704002380371094e-01,-8.082312345504760742e-01,-7.057693892019955229e+01,0.000000000000000000e+00
1.648160000000000069e+00,7.918531572477540553e-03,3.907355693167990224e-02,1.072372913360595703e+00,7.997769592235201910e-03,-3.000766926398501511e-03,2.139723176252938518e-03,1.403449724175577984e-03,6.464230311093155379e-02,-7.596736773848533630e-03,-2.678239541752509400e-03,1.899348429387564402e-02,-1.286360153283324899e-03,-8.334973967729565614e-03,2.444301794149549706e-02,3.983974423498184286e-02,-3.781025111675262451e-02,3.674596548080444336e-02,3.379372358322143416e-02,5.162199089131697116e-01,7.500842809677124023e-01,-8.728383779525756836e-01,-4.848437444599689883e+01,0.000000000000000000e+00
1.672260999999999997e+00,8.049764142105833228e-03,4.115263428995045991e-02,1.072398185729980469e+00,8.901351420712759824e-03,-3.954650249464952694e-03,2.477896751421409301e-03,-1.445963030534674811e-03,5.469050495059975259e-02,-1.242914889007806778e-02,-7.763491691917148545e-03,1.564690364592915758e-02,9.037969047903035298e-05,-2.251391869244677088e-02,1.513701918846013794e-02,3.888725398825537694e-02,-3.764458596706390936e-02,3.652395308017730713e-02,3.185601532459259033e-02,5.163952070412798356e-01,7.437700033187866211e-01,-1.326455473899841309e+00,8.958141436119393575e+01,0.000000000000000000e+00
1.700169000000000041e+00,7.815497131155039329e-03,4.427476656685881001e-02,1.072358727455139160e+00,9.373144443830788014e-03,-4.625940000475781133e-03,2.285366745176382018e-03,1.422437062288646470e-02,7.187121427241500993e-02,-1.617521047592163086e-02,-9.203906217796428008e-03,9.247397657312608071e-03,1.078323230719820374e-03,-7.356869821229815309e-03,2.472259529083005447e-02,3.530979496451221167e-02,-3.756004571914672852e-02,3.708159029483795027e-02,2.884798049926758090e-02,5.166124892959214066e-01,7.426223754882812500e-01,-1.326983332633972168e+00,1.079167498295805103e+02,0.000000000000000000e+00
1.721913999999999945e+00,7.687029610585617394e-03,4.633602985618668485e-02,1.072235703468322754e+00,9.596849937963839589e-03,-4.785043406589029047e-03,1.855145773496836995e-03,3.156192823154412627e-03,6.284430108341536314e-02,-1.263690367341041565e-02,-8.890055981814675573e-03,2.786913716152849066e-03,1.869534318883337874e-03,-1.525772316158541600e-02,1.227071427059491307e-02,4.085718146928862121e-02,-3.574745059013367116e-02,3.731445670127869069e-02,3.554185926914215504e-02,5.156288115035193576e-01,7.066819667816162109e-01,-5.250600576400756836e-01,-2.519172524405550107e+01,0.000000000000000000e+00
1.750631999999999966e+00,7.555957441858060855e-03,4.944384364265710236e-02,1.071884751319885254e+00,8.992848176479408678e-03,-4.702239943532804389e-03,1.481507660307676338e-03,1.246092768416909129e-02,6.848648905491380723e-02,-2.394670434296131134e-02,-5.991281111810524591e-03,-4.526823514832241206e-03,2.238094377871647535e-03,4.906319648321969679e-02,1.561395806205788904e-02,-2.506567341273927690e-02,1.638522148132324358e-02,3.077701926231384347e-02,-2.928938865661621233e-02,5.171257099179006334e-01,7.430000305175781250e-01,-1.194758772850036621e+00,1.154132581040738614e+02,0.000000000000000000e+00
1.773617999999999917e+00,7.452138587517739832e-03,5.146968637138123887e-02,1.071627020835876465e+00,8.965426666473850364e-03,-5.004764823822727138e-03,1.362500246839335859e-03,1.557207652220767014e-02,7.255964042814540271e-02,-2.176467142999172211e-02,-3.660280378138146794e-03,-1.083017730300293684e-02,7.305095123903041854e-04,4.642641422359761877e-02,-2.335716654455328306e-03,-1.021685735403609144e-02,9.228724241256714908e-03,1.360020935535431047e-02,-1.411337852478027413e-02,5.166153722930584280e-01,7.255198955535888672e-01,-1.036769270896911621e+00,8.445885444595441527e+01,0.000000000000000000e+00
1.799231000000000025e+00,7.376925658986104722e-03,5.480929605908916452e-02,1.071224808692932129e+00,8.837019543276711589e-03,-4.955441113048575374e-03,8.688561127408869289e-04,4.797376456772054973e-03,7.006289690217512578e-02,-2.125191688537597656e-02,-1.756928101947070192e-03,-1.478802098857283712e-02,-5.511920913303256170e-04,4.242704489555235159e-02,-1.619479075726532741e-02,5.523201518184083468e-04,4.436165094375610352e-03,8.873981237411499717e-03,-2.007687091827392665e-03,5.165176061392315887e-01,7.232555150985717773e-01,-1.146298050880432129e+00,-9.576061137122360378e+01,0.000000000000000000e+00
1.823830000000000062e+00,7.290951882746875973e-03,5.698381166272679932e-02,1.070955872535705566e+00,9.120490224335732476e-03,-4.828290631457399229e-03,1.078185024608013277e-03,1.573811136716651154e-02,7.840416715327620800e-02,-3.897524625062942505e-02,-8.199478029281900967e-04,-1.568464202353813536e-02,-1.475048784019176908e-03,5.389708869459731988e-02,1.791939815282372200e-03,-8.482377510098127946e-03,8.983850479125976562e-03,1.534134447574615583e-02,-1.157500147819519147e-02,5.178819027077660175e-01,7.266592979431152344e-01,-9.068533182144165039e-01,1.399478303575149312e+02,0.000000000000000000e+00
1.850087000000000037e+00,7.259019703713899888e-03,6.023421420616684174e-02,1.070427060127258301e+00,1.014218117219212352e-02,-5.051004228877387092e-03,1.280384993994353052e-03,2.660996344806711503e-03,6.548637373448937260e-02,-2.342833019793033600e-02,2.859549394477988761e-03,-1.542885410322254389e-02,-2.851953926374948059e-03,2.708096217442842318e-02,-2.059546037213927719e-02,4.104688054801441596e-03,-2.158945798873901280e-03,6.809949874877929688e-03,3.729850053787231771e-04,5.167009860721932801e-01,7.253131866455078125e-01,-1.150254368782043457e+00,9.260460635200331581e+01,0.000000000000000000e+00
1.872352000000000016e+00,7.232500719666128119e-03,6.232775922035148353e-02,1.070044636726379395e+00,1.121701860451559431e-02,-4.752367305636884254e-03,1.164292095660814270e-03,1.580033809158945188e-02,7.411633632311255548e-02,-2.087291888892650604e-02,6.027882677368639509e-03,-1.289823949362186618e-02,-3.839902177004930750e-03,2.839680710675506273e-02,2.499911808239666661e-04,4.835718994202186857e-03,-4.876974225044250662e-03,1.275748610496521031e-02,1.501107215881347743e-03,5.164889805891389463e-01,7.244640588760375977e-01,-2.437511682510375977e-01,-7.685730469221543615e+01,0.000000000000000000e+00
1.897056000000000076e+00,6.803404349222723531e-03,6.445307510393588624e-02,1.069666743278503418e+00,1.230805534974593538e-02,-4.308223679133638129e-03,1.296912452905592912e-03,5.639693173441875755e-03,6.183134020008122095e-02,-2.460498362779617310e-02,1.213199373580689869e-02,-1.039169387864033282e-02,-5.378257778605113545e-03,-4.100117326156192676e-04,-1.402593754774451862e-03,1.613240425022988145e-02,-1.685942411422729562e-02,1.887095570564270228e-02,1.238213479518890381e-02,5.167471641040847219e-01,7.247962951660156250e-01,-1.168510079383850098e+00,1.033446895010656732e+02,0.000000000000000000e+00
1.923621999999999943e+00,6.201641015735744229e-03,6.756421468650648798e-02,1.069059967994689941e+00,1.381300963501905232e-02,-3.404397545517134915e-03,1.502451717001993502e-03,1.328842487487212967e-02,8.196005160460277661e-02,-3.371925279498100281e-02,1.759109027413365695e-02,-7.222148311358205126e-03,-7.337625812059590975e-03,-7.275000620679969443e-03,1.911876290006654655e-02,1.081579050174481457e-02,-3.478085696697235524e-02,2.593882083892822335e-02,6.561520695686340506e-03,5.177407654450965069e-01,7.406004667282104492e-01,-1.021863102912902832e+00,9.711585067614835509e+01,0.000000000000000000e+00
1.948879000000000028e+00,5.645006122460988554e-03,7.060300108227016147e-02,1.068470120429992676e+00,1.499367071133367833e-02,-2.793652241488198129e-03,1.177052253905037666e-03,-6.404759092131005402e-03,6.098450310170391159e-02,-2.604526281356811523e-02,2.095089546327575866e-02,-1.999957561051687004e-03,-8.383801670678847281e-03,-3.450244007492639375e-02,1.145440079186458085e-02,2.256428554714551196e-03,-3.657765686511993408e-02,3.216815888881683488e-02,-1.174920797348022548e-03,5.171350259347303746e-01,7.389848232269287109e-01,-1.465814709663391113e+00,1.078260995589161126e+02,0.000000000000000000e+00
1.971486000000000072e+00,5.357931259952922708e-03,7.256741943199171430e-02,1.068042755126953125e+00,1.550011180956996359e-02,-2.139657610858547443e-03,1.148488595303708048e-03,6.160060173102967045e-03,7.864289382420193431e-02,-3.985026851296424866e-02,2.273098420506117906e-02,3.014446325493204924e-03,-8.231552857759026620e-03,-1.856376773113305872e-02,3.232929506065101988e-02,-4.997382705440422956e-03,-3.658359944820404469e-02,3.556032776832580844e-02,-8.237153291702270508e-03,5.177986803981249331e-01,7.189590930938720703e-01,-9.974242448806762695e-01,9.555702392263303580e+01,0.000000000000000000e+00
1.999760999999999900e+00,4.930742894131947412e-03,7.610179924697377252e-02,1.067442417144775391e+00,1.602111055741486934e-02,-1.824089896442560033e-03,1.168052556805652736e-03,3.437099529420632976e-04,6.465293936290958388e-02,-2.577315829694271088e-02,2.388455692711431363e-02,7.707220828684262573e-03,-7.802389492517823252e-03,-3.195771462497717236e-02,2.825197980674826193e-02,-1.225368041246856048e-02,-3.550897240638733326e-02,3.638269603252410750e-02,-1.558174490928650006e-02,5.164208403675933923e-01,7.008050680160522461e-01,-1.176895737648010254e+00,7.604134980339820515e+01,0.000000000000000000e+00
2.024373999999999896e+00,4.705633098032678194e-03,7.840660651645985080e-02,1.067003250122070312e+00,1.560750217058207504e-02,-1.778419938907260800e-03,1.013613452897813884e-03,6.713076779940684198e-03,6.971072876723952150e-02,-2.828198298811912537e-02,2.457005902039885448e-02,1.081754868395057648e-02,-5.961398656969011008e-03,-1.863801489205145837e-02,3.529302762793130877e-02,-2.482452590383646060e-02,-3.314411938190460483e-02,3.708698153495788852e-02,-2.767599225044250696e-02,5.170157703796163240e-01,7.226405143737792969e-01,-9.989846944808959961e-01,9.115525387050494999e+01,0.000000000000000000e+00
2.047018000000000004e+00,4.453657664327435699e-03,8.065858250747180713e-02,1.066577792167663574e+00,1.535877497282044785e-02,-1.761645366647357491e-03,1.104200781978687592e-03,1.585974591144474755e-02,7.638487251593981120e-02,-3.938100859522819519e-02,2.598126379631456734e-02,1.269401242771213412e-02,-4.765532276301168851e-03,-8.851707483190154879e-03,4.209217305692179723e-02,-2.902102983524181695e-02,-3.144115805625915389e-02,3.727758228778839389e-02,-3.207782506942748885e-02,5.180404071569503222e-01,7.331955432891845703e-01,-1.029279351234436035e+00,1.109011326855258801e+02,0.000000000000000000e+00
2.073189000000000171e+00,4.157763336062332560e-03,8.400670196747368756e-02,1.065961480140686035e+00,1.444524286706720499e-02,-1.973047117282744622e-03,1.346988005295321825e-03,8.545561538549566183e-03,6.974415940987162277e-02,-4.170216619968414307e-02,2.705820429948430084e-02,1.139105184496490807e-02,-3.878963083461755331e-03,-8.775308291145367257e-03,3.287841242793931862e-02,-2.114654269814377971e-02,-3.345514833927154541e-02,3.698475658893585205e-02,-2.494758963584900111e-02,5.181212323578814338e-01,7.273790836334228516e-01,-3.395301103591918945e-01,-1.236259544017253553e+01,0.000000000000000000e+00
2.097480000000000011e+00,3.868151768887267451e-03,8.565993970355657849e-02,1.065555095672607422e+00,1.376341535063092467e-02,-2.419557470299649182e-03,1.443019022306592583e-03,1.570958602792968742e-02,7.376901690006450185e-02,-3.888767957687377930e-02,2.363099658658841112e-02,1.129546176600639343e-02,-3.109953105983873957e-03,2.949586433249648532e-03,3.715210542194818250e-02,-2.758135786180308108e-02,-3.219817280769348561e-02,3.722957074642181674e-02,-3.162299990653991838e-02,5.180372242058802756e-01,7.333734035491943359e-01,-1.257619023323059082e+00,9.851292488973945183e+01,0.000000000000000000e+00
2.123568999999999818e+00,3.377925960236588098e-03,8.736403964153116597e-02,1.064931511878967285e+00,1.295913973687473457e-02,-3.744304868549930276e-03,1.766417537294436967e-03,4.568630539814618093e-03,6.078005809580017821e-02,-3.318414092063903809e-02,1.966317538158562570e-02,8.675933142575614765e-03,-1.946677311951906103e-03,-3.340389689739674262e-03,1.776681062193904981e-02,-2.020692943237792014e-02,-3.416734337806701799e-02,3.699469268321991383e-02,-2.528057098388672083e-02,5.174507740217585416e-01,7.240099906921386719e-01,-9.775930643081665039e-01,8.274494824733393727e+01,0.000000000000000000e+00
2.149054000000000020e+00,2.930147899302939542e-03,8.901833486873030055e-02,1.064297556877136230e+00,1.266491616206135394e-02,-4.942720491569296826e-03,2.279222954424198547e-03,1.175638007144095415e-02,6.984869504613019919e-02,-3.757181391119956970e-02,1.278944683355015544e-02,5.250258960511429776e-03,-1.244071904798602600e-03,9.363306186809555731e-03,1.734749817351922616e-02,-1.474309740930142276e-02,-3.432533144950866699e-02,3.690685033798218190e-02,-2.126096487045288363e-02,5.177915850136153297e-01,7.232632637023925781e-01,-1.025493264198303223e+00,7.154302136697366166e+01,0.000000000000000000e+00
2.174244999999999983e+00,2.665424263842710272e-03,9.014429821956926325e-02,1.063885688781738281e+00,1.246467839982248575e-02,-5.560288064795138041e-03,2.063664235940089724e-03,1.202230320820001520e-03,6.324899577356377089e-02,-3.207444399595260620e-02,5.185700866076084666e-03,1.377933911137443944e-03,-3.480556730776567615e-04,3.380678481183466144e-03,2.050399077851615404e-03,-4.685603798817761928e-03,-3.624368607997894426e-02,3.561575710773468018e-02,-1.068903207778930733e-02,5.171146232365623208e-01,7.088642120361328125e-01,-7.750982046127319336e-01,1.026521697909289230e+02,0.000000000000000000e+00
2.198074999999999779e+00,2.309610493085191302e-03,9.116869252131275247e-02,1.063389301300048828e+00,1.172531154156461995e-02,-5.855624203159548458e-03,2.467171803233923159e-03,6.226034204237720568e-03,7.402303017247470474e-02,-4.504456371068954468e-02,-2.039439129796974913e-03,-4.131844926096635111e-03,1.198328732113329619e-03,7.142739018158464348e-02,-1.024675834304520500e-02,-1.450872431638897814e-02,1.623977422714233468e-02,1.964372694492340365e-02,-2.162360548973083635e-02,5.184172859707596448e-01,7.260546684265136719e-01,-1.477917313575744629e+00,6.220948590388119470e+01,0.000000000000000000e+00
2.223574000000000161e+00,1.598828618455387434e-03,9.261543237997893474e-02,1.062700867652893066e+00,1.102119113941456806e-02,-6.909542979798288798e-03,2.619147103436338109e-03,4.208908829142090843e-03,6.223616695573950391e-02,-2.939279377460479736e-02,-7.871920595457382319e-03,-9.635279407159223070e-03,1.598155664188344273e-03,7.014502805074802894e-02,-1.840186820138662097e-02,-2.092138838129685777e-02,1.980087757110595911e-02,2.117890715599060267e-02,-2.851001620292663644e-02,5.173407695167655529e-01,7.294394969940185547e-01,-1.357806324958801270e+00,1.453186130075710594e+02,0.000000000000000000e+00
2.250201999999999813e+00,1.191327073446559652e-03,9.354716049566703939e-02,1.062229752540588379e+00,1.074319979751419026e-02,-7.221888414372656939e-03,2.427570188099918876e-03,5.437801888348431194e-03,6.611723426078566779e-02,-2.698560990393161774e-02,-1.360577899724423924e-02,-1.467663828818541183e-02,2.652575692025975051e-03,7.986920551046762518e-02,-1.370530551139323081e-02,-2.422292827698098450e-02,2.147109508514404366e-02,2.682693004608154366e-02,-3.128721117973327914e-02,5.173181831138949915e-01,7.373166084289550781e-01,-6.230698823928833008e-01,-6.355084626441249185e+01,0.000000000000000000e+00
2.275233000000000061e+00,5.827339048199218878e-04,9.495160779021508124e-02,1.061550498008728027e+00,1.110323481030687197e-02,-7.282434128401904516e-03,2.370127733829073546e-03,6.453970489695538305e-03,5.617571145278046907e-02,-3.064745292067527771e-02,-1.671265406754425184e-02,-1.748026610128272998e-02,3.162722701793431283e-03,6.973430101183260288e-02,-1.466625760639305581e-02,-2.410142657652883033e-02,2.114759087562561105e-02,2.599436938762664934e-02,-3.099868297576904505e-02,5.175696352843628389e-01,7.356030941009521484e-01,-1.083015084266662598e+00,9.600055591676614597e+01,0.000000000000000000e+00
2.296854000000000173e+00,1.949736437756248821e-04,9.620348809664697187e-02,1.061030149459838867e+00,1.158169966311014577e-02,-7.021646346154986063e-03,2.624216318963574265e-03,8.528428564687700469e-03,6.455759209158991319e-02,-3.824846819043159485e-02,-1.793238281275167517e-02,-1.971478396910545175e-02,3.606496482019184383e-03,7.701020901546430653e-02,-1.090937527656425654e-02,-2.347274702410125091e-02,2.194513082504272530e-02,2.667331993579864780e-02,-3.107784986495971957e-02,5.181531346188114062e-01,7.355399131774902344e-01,-8.791159391403198242e-01,1.009880283506011551e+02,0.000000000000000000e+00
2.321863000000000010e+00,-4.326592829978941675e-04,9.851671149696604457e-02,1.060337185859680176e+00,1.319687362158170930e-02,-6.662511791659664340e-03,2.717376283656229227e-03,4.785534607249021175e-03,5.859400571718510059e-02,-2.430609986186027527e-02,-1.557891120065016399e-02,-1.848214367820929724e-02,3.431656329230522127e-03,6.003691291699925214e-02,-1.673459685999142618e-02,-2.048248168539382880e-02,1.919580698013305733e-02,2.228260636329651087e-02,-2.836700677871704240e-02,5.170827369811000773e-01,7.323515415191650391e-01,-1.362848162651062012e+00,9.576081627689870857e+01,0.000000000000000000e+00
2.350629000000000079e+00,-1.011630785794791340e-03,1.007714429765296793e-01,1.059685111045837402e+00,1.499796164467893760e-02,-6.104627316701360940e-03,2.506457267438200187e-03,7.281855345032102987e-03,6.954612636233885314e-02,-3.492799028754234314e-02,-9.304288545283334946e-03,-1.644078930737818273e-02,2.932455963915960549e-03,5.983051407084297862e-02,-1.403190772382853502e-02,-1.563688124251491271e-02,1.899617910385131836e-02,1.908371746540069719e-02,-2.291513085365295618e-02,5.177767029395982101e-01,7.257063388824462891e-01,-8.580266237258911133e-01,1.083687854092302985e+02,0.000000000000000000e+00
2.372689999999999966e+00,-1.371867763056500720e-03,1.022307767885299312e-01,1.059083700180053711e+00,1.620133388916986800e-02,-5.450322293519826999e-03,2.915326676054493839e-03,-1.264640456440603231e-04,6.019151012843890203e-02,-4.020920395851135254e-02,-1.860262196551440384e-03,-1.165307757002825850e-02,2.417286552295323451e-03,3.544445919788206251e-02,-2.344058830455415798e-02,6.323582607444588888e-03,1.043968796730041643e-02,1.211862564086914167e-02,-2.118498086929321289e-03,5.179189468416273145e-01,7.115055322647094727e-01,-1.357918143272399902e+00,1.011075976422114024e+02,0.000000000000000000e+00
2.397046000000000010e+00,-1.706658551830496232e-03,1.037175146804238390e-01,1.058486223220825195e+00,1.749311920048907121e-02,-4.956055029516015509e-03,2.732643005672089412e-03,2.881344992461891408e-03,5.776513185166209929e-02,-3.064003027975559235e-02,7.195071140538830505e-03,-6.281006550371946370e-03,1.327235298970869722e-03,-9.628343723921090752e-03,-1.183716156187900742e-02,2.160363315336109175e-02,-2.746233046054840157e-02,1.712935566902160783e-02,1.371533572673797746e-02,5.177326607302634720e-01,7.382590770721435547e-01,-1.113614678382873535e+00,7.534549696094647686e+01,0.000000000000000000e+00
2.422728000000000215e+00,-1.724062007035605335e-03,1.059352862190973410e-01,1.057502865791320801e+00,1.918896884913563750e-02,-4.027163674352296496e-03,2.741296824728745637e-03,6.884210926848080038e-03,5.618066365064707662e-02,-2.792434394359588623e-02,1.522476000611508971e-02,5.410787300826960664e-05,6.605689499896945979e-04,-2.859436994598789708e-02,1.307729669355046226e-02,1.742943782185594342e-02,-3.653882443904876709e-02,3.312917351722717563e-02,9.581202268600465255e-03,5.172032354685897060e-01,7.180628776550292969e-01,-1.100200295448303223e+00,-9.244180196294689722e+01,0.000000000000000000e+00
