timestamp,x,y,z,roll,pitch,yaw,vx,vy,vz,p,q,r,psp,qsp,rsp,pres,qres,rres,thrust_sp, thrust_res
0.000000000000000000e+00,-1.227934351284238864e-03,3.845652027406386980e-02,9.807022809982299805e-01,2.555522194863860119e-02,-3.994916697427353114e-03,-3.808107291002494916e-03,-1.830862685861614188e-03,-1.330393246912218649e-02,1.082101371139287949e-02,1.797858174752821683e-02,-5.204736425779425690e-02,1.968000749579797495e-02,-3.210923075675964355e-01,-1.243794392910813340e-01,1.132269999778781344e-01,-2.210923075675964300e-01,-9.598267078399658203e-02,1.237207889556884710e-01,4.996958714129189350e-01,-6.811578869819641113e-01,-1.024825930595397949e+00,5.638913678756024694e+01,5.779259204864502231e-02
2.486199999999999868e-02,-1.213434861756079904e-03,3.838704439278051161e-02,9.806542992591857910e-01,2.538481243186775302e-02,-4.072605928740591352e-03,-3.659758234154939730e-03,-4.042165231562037248e-03,-1.461459587363244696e-02,1.360290404409170151e-02,1.915742052779701192e-03,-2.058134456903619805e-02,3.571104846729027810e-02,-3.210469961166381725e-01,-1.191111526108830365e-01,1.729633379413301475e-01,-2.210469961166381669e-01,-8.869049549102782370e-02,1.830298840999603216e-01,4.990566098696518349e-01,-7.040785551071166992e-01,-1.552451252937316895e+00,7.307082540127879611e+01,5.779259204864502231e-02
4.677499999999999714e-02,-1.301691555782499236e-03,3.826123974791251908e-02,9.805672168731689453e-01,2.517721565720142801e-02,-4.284976611031332538e-03,-3.376546812643078498e-03,1.318594069307130699e-04,-4.636435117119526265e-03,5.108198616653680801e-03,1.115439297118790696e-02,-5.101882846153260598e-03,3.220036675141731142e-02,-3.214609146118164174e-01,3.765184285143440002e-02,1.776265081236835242e-01,-2.214609146118164118e-01,6.582986712455748957e-02,1.869070529937744141e-01,4.999695216226502925e-01,-6.910101771354675293e-01,-1.232086062431335449e+00,5.269006342743224991e+01,5.779259204864502231e-02
7.084699999999999331e-02,-1.322412137804351937e-03,3.806516509727673331e-02,9.805994629859924316e-01,2.490700803534701829e-02,-4.408690564526640543e-03,-3.277506644266049273e-03,-1.326477569509847826e-02,-2.007398641882571222e-02,2.124032936990261078e-02,-2.736943484767922000e-02,-8.969950645138389730e-04,-3.330767461244878158e-02,-2.910328090190887340e-01,6.873777213216686333e-02,1.691072163691993702e-01,-1.910328090190887285e-01,1.091748833656310952e-01,1.780556559562682939e-01,4.997872597976248388e-01,-6.365432739257812500e-01,-1.109938502311706543e+00,1.174782838373571821e+02,5.779259204864502231e-02
9.973999999999999533e-02,-1.329357383567373154e-03,3.772224326413833179e-02,9.806884527206420898e-01,2.441102003865108089e-02,-4.597412354979679705e-03,-2.943307314768289600e-03,-6.628903106299874511e-03,-1.718257255908544126e-02,1.492392551153898239e-02,-6.266839637396800014e-03,-3.559376482623911875e-02,2.417585365130529157e-02,-3.174435734748840554e-01,-1.123535621248211713e-01,1.201166370370369829e-01,-2.174435734748840221e-01,-7.800024747848510742e-02,1.281623482704162542e-01,4.993825120791797190e-01,-6.825267076492309570e-01,-1.375625729560852051e+00,8.008094224459719612e+01,5.779259204864502231e-02
1.264099999999999946e-01,-1.249835368927286862e-03,3.749707987021819872e-02,9.806427955627441406e-01,2.304183268490571715e-02,-4.068706602486482637e-03,-3.682773725608661560e-03,1.460692680863177016e-02,-5.473658808493903939e-03,-4.234365653246641159e-03,-1.556344132036835137e-01,6.286150642886204065e-02,-2.367647142246018244e-02,-2.457717657089233954e-02,1.842849156738629313e-01,1.524132694022008183e-01,7.542282342910766602e-02,1.990643084049224798e-01,1.626410007476806474e-01,5.020429230448265612e-01,-6.202619075775146484e-01,-6.377331018447875977e-01,1.520472509250040503e+02,5.779259204864502231e-02
1.469050000000000078e-01,-1.275254339882404961e-03,3.762233041571506204e-02,9.805711507797241211e-01,2.196399935197517611e-02,-3.623820634418128961e-03,-4.226298192786149752e-03,1.746195491131914690e-02,-5.362678707073747705e-03,-7.332701236009597778e-03,-1.462350993767141394e-01,6.247009360454965771e-02,-5.390418294535169463e-02,-3.400034904479981579e-02,1.903534742953085501e-01,1.638488088216900340e-01,6.599965095520018976e-02,2.030434191226959117e-01,1.756138622760772539e-01,5.021915879655562964e-01,-6.262986660003662109e-01,-9.039036035537719727e-01,9.109595416813090196e+01,5.779259204864502231e-02
1.746199999999999974e-01,-1.287407059072227323e-03,3.806175249233840346e-02,9.801915287971496582e-01,1.608625579918408072e-02,-2.468713550234813425e-03,-6.390167621708128971e-03,2.710859593728866344e-03,-1.415212783714546712e-03,-1.625136286020278931e-02,-2.751499281545439213e-01,6.126544669810119609e-02,-1.087539950542751876e-01,6.586034728677042649e-02,1.589990040042026653e-01,1.447190250731134886e-01,1.463467597961425615e-01,1.764948248863220104e-01,1.625371634960174616e-01,5.042501348594348176e-01,-5.565649867057800293e-01,-6.209396123886108398e-01,1.265155256942544924e+02,5.779259204864502231e-02
1.983340000000000103e-01,-1.322395709830865174e-03,3.844336613849753947e-02,9.797534346580505371e-01,1.094020052573314514e-02,-2.261984009932938022e-03,-7.662919492450416190e-03,4.608467612885403658e-03,1.984889595820176714e-03,-1.962121948599815369e-02,-2.819064961724826457e-01,6.007604890145222878e-03,-8.464979799092217649e-02,1.403850084097512663e-01,8.748941100820893657e-02,1.399720564011066315e-01,1.849034786224365290e-01,9.999135732650756003e-02,1.613880336284637396e-01,5.059356474409399951e-01,-4.847212433815002441e-01,-7.028909921646118164e-01,7.931561271790809542e+01,5.779259204864502231e-02
2.247230000000000061e-01,-1.320679503379740835e-03,3.885150066829514554e-02,9.791687130928039551e-01,5.525601357468432236e-03,-2.178138156319731067e-03,-8.825501245827213972e-03,3.026705718822754118e-03,8.258058781292910988e-03,-2.721945382654666901e-02,-2.953849770654335960e-01,1.102357599004141764e-02,-6.080453199358584054e-02,1.988424320468444861e-01,4.179781020087377369e-02,1.398680592415630364e-01,2.032965302467346080e-01,5.529960393905639787e-02,1.645496070384979137e-01,5.080141004488856193e-01,-4.095575213432312012e-01,-9.690686464309692383e-01,9.015057402473109960e+01,5.779259204864502231e-02
2.471299999999999886e-01,-1.353798839235517909e-03,3.930383203025755029e-02,9.784263968467712402e-01,-9.611105873955255762e-05,-2.052173998824624590e-03,-9.967979872968633220e-03,6.723226547351951422e-04,7.177651903113797457e-03,-3.476344794034957886e-02,-3.183844678134611916e-01,2.002891017834107154e-02,-3.067576997072887432e-02,2.405521674174965485e-01,1.202388544508884230e-02,1.281762617155149664e-01,2.098696231842041016e-01,2.632400393486022949e-02,1.560727894306182806e-01,5.105269602476506519e-01,-3.116955757141113281e-01,-3.783518075942993164e-01,3.903603374824027128e+01,5.779259204864502231e-02
2.726930000000000187e-01,-1.358760890990489377e-03,3.957590421820441490e-02,9.776317477226257324e-01,-4.594506086149658525e-03,-2.867371996110756882e-03,-1.130875222169688138e-02,8.452019106195604245e-03,7.515660185295995090e-03,-3.706000745296478271e-02,-1.940811048751764356e-01,-7.570564060339314560e-02,-5.193053835733288381e-02,2.734223418755570845e-01,-1.117326485911914608e-01,9.067575379664395696e-02,2.126942396163940263e-01,-9.872245788574218750e-02,1.223397910594940102e-01,5.104319030962790604e-01,-3.319491744041442871e-01,-1.155753731727600098e+00,7.917424146246716532e+01,5.779259204864502231e-02
2.960740000000000038e-01,-1.362357426259561306e-03,3.977669473242255449e-02,9.762951135635375977e-01,-8.302996507988019692e-03,-6.393369310877083933e-03,-1.358918291869540100e-02,5.208677968957380576e-03,1.424961607625548944e-02,-3.607996180653572083e-02,-1.076084327261373486e-01,-1.658121683850359851e-01,-1.215376788962811150e-01,2.873621338779133727e-01,-2.251947127712580210e-01,1.237457665492322223e-01,1.968707799911499079e-01,-1.855362653732299805e-01,1.618181526660919245e-01,5.078743930003754015e-01,-4.721585512161254883e-01,-8.935071229934692383e-01,6.839921506561101694e+01,5.779259204864502231e-02
3.278400000000000203e-01,-1.455186514861382717e-03,3.993271278097174776e-02,9.754195213317871094e-01,-9.138351344188418504e-03,-9.880924844025695819e-03,-1.481897220688452310e-02,-5.993746414797261959e-03,1.269120213428869513e-02,-3.461736440658569336e-02,-4.798347227543891397e-03,-2.282204920072697651e-01,-7.010138248634623093e-02,2.084082698636780806e-01,-2.450255914303832716e-01,1.285187130919799303e-01,1.144414901733398354e-01,-1.741940259933471569e-01,1.700696825981140026e-01,5.071378158832887673e-01,-5.117740035057067871e-01,-1.066172003746032715e+00,1.005277555628123451e+02,5.087425708770752092e-02
3.501810000000000200e-01,-1.645981681057425003e-03,4.038401814393639128e-02,9.736025333404541016e-01,-8.032679329679749680e-03,-1.565439934591039695e-02,-1.747998954197277355e-02,-8.888308095867169384e-03,1.667134519679105628e-02,-4.178636148571968079e-02,8.013091847724011785e-02,-1.390789634268185249e-01,-9.589004900882934501e-02,2.006096865855925837e-01,-2.902541637420654186e-01,1.695236197009429291e-01,1.098916411399841336e-01,-1.902541637420654130e-01,2.185166358947753795e-01,5.086333478749691661e-01,-4.715175628662109375e-01,-1.030600905418395996e+00,8.550919410632980089e+01,2.200987339019775529e-02
3.727289999999999770e-01,-1.700112628753315406e-03,4.071735693036117321e-02,9.726002812385559082e-01,-6.250798138264940414e-03,-1.773089061281352130e-02,-1.891869377558303561e-02,-7.957383214919589234e-03,2.222668058465825103e-02,-3.830150142312049866e-02,9.993405280238772115e-02,-7.097535438740665281e-02,-1.057423779163303296e-01,4.565730203629524836e-02,-2.949627637863159180e-01,1.679661826347329245e-01,-3.784618377685546736e-02,-1.949627637863159124e-01,2.209289789199828935e-01,5.092475911955282042e-01,-4.324763417243957520e-01,-1.191456675529479980e+00,6.522791725283907738e+01,2.200987339019775529e-02
3.999800000000000022e-01,-1.296441247387606667e-03,4.102520247663038466e-02,9.708920121192932129e-01,1.807387340994772275e-04,-1.969411382218400064e-02,-2.134985560279651848e-02,-1.495857808397958342e-03,2.610848599665620967e-02,-3.909838199615478516e-02,1.780434304667913581e-01,1.854351695786285101e-02,-1.300769941037750559e-02,-1.670671967867173868e-01,-2.673714518547057883e-01,6.354395676544583038e-03,-2.116325497627258301e-01,-1.673714518547058105e-01,6.593259572982787531e-02,5.092408051278617398e-01,-4.461843967437744141e-01,-1.161888003349304199e+00,5.364616013763980362e+01,2.200987339019775529e-02
4.258859999999999868e-01,-1.085992699908761841e-03,4.124172393473049536e-02,9.700514674186706543e-01,4.398930524373404621e-03,-1.939853034311278535e-02,-2.275101999804212891e-02,6.308862744457291970e-03,2.425835244402404361e-02,-4.123876243829727173e-02,2.492183273365553287e-01,1.522353356103887858e-03,-5.437297219462949166e-02,-2.016527685465894781e-01,-2.457115411758422907e-01,3.780386321888905277e-02,-2.172225773334503229e-01,-1.457115411758422852e-01,1.012119770050048800e-01,5.087539563335814474e-01,-4.873238801956176758e-01,6.640660762786865234e-02,1.063892463235988686e+02,2.200987339019775529e-02
4.497269999999999879e-01,-7.020914915005939784e-04,4.162270900668874757e-02,9.688377976417541504e-01,1.173411096411058549e-02,-1.607986564871066726e-02,-2.517861490430753357e-02,4.356983770385690173e-03,2.890314860084544982e-02,-4.111299663782119751e-02,3.027209933553604015e-01,1.846158149453954733e-01,-1.172856642032595181e-01,-2.433345247193940408e-01,-2.965500950813294845e-02,1.491972649532796735e-03,-2.155469477176666093e-01,7.034499049186705710e-02,7.156478762626647394e-02,5.066415869039583297e-01,-6.071822047233581543e-01,-1.001821875572204590e+00,5.128311276030132149e+01,2.200987339019775529e-02
4.724740000000000051e-01,-3.834069685706203903e-04,4.193761067522193409e-02,9.679221510887145996e-01,1.655114497914685068e-02,-1.260726693993086123e-02,-2.678251887030490275e-02,-2.287987571379986734e-03,2.941249520728580341e-02,-4.503023624420166016e-02,2.796551460149461210e-01,1.980136446399186345e-01,-9.984175992453213355e-02,-2.758510398700272370e-01,3.351444007117856949e-02,1.606450818904409106e-02,-2.166743159294128307e-01,1.197924256324768011e-01,9.061199426651000977e-02,5.071161302484057387e-01,-6.050319671630859375e-01,-7.387193441390991211e-01,-1.749256013424599843e+01,2.200987339019775529e-02
4.958929999999999727e-01,6.289349806325532886e-04,4.134642411204419304e-02,9.665408134460449219e-01,2.311999593839479325e-02,-5.595289703835826245e-03,-2.925280387963003978e-02,7.300737101418540084e-03,3.142835929330629191e-02,-5.666247755289077759e-02,2.134791666477601213e-01,2.809994897337300679e-01,-5.294079220066047475e-02,-3.147817134857177623e-01,1.692751797126476332e-01,9.415206714210394567e-02,-2.147817134857177568e-01,2.012497186660766602e-01,1.758516132831573486e-01,5.078454584566773899e-01,-6.223664283752441406e-01,-5.795105695724487305e-01,9.966041716086910185e+01,2.200987339019775529e-02
5.272259999999999724e-01,1.738081420831942255e-03,4.083884359355261645e-02,9.649931192398071289e-01,2.831994234249720147e-02,2.746848152452630032e-03,-3.205941495162268479e-02,1.906995391333506096e-02,3.078350540882720393e-02,-5.798379331827163696e-02,1.572748958791568008e-01,3.310626320047007076e-01,-1.002707724288649099e-01,-3.178932011127472146e-01,2.526335060894431273e-01,1.030551690206939208e-01,-2.178932011127471813e-01,2.221576988697051835e-01,1.930603802204131914e-01,5.072972365128446404e-01,-6.673967242240905762e-01,-1.323379874229431152e+00,7.045872883623412974e+01,2.200987339019775529e-02
5.463019999999999543e-01,2.453788884266559431e-03,4.062842643399741660e-02,9.638937711715698242e-01,2.995830650427004291e-02,8.901572498265064581e-03,-3.297223017839533143e-02,9.538937064704919311e-03,3.884758989917005967e-02,-6.048159301280975342e-02,8.520839743828105550e-02,3.411755506943728866e-01,-6.930427030103365749e-02,-3.152925133705138938e-01,2.839384973806614032e-01,9.852225402353234629e-02,-2.152925133705139160e-01,2.225065827369689941e-01,1.913573205471038874e-01,5.079593953655228145e-01,-6.514774560928344727e-01,-1.431752562522888184e+00,5.766975969089720166e+01,2.200987339019775529e-02
5.749440000000000106e-01,4.012152274931930253e-03,4.044530256880587982e-02,9.614721536636352539e-01,2.837796243742950891e-02,2.074865838184858369e-02,-3.413653055597751923e-02,2.261232278031144807e-02,4.323667825367307621e-02,-7.535661011934280396e-02,-1.086629409887720776e-01,3.045846246448650207e-01,3.116052472102484941e-02,-2.458251059055328314e-01,3.206392467021942361e-01,7.840874517993606796e-02,-1.458251059055328258e-01,2.206392467021942028e-01,1.752016425132751354e-01,5.092665015758145453e-01,-6.563021540641784668e-01,-1.382433772087097168e+00,9.086571532139893748e+01,2.200987339019775529e-02
5.983450000000000157e-01,4.464581080395472849e-03,4.073610091910286057e-02,9.602206945419311523e-01,2.593341063310346598e-02,2.496434336583708280e-02,-3.490843888802629830e-02,1.449144382719227964e-02,2.916765703298478118e-02,-6.225274875760078430e-02,-1.846776046504105540e-01,2.040782148417775721e-01,-3.965799980604880343e-02,-6.657903194427491900e-02,3.196007132530212513e-01,6.870679861605963334e-02,3.342096805572509349e-02,2.196007132530212458e-01,1.676624178886413630e-01,5.086198143800397808e-01,-6.485994458198547363e-01,-1.323408722877502441e+00,1.348452009342734925e+02,2.200987339019775529e-02
6.219040000000000123e-01,5.196305893173663523e-03,4.113675028508444187e-02,9.587181210517883301e-01,2.133008397940853312e-02,2.811678469743794651e-02,-3.564616355138682663e-02,2.090394241744313389e-02,3.324065818169308351e-02,-5.281060561537742615e-02,-1.389225310087629783e-01,3.898498685493573951e-02,-2.706640432132107615e-02,8.322354257387672150e-02,3.137277841567993053e-01,-1.273568868637085794e-02,1.709487318992614635e-01,2.137277841567992998e-01,8.726431131362914762e-02,5.089136893620870294e-01,-6.065175533294677734e-01,-1.434297680854797363e+00,1.375917156221840116e+02,2.200987339019775529e-02
6.459409999999999874e-01,5.751624570541146765e-03,4.147852455586458625e-02,9.576981663703918457e-01,1.672242617007743334e-02,2.828017061143306421e-02,-3.648588004580236716e-02,2.362121275005658882e-02,4.689805685626882020e-02,-6.806141883134841919e-02,-2.999724489735948740e-01,2.133938281820688468e-02,-2.320300821973770439e-02,-2.258631460177585870e-01,2.183293342590331976e-01,1.891262531280515913e-02,-1.785331070423126221e-01,1.183293342590331920e-01,1.189126253128051647e-01,5.283152126134544879e-01,3.679263591766357422e-01,5.448879003524780273e-01,9.473102865573588360e+01,1.089775800704955999e-01
6.729690000000000394e-01,6.950650836099950616e-03,4.230391701665387610e-02,9.555258154869079590e-01,6.440291500318769818e-03,2.343466665876836608e-02,-3.867524009042049016e-02,3.319309590671323112e-02,4.777764784260690734e-02,-5.924496799707412720e-02,-3.047266900860044481e-01,-2.020671350843376568e-01,-7.427145274601160141e-02,5.972842369060624851e-03,2.440245926380157360e-01,1.566202044486998679e-02,-1.358154416084289551e-02,1.440245926380157304e-01,1.156620204448699923e-01,5.320117886974427002e-01,5.913617610931396484e-01,-9.530705213546752930e-01,1.141590372969735938e+02,1.089775800704955999e-01
6.960840000000000360e-01,7.225831430712842396e-03,4.311402480887694538e-02,9.544165730476379395e-01,8.998587628892369336e-04,1.921030586912597649e-02,-3.971848663129162738e-02,3.372092457929646431e-02,4.795586556181087590e-02,-5.735222250223159790e-02,-3.434485446591842850e-01,-2.449384810709251126e-01,-5.360186997046183233e-02,1.025951272206467590e-01,1.847038388252258412e-01,-1.539679765701294778e-02,4.601690769195556502e-02,8.470383882522582175e-02,8.460320234298705777e-02,5.317122787798164163e-01,5.728514194488525391e-01,-9.636114835739135742e-01,-1.085446627803581237e+02,1.089775800704955999e-01
7.248630000000000351e-01,7.678530724213269466e-03,4.439890464851522361e-02,9.529225826263427734e-01,-7.235650457898268502e-03,1.134642353282599991e-02,-4.077523111640614373e-02,2.856070308704528049e-02,4.508529202304117911e-02,-5.039856210350990295e-02,-3.035722441862555021e-01,-3.137751699220859281e-01,-2.269676852126511352e-02,2.550558567047119252e-01,6.073691512675606641e-02,-6.267548799514771618e-02,1.550558567047119196e-01,-3.461676836013793945e-02,3.732451200485229631e-02,5.215350526885741411e-01,3.514802455902099609e-02,-1.235537648200988770e+00,1.110034215985359936e+02,1.089775800704955999e-01
7.464669999999999916e-01,8.219775199353795969e-03,4.577696786615562119e-02,9.514842629432678223e-01,-1.315445252369510688e-02,1.876926389887456637e-03,-4.176468166972033269e-02,3.805332334867395777e-02,5.522073047810895086e-02,-4.785311594605445862e-02,-1.647353297401492889e-01,-3.578303159181217552e-01,-4.084353609330138718e-02,2.743606805801391824e-01,-8.107025996369326970e-02,-5.234231352806092280e-02,1.743606805801391491e-01,-1.235581398010253823e-01,4.765768647193908275e-02,5.156026276427161381e-01,-2.850290536880493164e-01,-1.495410084724426270e+00,8.577874069173518023e+01,1.089775800704955999e-01
7.747680000000000122e-01,8.789773109635254725e-03,4.729948159114129302e-02,9.501419663429260254e-01,-1.599029903323733251e-02,-7.793374498369365355e-03,-4.165778059303660436e-02,3.972243783193794842e-02,6.557708959825922501e-02,-4.658199101686477661e-02,-1.180206797346194658e-01,-2.893911066427735101e-01,4.240747781655053450e-02,2.592581987380981334e-01,-2.112929168487034937e-01,-1.108166694641113392e-01,1.592581987380981279e-01,-1.912944316864013672e-01,-1.081666946411132847e-02,5.115039038917472691e-01,-5.093851685523986816e-01,1.111253499984741211e-01,1.179303877188986576e+02,1.089775800704955999e-01
7.971620000000000372e-01,9.067784383026461850e-03,4.861945260715331424e-02,9.493054747581481934e-01,-1.795692006820053671e-02,-1.342314790016363446e-02,-4.169455930594005016e-02,4.039530537292147089e-02,6.702525535499215259e-02,-3.718529269099235535e-02,-1.380235956711241829e-01,-2.985481311621688283e-01,1.093407385205826844e-02,2.857667207717895508e-01,-1.734853449888200672e-01,-1.482036590576171764e-01,1.857667207717895452e-01,-1.176625013351440402e-01,-4.820365905761718472e-02,5.127340784902635340e-01,-4.144228696823120117e-01,-1.247947573661804199e+00,1.013791181522869209e+02,1.089775800704955999e-01
8.212850000000000428e-01,9.231097762611962035e-03,5.106428947867253099e-02,9.481581449508666992e-01,-2.058741871442219817e-02,-2.124700947775792770e-02,-4.183385569638769369e-02,3.884477218286361277e-02,8.162136529713209798e-02,-2.983455732464790344e-02,-4.874832045156292371e-02,-2.943898705380201819e-01,-3.126467395291654405e-02,3.051628828048705833e-01,-2.270449042320251409e-01,-2.029206514358520563e-01,2.051628828048706055e-01,-1.270449042320251354e-01,-1.029206514358520508e-01,5.103468914694616609e-01,-5.216397047042846680e-01,-7.288345098495483398e-01,-5.396341217930314116e+01,1.089775800704955999e-01
8.486960000000000059e-01,9.290912197847493725e-03,5.368342016974263220e-02,9.475554823875427246e-01,-2.125427659469633287e-02,-2.814777289493131107e-02,-4.136219851819517707e-02,2.709399836938319178e-02,8.877051036567390474e-02,-8.930454030632972717e-03,4.037903564306477219e-03,-2.079012424832081818e-01,5.757471929987442727e-02,3.021163940429687500e-01,-2.508524417877197044e-01,-2.719366788864135964e-01,2.021163940429687444e-01,-1.508524417877197266e-01,-1.719366788864135631e-01,5.059305729820751107e-01,-6.786868572235107422e-01,-7.787120342254638672e-02,5.742619514509454604e+01,1.089775800704955999e-01
8.726239999999999553e-01,9.293705394536220729e-03,5.660318309383110397e-02,9.473301172256469727e-01,-1.821581619887682746e-02,-3.354685203823959405e-02,-4.047105613356453968e-02,2.641020547272639879e-02,9.446568932330148827e-02,1.009107939898967743e-02,1.836805461215601787e-01,-1.716654833084271803e-01,3.293809157611070348e-02,2.739389657974243275e-01,-2.951636075973510520e-01,-2.641284465789794922e-01,1.739389657974243220e-01,-1.951636075973510742e-01,-1.641284465789794866e-01,5.049515191849890394e-01,-6.585169434547424316e-01,-8.793357610702514648e-01,1.167353914820915719e+02,1.089775800704955999e-01
9.006420000000000536e-01,9.623097184931208095e-03,5.932957548333841341e-02,9.475392103195190430e-01,-1.316562574391574696e-02,-3.577035917500737128e-02,-3.925288181145852873e-02,3.078516476173308661e-02,1.060408978849264605e-01,1.156380213797092438e-02,1.835142105015337144e-01,4.027108348706941524e-03,7.231890106013574848e-02,2.044784784317016657e-01,-3.109630346298217773e-01,6.601843833923337623e-02,1.044784784317016602e-01,-2.109630346298217718e-01,1.660184383392333818e-01,5.058946702757715075e-01,-6.046909093856811523e-01,-8.010960817337036133e-01,1.065808604505744057e+02,1.089775800704955999e-01
9.239760000000000195e-01,9.963213567458684486e-03,6.124682103147038870e-02,9.477865099906921387e-01,-8.811079057050332647e-03,-3.509470859015650923e-02,-3.821715258376937041e-02,1.383380437153202032e-02,9.936622383195570229e-02,2.482691965997219086e-02,2.220782492445571854e-01,6.619246752103676024e-02,5.889373477543397711e-02,2.433574199676515060e-02,-3.146597623825073131e-01,9.620600342750548761e-02,-7.566425800323485495e-02,-2.146597623825073076e-01,1.962060034275054932e-01,5.058169767410415352e-01,-5.564257502555847168e-01,-1.227841258049011230e+00,4.269367859595755732e+01,1.089775800704955999e-01
9.475270000000000081e-01,1.033158126394616294e-02,6.418046084865758338e-02,9.482271075248718262e-01,-1.306123352883950322e-03,-3.181073621337082713e-02,-3.560370379537747959e-02,1.793886837480586013e-02,1.064663849687852576e-01,3.964984416961669922e-02,3.594876230612476520e-01,1.007776963201596349e-01,1.326383890931912279e-01,-9.377846121788024902e-02,-2.954208850860595703e-01,1.148345313197233764e-01,-1.937784612178802546e-01,-1.954208850860595648e-01,2.138124883174896129e-01,5.146224605541118713e-01,-2.914053201675415039e-02,-1.055020928382873535e+00,7.894045091736680320e+01,1.089775800704955999e-01
9.759470000000000089e-01,1.059026233083297519e-02,6.724855912781418921e-02,9.489527344703674316e-01,6.834159581058553076e-03,-2.643970669739181822e-02,-3.222506550615709259e-02,1.896903990371995655e-02,1.189411947430356331e-01,1.940818503499031067e-02,3.456292213102118427e-01,2.086849524032642345e-01,1.692896367158880921e-01,-1.318711976690900289e-01,-3.052543282508849987e-01,1.207749940297001834e-01,-2.210048854351043535e-01,-2.052543282508849931e-01,2.101069450378418024e-01,5.210273445450065433e-01,2.359939813613891602e-01,-1.158913731575012207e+00,6.191724943005303317e+01,1.089775800704955999e-01
9.984589999999999854e-01,1.089958346445253461e-02,7.056148522106131526e-02,9.498854279518127441e-01,1.582769164788221106e-02,-2.020812065586108375e-02,-2.785059122434031809e-02,1.908945631720911085e-02,1.255429172302292840e-01,4.516428336501121521e-02,3.790335000823467082e-01,2.407689232283795056e-01,1.645029718996820767e-01,-1.872514912807472232e-01,-2.324646115303039551e-01,1.245476680502890232e-01,-2.244697272777557429e-01,-1.324646115303039495e-01,2.016316473484039140e-01,5.028837691658689657e-01,-6.262641549110412598e-01,-8.525677919387817383e-01,-1.409761716861209990e+01,1.089775800704955999e-01
1.022588000000000052e+00,1.123438949560684116e-02,7.256503202794886698e-02,9.505954384803771973e-01,2.176806283162015243e-02,-1.535527579137441201e-02,-2.519345005675563062e-02,4.539077691999686588e-03,1.089778662003658555e-01,3.919281437993049622e-02,3.564627062547962022e-01,2.445210112131681046e-01,1.278542208735255759e-01,-2.385972806106340105e-01,-3.287319378731960728e-02,1.402155398923913832e-01,-2.242178678512573298e-01,5.990495681762694757e-02,2.099447250366210938e-01,5.027171153397695935e-01,-6.555479168891906738e-01,-1.166463494300842285e+00,9.013340292915768259e+01,1.089775800704955999e-01
1.049589000000000105e+00,1.186845682921059374e-02,7.589021435938229920e-02,9.515433311462402344e-01,3.001559890818930251e-02,-7.223736558738647062e-03,-2.358962057300710916e-02,1.969982729276026009e-02,1.131634221103216403e-01,3.417981415987014771e-02,3.096685892428148734e-01,3.011205686241590351e-01,3.778222244944565156e-02,-2.852988418530411630e-01,1.726858284219081330e-01,1.585929618667352992e-01,-2.256374716758727805e-01,1.981144666671752763e-01,2.243815004825591986e-01,5.020426663180707072e-01,-7.083212137222290039e-01,-1.206447958946228027e+00,1.096387907835024720e+02,1.089775800704955999e-01
1.072127999999999970e+00,1.257981867880146425e-02,7.906796486071678010e-02,9.524652361869812012e-01,3.572081302012109633e-02,1.644854660255434808e-03,-2.317662928736338376e-02,2.978323363533375012e-02,1.226453823814340344e-01,3.190830722451210022e-02,1.570634772266449042e-01,3.538436831027590435e-01,-1.935811226530336285e-02,-3.129318384492646987e-01,2.593048168874395043e-01,1.598083903893301738e-01,-2.256063044071197343e-01,2.209812641143798773e-01,2.252009153366088812e-01,5.025942441296030738e-01,-6.861059069633483887e-01,2.961500883102416992e-01,-5.113295105139859231e+01,1.089775800704955999e-01
1.094811999999999896e+00,1.310812041643131913e-02,8.125718145707190587e-02,9.530208110809326172e-01,3.754914079602087590e-02,7.557208744009669132e-03,-2.289830282921331839e-02,1.808393948145540359e-02,1.117679757772176291e-01,3.588881716132164001e-02,1.006608627801492684e-01,2.921870727386858269e-01,1.668473151487659401e-02,-3.248877048492431752e-01,2.936684198189781769e-01,1.600931593370408801e-01,-2.248877048492431696e-01,2.271458923816680742e-01,2.250656247138976829e-01,5.016330715680575869e-01,-7.186256051063537598e-01,-8.546057939529418945e-01,7.876891754655109423e+01,1.089775800704955999e-01
1.124821999999999989e+00,1.374130966114465481e-02,8.596591215955905196e-02,9.539000391960144043e-01,3.717953995978729581e-02,1.682973762361172909e-02,-2.286364463223375387e-02,3.259197909960907802e-02,1.199557953168633173e-01,2.298988215625286102e-02,-3.280415840023593460e-02,3.388843230839338472e-01,5.155460905154961998e-03,-3.108381393876318288e-01,3.256492733955382857e-01,1.436964912638882541e-01,-2.171241044998168945e-01,2.256492733955383079e-01,2.095460951328277643e-01,5.028490347658728377e-01,-7.042572498321533203e-01,-7.580188512802124023e-01,1.057877388841525175e+02,1.089775800704955999e-01
1.152153999999999900e+00,1.447310868402352201e-02,9.062152015540599070e-02,9.545705914497375488e-01,3.421359637138113308e-02,2.546014312371180921e-02,-2.322123000329021081e-02,2.923788817436100834e-02,1.224726555252177440e-01,1.324180141091346741e-02,-1.120244506190685718e-01,3.077291964219151521e-01,-7.952919988327854586e-03,-2.444636550920776252e-01,3.258305370807647594e-01,1.392907024118345272e-01,-1.738270103931426891e-01,2.258305370807647539e-01,2.067116618156432939e-01,5.036257190996853428e-01,-7.010849714279174805e-01,-1.335884213447570801e+00,9.058790420709784996e+01,1.089775800704955999e-01
1.175362999999999936e+00,1.504924638399354926e-02,9.374465558474345817e-02,9.550311565399169922e-01,3.146969804588596598e-02,2.963711504225496896e-02,-2.362270141588636990e-02,2.903995750027544773e-02,1.184414671614945763e-01,2.370781823992729187e-02,-1.572220595621638406e-01,2.144564482278575324e-01,-3.355752706342739200e-02,2.992892716205813874e-02,3.252744257450103649e-01,1.094853780109460439e-01,8.337868452072143277e-02,2.252744257450103593e-01,1.782427310943603405e-01,5.025940250775544627e-01,-7.132082581520080566e-01,-1.207211852073669434e+00,4.934199519629849817e+00,1.089775800704955999e-01
1.201402000000000081e+00,1.631484879041601721e-02,9.995400362886693035e-02,9.556612372398376465e-01,2.406373653208709190e-02,3.263516350925077525e-02,-2.463923059290358195e-02,2.870748502180345621e-02,1.221937722434717488e-01,1.584059000015258789e-02,-2.354355899569830490e-01,-4.152992587415928888e-02,3.125027574852494872e-03,1.949504697549518661e-01,3.196007132530212513e-01,3.289307509205366409e-02,1.924374461174011286e-01,2.196007132530212458e-01,1.044118344783782903e-01,5.062941571453866141e-01,-5.487811565399169922e-01,-4.793461561203002930e-01,7.000484910550845541e+01,1.089775800704955999e-01
1.224502999999999897e+00,1.685606562204997397e-02,1.044970973667076058e-01,9.561084508895874023e-01,1.658557942837241006e-02,2.959623415892664866e-02,-2.571731683642208832e-02,4.491289433683706006e-02,1.220780418969117515e-01,4.239577334374189377e-03,-3.084023747064503773e-01,-1.577512964693247866e-01,-2.446812306563193266e-03,2.583968276634910355e-01,3.158201575279235840e-01,-2.429129002912124718e-02,2.043880105018615612e-01,2.158201575279235784e-01,4.982333779335022111e-02,5.080663069766830908e-01,-5.014567971229553223e-01,-7.936111688613891602e-01,-2.689099776237921802e+01,1.089775800704955999e-01
1.246857000000000104e+00,1.730064664348526793e-02,1.075703633386072833e-01,9.563914537429809570e-01,1.131659765619474553e-02,2.534283064543774167e-02,-2.657437326354399401e-02,4.832366533030252320e-02,1.305594221864611881e-01,4.481557756662368774e-03,-3.156984863398135110e-01,-2.459138826350540374e-01,-2.909134703329799634e-02,3.021235093655168513e-01,3.007438540458678977e-01,-4.351836731878873377e-02,2.042348027229309027e-01,2.007438540458679199e-01,3.258721232414245328e-02,5.073011246636329741e-01,-5.425485372543334961e-01,-1.282206892967224121e+00,9.464457895141103450e+01,1.089775800704955999e-01
1.270199999999999996e+00,1.806417933348304986e-02,1.121837635296542290e-01,9.565771222114562988e-01,2.305176598406784554e-03,1.782991907488629124e-02,-2.744551560919323077e-02,4.761495471515977962e-02,1.363286097112818007e-01,-1.592791988514363766e-03,-3.464664646298852846e-01,-2.956414699973194948e-01,-7.554939081780284726e-02,3.127781033515930065e-01,2.382200956344604492e-01,-9.118241666205070817e-02,2.127781033515930009e-01,1.382200956344604437e-01,-1.330837011337280239e-02,5.098676961255590445e-01,-4.324663877487182617e-01,-1.325055718421936035e+00,5.518791824841927252e+01,1.089775800704955999e-01
1.297403000000000084e+00,1.891019962679671776e-02,1.168201511043449048e-01,9.565781950950622559e-01,-6.273141086993393699e-03,8.447422475998722646e-03,-2.800919613492806534e-02,3.874980854341225633e-02,1.364526396129083774e-01,1.775342738255858421e-03,-2.563114979658588921e-01,-3.665205848890277784e-01,2.533839430756362407e-02,3.126391649246215709e-01,2.228682991301648986e-02,-1.102716184278806355e-01,2.126391649246215654e-01,-6.869620084762573242e-02,-3.140956163406372070e-02,5.072971362090931136e-01,-5.576744675636291504e-01,-9.848588705062866211e-01,8.631598288128087404e+01,1.089775800704955999e-01
1.320923000000000069e+00,1.925469690197489925e-02,1.198820196411429784e-01,9.565290808677673340e-01,-1.079043644733682257e-02,1.782679046605784023e-03,-2.831225784517441349e-02,5.391895754199829000e-02,1.481765889672507219e-01,-1.466666907072067261e-02,-2.707650817668343923e-01,-3.501625641164510250e-01,6.471086818566486321e-03,3.160724639892578125e-01,-5.451944837458836540e-02,-1.220919434377468193e-01,2.160724639892578069e-01,-1.156601428985595675e-01,-4.255789518356323242e-02,5.083197474157419293e-01,-5.727635025978088379e-01,-1.483317971229553223e+00,1.086633714681329508e+02,1.089775800704955999e-01
1.348603999999999914e+00,2.008347048452862812e-02,1.260581261918531371e-01,9.564709663391113281e-01,-1.262468367957119211e-02,-1.263758959315497421e-02,-2.764032006491173518e-02,4.717915921490630632e-02,1.419900710561645685e-01,3.992032725363969803e-03,3.185781332991823294e-03,-4.048246280264751751e-01,1.558933144616482004e-02,3.023460626602172963e-01,-2.117278300741520791e-01,-1.676151594250733234e-01,2.023460626602172907e-01,-1.727593660354614091e-01,-9.035747051239013949e-02,5.055634388148173564e-01,-6.468036770820617676e-01,-1.482318639755249023e-01,6.742193793878725216e+01,1.089775800704955999e-01
1.371863000000000055e+00,2.048269794533933916e-02,1.291150757477724786e-01,9.565722942352294922e-01,-1.045458615287473206e-02,-1.985779086425409901e-02,-2.650208796417118443e-02,5.542640538663101690e-02,1.523969822096023219e-01,1.185316126793622971e-03,1.411393100077732721e-01,-4.195625796930325113e-01,9.210787962839658838e-02,3.026763677597045787e-01,-2.726194598398825608e-01,-2.172684867276543086e-01,2.026763677597045732e-01,-1.945507764816284124e-01,-1.434079885482787975e-01,5.068173214887548017e-01,-5.945290923118591309e-01,-9.929810762405395508e-01,7.559320060138615816e+01,1.089775800704955999e-01
1.398789999999999978e+00,2.115630628445794303e-02,1.350811963704080521e-01,9.567934274673461914e-01,-2.132930926332810700e-03,-3.298915122434165070e-02,-2.396234764034129924e-02,4.497115276484286300e-02,1.512341269339661232e-01,3.995501901954412460e-03,2.959788159170879118e-01,-3.532169865867641478e-01,6.753688186450000630e-02,2.757961630821227916e-01,-2.163708925247192494e-01,-1.341650514914909387e-01,1.757961630821227861e-01,-1.163708925247192300e-01,-6.816308498382568637e-02,5.073208378163571730e-01,-5.578889250755310059e-01,-1.053396344184875488e+00,7.272162514977271996e+01,1.089775800704955999e-01
1.423102000000000089e+00,2.150913552946136925e-02,1.382945968746859267e-01,9.568586945533752441e-01,2.957337419582520190e-03,-3.818918395649228970e-02,-2.229284841852544052e-02,2.864221062771482237e-02,1.510821384631918229e-01,5.521527491509914398e-03,2.955457416600416054e-01,-2.569075244098007471e-01,6.790657037089962988e-02,1.190712928771972684e-01,-2.705582022666931374e-01,-7.717784030824169361e-02,1.907129287719726632e-02,-1.705582022666931041e-01,-1.639498472213745187e-02,5.102419377456630656e-01,-3.986176252365112305e-01,2.018355131149291992e-01,-3.854177393914147132e+01,1.100987672805786161e-01
1.450342000000000020e+00,2.188058528919003751e-02,1.429899144350517404e-01,9.569566249847412109e-01,1.137831106402765156e-02,-4.399043986165684927e-02,-1.951072798938826083e-02,2.294820523372414003e-02,1.545116952466714655e-01,3.317799186334013939e-03,3.036036143333764037e-01,-1.998365770754327864e-01,1.537912967500501271e-01,-1.060097813606262207e-01,-3.132041811943054310e-01,6.540357776717312110e-02,-2.060097813606262263e-01,-2.132041811943054255e-01,1.175792455673217718e-01,5.101260185105911393e-01,-4.156553745269775391e-01,-1.311658501625061035e+00,6.252355166229672534e+01,1.100987672805786161e-01
1.475052000000000030e+00,2.217256782389578212e-02,1.476813327321750413e-01,9.569675922393798828e-01,1.992982678823883996e-02,-4.579768312091769822e-02,-1.641138509541064175e-02,3.421814638546676057e-02,1.579055910210577784e-01,-2.408972010016441345e-03,3.345988233047103577e-01,-2.122308654414624754e-02,1.445019672894935769e-01,-1.230465365518154386e-01,-3.142398357391357200e-01,1.820686712458435830e-01,-2.165782749652862549e-01,-2.142398357391357422e-01,2.250300943851470947e-01,5.161216243727106967e-01,-1.210978627204895020e-01,-1.385851025581359863e+00,8.225207496663665552e+01,1.100987672805786161e-01
1.497529000000000110e+00,2.231253913531291294e-02,1.509311972244124778e-01,9.570147395133972168e-01,2.565009130237307436e-02,-4.475359876090778677e-02,-1.397111971886904822e-02,1.909211651315777941e-02,1.605228214021006128e-01,3.127549076452851295e-03,3.312865553337720481e-01,1.102291756950087437e-01,1.265878179264333103e-01,-1.582287654808396393e-01,-3.124336719512939564e-01,1.922532624539669277e-01,-2.191264271736144964e-01,-2.124336719512939509e-01,2.279445469379424993e-01,5.196256498103866139e-01,8.714938163757324219e-02,-1.649425506591796875e+00,1.246586021646031242e+02,1.100987672805786161e-01
1.520259999999999945e+00,2.265103730329634524e-02,1.558292130389331842e-01,9.571281075477600098e-01,3.392925144760207401e-02,-4.012562625583004916e-02,-9.897162051747102410e-03,1.333163012875530039e-02,1.498185854013082408e-01,-6.586619419977068901e-04,2.888415305618410867e-01,1.792354877473002484e-01,1.747999029667355042e-01,-2.243211744691514797e-01,-3.058429479598999134e-01,2.040630167105898507e-01,-2.260100841522216797e-01,-2.058429479598999079e-01,2.283421933650970348e-01,5.155931107893945153e-01,-1.458157300949096680e-01,-1.332762837409973145e+00,7.885107789207718554e+01,1.100987672805786161e-01
1.549612999999999907e+00,2.299414792553836767e-02,1.609584976312637417e-01,9.573107361793518066e-01,4.234396040098831887e-02,-3.374892667696260951e-02,-6.319577866805571598e-03,2.153223098327595661e-02,1.516314909880540907e-01,-6.902104243636131287e-03,3.335131361334190969e-01,2.256484640807663034e-01,1.474691158593216811e-01,-2.737503523224043556e-01,-7.917515039443970282e-02,2.129216224293951076e-01,-2.273265480995178001e-01,2.082484960556030273e-02,2.275334894657135010e-01,5.060585556680897712e-01,-6.803392171859741211e-01,-1.322116017341613770e+00,5.397260902902056756e+01,1.100987672805786161e-01
1.572090999999999905e+00,2.317005968119602993e-02,1.640075258299351357e-01,9.573813080787658691e-01,4.686179821218982439e-02,-2.902816211765091303e-02,-4.537093334757878391e-03,1.669236808720162696e-02,1.545027314061084012e-01,-1.200484111905097961e-02,2.345028625480469475e-01,2.860383549620054144e-01,5.388964955284331060e-02,-2.980321716166214330e-01,5.332665443420409046e-02,2.170582044149257372e-01,-2.267558634281158225e-01,1.533266544342040960e-01,2.269366085529327393e-01,5.059904368669434493e-01,-7.069552540779113770e-01,-1.249382138252258301e+00,2.345216143981787837e+01,1.100987672805786161e-01
1.599364000000000008e+00,2.350092205495359424e-02,1.703966165100353480e-01,9.571996331214904785e-01,5.104766867163371830e-02,-1.771438391074076080e-02,-3.028962690345545546e-03,3.323419123120530030e-03,1.457780335404819383e-01,-2.048712223768234253e-02,3.904266011142395326e-02,3.351952233075581322e-01,6.143492754185055950e-03,-3.237244486808776855e-01,1.144037404699860538e-01,1.974813964453875081e-01,-2.237244486808776800e-01,2.091201961040496660e-01,2.042035818099975641e-01,5.083856647304462184e-01,-6.172416210174560547e-01,-1.545624375343322754e+00,1.046169829887098075e+02,1.100987672805786161e-01
1.621439000000000075e+00,2.350063124634549708e-02,1.738384613149580871e-01,9.569301009178161621e-01,5.061472410587133236e-02,-1.179189306578365404e-02,-3.114494804704426561e-03,1.861626991298504646e-02,1.531832264261349108e-01,-2.626226097345352173e-02,-5.553462320129663732e-02,3.273750641009498530e-01,1.610647218380130419e-02,-3.048711234038061213e-01,1.534067655415304876e-01,1.653747233731203692e-01,-2.162153720855712891e-01,1.956338524818420355e-01,1.733050525188445934e-01,5.089318510283871166e-01,-6.168096661567687988e-01,-1.336346030235290527e+00,1.525399671113504212e+02,1.100987672805786161e-01
1.645758999999999972e+00,2.340391767771108147e-02,1.774879335900750865e-01,9.568244218826293945e-01,4.915387094597049866e-02,-5.564969247282558484e-03,-3.322806804527109626e-03,1.387611928050452685e-02,1.479139994132205593e-01,-2.620254084467887878e-02,-7.006241887938469137e-02,3.281734034597610927e-01,2.388931997277855129e-02,-2.968745569731138234e-01,1.996954412097703691e-01,1.715986818095667499e-01,-2.157867014408111628e-01,2.073825359344482477e-01,1.807674229145050104e-01,5.086504046088705655e-01,-6.351172924041748047e-01,-1.591191291809082031e+00,1.269695556891419130e+02,1.100987672805786161e-01
1.673084999999999933e+00,2.323581936841929638e-02,1.844954968355410341e-01,9.564376473426818848e-01,4.413394253870728257e-02,6.242707023893068197e-03,-5.036976753572043608e-03,1.145237700083355688e-02,1.431113214045038329e-01,-2.652433887124061584e-02,-1.881256149105346998e-01,3.201480812268992504e-01,-8.235555479740715168e-02,-2.213568847811388240e-01,2.864794978528516500e-01,1.598733430744556927e-01,-1.751877844333648571e-01,2.191036462783813310e-01,1.751655578613281194e-01,5.079145871422995340e-01,-6.806491017341613770e-01,-1.644252777099609375e+00,1.534915763872732839e+02,1.100987672805786161e-01
1.695791999999999966e+00,2.316407121822153248e-02,1.879079550438221835e-01,9.562826156616210938e-01,4.064905042558511483e-02,1.076756548287272075e-02,-6.008617766012564095e-03,1.126174638895183905e-02,1.402789363717846238e-01,-2.609996311366558075e-02,-2.066732565683052081e-01,2.235045377637352726e-01,-8.101384822811921738e-02,-1.028329701246401412e-01,3.159132040844524481e-01,1.367181574911709441e-01,-8.095568418502807617e-02,2.190983355045318659e-01,1.551800072193145752e-01,5.078549564867237409e-01,-6.864113211631774902e-01,7.544624805450439453e-02,-1.256366340273301629e+00,1.100987672805786161e-01
1.723961999999999994e+00,2.260592969248501061e-02,1.943523371552369483e-01,9.559504985809326172e-01,3.154714782713577415e-02,1.468647649193166593e-02,-7.911101733982467063e-03,1.065517433541736392e-02,1.403766598285626221e-01,-2.008294500410556793e-02,-2.990612340083849685e-01,1.931855626735740419e-02,-5.087113849251864717e-02,2.042281998851138425e-01,2.582955002784729226e-01,1.533463711607937763e-01,1.611316680908203014e-01,1.582955002784728893e-01,1.773333191871643011e-01,5.112307487326160915e-01,-4.884814023971557617e-01,-7.795444726943969727e-01,8.944802759689275717e+01,1.100987672805786161e-01
1.748218999999999967e+00,2.211971442952727351e-02,1.975854444065587301e-01,9.558240175247192383e-01,2.640776724935231176e-02,1.434875414627612145e-02,-8.823020683058723293e-03,1.236543051560394339e-02,1.408294232641283117e-01,-2.798357792198657990e-02,-2.968268550839513464e-01,-3.059468039413232657e-02,-2.814569031634136555e-03,2.620634908718788569e-01,2.272926688194275013e-01,1.441328054529803782e-01,1.825472831726074052e-01,1.272926688194274958e-01,1.705355465412139726e-01,5.156568506866121560e-01,-2.877178192138671875e-01,4.507386684417724609e-02,1.401064819915559667e+02,1.100987672805786161e-01
1.775355000000000016e+00,2.142208758843291982e-02,2.022870358293900883e-01,9.556081295013427734e-01,1.805520372948339267e-02,1.181757303216546262e-02,-1.052185350104380829e-02,1.389671705169832905e-02,1.379101849248100808e-01,-3.036320954561233521e-02,-3.581011280175299127e-01,-1.119788955568838534e-01,-4.964567582783342009e-02,3.048923730850219838e-01,1.667793869972228893e-01,1.046386273396359978e-01,2.048923730850219782e-01,6.677938699722289762e-02,1.353917241096496415e-01,5.178812925805129641e-01,-1.824635863304138184e-01,-1.143706917762756348e+00,6.601575225284337023e+01,1.100987672805786161e-01
1.797800000000000065e+00,2.100577743393960625e-02,2.055079193109200508e-01,9.556165933609008789e-01,1.228169386044032120e-02,9.040076601039226389e-03,-1.128994158381914706e-02,1.552851691355575624e-02,1.384126174746247995e-01,-2.173446118831634521e-02,-3.332614603828805144e-01,-1.807498543515874689e-01,-6.392589563225917204e-02,3.082528591156005748e-01,9.244274482929573655e-02,6.567875059925523673e-02,2.082528591156005693e-01,5.647158622741698698e-03,9.827672839164733332e-02,5.145482352086461209e-01,-3.309177160263061523e-01,-1.232163071632385254e+00,1.206978437668044251e+02,1.100987672805786161e-01
1.821077000000000057e+00,2.044007542592925566e-02,2.101723259723969894e-01,9.555231928825378418e-01,4.504453412161966291e-03,3.002792442807766804e-03,-1.251925496867265647e-02,6.657147439433994812e-03,1.390663285196702958e-01,-2.308746427297592163e-02,-2.204620215128585137e-01,-2.579771889076590274e-01,-5.549029204804611232e-02,3.064682960510253795e-01,-9.503474876038367491e-02,3.932109073000147892e-02,2.064682960510253740e-01,-1.349639654159545954e-01,7.477646470069884699e-02,5.102365334193481594e-01,-5.703816413879394531e-01,-7.397011518478393555e-01,8.008395435802115969e+01,1.100987672805786161e-01
1.848683000000000076e+00,1.929690264321641882e-02,2.147308688048264191e-01,9.554741382598876953e-01,-1.243208296439376722e-03,-4.846227151881432604e-03,-1.373858177457360809e-02,1.001867460546303559e-02,1.483378387897896222e-01,-2.379247546195983887e-02,-2.042450543322529288e-01,-2.787447237921187870e-01,-3.184589031593602210e-02,3.101717114448547252e-01,-1.537015305663858300e-01,3.949344393575757173e-02,2.101717114448547197e-01,-1.456790328025817927e-01,7.790830135345458429e-02,5.107008426121159017e-01,-5.533997416496276855e-01,-1.082255482673645020e+00,1.010708990358009203e+02,1.100987672805786161e-01
1.871324999999999905e+00,1.857160851468196705e-02,2.177846203099475519e-01,9.554654955863952637e-01,-2.880991089836403788e-03,-1.070490443150284854e-02,-1.455232857784462784e-02,-3.764352033566668431e-03,1.410891203996142984e-01,-2.031832002103328705e-02,-6.556820170494094546e-02,-3.056230503274732779e-01,-5.536771323930933519e-02,2.935065746307373158e-01,-2.429745377964039332e-01,9.231408918188868662e-02,1.935065746307373102e-01,-1.850960254669189453e-01,1.325973629951477106e-01,5.121848645569404557e-01,-4.633685350418090820e-01,-1.062048554420471191e+00,7.976258029719372189e+01,1.100987672805786161e-01
1.898630999999999958e+00,1.720988616276146119e-02,2.237691190264405050e-01,9.555419683456420898e-01,-8.775234292031362825e-05,-2.209105831893865002e-02,-1.589292770778018629e-02,1.696461396095580833e-03,1.402110660100188144e-01,-2.712926594540476799e-03,1.788606655715100913e-01,-3.341372645970088762e-01,-1.246578740950374242e-02,2.916620016098022683e-01,-2.815979242324829213e-01,-5.513566179243815230e-02,1.916620016098022350e-01,-1.815979242324829157e-01,-1.177057027816772426e-02,5.132421841486389802e-01,-3.401786088943481445e-01,-4.722052812576293945e-01,1.014484650629300546e+02,1.100987672805786161e-01
1.922110999999999903e+00,1.651038837952161636e-02,2.267392822613116532e-01,9.556480050086975098e-01,4.086278005827642668e-03,-2.643007961752785739e-02,-1.646204998787263035e-02,1.190361451405822250e-03,1.404157988158379611e-01,-3.630808787420392036e-03,2.078709878258375721e-01,-2.391061992641604628e-01,3.184399804944078056e-03,1.166639208793640164e-01,-2.771159172058105247e-01,-3.968773930850712922e-02,1.666392087936401437e-02,-1.771159172058105469e-01,4.841709136962890278e-03,5.147870180433249399e-01,-2.635712623596191406e-01,-1.164368987083435059e+00,9.570564883897250752e+01,1.100987672805786161e-01
1.948873000000000077e+00,1.559975674224251332e-02,2.316706907692787365e-01,9.558343291282653809e-01,1.449871354858400276e-02,-3.228674467748104959e-02,-1.718750177931796866e-02,-1.195235647694522368e-02,1.434662270365038572e-01,-3.861305071040987968e-03,3.077609542083770688e-01,-9.017695371658603076e-02,-3.328033237361533586e-02,-1.063181459903717041e-01,-3.038188815116882324e-01,2.483597222828907991e-02,-2.063181459903717097e-01,-2.038188815116882269e-01,7.039554119110107144e-02,5.211767506356099755e-01,7.678306102752685547e-02,-6.155277490615844727e-01,6.059601763700576527e+01,1.100987672805786161e-01
1.972949000000000064e+00,1.512176438014703819e-02,2.339852567396431826e-01,9.558694958686828613e-01,2.008710659715365679e-02,-3.302382134533132785e-02,-1.725084599408112374e-02,-6.263411132639503526e-03,1.435407472836131293e-01,2.780309878289699554e-04,3.358061317710429039e-01,3.330840905855272363e-04,-4.505006644513286258e-03,-1.138839066028594915e-01,-3.048664808273315319e-01,1.509001418939844019e-01,-2.138839066028594971e-01,-2.048664808273315263e-01,1.963901460170745794e-01,5.106133928247996723e-01,-4.756276607513427734e-01,-6.531249284744262695e-01,5.431463075170895394e+01,1.100987672805786161e-01
1.999578999999999995e+00,1.444727308483261669e-02,2.377466447526619397e-01,9.558134675025939941e-01,2.859928058487247807e-02,-3.115673361237281114e-02,-1.760094484016546182e-02,-7.605841917647493053e-03,1.448288783872455354e-01,-8.752645924687385559e-03,3.183386761325407988e-01,1.311318646429190382e-01,8.839711083948487147e-03,-1.208408057689666637e-01,-2.939951658248901589e-01,1.694475714973060210e-01,-2.208408057689666693e-01,-1.939951658248901256e-01,2.156716525554656927e-01,5.080689853729085659e-01,-6.497717499732971191e-01,-1.220518350601196289e-01,-2.487187773050755779e-01,1.100987672805786161e-01
2.023320000000000007e+00,1.398663848915830676e-02,2.401686594826262233e-01,9.557584524154663086e-01,3.451030222914780454e-02,-2.834372286045394596e-02,-1.769764117360095659e-02,-5.305605159187811067e-03,1.371506262189418901e-01,-1.358292251825332642e-02,3.227230708481429455e-01,1.876695713928670795e-01,7.752647572437403045e-02,-1.601326761041736990e-01,-2.275879621505737249e-01,1.760597032014859509e-01,-2.245588123798370195e-01,-1.275879621505737194e-01,2.226710915565490723e-01,5.075989695789666634e-01,-6.964170932769775391e-01,-9.441567659378051758e-01,6.692892805430656722e+01,1.100987672805786161e-01
2.045967000000000091e+00,1.344882904697634711e-02,2.432697224942560743e-01,9.556269049644470215e-01,4.321584031458199082e-02,-2.188583286662826310e-02,-1.715309757327133575e-02,-7.331577349233091810e-03,1.382911891855362896e-01,-8.899304084479808807e-03,3.028033926551425559e-01,2.718821761190851616e-01,1.467756450191793748e-03,-2.130834295147217838e-01,9.304478764533996582e-02,1.804226658886362022e-01,-2.261621832847595104e-01,1.930447876453399714e-01,2.259085178375244141e-01,5.068786294118750035e-01,-7.198736667633056641e-01,-1.407705426216125488e+00,9.218132586875928780e+01,1.100987672805786161e-01
2.074412000000000145e+00,1.293541890157728740e-02,2.461542968335840853e-01,9.555786252021789551e-01,4.983443545290591747e-02,-1.384367820040122155e-02,-1.599129194044615274e-02,-1.958840532975706511e-02,1.297501135370686953e-01,-1.150480005890130997e-02,2.377158842055933918e-01,3.038642534053750954e-01,3.017235596373147796e-02,-2.611958248837477070e-01,1.310714308660720362e-01,1.832481607361282072e-01,-2.268697142601013017e-01,2.241995215415954479e-01,2.261757016181945579e-01,5.074571824834526179e-01,-7.020231485366821289e-01,-8.459347486495971680e-01,-4.555463310341163208e+01,1.100987672805786161e-01
2.096818999999999988e+00,1.246292819180853419e-02,2.489450400086548332e-01,9.554935693740844727e-01,5.302930772795942660e-02,-5.167217686159464307e-03,-1.554770569880176319e-02,-8.910790483245644919e-03,1.289667091468371940e-01,-9.617171250283718109e-03,4.537147030951522303e-02,3.167786593203549272e-01,2.958972659120116463e-02,-2.771715077959684970e-01,1.982624960590532726e-01,1.775829442560140081e-01,-2.256794571876525879e-01,2.251552641391754150e-01,2.205951511859893799e-01,5.079605898874277603e-01,-6.714336872100830078e-01,-1.280292868614196777e+00,8.443507855745359336e+01,1.100987672805786161e-01
2.124471000000000220e+00,1.217545574851464085e-02,2.516806367768054664e-01,9.550551772117614746e-01,5.232747627583356209e-02,4.462056072796372064e-03,-1.648317408586045044e-02,-5.384522420517292088e-03,1.186073522058652963e-01,-2.426587603986263275e-02,-6.752905842097160771e-02,3.381683901142119586e-01,-4.589779467354265091e-02,-2.727816669677642913e-01,2.577889480575540904e-01,1.526026604026030908e-01,-2.195833325386047363e-01,2.213057041168212946e-01,1.995624840259551946e-01,5.095908945825460279e-01,-6.473225951194763184e-01,-1.446447968482971191e+00,9.480273198164267967e+01,1.100987672805786161e-01
2.147908999999999846e+00,1.176954999411785642e-02,2.539181271461897205e-01,9.547700285911560059e-01,5.063587574328596436e-02,1.045296006155727042e-02,-1.737066165647090446e-02,-4.874496094732675561e-03,1.213049467999921804e-01,-1.920558512210845947e-02,-1.180856457493308642e-01,3.381232500418169251e-01,-7.983211900275809236e-02,-2.493727967328696060e-01,2.963504237965191579e-01,1.367380449494006722e-01,-2.135318756103515569e-01,2.216008007526397705e-01,1.869705319404602051e-01,5.091953176410930482e-01,-6.534790992736816406e-01,-1.408313870429992676e+00,1.009289881954155703e+02,1.100987672805786161e-01
2.173182000000000169e+00,1.123946710007911291e-02,2.567868098588082515e-01,9.543679356575012207e-01,4.705153929893095971e-02,1.838594381771008202e-02,-1.867426566661247248e-02,-1.395719431053780123e-02,1.079414807381602059e-01,-1.588780246675014496e-02,-1.208320864441027320e-01,2.594455637883616994e-01,-7.899235304841349670e-02,-2.098062371753290356e-01,3.223788022994995006e-01,1.253399837829139996e-01,-1.892315804958343561e-01,2.223788022994994951e-01,1.800029754638671764e-01,5.090670055542226846e-01,-6.508520245552062988e-01,-1.182906985282897949e+00,9.673941163023228285e+01,1.100987672805786161e-01
2.201051999999999786e+00,1.077559222606503352e-02,2.594704051183919224e-01,9.539452195167541504e-01,4.304878497868392523e-02,2.263786664301803420e-02,-2.045674125645890323e-02,-2.469177103478686040e-03,1.066831361527465633e-01,-1.801749132573604584e-02,-1.619235619175570795e-01,7.780326794229347476e-02,-4.364489235515750520e-02,1.417068474167972325e-01,3.158875167369842307e-01,1.263603489103637401e-01,1.326398849487304688e-01,2.158875167369842529e-01,1.866311609745025524e-01,5.092302896130803669e-01,-6.559724211692810059e-01,-1.310700058937072754e+00,9.897457054555144396e+01,1.100987672805786161e-01
2.221675999999999984e+00,1.045282090878064951e-02,2.612784740465337041e-01,9.535806775093078613e-01,3.928599570769421984e-02,2.334641436798867709e-02,-2.168698666182168611e-02,-4.734308501370838515e-03,1.094026390737290882e-01,-2.691099978983402252e-02,-2.442481971493139503e-01,1.219367724200876892e-02,-1.321331894497705314e-02,1.680822015601216579e-01,2.918609857559203991e-01,1.330789814672954929e-01,1.306336283683776911e-01,1.918609857559203935e-01,1.967030704021453802e-01,5.136448533333317634e-01,-4.616234898567199707e-01,-1.166157603263854980e+00,9.926663626465035861e+01,1.100987672805786161e-01
2.250086000000000030e+00,9.757059847834179817e-03,2.638336120445306521e-01,9.527330398559570312e-01,3.054585200235059028e-02,1.995303623504618429e-02,-2.442816005506994598e-02,3.626506135889003436e-03,1.030066841719264326e-01,-2.365911938250064850e-02,-2.841250537553138278e-01,-1.434002492056201672e-01,-1.061573881276777487e-01,2.822217818510933118e-01,2.356142580509185680e-01,6.213817809456526065e-02,1.902950763702392634e-01,1.356142580509185624e-01,1.328723788261413630e-01,5.179569068179701308e-01,-2.242275476455688477e-01,4.465614557266235352e-01,-2.692080470791715285e+01,1.100987672805786161e-01
2.273171000000000053e+00,9.486490900779824195e-03,2.647086215697647127e-01,9.521924257278442383e-01,2.566382272263600245e-02,1.649451625573972180e-02,-2.558887237581074225e-02,3.128473897832245720e-03,9.805126422251118912e-02,-2.520058490335941315e-02,-2.286298454446108741e-01,-2.495913013850298012e-01,-7.774445485919705134e-02,2.908577322959899902e-01,1.191764175891876221e-01,2.413046823712530764e-03,1.908577322959899847e-01,1.917641758918761999e-02,7.587515115737915317e-02,5.156367850221446059e-01,-3.604971170425415039e-01,-1.050721049308776855e+00,1.101476262162900781e+02,1.100987672805786161e-01
2.294988000000000028e+00,9.096749967689546010e-03,2.660026164991926567e-01,9.514364004135131836e-01,1.794265945858487810e-02,1.006084182663302684e-02,-2.724234545966239610e-02,5.144063030180084928e-03,1.049211298987396679e-01,-2.843696810305118561e-02,-2.994348688848465501e-01,-2.344573160607959228e-01,-3.303557053242898306e-02,3.024341821670532005e-01,-2.886376221341195591e-02,-3.056061688720870806e-03,2.024341821670532227e-01,-1.043985843658447182e-01,7.431612610816955289e-02,5.155794125890601487e-01,-3.842112421989440918e-01,2.181278467178344727e-01,-2.474207681552063320e+01,1.100987672805786161e-01
2.325282000000000071e+00,8.726770516999599395e-03,2.675144713492595971e-01,9.506305456161499023e-01,1.092709092009214872e-02,1.821711828144056966e-03,-2.867730813911152296e-02,-6.626279157448521778e-03,9.880801176573095201e-02,-2.157897315919399261e-02,-2.594815168615175471e-01,-3.136255592405444159e-01,-5.974455430963913904e-02,3.012701034545898215e-01,-1.468411694500691422e-01,-1.366449080642956337e-04,2.012701034545898438e-01,-1.591536283493041881e-01,8.036205768585204245e-02,5.130038797453163602e-01,-5.011258721351623535e-01,-1.221037745475769043e+00,1.014663260076096378e+02,1.100987672805786161e-01
2.348322000000000020e+00,8.521727383035644643e-03,2.679604046031937581e-01,9.502352476119995117e-01,7.793548270154897553e-03,-4.500305624120626291e-03,-2.979070433048829070e-02,-1.050246225646183284e-03,9.203207680220562570e-02,-1.926426403224468231e-02,-1.581927424752509470e-01,-3.251738350103514641e-01,-1.047752439437040356e-01,2.926127910614013672e-01,-2.017227661520157866e-01,-6.657846976540801598e-03,1.926127910614013616e-01,-1.788406848907470592e-01,7.654777765274047019e-02,5.128133155221598072e-01,-5.068307518959045410e-01,-1.317882895469665527e+00,-7.676052091167636604e+01,1.100987672805786161e-01
2.375223999999999780e+00,8.182946710306521904e-03,2.683676193623452666e-01,9.495963454246520996e-01,7.620474453045664696e-03,-1.741647185881767257e-02,-3.154819043765746261e-02,-2.751391926107937900e-03,8.830804364220075364e-02,-1.238159928470849991e-02,1.833560016690428951e-02,-3.270432563837641360e-01,1.582678900441785927e-02,2.571944713592529408e-01,-2.975821375846862682e-01,-1.383940487966351940e-01,1.571944713592529352e-01,-1.975821375846862626e-01,-5.124539136886596680e-02,5.158483287667188222e-01,-3.229109048843383789e-01,-1.356605172157287598e+00,6.012478922578824125e+01,1.100987672805786161e-01
2.398118999999999890e+00,7.934997008344803204e-03,2.686077372453766765e-01,9.494195580482482910e-01,1.007861630129809963e-02,-2.328123244665225577e-02,-3.200882241764856084e-02,5.343613877674437129e-03,8.077076723750008236e-02,-8.347578346729278564e-03,1.114855641683458881e-01,-3.237633453993744581e-01,-8.869141311263754879e-03,3.091439604759217696e-02,-2.968523263931274192e-01,-1.543255341541809322e-01,-6.908560395240782859e-02,-1.968523263931274414e-01,-6.630395650863647738e-02,5.190813593243382984e-01,-1.364188194274902344e-01,-8.009902238845825195e-01,1.367258252203448023e+02,1.100987672805786161e-01
2.426937000000000122e+00,7.641888122043479815e-03,2.688834487095730363e-01,9.493415951728820801e-01,1.595988476845612916e-02,-2.994868759709801154e-02,-3.232315422007740746e-02,1.894405394731919073e-03,8.273819874912256844e-02,2.282048444612883031e-05,2.450199950074674060e-01,-2.072193241279954024e-01,-3.791402502149069514e-02,-1.159679293632507324e-01,-3.113634347915649192e-01,5.312768116627422654e-02,-2.159679293632507380e-01,-2.113634347915649414e-01,1.412073612213134710e-01,5.177328412377631972e-01,-1.792724728584289551e-01,-8.569029569625854492e-01,1.033358853872255310e+02,1.100987672805786161e-01
