timestamp,x,y,z,roll,pitch,yaw,vx,vy,vz,p,q,r,psp,qsp,rsp,pres,qres,rres,thrust_sp, thrust_res,wind_mag,wind_angle,wind_obs
0.000000000000000000e+00,-1.708780892215803343e-02,-5.315733748218301989e-03,1.002085924148559570e+00,1.171897532316361172e-02,-5.676845701685362400e-03,2.721562906199181953e-03,1.007816707686150400e-02,8.144329901926329260e-03,-7.666702149435877800e-04,2.714375978327994779e-03,3.735290153183816811e-03,3.590838829086088341e-02,-1.552760671292339190e-01,1.870493286564519630e-01,2.092919487340360041e-01,-8.234156198106067082e-02,2.264950877411793795e-01,2.015677886275982766e-01,5.032233101635071870e-01,-4.569079875946044922e-01,1.371076464653015137e+00,8.945962525810344346e+01,3.834659337997436412e-01
2.386200000000000127e-02,-1.756549034282877189e-02,-3.828133694583988906e-03,1.002022027969360352e+00,1.163710751707070293e-02,-5.697089264847354784e-03,2.449212884147566882e-03,1.149272441859792299e-02,5.700771249919804780e-03,-5.317759700119495392e-03,-1.375594058960023618e-02,-1.574234121026471186e-02,-4.596871028471371384e-02,-2.999544844416749401e-01,1.822507061480776180e-01,-2.191877677425733972e-01,-2.253206989373826297e-01,2.224970140341762659e-01,-2.261477616076456865e-01,5.032368974288786712e-01,-4.745861291885375977e-01,1.018505454063415527e+00,9.727696117829061961e+01,3.834659337997436412e-01
4.884299999999999753e-02,-1.817599390475957422e-02,-1.610289518027278183e-03,1.001901388168334961e+00,1.144979040506360381e-02,-5.809858990496463704e-03,2.399297137765987742e-03,4.651849192866325776e-03,4.398240651436567325e-03,-9.326088242232799530e-03,-3.100875660109459267e-02,-3.537120266284116826e-02,8.397491840036854296e-03,-4.620869642699435009e-03,1.753523284508609059e-01,1.429643496050159168e-01,6.807648883404845974e-02,2.224761925932477458e-01,1.361274361250459086e-01,5.013957726593278874e-01,-5.879862308502197266e-01,1.312194228172302246e+00,1.090602327796673734e+02,3.834659337997436412e-01
7.319000000000000505e-02,-1.857127442040604551e-02,-1.771180530413646022e-04,1.001762866973876953e+00,1.168501715747954570e-02,-6.165043833787020588e-03,2.455511974854385215e-03,1.987525926516757815e-03,1.293485695782478975e-02,1.857601106166839600e-03,5.494797472048069953e-02,-1.511870149588884216e-02,1.365598038081611287e-02,-2.916444226732461953e-01,1.719518115632787114e-01,-2.130606137284792589e-01,-2.254562759168435571e-01,2.228385075859784792e-01,-2.200805806177821566e-01,5.055321990952227340e-01,-3.265593647956848145e-01,1.129747271537780762e+00,9.675305834819396011e+01,3.834659337997436412e-01
9.841300000000000048e-02,-1.921046820020560000e-02,2.039552133618841717e-03,1.001423358917236328e+00,1.030129129247974937e-02,-7.571220917242271753e-03,3.837553017756789586e-03,7.642586996188525592e-03,1.012706627793054023e-02,-1.316411700099706650e-02,-6.244207568404031711e-02,-1.077222229918106400e-01,-8.119489450386638274e-03,2.308135142259477857e-03,1.651548635838827050e-01,1.477214579474370876e-02,6.164228816399824895e-02,2.206201513292577465e-01,3.889927834918740536e-03,5.032960894837639199e-01,-5.056259036064147949e-01,1.160604357719421387e+00,6.522838853589180985e+01,3.834659337997436412e-01
1.235480000000000050e-01,-1.987590281949084756e-02,4.255047931720084414e-03,1.000678896903991699e+00,7.569497359749936122e-03,-1.079030756019250248e-02,4.780732518086194816e-03,-6.740075376606379648e-03,2.116978893862705297e-02,-3.308178111910820007e-02,-1.384286628692940613e-01,-1.099373732430549283e-01,8.282059123435099590e-02,1.738337966863511830e-01,1.259721214121141131e-01,2.291381523466650416e-01,2.046981972224929391e-01,2.151457451992692393e-01,2.155525557762632827e-01,5.081749430502140452e-01,-3.313897848129272461e-01,1.226141810417175293e+00,7.662249644892874301e+01,3.834659337997436412e-01
1.499840000000000062e-01,-2.050975095528680472e-02,6.531233462490000294e-03,9.999679923057556152e-01,5.049088156993156509e-03,-1.335963660442707202e-02,5.920831126718262283e-03,-7.441674469435099852e-04,2.637161723620724818e-02,-4.556958004832267761e-02,-1.196339033615695102e-01,-1.264904106611578205e-01,1.925397663018572902e-02,1.958945734474646094e-01,1.070564505764021040e-01,2.162848189424278755e-01,2.064105795778129748e-01,2.064261486764935316e-01,1.995249817068419917e-01,5.149414286445024302e-01,-2.535951137542724609e-02,7.263954877853393555e-01,1.348152027434387890e+02,3.834659337997436412e-01
1.758440000000000003e-01,-2.145118890282238233e-02,9.854118034487990840e-03,9.986486434936523438e-01,1.473001481058842108e-03,-1.832626976062701196e-02,6.111261992768346474e-03,-1.003889581600889667e-02,2.477877143891816028e-02,-5.923807621002197266e-02,-8.277684016354552865e-02,-1.543410480561858145e-01,-4.974036214440297199e-02,2.160085679146249438e-01,1.123704492489286388e-01,1.447079647287899951e-01,2.032063863066146669e-01,2.123704492489286444e-01,1.274477470374193455e-01,5.193815106133510273e-01,1.508604288101196289e-01,8.480221033096313477e-01,1.113771149084057299e+02,3.834659337997436412e-01
1.994090000000000029e-01,-2.206213759816568962e-02,1.189102128435395866e-02,9.974796772003173828e-01,1.239111376745683901e-03,-2.205925182690338104e-02,5.014057313942554828e-03,-4.501007604381103769e-03,2.530359267190352215e-02,-6.904932111501693726e-02,4.026826745399280510e-02,-1.848216100394736716e-01,-7.219902312541193190e-02,-1.879046390099465280e-01,1.123347441172072858e-01,-8.801517086829009628e-02,-2.041665729795977824e-01,2.123347441172072914e-01,-1.022255276257007656e-01,5.301740187957797446e-01,6.903157234191894531e-01,9.814189672470092773e-01,1.329130497011036027e+02,3.834659337997436412e-01
2.251479999999999870e-01,-2.297389549157263788e-02,1.479421305001184933e-02,9.952942132949829102e-01,4.258969585587990027e-03,-2.693196607501113782e-02,2.535335721450149293e-03,-9.860988106513219470e-03,2.059609717099594034e-02,-8.019876480102539062e-02,1.416389632312794744e-01,-1.632278593955567847e-01,-1.000513502204909144e-01,-2.263334880227685642e-01,1.206400536084004937e-01,-2.131476542453412115e-01,-2.210420322866382681e-01,2.206400536084004993e-01,-2.205731889884647856e-01,5.316756018711137344e-01,7.156984806060791016e-01,1.491243243217468262e+00,-1.097714467175624549e+02,3.834659337997436412e-01
2.484850000000000114e-01,-2.385394009253392553e-02,1.734840651134291270e-02,9.935808777809143066e-01,7.199830920850156489e-03,-2.966732708021968534e-02,1.895971137101826187e-03,-1.849463289150490852e-02,2.774727811152686435e-02,-9.098711609840393066e-02,1.616008691262705854e-01,-1.125526320978434414e-01,1.019337297035207909e-02,-2.360468681748157105e-01,1.153686763400300630e-01,-2.086558584446667752e-01,-2.196391039605974094e-01,2.153686763400300686e-01,-2.145305459851114538e-01,5.315212049309073761e-01,6.528104543685913086e-01,1.025606513023376465e+00,9.427447149085554656e+01,3.834659337997436412e-01
2.762350000000000083e-01,-2.525761896893310293e-02,2.122672277232458965e-02,9.907698631286621094e-01,8.811110993241944023e-03,-3.247622268411998192e-02,2.789927197157426875e-03,-1.896693731741504879e-02,3.948461234920336987e-02,-9.840741753578186035e-02,9.855566168885843310e-04,-9.175237415786033357e-02,1.240497751655171392e-02,1.748588824940041087e-01,-2.869864250374111192e-01,-1.089381512020663328e-01,1.910469793368828606e-01,-1.869864250374111136e-01,-1.175306369197003792e-01,5.221346118163712191e-01,9.530317783355712891e-02,1.087952494621276855e+00,2.953302421636686859e+01,3.834659337997436412e-01
3.004769999999999941e-01,-2.630663489758810689e-02,2.387946164577454608e-02,9.887706041336059570e-01,7.143202181127444178e-03,-3.355949621809917183e-02,4.865993926605360897e-03,-3.108343546143703742e-02,4.742931584035483400e-02,-1.029813811182975769e-01,-9.328597877070018973e-02,-5.062822008086812625e-02,1.329868966007437814e-01,2.014536911717554613e-01,-2.683899111113694502e-01,1.955434108835351070e-01,2.004644523582354010e-01,-1.683899111113694447e-01,1.811204849755541635e-01,5.166717670796596718e-01,-2.310869693756103516e-01,3.033210039138793945e-01,1.154267545578738066e+02,3.469066858291626199e-01
3.255279999999999840e-01,-2.806569369649879533e-02,2.793169394330528507e-02,9.856464266777038574e-01,2.534147591270992286e-03,-3.511663876976256482e-02,7.708560063191871592e-03,-3.563139214856909931e-02,5.891899679828365571e-02,-1.068980097770690918e-01,-1.405703521106950737e-01,-2.819503082730353410e-02,7.759810622522465839e-02,2.486694992812567284e-01,-2.800883786685834931e-01,2.165788035410518564e-01,2.072251025639154642e-01,-1.800883786685834598e-01,1.943303684197697501e-01,5.124657883591142715e-01,-4.903179407119750977e-01,1.062061429023742676e+00,9.102414155919738903e+01,3.469066858291626199e-01
3.479889999999999928e-01,-2.892437460288976858e-02,2.988899895586749275e-02,9.836052656173706055e-01,5.254312200875744989e-04,-3.514065445007474864e-02,8.213166771358748619e-03,-3.192904712808739692e-02,4.836917321943854514e-02,-1.033176183700561523e-01,-9.865717705689541761e-02,1.584964398038679959e-02,-1.355415763826336301e-02,2.551265016703615496e-01,-2.867610554514630206e-01,2.398634743451170115e-01,2.091074073979161951e-01,-1.867610554514630150e-01,2.163994148816625329e-01,5.120669730887621451e-01,-5.112459063529968262e-01,1.064921021461486816e+00,9.996177876742839885e+01,3.469066858291626199e-01
3.746039999999999925e-01,-2.973995083562168407e-02,3.167663512753410987e-02,9.804722666740417480e-01,1.917710703245715772e-03,-3.137597477914089161e-02,6.576410958396117223e-03,-3.661699702392055139e-02,4.144896947580161556e-02,-1.106902882456779480e-01,1.161917103651941147e-01,1.856230010007397790e-01,-6.024453535324725967e-02,5.291347155588478623e-02,-1.252035332879587737e-02,2.469030958859164959e-01,1.854537762987796753e-02,8.747964667120412818e-02,2.280032104783960845e-01,5.355153348823326054e-01,7.128564119338989258e-01,9.222472906112670898e-01,1.284161897553506151e+02,3.469066858291626199e-01
4.021429999999999727e-01,-3.022654095379833164e-02,3.278325067609864918e-02,9.782131314277648926e-01,5.220321858998374157e-03,-2.721965002710580173e-02,4.777005897427688552e-03,-3.548001753176845824e-02,4.093860351544910403e-02,-1.112719699740409851e-01,1.781888287866923992e-01,2.401089908169741494e-01,-1.170640039232987706e-01,-1.721553165071986469e-01,1.163224033596536866e-01,1.881974789418025817e-01,-1.865738101259938053e-01,2.163224033596536922e-01,1.742235006810655407e-01,5.360662144497457815e-01,7.253904342651367188e-01,1.513353943824768066e+00,-4.102843408007884562e+01,3.469066858291626199e-01
4.260599999999999943e-01,-3.107127752554949066e-02,3.436571756521671073e-02,9.745962619781494141e-01,1.189465568485480532e-02,-1.986783496529698212e-02,1.594543488460331560e-03,-3.030491388089542187e-02,4.232644026015798533e-02,-1.288830786943435669e-01,2.286858179983994321e-01,2.304796584799418679e-01,-9.893295421408458690e-02,-2.483477701564298923e-01,1.231299755096557924e-01,-2.174021360242862078e-01,-2.215435677095496658e-01,2.231299755096557980e-01,-2.225807963073507256e-01,5.349395931538661886e-01,5.716502666473388672e-01,8.248044252395629883e-01,-3.226663326184063862e+01,3.469066858291626199e-01
4.490549999999999820e-01,-3.155818351847208131e-02,3.545465430511437338e-02,9.720271825790405273e-01,1.588798004919004386e-02,-1.547535252135023853e-02,-9.239245667918005722e-04,-4.100101920929912630e-02,4.402145522257135124e-02,-1.292857974767684937e-01,1.934672547516703700e-01,1.853370100317074942e-01,-1.535836145848722967e-01,-2.738046845013962227e-01,1.239553675651839382e-01,-2.233769721230876582e-01,-2.230205954848967220e-01,2.239553675651839437e-01,-2.215625566905345400e-01,5.365979017795167172e-01,6.433873176574707031e-01,1.718046069145202637e+00,-1.116197198126300094e+01,3.436092138290405273e-01
4.764680000000000026e-01,-3.238000380480404033e-02,3.713476614539035908e-02,9.681051373481750488e-01,1.806258776637048591e-02,-1.231558000734245262e-02,-2.981748902896264042e-03,-5.106968956031218698e-02,4.833703747997266514e-02,-1.400559991598129272e-01,-3.828149739914821215e-02,5.523836256536610728e-02,2.780581806576953516e-02,-2.814542283534471889e-01,1.179815868835421833e-01,2.044022184922767715e-01,-2.206831368852956166e-01,2.179815868835421888e-01,2.119657855671277236e-01,5.314389752040908910e-01,2.923581600189208984e-01,8.250967264175415039e-01,1.228826163766164115e+02,3.436092138290405273e-01
5.004140000000000255e-01,-3.309932185971137947e-02,3.846154113728807167e-02,9.654976725578308105e-01,1.690662866908339973e-02,-1.195356894901888900e-02,-2.343847099400608869e-03,-5.697393243664071460e-02,6.440879957268871858e-02,-1.310181319713592529e-01,-8.651901866154847187e-02,8.984280127156636653e-03,1.522038767318493850e-02,1.733914727253675347e-01,5.194018674514205847e-02,2.182420600860681681e-01,2.136005914946014772e-01,1.519401867451420640e-01,2.239852565881845226e-01,5.363039404744310845e-01,5.769129991531372070e-01,8.317204713821411133e-01,1.139585439240770341e+02,3.436092138290405273e-01
5.248770000000000380e-01,-3.392444360842335194e-02,3.982281800327343302e-02,9.630061984062194824e-01,1.344368201763928954e-02,-1.260330307693702245e-02,-1.027193664007608476e-03,-5.003451319929363289e-02,5.738547798146671763e-02,-1.292645186185836792e-01,-2.372970206696547180e-01,-2.592347798436174522e-02,5.739907879169901805e-02,1.926583786906114204e-01,-9.330875942836018566e-02,2.228375984867793091e-01,2.169097027041586856e-01,6.691240571639819890e-03,2.250334108573106007e-01,5.358263293560803220e-01,5.396270751953125000e-01,1.149900555610656738e+00,8.578193722026675516e+01,3.436092138290405273e-01
5.516760000000000552e-01,-3.533815199211762931e-02,4.207435919293223830e-02,9.593391418457031250e-01,6.029226453513615060e-03,-1.490796738140409694e-02,-2.298366774823756842e-03,-6.150243628524611900e-02,6.541064904677670877e-02,-1.235576048493385315e-01,-2.394774679190448674e-01,-6.371222553052291460e-02,-5.079506498118224050e-02,2.492385826292022877e-01,-2.089333518233184861e-01,2.070460537242623522e-01,2.164182749164864639e-01,-1.089333518233184805e-01,2.128825889853138420e-01,5.258593527741398654e-01,-7.474899291992187500e-03,1.144083619117736816e+00,8.534899201934715052e+01,3.436092138290405273e-01
5.770440000000000014e-01,-3.725739619148861481e-02,4.444926077515688051e-02,9.558961391448974609e-01,1.580250325586655567e-03,-1.841396410908147097e-02,-5.562102791727641105e-03,-5.440568629052471711e-02,5.688876728688222612e-02,-1.126464307308197021e-01,-2.217440181009619287e-04,-1.179524227531591474e-01,-1.371640561982596374e-01,-8.248118086887996914e-02,-1.150135242076511521e-01,-1.215849688488611080e-01,-1.382944911801903265e-01,-1.501352420765113965e-02,-1.064665960238298514e-01,5.334142422120549121e-01,4.279490709304809570e-01,1.058118224143981934e+00,9.646218791219979494e+01,3.436092138290405273e-01
5.992420000000000524e-01,-3.850059383368394789e-02,4.593352181235791504e-02,9.537948369979858398e-01,1.632318142051188527e-03,-1.961733066135296077e-02,-8.101849317390552585e-03,-5.866440401250176684e-02,5.421514373679860860e-02,-1.101513430476188660e-01,1.803523540164544622e-02,-2.779059705449980072e-02,-1.248579349884487572e-01,-1.628988362675187207e-01,1.212166781466146592e-01,-2.343324872065597753e-01,-2.186495130118737140e-01,2.212166781466146648e-01,-2.121408708571006774e-01,5.370157416166299047e-01,6.202348470687866211e-01,1.414977431297302246e+00,3.399661089557814364e+01,3.436092138290405273e-01
6.255950000000000122e-01,-4.034418697372536139e-02,4.805131670698898488e-02,9.507158398628234863e-01,5.618410144452070862e-03,-1.816813932455296765e-02,-1.093067419171478427e-02,-5.622927606618187413e-02,5.277663239115557708e-02,-1.070395484566688538e-01,1.760974816048387070e-01,7.310832044335809077e-02,-3.105982636710188927e-02,-1.891073924975406051e-01,1.252447402160067058e-01,-2.525752111254582766e-01,-2.197301268200686220e-01,2.252447402160067114e-01,-2.225983349827413416e-01,5.358553698313951452e-01,5.484175682067871094e-01,9.440423250198364258e-01,9.335167878304098110e+01,3.436092138290405273e-01
6.481609999999999872e-01,-4.149771714948787688e-02,4.890544393658831368e-02,9.486171007156372070e-01,7.602615171596817552e-03,-1.558322667470957157e-02,-1.090041695108467934e-02,-6.513796384935999217e-02,5.361615993799816876e-02,-9.749108552932739258e-02,8.998717530054263503e-02,1.164877712494978707e-01,1.337659406835829505e-02,-1.805544008943220091e-01,1.252166658909597274e-01,-2.454880131244900621e-01,-1.999732381179709362e-01,2.252166658909597330e-01,-2.156516871997281315e-01,5.375075203499892762e-01,6.614484786987304688e-01,1.925387263298034668e+00,-3.289640743916707777e+01,3.850774526596069114e-01
6.749439999999999884e-01,-4.331918535812912668e-02,4.960236160222183943e-02,9.458007216453552246e-01,8.029441145469360525e-03,-1.237060236400711055e-02,-8.860341197333143626e-03,-6.302473312971883235e-02,6.724528286252713649e-02,-1.011850163340568542e-01,-6.120643065686300066e-02,7.036967769932506167e-02,7.834265043107403736e-02,1.708839725735799842e-01,1.233580870332574297e-01,1.947162370499001260e-01,1.430770072739781795e-01,2.233580870332574353e-01,2.188589123998345431e-01,5.375914918106677876e-01,6.322950124740600586e-01,6.372503042221069336e-01,1.033433781047450424e+02,3.850774526596069114e-01
6.983880000000000088e-01,-4.461195150129891596e-02,5.022512156388971027e-02,9.440467357635498047e-01,6.851781833424277872e-03,-1.183556425260356981e-02,-6.619242250013757101e-03,-7.693375889354990560e-02,6.895953110096814109e-02,-9.489994496107101440e-02,-7.943178829890788772e-02,-7.126548455662980348e-04,1.522694351385742439e-01,2.139672988174644574e-01,8.099954602787440283e-02,1.805455782304964119e-01,1.782576799569072779e-01,1.809995460278744084e-01,1.984142915045468969e-01,5.330693079841983817e-01,3.926863670349121094e-01,9.754527807235717773e-01,9.717642762389721156e+01,3.850774526596069114e-01
7.261400000000000077e-01,-4.672932262339588028e-02,5.123055818034791264e-02,9.418266415596008301e-01,3.314120743245221271e-03,-1.356816094045609766e-02,-4.712847006524301108e-03,-7.128754952934231170e-02,7.466285485140169986e-02,-8.353000879287719727e-02,-6.304995249690549530e-02,-7.543731519891781756e-02,-1.505549467070617766e-03,2.768675117192360147e-01,-1.755711109964286920e-01,1.787695812409356710e-01,2.126965258636961953e-01,-7.557111099642867258e-02,1.913705374301475359e-01,5.254347369563745485e-01,4.158616065979003906e-03,1.105201363563537598e+00,1.013757030577019123e+02,3.850774526596069114e-01
7.490289999999999448e-01,-4.816565190850791850e-02,5.186486194349872181e-02,9.405975341796875000e-01,2.485290759667094663e-03,-1.620368168085883909e-02,-5.944790042443193201e-03,-7.282628080293307438e-02,5.175853686950957627e-02,-7.289952784776687622e-02,-6.109814521385124875e-02,-1.626001846004914431e-01,-8.352313801406587024e-02,2.620811558302810762e-01,-2.651325922620535736e-02,1.077109549325195592e-01,2.102806192702104393e-01,7.348674077379464820e-02,1.238318132600386423e-01,5.257782947644620286e-01,5.384600162506103516e-02,1.152494549751281738e+00,1.134845834371915032e+02,3.850774526596069114e-01
7.737530000000000241e-01,-5.044142468588549283e-02,5.225371421638509706e-02,9.390365481376647949e-01,4.781002662682257501e-03,-1.970352463447277991e-02,-8.307198671868576412e-03,-7.346182690612100552e-02,6.123722179457017495e-02,-7.566030323505401611e-02,9.253191525328073597e-02,-4.929223716274599987e-02,-6.018152969699476496e-02,-1.728504343596049542e-01,1.248140949058665627e-01,-2.404934239978706034e-01,-2.207953717075477329e-01,2.248140949058665683e-01,-2.180107375581418760e-01,5.379500028762529418e-01,6.977763175964355469e-01,1.258297801017761230e+00,9.117739051360496205e+01,3.850774526596069114e-01
8.008549999999999836e-01,-5.199020218992012748e-02,5.253155247264867933e-02,9.380691647529602051e-01,8.238127338503714245e-03,-2.075373587328299685e-02,-1.010607520685047334e-02,-7.396091212418773320e-02,5.226768901297690340e-02,-7.096768170595169067e-02,1.806474428622060202e-01,-3.973714153083455353e-02,-9.873537766540849137e-02,-2.028601455521370778e-01,1.256050148684359491e-01,-2.492034003533220299e-01,-2.205351984948144828e-01,2.256050148684359546e-01,-2.218233922108659162e-01,5.355564157011566406e-01,5.736805200576782227e-01,7.861160039901733398e-01,-1.720254176435079430e+01,3.850774526596069114e-01
8.250480000000000036e-01,-5.431464710097443777e-02,5.293197420321110735e-02,9.366613626480102539e-01,1.462563894784588495e-02,-2.057334029658042240e-02,-1.100496775746151457e-02,-7.610816033029074723e-02,5.594186021015563198e-02,-7.392489165067672729e-02,1.603030556317169564e-01,3.006801879640455880e-02,2.943664349794495108e-02,-2.377211799057733221e-01,1.221314428221041415e-01,-2.347429374499175603e-01,-2.184629800096105079e-01,2.221314428221041470e-01,-2.051972715358729438e-01,5.311134336940289691e-01,3.048367500305175781e-01,1.465740084648132324e+00,-1.025973711832179021e+02,3.850774526596069114e-01
8.501330000000000275e-01,-5.598614948519283624e-02,5.336626515835479756e-02,9.357445240020751953e-01,1.719959098122350941e-02,-2.020464843369329522e-02,-9.579817503949428215e-03,-8.193452902142492333e-02,6.185287106981651739e-02,-7.182724028825759888e-02,1.086397227658887493e-01,-5.206611820411245761e-03,1.099325593026863057e-01,-2.486123465186652060e-01,1.038583609313344092e-01,-1.976902374137553264e-01,-2.173504240260130671e-01,2.038583609313344147e-01,-1.723145270249732686e-01,5.339551295450463142e-01,4.584790468215942383e-01,1.609424471855163574e+00,-7.664853654513941628e+00,3.850774526596069114e-01
8.748129999999999518e-01,-5.818639233071501438e-02,5.413537422037125596e-02,9.345062375068664551e-01,1.700422811710437451e-02,-2.054952783928309934e-02,-6.586845674412034057e-03,-8.701170066206337372e-02,7.421823537588043140e-02,-5.859680101275444031e-02,-4.624582847520758433e-02,-4.640157181805943526e-02,1.099988020197043836e-01,1.594585276725577760e-01,-2.363729294316729290e-01,1.998021884491389122e-01,1.794805393002280314e-01,-1.363729294316729235e-01,2.166846764317686691e-01,5.223421524928164583e-01,-1.350474357604980469e-01,1.297382950782775879e+00,1.072547952159795557e+02,3.850774526596069114e-01
9.009479999999999711e-01,-5.979144833092028821e-02,5.476774084400466008e-02,9.337192773818969727e-01,1.430065984905846618e-02,-2.139034131473427358e-02,-4.494334444814729324e-03,-9.517132431170682860e-02,6.598927485648253821e-02,-6.455403566360473633e-02,-1.957415045178955426e-01,-5.562960585858488238e-02,1.057689449910895890e-01,1.916275812425952130e-01,-2.501542449129900980e-01,2.019772497612972173e-01,2.014884765251508669e-01,-1.501542449129900647e-01,2.131234566277397935e-01,5.186850044392377068e-01,-3.657100200653076172e-01,9.663590192794799805e-01,8.753348459140316606e+01,3.850774526596069114e-01
9.251080000000000414e-01,-6.224787829890097296e-02,5.580515135903028889e-02,9.326861500740051270e-01,8.506026002076040593e-03,-2.355467429611124430e-02,-2.715858011019811613e-03,-8.572437734188849412e-02,6.775365180191271486e-02,-7.232625782489776611e-02,-2.193409852222740763e-01,-6.276384306809484892e-02,2.761523585519031366e-03,2.390596530567555555e-01,-2.640991838356767651e-01,1.993459329796404833e-01,2.077614498487340144e-01,-1.640991838356767318e-01,2.057578919999079048e-01,5.204345878508975787e-01,-3.129805922508239746e-01,1.194185137748718262e+00,1.187143841525894032e+02,3.850774526596069114e-01
9.475850000000000106e-01,-6.385343709802300538e-02,5.644404832555312973e-02,9.320476651191711426e-01,6.396332011486045854e-03,-2.388029099722976945e-02,-3.830915247798438728e-03,-9.553516045675174151e-02,6.089590649626875490e-02,-5.822240561246871948e-02,-6.035702897014866286e-02,3.134070469335823589e-02,-1.102449237531329951e-01,2.247826309479462881e-01,-1.757589730663683680e-01,2.133615897888692936e-01,1.844137444276583437e-01,-7.575897306636836248e-02,2.229964512131503984e-01,5.173940077985472730e-01,-4.301827549934387207e-01,1.223698496818542480e+00,9.317155986443856364e+01,3.850774526596069114e-01
9.774540000000000450e-01,-6.647321484712642725e-02,5.667033478794847312e-02,9.309838414192199707e-01,6.826077384364487126e-03,-2.137312943700386825e-02,-6.190430701358717869e-03,-7.873041057987036073e-02,5.129806327589866988e-02,-6.530811637639999390e-02,6.334894804409779701e-02,1.443505739463475379e-01,-7.707890449854142012e-02,7.319077567805465367e-02,6.646930844047141407e-02,2.094779702616513806e-01,4.182625655049481556e-02,1.664693084404714196e-01,2.258635600355352047e-01,5.384079266962353838e-01,6.787061691284179688e-01,1.338675856590270996e+00,9.524232978681386896e+01,3.850774526596069114e-01
1.001752999999999894e+00,-6.817335351753141259e-02,5.682056259271116294e-02,9.302146434783935547e-01,9.865306772611631692e-03,-1.792912213882824624e-02,-8.255850850346746483e-03,-9.058639116053884832e-02,4.837940578641579392e-02,-6.297279894351959229e-02,2.252676620974888022e-01,1.872849427447236814e-01,-1.153902312951040066e-01,-2.087518786201827403e-01,1.251627092944237463e-01,-2.408993045923503162e-01,-2.196892765432583716e-01,2.251627092944237518e-01,-2.188399382036410046e-01,5.378646982608037419e-01,6.475703716278076172e-01,1.427705645561218262e+00,-1.659452856972001555e+01,3.850774526596069114e-01
1.027028999999999970e+00,-6.984357676807294302e-02,5.692284061049000116e-02,9.293497204780578613e-01,1.381631134120682620e-02,-1.368304038551371171e-02,-1.036430645982022725e-02,-8.868632842367260571e-02,5.002590266119989054e-02,-8.164867758750915527e-02,1.874705763115591117e-01,2.373848932324032213e-01,-8.491007227843094807e-02,-2.330904513019853019e-01,1.265375639456499668e-01,-1.938182748459015836e-01,-2.199295274688077839e-01,2.265375639456499723e-01,-1.658992889113212188e-01,5.405237413523760193e-01,7.103526592254638672e-01,9.060498476028442383e-01,1.121005139037801257e+02,3.850774526596069114e-01
1.050232999999999972e+00,-7.160312422325108839e-02,5.705615964415403085e-02,9.283962249755859375e-01,1.831069437980011386e-02,-1.056401057449640746e-02,-1.262655935919254624e-02,-8.654177068398626049e-02,4.616134547035349173e-02,-7.543979585170745850e-02,1.937125212968714982e-01,1.197959804465556083e-01,-9.955405698748266696e-02,-2.668447641281520011e-01,1.257495016496141538e-01,-2.602866285177318773e-01,-2.215412980235182405e-01,2.257495016496141593e-01,-2.260809771838116211e-01,5.396536102364157816e-01,6.754894256591796875e-01,1.135886788368225098e+00,9.040246457113200051e+01,3.850774526596069114e-01
1.076940999999999926e+00,-7.441339442148306449e-02,5.728009782569190578e-02,9.269635677337646484e-01,2.202440141237012663e-02,-8.211037864879200399e-03,-1.189437723259190172e-02,-1.045197120331620710e-01,5.139461011094096504e-02,-6.892151385545730591e-02,2.500457034474747389e-02,3.616798126202183661e-02,6.146903363385394087e-02,-2.852176282404889074e-01,1.242346171552000111e-01,-2.492617492036975912e-01,-2.207747513294302799e-01,2.242346171552000167e-01,-2.172897726002338548e-01,5.394542576961292024e-01,6.763877868652343750e-01,1.324025511741638184e+00,5.568521066150955789e+01,3.850774526596069114e-01
1.101107999999999976e+00,-7.633128478249030791e-02,5.741555439501130204e-02,9.260445833206176758e-01,2.159317642293840864e-02,-8.260387025624149615e-03,-1.037491834345316555e-02,-1.001956810857444757e-01,5.732225794812283171e-02,-7.291260361671447754e-02,-4.773611228233647780e-02,-3.128739911947420876e-02,9.363204477613126797e-02,1.268739969173128257e-01,-9.495061009644327477e-02,1.748332074895640742e-01,1.841585243975781827e-01,5.049389903556735990e-03,2.025726270763112680e-01,5.282175705419744904e-01,3.101325035095214844e-02,1.222040295600891113e+00,8.576322933213008071e+01,3.850774526596069114e-01
1.123539000000000065e+00,-7.828692288245986397e-02,5.762485326807154778e-02,9.252117872238159180e-01,1.907305910966482221e-02,-9.243207740294412389e-03,-8.453922066094632370e-03,-1.089158754163304654e-01,5.722382185106914682e-02,-5.439392849802970886e-02,-1.421471600641578403e-01,-8.773895681822874160e-02,6.951168991564100896e-02,1.626782089614872973e-01,-2.019117972064142230e-01,1.935491898138698985e-01,2.035755815139859148e-01,-1.019117972064142036e-01,2.158971600362188659e-01,5.191950494992874088e-01,-3.955333232879638672e-01,1.233151078224182129e+00,8.836428831147600249e+01,3.850774526596069114e-01
1.153752000000000111e+00,-8.135667754250594519e-02,5.813387210705817099e-02,9.242885708808898926e-01,1.219358752053249090e-02,-1.179350126554523648e-02,-4.920205289235868307e-03,-1.014885457332493218e-01,6.355431033444902678e-02,-5.395775660872459412e-02,-2.581297471650692010e-01,-5.073952823814460028e-02,4.531965607848458671e-02,2.236597797599999826e-01,-2.716118404921203378e-01,2.025330745786306785e-01,2.139037440110385657e-01,-1.716118404921203322e-01,2.151700584543443928e-01,5.218031280748993694e-01,-2.630926370620727539e-01,1.533820509910583496e+00,7.848577205450821737e+01,3.850774526596069114e-01
1.178347000000000033e+00,-8.334896361990770663e-02,5.846362871173804016e-02,9.238451719284057617e-01,8.036186032050822783e-03,-1.385060502358359535e-02,-4.460123872739307771e-03,-1.053124854374607872e-01,5.207859886011475398e-02,-4.840941727161407471e-02,-1.556551652433162403e-01,-1.262491022068903679e-01,8.027304164302528910e-03,2.371406725980895192e-01,-2.038339403933670801e-01,1.820998723975566225e-01,2.094538041314410737e-01,-1.038339403933670746e-01,1.936082793666803192e-01,5.193411752343704002e-01,-3.820822238922119141e-01,1.347245812416076660e+00,9.887510933085771114e+01,3.850774526596069114e-01
1.202873000000000081e+00,-8.529278238314108584e-02,5.846890482643059272e-02,9.234699010848999023e-01,5.807849811834968519e-03,-1.479594861771049707e-02,-5.731577957232225629e-03,-1.053579971185045483e-01,4.284053629495269966e-02,-3.918871283531188965e-02,-6.412551236937112653e-02,-2.710404802911842853e-02,-1.239058745849956344e-01,2.096890193228237720e-01,-1.823953417729171633e-01,1.398885548414439961e-01,1.726797796765258686e-01,-8.239534177291714390e-02,1.550726808248922006e-01,5.163969693180957554e-01,-5.111665725708007812e-01,1.376927018165588379e+00,9.136653211210095549e+01,3.850774526596069114e-01
1.227802000000000060e+00,-8.713115077612149095e-02,5.842728450905077670e-02,9.231162071228027344e-01,5.834752752392611229e-03,-1.413759073508336073e-02,-7.040543691114509173e-03,-9.248038486342669007e-02,4.388403490227137799e-02,-4.396152868866920471e-02,4.993908671087120277e-02,9.784436946088084786e-02,-5.289896047668123102e-02,-7.601395010396608254e-02,1.210738334691741913e-01,1.908059348269617039e-01,-1.151066871635188088e-01,2.210738334691741969e-01,2.096844629004883387e-01,5.385964079015802541e-01,6.739444732666015625e-01,1.249556660652160645e+00,9.483652775765590093e+01,3.850774526596069114e-01
1.249370000000000092e+00,-8.893245718186555682e-02,5.842670990080105209e-02,9.227292537689208984e-01,7.778198797388918839e-03,-1.192270890070190603e-02,-8.899433222148589451e-03,-8.911181747762729477e-02,3.867285657563564877e-02,-4.932661727070808411e-02,1.131611934828040816e-01,1.243336605816784818e-01,-1.100549880087104554e-01,-1.994350724739227809e-01,1.270998388032735515e-01,-2.298945442030382036e-01,-2.217573331061518938e-01,2.270998388032735571e-01,-2.058179285355421773e-01,5.396126096781118653e-01,7.013630867004394531e-01,1.387607455253601074e+00,1.110453452996615340e+02,3.850774526596069114e-01
1.278091000000000088e+00,-9.154556661190733913e-02,5.832057792833417881e-02,9.219825267791748047e-01,1.292884478813498793e-02,-6.443614423636612187e-03,-1.146183812122636425e-02,-8.866573106127152715e-02,4.069203832523598380e-02,-5.795132368803024292e-02,1.964373325300634021e-01,2.004223085471880661e-01,-5.989355818079782068e-02,-2.290922059455723359e-01,1.261104676954789283e-01,-2.480213591082068014e-01,-2.200048099408268287e-01,2.261104676954789339e-01,-2.168364559374485745e-01,5.398205748055041608e-01,6.688952445983886719e-01,1.295454144477844238e+00,6.913268175982200603e+01,3.850774526596069114e-01
1.302241999999999900e+00,-9.318112440282813602e-02,5.797485977822239289e-02,9.213400483131408691e-01,1.745704083350644795e-02,-2.153559764984880331e-03,-1.338836836025070198e-02,-8.715047167140584083e-02,2.979568488290814526e-02,-5.942048132419586182e-02,2.193765595395716639e-01,1.713029103305395706e-01,-1.254967801814791117e-01,-2.700577381159613433e-01,1.265006706798278702e-01,-2.577456154567781543e-01,-2.226366182905018809e-01,2.265006706798278757e-01,-2.211212396647456724e-01,5.405414932107683867e-01,6.939589977264404297e-01,1.085992217063903809e+00,9.824744226689021787e+01,3.850774526596069114e-01
1.324858000000000091e+00,-9.474293286004466241e-02,5.735577177009609090e-02,9.205620884895324707e-01,2.111137655382714501e-02,9.531967579439193372e-04,-1.474048812972350575e-02,-9.318789404272707910e-02,3.756595975193895848e-02,-6.352259218692779541e-02,1.872813079486132792e-01,1.065624790717151910e-01,-2.141509768327055918e-02,-2.865487922568321633e-01,1.254662138743202759e-01,-2.640133960348612918e-01,-2.224582058662987194e-01,2.254662138743202815e-01,-2.236555247638962463e-01,5.399947503395035042e-01,6.365489959716796875e-01,1.315088391304016113e+00,1.008702895496884793e+02,3.850774526596069114e-01
1.354678999999999967e+00,-9.731966954560575256e-02,5.680407110724627201e-02,9.193706512451171875e-01,2.286142659202560976e-02,2.922917368727517839e-03,-1.360822967663355421e-02,-9.385597485142190000e-02,4.626436517548045135e-02,-6.000281125307083130e-02,2.643605334750867911e-02,-6.204326727616885605e-03,6.913639357670071928e-02,-2.884787764354681538e-01,1.205802466216608082e-01,-2.020518674197964160e-01,-2.186992222077491499e-01,2.205802466216608138e-01,-1.648549057760115288e-01,5.371440920711845202e-01,4.803628921508789062e-01,9.227515459060668945e-01,-2.972488081505794355e+00,3.850774526596069114e-01
1.379277000000000086e+00,-9.911395999297578641e-02,5.655315537996123687e-02,9.186664223670959473e-01,2.123441487317963977e-02,2.616407411871080058e-03,-1.173260271386222797e-02,-1.028209449263726150e-01,4.255412934898716859e-02,-5.449214950203895569e-02,-1.383373508194178647e-01,-2.484638308945762153e-02,9.648288437265208073e-02,1.445859123192323459e-01,-6.071535297917546314e-02,1.752491720511789308e-01,2.074870516903698225e-01,3.928464702082454241e-02,2.071768415498390359e-01,5.235524581988136861e-01,-2.524073123931884766e-01,1.077190279960632324e+00,9.132667112810476340e+01,3.850774526596069114e-01
1.402995999999999910e+00,-1.009222550684809039e-01,5.643131895125613057e-02,9.180632829666137695e-01,1.814289461620526706e-02,1.283627733110970226e-03,-9.317452469902454126e-03,-9.375312278171676894e-02,5.069009254970309464e-02,-6.020969897508621216e-02,-2.026080581345342246e-01,-7.288029951152928676e-02,1.447938436996958900e-01,1.764357287951839603e-01,-5.024226105925650582e-02,1.807401365173521290e-01,2.119651454825358106e-01,4.975773894074349973e-02,2.059509762632056040e-01,5.248714456805591011e-01,-2.127100825309753418e-01,9.653071165084838867e-01,1.050430501891352009e+02,3.850774526596069114e-01
1.425704000000000082e+00,-1.029632727885392840e-01,5.610472479131676377e-02,9.175317287445068359e-01,1.368756640588689351e-02,-8.908073587783338354e-04,-6.587231956648897935e-03,-9.658299745319710861e-02,4.617041413079643608e-02,-3.886180743575096130e-02,-2.190567321493740449e-01,-1.355581505369927442e-01,1.069246492051311448e-01,2.013739279865975063e-01,-8.932809700060559410e-02,1.913980612444560470e-01,2.117809114519189628e-01,1.067190299939440624e-02,2.089981054796903603e-01,5.201724728285338495e-01,-3.912034034729003906e-01,1.127681136131286621e+00,8.032318173370086356e+01,3.850774526596069114e-01
1.452466999999999953e+00,-1.062468670192183440e-01,5.539054783035076562e-02,9.169510006904602051e-01,5.067851941508676530e-03,-4.636346227702148326e-03,-2.688409823170534452e-03,-1.006361754464562552e-01,5.176129465556986164e-02,-4.042253270745277405e-02,-3.439075626536443608e-01,-1.417293040787424852e-01,8.318618126213539465e-02,2.666079549006799554e-01,-2.108763643296776291e-01,2.017591046876512639e-01,2.157337308066143988e-01,-1.108763643296776236e-01,2.085856791930512377e-01,5.200617714345310283e-01,-4.123272299766540527e-01,7.957400083541870117e-01,-2.389379464136172970e+01,3.850774526596069114e-01
1.476325000000000109e+00,-1.083728329584520561e-01,5.498732641413309197e-02,9.166516661643981934e-01,-6.165877622120385319e-04,-7.124252868852209986e-03,-1.029294415359371939e-03,-9.118877802491430484e-02,4.766354055575910270e-02,-3.470413759350776672e-02,-2.458801349169099648e-01,-9.689143902767181904e-02,5.940948378372344629e-02,3.018459358814998272e-01,-1.838499325735463708e-01,2.043952406007983613e-01,2.175995685731592078e-01,-8.384993257354635132e-02,2.067940608807667668e-01,5.190772946697669310e-01,-4.493877887725830078e-01,1.081802964210510254e+00,9.339935350344765652e+01,3.850774526596069114e-01
1.498850000000000016e+00,-1.103887035033124242e-01,5.456883883243991012e-02,9.164106845855712891e-01,-4.493333890950864697e-03,-9.181283717851096426e-03,-1.483908276101342238e-03,-9.207087112311099220e-02,3.434279642568161678e-02,-2.830747701227664948e-02,-1.459609977827286686e-01,-1.266914917660387496e-01,-7.840581958031210552e-02,3.130788408806403078e-01,-2.165999325220399618e-01,1.924736793673238189e-01,2.132533917655866917e-01,-1.165999325220399563e-01,1.963414101962166203e-01,5.173338704234317076e-01,-5.244078636169433594e-01,1.148937344551086426e+00,7.976897335425685753e+01,3.850774526596069114e-01
1.525371000000000032e+00,-1.136460067339639113e-01,5.349163058288156081e-02,9.160341024398803711e-01,-5.607008436868906633e-03,-1.047584467263318331e-02,-2.870255682148936671e-03,-8.512446132407391897e-02,3.395810358612090518e-02,-3.541648760437965393e-02,4.038376011874572624e-02,2.187438970881890737e-02,-4.207405510634160822e-02,-1.134241447270797620e-01,1.245369981789543612e-01,-2.255675810198835007e-01,-2.134241447270797676e-01,2.245369981789543667e-01,-2.177819119327390474e-01,5.386975811236422995e-01,6.065230369567871094e-01,1.290346026420593262e+00,9.362907325580270879e+01,3.850774526596069114e-01
1.550429000000000057e+00,-1.175690741801881656e-01,5.166296908092459644e-02,9.155216813087463379e-01,-1.084545110020652438e-03,-9.657512908090248871e-03,-5.501694045238370023e-03,-7.858978117059418900e-02,3.088125228531844041e-02,-3.880073130130767822e-02,2.198154754189103610e-01,6.106433775947800457e-02,-9.102086802952848166e-02,-1.469004933785961753e-01,1.249380524994590513e-01,-2.324533359938016630e-01,-2.220690393721232170e-01,2.249380524994590569e-01,-2.174720542570800774e-01,5.362316003760856375e-01,4.486341476440429688e-01,1.302570700645446777e+00,8.844017171315483949e+01,3.850774526596069114e-01
1.575107999999999953e+00,-1.212531349771320821e-01,4.996498486039821496e-02,9.146975874900817871e-01,5.899512899560665526e-03,-6.350523707717492528e-03,-8.318811448633889327e-03,-8.448318633653961740e-02,2.486678414804784770e-02,-4.282025992870330811e-02,2.646202500828592763e-01,1.292585705212825342e-01,-1.191473777665300604e-01,-1.984743338895755549e-01,1.263393385117550227e-01,-2.441348316389122253e-01,-2.228416428689959927e-01,2.263393385117550283e-01,-2.214985968785748993e-01,5.376875019233229303e-01,5.032348632812500000e-01,7.933481931686401367e-01,1.753672106383417599e+02,3.718773126602172852e-01
1.599240999999999913e+00,-1.248115832959268146e-01,4.839497521150699921e-02,9.137206077575683594e-01,1.468308361516999956e-02,-1.176497008898103047e-03,-1.037659408514102211e-02,-7.985575847298354013e-02,2.805602172954987233e-02,-6.092014908790588379e-02,2.473752566405168496e-01,2.098980595347214317e-01,4.381906423899351900e-03,-2.520954270559971899e-01,1.252423756240408081e-01,-2.482283441175806848e-01,-2.214121025019291367e-01,2.252423756240408137e-01,-2.200225132971087849e-01,5.418768758244972839e-01,6.532576084136962891e-01,1.101271271705627441e+00,1.052188251074254737e+02,3.718773126602172852e-01
1.624776999999999916e+00,-1.287062395334397091e-01,4.862956593588105281e-02,9.125531315803527832e-01,2.123757037704561076e-02,2.861705277160453420e-03,-8.536082494384311659e-03,-8.089830475203606264e-02,4.095359551005270382e-02,-5.802531167864799500e-02,1.637314470704940850e-01,1.010068483159995145e-01,1.228438066980992033e-01,-2.867142190746994057e-01,1.241410333360385143e-01,-2.371662275879652115e-01,-2.234202031723591386e-01,2.241410333360385199e-01,-2.142353354944414867e-01,5.418382189313342145e-01,6.500457525253295898e-01,1.249614596366882324e+00,1.215181768068796373e+02,3.718773126602172852e-01
1.649969000000000019e+00,-1.326567256733554578e-01,4.910803505512329609e-02,9.113988876342773438e-01,2.298316711110465552e-02,3.913639591052175959e-03,-5.192720111961923735e-03,-9.537548062596881704e-02,3.836599413233629519e-02,-4.155997931957244873e-02,5.008946953232834565e-02,1.098799238263531864e-03,1.276310990019442204e-01,-2.984981475744287183e-01,1.198571300634250769e-01,-1.844764476394810671e-01,-2.212235077617143442e-01,2.198571300634250825e-01,-1.709996660054683426e-01,5.403814901270076465e-01,6.220352649688720703e-01,1.150011897087097168e+00,9.436154957258403897e+01,3.718773126602172852e-01
1.676619999999999999e+00,-1.366068625304256989e-01,4.976373100508026115e-02,9.103148579597473145e-01,2.006803817264836073e-02,2.118179440478762388e-03,-1.529033817840863563e-03,-9.329737170514577904e-02,4.342070312650159192e-02,-4.349626973271369934e-02,-1.159609604829204554e-01,-8.558555983810473000e-02,9.705896246344396239e-02,1.598665447082331659e-01,-1.644272365029201821e-01,1.925583954128233244e-01,2.128131372689777701e-01,-6.442723650292017656e-02,1.957707991340070786e-01,5.263840367106313867e-01,-1.668880581855773926e-01,1.158144116401672363e+00,9.516561310205628388e+01,3.718773126602172852e-01
1.699019000000000057e+00,-1.391688455062819740e-01,5.029811626652192641e-02,9.096525907516479492e-01,1.594866174658169516e-02,-1.300243507842413493e-04,1.332872458198020027e-03,-9.344392470571716292e-02,3.884759765751387428e-02,-3.929689154028892517e-02,-2.363078772060082100e-01,-1.270985640419793339e-01,1.683086633940715227e-01,1.837150610295241182e-01,-1.908127647293438311e-01,2.016830824268101008e-01,2.130600888403730020e-01,-9.081276472934381172e-02,1.969369545500160856e-01,5.261282597059295796e-01,-1.734124422073364258e-01,1.387905716896057129e+00,-2.130565667237818772e+01,3.884147405624389648e-01
1.724529999999999896e+00,-1.429803871317106567e-01,5.037849843341459660e-02,9.087922573089599609e-01,7.933576881326306549e-03,-4.004580183489370171e-03,5.455188041204150906e-03,-9.363956023965934461e-02,4.876626057599070529e-02,-4.153028130531311035e-02,-3.116826205987347498e-01,-1.013352610600183057e-01,1.717525660966008061e-01,2.490022966491703682e-01,-2.392647333746918958e-01,2.122740097308632723e-01,2.171782836349089585e-01,-1.392647333746918903e-01,1.961096953970581647e-01,5.237323101080232357e-01,-3.230092525482177734e-01,1.193251729011535645e+00,9.311644706802573523e+01,3.884147405624389648e-01
1.751077999999999912e+00,-1.465115105533646433e-01,5.053491146056214578e-02,9.080966711044311523e-01,8.469117021396821128e-04,-7.179825635103220804e-03,5.892789323648894850e-03,-8.343362532468230619e-02,4.499873959949959867e-02,-2.909744344651699066e-02,-1.531009844499660322e-01,-4.262688007330466683e-02,-2.650218604001729206e-02,2.921437439388013813e-01,-1.852463339036935497e-01,1.935308661337966918e-01,2.179377263144987309e-01,-8.524633390369354413e-02,1.764260337869270889e-01,5.204197003341296535e-01,-4.614627957344055176e-01,9.523123502731323242e-01,8.376416956585075013e+01,3.884147405624389648e-01
1.776941000000000104e+00,-1.497590112725344369e-01,5.057566781242039955e-02,9.075140953063964844e-01,-1.378408941097768745e-03,-7.263812181692586023e-03,3.934659592819356178e-03,-7.482375107375172085e-02,2.514945552054695388e-02,-2.534214779734611511e-02,1.586204061064227025e-02,4.311714703998294901e-02,-9.612042024830590170e-02,-1.289892252386506122e-01,1.220844187142979820e-01,-1.743991430640632334e-01,-2.030122728580909253e-01,2.220844187142979875e-01,-1.858112473768972484e-01,5.393881602246373141e-01,5.842454433441162109e-01,9.578517675399780273e-01,7.535309213130352646e+01,3.884147405624389648e-01
1.798313999999999968e+00,-1.515433337205190356e-01,5.131456933408064247e-02,9.070739150047302246e-01,2.232826347802186991e-04,-5.418766730546087373e-03,2.452864202418414408e-03,-7.187198687458627722e-02,3.606218540533859956e-02,-2.947326004505157471e-02,1.337371477093372563e-01,1.117657071229811450e-01,-8.483712327256971719e-02,-1.436784956022101323e-01,1.240885770945676925e-01,-2.094161192615230649e-01,-2.189158512892859787e-01,2.240885770945676980e-01,-2.168076796359323100e-01,5.397428136576564173e-01,5.793457031250000000e-01,9.000443220138549805e-01,9.643990100493805073e+01,3.884147405624389648e-01
1.825685000000000002e+00,-1.537543460476997470e-01,5.349015745880466438e-02,9.061971902847290039e-01,6.432855489230755210e-03,-4.141717279129153439e-04,1.994313282351889427e-04,-7.082704750357794732e-02,3.502733549851494432e-02,-3.317600861191749573e-02,2.510761766608195500e-01,1.606735358904366473e-01,-3.869834124887321092e-02,-1.910226326241621919e-01,1.245057918632172522e-01,-2.194815774090694838e-01,-2.248016502581182963e-01,2.245057918632172578e-01,-2.207093066129838799e-01,5.411247001607583096e-01,6.316401958465576172e-01,1.318716645240783691e+00,1.006539569681066695e+02,3.884147405624389648e-01
1.851642999999999928e+00,-1.560889133416124008e-01,5.580005977341293000e-02,9.052801132202148438e-01,1.162963748960591133e-02,3.699694732072211778e-03,1.529386484907968580e-03,-7.874863657852451682e-02,3.507438012654726794e-02,-2.621378377079963684e-02,1.384318808381172217e-01,1.249431041705059281e-01,4.962632940548999949e-02,-2.222486607184853691e-01,1.234899553471162370e-01,-2.080997398618089078e-01,-2.243798735382503684e-01,2.234899553471162426e-01,-2.131620441469507798e-01,5.414617058734688682e-01,6.675186157226562500e-01,9.212607145309448242e-01,8.770701920764567205e+01,3.884147405624389648e-01
1.875528000000000084e+00,-1.576780441687807843e-01,5.747448384837667429e-02,9.046724438667297363e-01,1.279201082159186695e-02,4.545553147971892471e-03,3.525550509983599312e-03,-6.917419899464538613e-02,5.233302293708855940e-02,-3.144245222210884094e-02,2.442899665280097790e-02,6.694344206515139700e-03,1.294097964364611386e-01,1.482875686013541416e-01,6.365572799253799152e-02,-4.914103792356517425e-02,1.389972873896186956e-01,1.636557279925379971e-01,-5.983103376333660101e-02,5.355395255005862554e-01,3.098024129867553711e-01,1.156412005424499512e+00,9.777153517609124833e+01,3.884147405624389648e-01
1.899038000000000004e+00,-1.603227547520796881e-01,5.952183798400511455e-02,9.038500189781188965e-01,1.092381179361394915e-02,3.849117764269660569e-03,6.936192253282902342e-03,-8.221288159104608861e-02,5.371527103840400413e-02,-2.574188448488712311e-02,-8.054375484006495722e-02,-1.997726032354591244e-02,1.558995564041598947e-01,2.332504774542820680e-01,-6.075602039194935577e-02,2.086118825081808570e-01,2.109618887142243604e-01,3.924397960805064978e-02,1.883302794063462238e-01,5.301911264264363988e-01,2.781236171722412109e-02,1.215852618217468262e+00,1.099229403133533367e+02,3.884147405624389648e-01
1.924077999999999955e+00,-1.621643405316718911e-01,6.080949256737858133e-02,9.033338427543640137e-01,8.013749210978823520e-03,1.786491263076284142e-03,8.642803866430570636e-03,-7.236422822270338617e-02,5.718812439985033330e-02,-2.096257172524929047e-02,-1.526255461523169932e-01,-1.181905526259785788e-01,3.413380159673116976e-02,2.610085220742395240e-01,-1.081257577555167770e-01,1.955112567650195976e-01,2.159347922230378247e-01,-8.125757755516778424e-03,1.705022054176064394e-01,5.208642956113065381e-01,-4.681020379066467285e-01,1.130113720893859863e+00,-7.831819336322196179e+00,3.884147405624389648e-01
1.949095000000000022e+00,-1.647672069402169315e-01,6.264322358326185336e-02,9.026974439620971680e-01,5.137660145204447047e-03,-1.483979764920650979e-03,9.667099221753128191e-03,-7.281322779762348929e-02,4.511668561407770894e-02,-1.080546714365482330e-02,-9.609380876608439315e-02,-1.437050047158944799e-01,-1.773598991645908285e-02,2.729050033909294348e-01,-2.310077619309058861e-01,1.999651751003133915e-01,2.171274326386420650e-01,-1.310077619309058805e-01,1.721319054872585130e-01,5.176990089305355536e-01,-6.064802408218383789e-01,1.189062237739562988e+00,8.959708964533911058e+01,3.884147405624389648e-01
1.972639999999999949e+00,-1.663283577715528039e-01,6.371191610298514163e-02,9.022704362869262695e-01,5.975331974422924686e-03,-3.411581547262398928e-03,8.707894077444766623e-03,-6.119701698110895788e-02,4.795128761495309755e-02,-4.441703204065561295e-03,1.258003184424567322e-01,-5.171531119569817286e-02,-7.353050259961893542e-02,-1.733412328281458414e-01,1.209273407533248690e-01,-1.974133530303703310e-01,-2.284464142357268412e-01,2.209273407533248745e-01,-2.226512629087318285e-01,5.399482217150436414e-01,6.283304691314697266e-01,8.856440782546997070e-01,7.443805168819692142e+01,3.884147405624389648e-01
2.000998000000000054e+00,-1.686359910765543035e-01,6.609931583683530121e-02,9.016948938369750977e-01,1.062667741087588817e-02,-4.196452281419293939e-03,6.281206164349129040e-03,-6.321809205168743562e-02,3.807163230696329614e-02,-1.217346079647541046e-02,1.880650040642576903e-01,1.459275701135319056e-02,-1.063347008621625261e-01,-2.095918481648946508e-01,1.228660495295425259e-01,-2.055954118469373593e-01,-2.277825777891530901e-01,2.228660495295425314e-01,-2.242465078662883027e-01,5.390855432755147225e-01,5.419441461563110352e-01,1.135446906089782715e+00,1.785567723769543136e+02,3.884147405624389648e-01
2.026476000000000166e+00,-1.707898802037744468e-01,6.877598695560070696e-02,9.007487297058105469e-01,1.669039676559195065e-02,-1.686643773270102287e-03,5.721493438979763368e-03,-5.892214466390433003e-02,5.352395726791298047e-02,-2.780257910490036011e-02,1.348074705682346941e-01,1.161970980109069546e-01,4.636208080274132476e-02,-2.312255679522290386e-01,1.213480933180126620e-01,-1.974223883853803707e-01,-2.247842320721321063e-01,2.213480933180126675e-01,-2.147487323753699273e-01,5.419075332387214283e-01,6.265419721603393555e-01,1.083555340766906738e+00,1.005255084305754139e+02,3.884147405624389648e-01
2.048756000000000022e+00,-1.722578484350422989e-01,7.066605466197867225e-02,9.001014828681945801e-01,1.869085342560494398e-02,-1.689888970430875048e-04,6.992251314634101433e-03,-6.212023634865445482e-02,5.152387098822684697e-02,-2.002084814012050629e-02,5.982140367659320723e-02,6.464321164518882501e-02,6.965533678991919775e-02,-2.469163056002768863e-01,1.210812116202221456e-01,-1.906126656005849018e-01,-2.256574393258944100e-01,2.210812116202221511e-01,-2.115280995800262465e-01,5.416904581131832819e-01,6.363463401794433594e-01,1.406897902488708496e+00,-1.009917712942663286e+02,3.884147405624389648e-01
2.076843999999999912e+00,-1.744623331941472510e-01,7.363341430574152358e-02,8.990231156349182129e-01,1.796543086218856458e-02,4.840989994459032886e-04,9.716225571123171534e-03,-6.105531188206211185e-02,5.802284878082767522e-02,-1.440691016614437103e-02,-8.519673432030198945e-02,-2.670660444197022615e-02,7.371677054293096498e-02,2.081015731618215125e-01,-2.127618747470778338e-01,2.145823769095744349e-01,2.167207932277572802e-01,-1.127618747470778282e-01,1.860491884425087283e-01,5.210833178982817726e-01,-4.825220704078674316e-01,1.266638159751892090e+00,9.015842874227661241e+01,3.884147405624389648e-01
2.101220999999999783e+00,-1.755854347028970863e-01,7.567619939837727516e-02,8.983597755432128906e-01,1.512092455648142257e-02,-2.873270771630576093e-04,1.197594051859796060e-02,-6.338304746181547267e-02,5.967905032441752494e-02,-1.575717702507972717e-02,-1.661895167155325037e-01,-9.725877020881899815e-02,1.273009451594266372e-01,2.277780831059296185e-01,-7.202548014720633329e-02,2.259724076890060329e-01,2.156182405748943709e-01,2.797451985279366532e-02,1.911548706952946597e-01,5.226471927510673021e-01,-4.121092557907104492e-01,1.368911147117614746e+00,8.429100937729052134e+01,3.884147405624389648e-01
2.124156999999999851e+00,-1.763223990182048173e-01,7.783391331702936566e-02,8.977547883987426758e-01,1.113582186274272856e-02,-1.727770942028472589e-03,1.334665018966774142e-02,-6.520902161561305255e-02,6.189179148450742185e-02,-6.840371061116456985e-03,-2.193561357103486209e-01,-6.421964933216850469e-02,-1.407199570585961762e-02,2.559859408303473693e-01,-9.857541682030135366e-02,1.751736717824526057e-01,2.143501029767989896e-01,1.424583179698651675e-03,1.365853820759013459e-01,5.201895898588222433e-01,-5.179584622383117676e-01,1.353619456291198730e+00,6.547213066661288394e+01,3.884147405624389648e-01
2.148753000000000135e+00,-1.772267404741192098e-01,8.078539426496464393e-02,8.969200849533081055e-01,7.923453984807244874e-03,-3.729010601619453524e-03,1.207245422811342728e-02,-4.664216452902436583e-02,5.425139585555353167e-02,-7.407740689814090729e-03,-4.747760760480539133e-02,-6.480677553261958435e-02,-9.726604636757990585e-02,2.354102360367945068e-01,2.607858052831518725e-02,-1.719895611139425629e-01,1.772464469444446633e-01,1.260785805283151928e-01,-2.068458495157377841e-01,5.177305720373277520e-01,-6.602175831794738770e-01,1.201235175132751465e+00,9.034976283149617871e+01,3.884147405624389648e-01
2.178440999999999850e+00,-1.777315752237814683e-01,8.259472148532516489e-02,8.963668942451477051e-01,8.980449376850786411e-03,-3.335776410916313495e-03,1.056457738912763844e-02,-5.237848778208530065e-02,5.211755634978572360e-02,-4.384441766887903214e-03,1.396365065609503076e-01,4.867795971441091218e-02,-8.506650888888298012e-02,-1.760983476680514359e-01,1.221851556625024871e-01,-1.941174601263814803e-01,-2.282557544669344685e-01,2.221851556625024926e-01,-2.248346407473962305e-01,5.387887084243112579e-01,4.934949874877929688e-01,1.322064757347106934e+00,1.152365884310023034e+02,3.884147405624389648e-01
2.198754999999999793e+00,-1.782017235611568773e-01,8.428688874039755308e-02,8.957178592681884766e-01,1.213023860394198301e-02,-2.287433684140527390e-03,9.073638803096528704e-03,-4.668346409417600817e-02,4.759375620512780458e-02,-1.313699036836624146e-02,1.511877818789189587e-01,3.214179486317866874e-02,-2.820458396772182810e-02,-1.979591747851585093e-01,1.212307630774496492e-01,-1.961186129739622142e-01,-2.274628594703623496e-01,2.212307630774496547e-01,-2.227175695137208478e-01,5.383081891046902490e-01,4.242814779281616211e-01,1.202745079994201660e+00,9.285374433216870216e+01,3.884147405624389648e-01
2.226662000000000141e+00,-1.800444166901986887e-01,8.609779962953054144e-02,8.945995569229125977e-01,1.901100561419089008e-02,-7.037505838207724906e-04,1.010212416250699796e-02,-5.235753610258322283e-02,5.168362793085509721e-02,-1.397787407040596008e-02,2.743940082623360643e-01,6.163574619313387515e-02,8.362089464804321748e-02,-2.365724995172999445e-01,1.197609905330664359e-01,-1.831210108852792395e-01,-2.267829197113634121e-01,2.197609905330664415e-01,-2.128916049990795256e-01,5.406102036143425327e-01,5.375556945800781250e-01,1.174121260643005371e+00,1.121416589633402765e+02,3.884147405624389648e-01
2.254580999999999946e+00,-1.819532788229538678e-01,8.792978148183257237e-02,8.933699727058410645e-01,2.343084568541682275e-02,-5.700629339553398012e-04,1.255725687182462913e-02,-4.976392533420542080e-02,5.536735517554868674e-02,-1.580672897398471832e-02,1.134429470508642457e-01,-3.236344763011449188e-02,7.856786374285407160e-02,-2.634442874921545386e-01,1.180954333652242116e-01,-1.797183652648600971e-01,-2.289738029237297356e-01,2.180954333652242172e-01,-2.165479039529246419e-01,5.414883082894007549e-01,5.681021213531494141e-01,9.493685960769653320e-01,-5.265615495329772244e+01,3.884147405624389648e-01
2.275497000000000103e+00,-1.832183458105188789e-01,8.925702532300114345e-02,8.924505710601806641e-01,2.316324715742439089e-02,-9.062728874855707772e-04,1.457007813138444519e-02,-5.511714194313731968e-02,5.573521605273339813e-02,-2.175862155854701996e-02,-1.056165086199470082e-01,-1.795473387774228213e-02,1.089770374419758714e-01,1.836635955805023535e-01,-2.402223832705173145e-01,9.817477020856546499e-02,2.152167836171494097e-01,-1.402223832705173090e-01,5.564757839125233224e-02,5.246287760340146988e-01,-3.932976722717285156e-01,9.444514513015747070e-01,2.421058564525609214e+01,3.884147405624389648e-01
2.300726000000000049e+00,-1.850333734973510502e-01,9.117264913464327714e-02,8.910405635833740234e-01,1.870054880317732759e-02,-3.323334430834545827e-03,1.800220992648737806e-02,-5.937216480340534730e-02,6.081811510930844322e-02,-2.592615410685539246e-02,-2.074847457983829968e-01,-9.107549509044088332e-02,1.283130331945635805e-01,2.187499064139143412e-01,-8.968693270209598944e-02,1.648137656640059068e-01,2.155264889245207538e-01,1.031306729790401090e-02,1.126723081359670697e-01,5.234274421647056030e-01,-4.879177808761596680e-01,1.281356453895568848e+00,1.150823764199217578e+02,3.884147405624389648e-01
2.324345999999999801e+00,-1.860340227803823632e-01,9.219712498379802057e-02,8.900715112686157227e-01,1.432353124202992260e-02,-5.826357275148907888e-03,1.985389016271299489e-02,-5.670511164402796539e-02,5.724706490182062540e-02,-7.492239587008953094e-03,-1.795043887075176148e-01,-1.449558985261806265e-01,5.487824838582700676e-02,2.362496609515391810e-01,1.437416140713693169e-02,2.082949408655901946e-01,2.062906770379966115e-01,1.143741614071369372e-01,1.510738786672460865e-01,5.198954305582991209e-01,-6.156290769577026367e-01,9.171813726425170898e-01,9.262748065553368804e+01,3.884147405624389648e-01
2.348485000000000156e+00,-1.873143958434614342e-01,9.352780126886021950e-02,8.886992931365966797e-01,1.030877812410514738e-02,-7.745623355000175181e-03,1.963920953586839602e-02,-3.515504932344969136e-02,4.707706708392009332e-02,-1.497070025652647018e-02,-5.643582436278166137e-02,-4.130449150921248341e-02,-6.153995027565097031e-02,2.466613625031402190e-01,2.311130075054142197e-02,7.468817872296681926e-04,1.971645979919888214e-01,1.231113007505414275e-01,-5.561287904461207493e-02,5.201199512543438486e-01,-6.432536840438842773e-01,7.884424924850463867e-01,1.398405690667890440e+02,3.884147405624389648e-01
2.376386000000000109e+00,-1.884116439747983984e-01,9.463186930161127108e-02,8.873481154441833496e-01,1.129157384479415743e-02,-7.599940085554424130e-03,1.794734098256456356e-02,-4.399961096644864483e-02,3.919222670512317874e-02,-2.446595020592212677e-02,8.040668441139574296e-02,8.309417557046398090e-03,-5.414347109144736908e-02,-1.904988657767564819e-01,1.200181678089276283e-01,-1.739837955225265465e-01,-2.297678095068335091e-01,2.200181678089276338e-01,-2.256852140510159643e-01,5.420731524020081515e-01,5.102754831314086914e-01,1.236304163932800293e+00,8.380103209680130760e+01,3.884147405624389648e-01
2.399309000000000136e+00,-1.888810870092532401e-01,9.524870662287222844e-02,8.863601684570312500e-01,1.461770180657433887e-02,-7.539856929979160682e-03,1.714176059253946782e-02,-4.365870757384245071e-02,3.718608721648757054e-02,-2.064170129597187042e-02,1.998148822467871455e-01,2.976796913149400148e-02,-5.923272897036772899e-02,-2.109939380444225965e-01,1.191634705913356962e-01,-1.733959928448042254e-01,-2.289389312397532017e-01,2.191634705913357017e-01,-2.230104223233351779e-01,5.385731412581536981e-01,3.202352523803710938e-01,1.527939915657043457e+00,7.360337525086468702e+01,3.884147405624389648e-01
2.428256999999999888e+00,-1.890461898079762171e-01,9.581524420121947938e-02,8.853334784507751465e-01,1.871140115414767283e-02,-7.636864146148170107e-03,1.734594223769558852e-02,-4.497344435007798874e-02,3.937887027049689209e-02,-3.181735798716545105e-02,1.631177994692276090e-01,1.910406225002759736e-02,7.619389853201438689e-02,-2.337918434739781059e-01,1.176090455525860556e-01,-1.590943898682442570e-01,-2.275731870057305095e-01,2.176090455525860612e-01,-2.095233816790950110e-01,5.409671534625909439e-01,3.974087238311767578e-01,1.508632063865661621e+00,6.149975411703599804e+01,3.884147405624389648e-01
