timestamp,x,y,z,roll,pitch,yaw,vx,vy,vz,p,q,r,psp,qsp,rsp,pres,qres,rres,thrust_sp, thrust_res
0.000000000000000000e+00,-1.036387317666239219e-02,1.069246432332193308e-03,9.996010065078735352e-01,1.159544790710175313e-02,-7.455492833788879281e-03,9.398237392253107423e-04,6.154597630697681947e-03,-3.007569323531904260e-03,-8.236504509113729000e-04,5.322066829566312468e-02,-2.347125981708021031e-02,2.104442225995378779e-02,-5.061324014420641448e-02,4.959973641739810063e-02,-2.073791144684914156e-01,2.652808427810668737e-02,9.958711266517639160e-02,-2.101325154304504450e-01,5.129538522647687504e-01,4.853415489196777344e-02,-6.628930568695068359e-02,1.152327635250670994e+02,1.873635530471801647e-01
2.184399999999999883e-02,-1.038625220674298938e-02,7.512265948893028780e-04,9.996961355209350586e-01,1.132138566350815098e-02,-7.232801617286899187e-03,9.488264693836083149e-04,-9.277914914355650609e-04,-7.987233231304135400e-03,-7.955480366945266724e-03,-4.722534363995508494e-02,3.262789141005951327e-02,2.991017185578589282e-02,-2.561091940695699454e-01,9.300347661522344322e-02,1.468514916958890970e-01,-1.769634068012237438e-01,1.482077300548553522e-01,1.440703511238098089e-01,5.096095284646587897e-01,-1.577638983726501465e-01,3.328279256820678711e-01,6.853400201869204977e+01,1.873635530471801647e-01
5.233199999999999658e-02,-1.044481166479684954e-02,-1.850612881483382341e-04,9.998764991760253906e-01,1.121749498063106566e-02,-7.765092483929425526e-03,1.129078426723470084e-03,8.460593867288186340e-03,-7.614423418478396405e-03,-1.467367867007851601e-03,8.865130733008069752e-03,-2.765251568277164729e-02,-6.359416335737984836e-03,2.235535320892084732e-02,1.490941892640330613e-01,-1.837147067199589867e-01,1.004242300987243652e-01,1.991936266422271729e-01,-1.869885921478271484e-01,5.088185636084011643e-01,-1.734717488288879395e-01,-4.036651849746704102e-01,1.307222938455786903e+02,1.873635530471801647e-01
7.543199999999999905e-02,-1.045387138824044847e-02,-9.278355424557229282e-04,9.999983906745910645e-01,1.089542233117551245e-02,-7.857780018907467579e-03,1.156408933066314579e-03,1.252540397958822743e-02,-1.074708414618119959e-02,4.942619707435369492e-03,-2.698197354809294193e-02,-6.551974147767037661e-03,-2.058411502496579337e-02,-2.749342441189213115e-01,-1.978072181919241501e-01,-9.989330617160545323e-02,-1.958544194698333685e-01,-1.490051507949829157e-01,-1.032323956489562961e-01,5.024670456910634853e-01,-4.827402830123901367e-01,1.689831018447875977e-01,9.584432899988044596e+01,1.873635530471801647e-01
9.556299999999999517e-02,-1.044128922660892377e-02,-1.761466437597331144e-03,1.000061392784118652e+00,1.003584066634167528e-02,-8.174654100552514180e-03,5.240399324182029930e-04,9.768351062830735176e-03,-9.967354953898881209e-03,-1.969635020941495895e-03,-1.863579056019581265e-02,-7.997017816778499710e-02,-2.362702874123016883e-02,-2.803417480413306628e-01,-3.888288525311953125e-02,-2.088149087128925996e-01,-2.073963761329650768e-01,1.480364799499511719e-02,-2.103845357894897350e-01,5.043353648084080154e-01,-4.115931391716003418e-01,7.733547687530517578e-02,9.410829298834913459e+01,1.873635530471801647e-01
1.207749999999999935e-01,-1.045518492030909560e-02,-2.834356466630916314e-03,1.000036954879760742e+00,6.589899480745673929e-03,-9.437584380650010374e-03,-1.363676174102249462e-04,2.614769206801533658e-03,-2.243286845111264107e-03,-1.492456067353487015e-02,-1.225801084243530320e-01,-6.068527819382690813e-02,-3.996186843188517801e-03,-1.477632637045281361e-01,-2.424908333342080669e-01,-2.151359864270988020e-01,-1.026551842689514132e-01,-1.752082228660583330e-01,-2.148445844650268555e-01,5.003483519323815853e-01,-6.730230450630187988e-01,8.272325992584228516e-02,9.882472985553970091e+01,1.873635530471801647e-01
1.454709999999999892e-01,-1.051668550539884388e-02,-3.732881042222949055e-03,9.996713399887084961e-01,1.219289367183895838e-03,-1.053368289230083299e-02,1.392339163604637900e-03,9.998592149553666916e-03,-5.640244829718001757e-03,-2.961766719818115234e-02,-2.639763310589500200e-01,6.512105508124863169e-03,6.982591405390410622e-02,-5.505813638698357770e-02,-1.008311857092786118e-01,-1.982602545941549443e-01,-4.039683938026428223e-02,-3.336739540100097656e-02,-2.021614551544189398e-01,5.072750916414965339e-01,-3.693511486053466797e-01,-6.601504087448120117e-01,1.321153792286945077e+02,1.873635530471801647e-01
1.718989999999999962e-01,-1.050093529276843393e-02,-4.050756341171616974e-03,9.990171790122985840e-01,-6.031079079313582565e-03,-9.392642568143649839e-03,4.264517691685378899e-03,9.817747952075612941e-05,9.864061365605910486e-03,-4.534898698329925537e-02,-2.682212235570526349e-01,1.009293073421324710e-01,1.290592525962568904e-01,2.122621988808695570e-01,1.316678146963012885e-01,-1.979067132905792947e-01,1.670801639556884766e-01,2.007378280162811224e-01,-2.097712755203247070e-01,5.053421108500475434e-01,-5.385506153106689453e-01,-4.047286510467529297e-02,1.172312358950778162e+02,1.873635530471801647e-01
1.954170000000000074e-01,-1.044064711917176702e-02,-4.034582911904546765e-03,9.984044432640075684e-01,-1.046243243760540224e-02,-7.584251345232884134e-03,6.265515115166962051e-03,7.259264652683855394e-03,4.956376109636937734e-03,-3.524648025631904602e-02,-2.148861540543465787e-01,1.062304584655067718e-01,6.547118471628377012e-02,2.558319046802039476e-01,1.580136780632178106e-01,-1.895247778578300901e-01,1.880453467369079534e-01,2.082181870937347412e-01,-2.069546699523925615e-01,5.038570055567219708e-01,-5.811634659767150879e-01,1.822324991226196289e-01,4.059379157715049757e+01,1.873635530471801647e-01
2.223749999999999893e-01,-1.033425498985329066e-02,-3.970400904427684452e-03,9.973602294921875000e-01,-1.561723230508671283e-02,-3.920701185384789511e-03,9.845157942808173759e-03,3.302559361512932921e-03,1.007433475703774922e-02,-5.141261965036392212e-02,-1.496367959063024111e-01,1.334957203516632385e-01,1.147353416165345918e-01,2.859748959541320579e-01,1.826763970201671083e-01,-1.457756841084157928e-01,1.859748959541320801e-01,2.133043527603149248e-01,-1.732436299324035534e-01,5.053968996676422298e-01,-5.706892013549804688e-01,2.257215976715087891e-02,1.140574450632588253e+02,1.873635530471801647e-01
2.466220000000000079e-01,-1.031888503793413833e-02,-3.886811405237364063e-03,9.962915778160095215e-01,-1.527881042648579837e-02,-3.594750929605483591e-03,1.364144667344742955e-02,-5.319657676191349429e-04,9.093780840959901635e-03,-5.417215824127197266e-02,5.426738093083207509e-02,-1.104121561192812281e-02,1.239424636910276128e-01,-6.997591257095336914e-02,-5.869807957518816122e-02,-5.284898675478190422e-02,-1.699759125709533747e-01,-2.761062383651733190e-02,-9.094576835632324496e-02,5.235244316568412604e-01,3.811440467834472656e-01,2.940200567245483398e-01,-9.503417977185772259e+01,1.873635530471801647e-01
2.724900000000000100e-01,-1.044123928730653419e-02,-4.080325397093724320e-03,9.955696463584899902e-01,-1.170231502700699346e-02,-5.602666647529064292e-03,1.616621353172929126e-02,8.138403090971658592e-04,1.410707766861452397e-02,-4.298436269164085388e-02,2.754594109108817745e-01,-1.648190444612756544e-01,1.096008575098716686e-01,2.773647017509777157e-01,1.155351476009913725e-02,-1.705283013320875452e-01,1.940436601638793890e-01,5.410006642341613770e-02,-2.156963109970092829e-01,5.147233815229488307e-01,-5.406671762466430664e-02,-2.798998355865478516e-02,9.316774861888170278e+01,1.873635530471801647e-01
2.966579999999999773e-01,-1.070544355724716880e-02,-4.573453924910311427e-03,9.943858385086059570e-01,-5.086048030794915360e-03,-9.392206602415908989e-03,1.897728335915174411e-02,1.393171933400724673e-03,9.949262394648309207e-03,-5.108495429158210754e-02,1.875466718303352431e-01,-8.692776430761120499e-02,4.443029166438287186e-02,2.205759902937285966e-01,-1.571423379218478411e-03,-1.637099849043404942e-01,1.847100734710693248e-01,6.544160842895507812e-02,-2.167788863182067705e-01,5.174221723958410957e-01,5.117464065551757812e-02,2.589956521987915039e-01,8.392816923801193241e+01,1.873635530471801647e-01
3.229199999999999848e-01,-1.082971027663073328e-02,-4.764718227962254360e-03,9.934281706809997559e-01,-2.053901353109782637e-03,-1.076577101631026601e-02,2.089135312713241016e-02,9.733837163909964119e-03,2.527199899328104807e-02,-6.856273114681243896e-02,1.806546646389117772e-01,-5.622667699085234089e-02,1.204679728437756253e-01,9.917291327087102148e-02,-6.647323183983866457e-02,-1.448154013415598740e-01,7.048702239990234375e-02,2.706706523895263672e-03,-2.033154487609863115e-01,5.225535916359117516e-01,2.513780593872070312e-01,4.242241382598876953e-02,1.055789263408468912e+02,1.873635530471801647e-01
3.458939999999999793e-01,-1.092402237545269349e-02,-4.803833242112979379e-03,9.923601746559143066e-01,7.764061205032027867e-04,-1.135228582800462682e-02,2.282317050307157077e-02,-1.101823260712166130e-02,8.573771229840749727e-03,-5.842046067118644714e-02,1.650052482089669204e-01,-5.192591028455579433e-02,1.003594498172272753e-01,1.136718839278066419e-03,-1.017589962561202266e-01,-1.439430356400950572e-01,6.038403511047362761e-03,-1.077793836593627860e-02,-2.078628659248351884e-01,5.221305051797128227e-01,2.610033750534057617e-01,-8.105119466781616211e-01,9.973200437356000236e+01,1.873635530471801647e-01
3.700729999999999853e-01,-1.108146735157297148e-02,-5.073862218473877174e-03,9.906122684478759766e-01,5.890544040745344760e-03,-1.174923787130066621e-02,2.631474267230852343e-02,7.048574105963018900e-03,2.263594295192304651e-02,-7.412979006767272949e-02,1.462751839343181537e-01,6.731129568020560727e-02,1.009801589499929736e-01,-2.342420943953910373e-01,-9.781413135523492342e-02,1.297442623584589838e-01,-2.091497898101806474e-01,-2.196772098541259835e-02,5.593389272689819336e-02,5.165165878702162594e-01,-1.146572828292846680e-01,1.933706998825073242e-01,9.272220854913260268e+01,1.873635530471801647e-01
3.983419999999999739e-01,-1.108358356528572897e-02,-5.664992965450319287e-03,9.887412190437316895e-01,1.148056135797724878e-02,-1.119687244595457543e-02,2.965723121004333954e-02,-6.771596392293450714e-03,1.322703073010939208e-02,-7.115716487169265747e-02,1.896530671302533444e-01,1.800029336229912527e-02,1.329084056818547188e-01,-2.849014621075166565e-01,-2.067183121403898260e-02,-7.694706373479756611e-03,-2.139562904834747259e-01,6.511716842651367465e-02,-9.095649719238281528e-02,5.162050880756263727e-01,-1.311430931091308594e-01,8.449658155441284180e-01,-4.448610806437108067e+01,1.873635530471801647e-01
4.214410000000000101e-01,-1.101519532389150235e-02,-5.978185252012232706e-03,9.874656796455383301e-01,1.360353232821831689e-02,-9.423551431238186282e-03,3.070679690483621438e-02,6.470055933693545820e-03,1.932529477413200830e-02,-7.679879665374755859e-02,6.875123585822635885e-02,1.521948609015839893e-01,-5.869786260950273643e-03,-2.911450611357502827e-01,3.096626003618822842e-02,2.881020283979823793e-01,-2.121896445751190186e-01,9.247734546661376398e-02,2.019240260124206543e-01,5.165971398934869896e-01,-1.418744325637817383e-01,-3.902274370193481445e-01,6.421549880273559552e+01,1.873635530471801647e-01
4.484079999999999733e-01,-1.085304187159833941e-02,-6.205171878616459746e-03,9.852594137191772461e-01,1.203661146309566859e-02,-6.130424266833189861e-03,3.153361226414157226e-02,1.156429909312755092e-02,2.582653842062269597e-02,-9.653627127408981323e-02,-1.626012175427309914e-01,1.018208785288349932e-01,6.627362263262820408e-02,-2.403057312790234379e-01,1.098022709286534948e-01,2.342124092811995462e-01,-1.757272481918334961e-01,1.476438760757446123e-01,1.458033442497253251e-01,5.166056020174862873e-01,-2.336829900741577148e-01,1.980482339859008789e-01,1.041127511034227808e+02,1.873635530471801647e-01
4.708019999999999983e-01,-1.074235261844120812e-02,-6.007542613236865198e-03,9.836827516555786133e-01,8.803169833295753158e-03,-4.257228437743787453e-03,3.098428689499756888e-02,4.548687450401874693e-03,3.005248262201078505e-02,-8.970699459314346313e-02,-1.928871105287140175e-01,8.087700937972829018e-02,-8.753736912995016550e-02,-2.324049654462029824e-01,8.234413792250719344e-02,3.797677063946271886e-02,-1.916879475116729792e-01,1.142991900444030734e-01,-4.885711669921875139e-02,5.140696446381022300e-01,-3.541156053543090820e-01,-1.548353433609008789e-01,9.849712666218921697e+01,1.873635530471801647e-01
4.984739999999999727e-01,-1.060266363378271036e-02,-5.192437570080184715e-03,9.812067151069641113e-01,1.488649512812646172e-03,-3.258828457050721994e-03,2.861739007302509241e-02,6.962953694131617660e-03,3.621405129969756942e-02,-1.069406867027282715e-01,-2.901782252294297093e-01,1.260506501680378616e-02,-5.756892508965500560e-02,-9.585703295714211036e-03,1.465804274474495350e-01,-1.028661562031647214e-01,-2.113659381866455148e-02,1.693044304847717285e-01,-1.830179214477538896e-01,5.144580965990124266e-01,-4.175134897232055664e-01,-1.284945011138916016e-02,1.002952354328975986e+02,2.187846422195434681e-01
5.227519999999999945e-01,-1.052568124189213160e-02,-4.547267294069365882e-03,9.794395565986633301e-01,-3.592219282163142471e-03,-3.870906732190482202e-03,2.725030821867734793e-02,9.840859231410182661e-04,3.285243694237648809e-02,-9.812051802873611450e-02,-2.410991561289582974e-01,-7.459047204872941428e-02,-5.808673692412285455e-02,1.057999643388553013e-01,-1.045746096564989791e-01,-1.298977331736944352e-01,6.413025856018066129e-02,-7.257192134857178012e-02,-2.061927080154419001e-01,5.108383785276241484e-01,-5.887050032615661621e-01,-2.077125310897827148e-01,8.817511256203415826e+01,2.187846422195434681e-01
5.470429999999999460e-01,-1.052918313897269545e-02,-3.479604886207871700e-03,9.767107963562011719e-01,-1.143594330041762704e-02,-5.788839086383612553e-03,2.728695424066517050e-02,6.421452560440642915e-03,4.375093003469353314e-02,-1.059758588671684265e-01,-2.703545930022990262e-01,-4.148127039387761866e-02,2.653751771356711864e-02,3.026395320892333873e-01,1.618347252436828643e-01,-1.437254718424224864e-01,2.026395320892333818e-01,2.012901484966277965e-01,-2.200669884681701605e-01,5.105992797127381078e-01,-6.497831940650939941e-01,-1.002873182296752930e-01,2.815184726806898396e+01,2.187846422195434681e-01
5.701650000000000329e-01,-1.061257393244654547e-02,-2.689629334654642778e-03,9.749484658241271973e-01,-1.479773900583181666e-02,-8.479324869572257839e-03,2.846394066004584791e-02,5.163960310484152702e-03,4.538033612824737134e-02,-1.007620915770530701e-01,-1.186097440936955821e-01,-1.877888833281010639e-01,8.103624322073707531e-02,3.056337356567382924e-01,-2.523535346882410657e-01,-1.472303299929577647e-01,2.056337356567382868e-01,-1.934633731842040905e-01,-2.267948269844055065e-01,5.091584816836826066e-01,-7.190008163452148438e-01,-1.425110101699829102e-01,1.001814035001901715e+02,2.187846422195434681e-01
5.982600000000000140e-01,-1.067865801589148837e-02,-1.548607118776374825e-03,9.723737239837646484e-01,-1.623023069810823268e-02,-1.144026766067285372e-02,3.057032139920185312e-02,-9.545275670925215325e-03,3.944458364660968080e-02,-9.321042150259017944e-02,5.232099226007244641e-02,-1.139062908093871895e-01,4.404262066642080503e-02,3.069252729415893333e-01,-2.350420234391552010e-01,-1.131563228616980776e-01,2.069252729415893555e-01,-1.453146457672118974e-01,-1.985092163085937500e-01,5.190263894244264709e-01,-1.777281761169433594e-01,4.796713590621948242e-01,1.214784660870451773e+02,2.187846422195434681e-01
6.214629999999999876e-01,-1.069687974980586265e-02,-8.066040944347107472e-04,9.707740545272827148e-01,-1.403276385579849822e-02,-1.267009110505923353e-02,3.239619720933250430e-02,5.646311962602870022e-04,4.669356174226309969e-02,-1.018206402659416199e-01,1.095608975462385309e-01,4.191562651256579286e-02,1.015475386187981305e-01,-1.009558200836181419e-01,5.322715756335588688e-02,2.597211423516591067e-01,-2.009558200836181474e-01,1.406993508338928167e-01,1.691886305809020830e-01,5.187125623049796408e-01,-2.415524721145629883e-01,-4.171359539031982422e-02,1.026781518305316467e+02,2.187846422195434681e-01
6.449989999999999890e-01,-1.065251085413206587e-02,-5.467865710937713867e-05,9.691434502601623535e-01,-9.629668153787978094e-03,-1.276303463698513774e-02,3.400483218517747624e-02,5.396082149334744185e-03,4.269748267689507659e-02,-9.662449359893798828e-02,2.990083381648753758e-01,-1.009443264668710011e-02,7.222189760428916749e-02,1.521301662197995230e-01,1.350181770622689847e-01,-6.127893729355141095e-03,6.216545104980468472e-02,2.206330418586730790e-01,-1.012397289276123075e-01,5.223049516890913013e-01,-3.984487056732177734e-02,-1.199196577072143555e-01,1.021494746982051538e+02,2.187846422195434681e-01
6.693940000000000445e-01,-1.040876754894475530e-02,1.166319284619361145e-03,9.666540026664733887e-01,-2.469299199240737944e-03,-8.423818550356454438e-03,3.520894687485538743e-02,1.197941606104614351e-02,4.558897086348268762e-02,-1.064324229955673218e-01,1.697644608770275676e-01,2.340137098160335050e-01,-3.808134451804912751e-02,-1.538799612298141495e-01,7.503594907996363750e-02,2.982120832408688971e-01,-2.010098218917846513e-01,1.273841142654418834e-01,1.996016979217529186e-01,5.216350633230831813e-01,-1.316996812820434570e-01,2.037914991378784180e-01,1.022846987833930541e+02,2.187846422195434681e-01
6.969189999999999552e-01,-1.002980157295761329e-02,2.006903946549931737e-03,9.640225172042846680e-01,3.092164320771763428e-03,-5.428604924297308898e-03,3.428911739527676361e-02,9.611660112051631163e-03,5.004222750016429355e-02,-1.130231395363807678e-01,1.558962664645936191e-01,6.601638359635943198e-02,8.624362138677567693e-03,-1.851009990839137531e-01,1.149398819486611434e-01,2.646204708646138770e-01,-1.999691784381866511e-01,1.500197589397430364e-01,1.685467064380645752e-01,5.201558694918464454e-01,-2.555363178253173828e-01,-2.347052097320556641e-02,9.873647015108480218e+01,2.187846422195434681e-01
7.196379999999999999e-01,-9.792119559637319295e-03,2.660260092616792936e-03,9.622484445571899414e-01,5.812802454181672900e-03,-4.842909235558634506e-03,3.311436682312118851e-02,1.635051564537714477e-04,5.158869410112454368e-02,-9.950492531061172485e-02,1.223948259491464269e-01,1.015899384129928876e-02,-9.675982757132040035e-02,-1.808142610270007944e-01,1.468893140727676183e-01,3.088898924412866176e-01,-1.794473826885223389e-01,1.849446415901183915e-01,2.160755038261413519e-01,5.283740667239672506e-01,2.301337718963623047e-01,1.209024190902709961e-01,8.772903290734062409e+01,2.187846422195434681e-01
7.462259999999999449e-01,-9.446312072211528535e-03,3.834090021584046250e-03,9.594405889511108398e-01,6.149072406763036666e-03,-5.514435674511375396e-03,2.984815736298669642e-02,1.416977550093499044e-02,6.239649142164464118e-02,-1.226442903280258179e-01,-7.012849377835979336e-02,-1.286951454396950863e-02,-9.939141415453975337e-02,-1.891278443488110528e-01,2.002781474173522674e-02,2.458397645574469104e-01,-1.941163122653961071e-01,4.991086721420288225e-02,1.621795356273651179e-01,5.227082659896321593e-01,-1.888538599014282227e-01,-1.106110811233520508e-01,-5.241596110585047086e+01,2.187846422195434681e-01
7.702820000000000222e-01,-9.210362786040213537e-03,4.742483700850041659e-03,9.574615955352783203e-01,4.519522941074096030e-03,-7.140513085836630580e-03,2.689690361366729385e-02,-3.083664534631098790e-03,5.949200407789624612e-02,-1.148778572678565979e-01,-9.842421073074393567e-02,-1.092575873346892795e-01,-1.737942021387016978e-01,-1.465204668548552303e-01,7.582201562880114265e-02,2.396683818466950611e-02,-1.594309151172637884e-01,1.317552208900451549e-01,-5.147809982299804410e-02,5.219155063338395406e-01,-2.167421579360961914e-01,-4.740277528762817383e-01,8.438570311994357098e+01,2.187846422195434681e-01
7.972489999999999855e-01,-9.198604019289326195e-03,6.450825196301630642e-03,9.543967843055725098e-01,-7.106017046137914081e-04,-9.961948760268901637e-03,2.298677403465125557e-02,7.360926553878886607e-03,6.968721579210790384e-02,-1.283577829599380493e-01,-2.398803058331009097e-01,-6.219769271703168290e-02,-1.086971462280944961e-01,2.215498073175639349e-01,-1.845466956674757242e-01,-1.507170877374981732e-01,1.655302405357360895e-01,-1.206439733505249023e-01,-2.151797533035278154e-01,5.155180609695666494e-01,-6.354284286499023438e-01,2.276021242141723633e-01,5.345378102947722709e+01,2.187846422195434681e-01
8.225949999999999651e-01,-9.180332487707811018e-03,7.733745174981557224e-03,9.523839950561523438e-01,-4.219982081814938231e-03,-1.225475352149718589e-02,2.103885598781878724e-02,9.331540459924224720e-03,7.418525248829030416e-02,-1.137975752353668213e-01,-1.866251061371528575e-01,-1.109904124345827275e-01,-1.251337221723912707e-01,2.844963087913610078e-01,-2.617694312459848405e-01,-1.617061816041777955e-01,2.024976253509521429e-01,-1.828976154327392467e-01,-2.206861495971679521e-01,5.146070151925390412e-01,-6.427967548370361328e-01,-8.925139904022216797e-02,9.891055118246090672e+01,2.187846422195434681e-01
8.453270000000000506e-01,-9.251762141193343655e-03,9.057931857426490888e-03,9.503935575485229492e-01,-7.540971726975497641e-03,-1.358134601217808601e-02,2.037689219525755033e-02,2.648240478326889871e-03,7.566092794937478994e-02,-1.200210303068161011e-01,-1.573188716496064232e-01,-4.283640091481904361e-02,1.417333531578576257e-02,3.068806052207946888e-01,-8.499434153361762334e-02,-1.667567417535766872e-01,2.068806052207946833e-01,8.089792728424071225e-03,-2.238336682319641002e-01,5.142135583917737396e-01,-7.048158645629882812e-01,3.732796907424926758e-01,6.037248603603875807e+01,2.187846422195434681e-01
8.698489999999999833e-01,-9.347237836291998753e-03,1.111176124164045889e-02,9.475811123847961426e-01,-9.102987318270576445e-03,-1.406931215358175891e-02,2.113629212538890856e-02,5.239067451813303813e-03,7.098003428362001377e-02,-1.108409389853477478e-01,3.857427774492843547e-02,-1.640623121852465352e-02,4.506964090730353895e-02,2.776227474212646373e-01,-1.284149021234629873e-01,-7.308393781782265841e-02,1.776227474212646318e-01,-3.496638536453246932e-02,-1.322483539581298662e-01,5.266702940564624846e-01,-1.531124114990234375e-02,-6.841790676116943359e-02,1.015657189204116690e+02,2.187846422195434681e-01
9.001660000000000217e-01,-9.631170819957856483e-03,1.251649172832501600e-02,9.458327293395996094e-01,-7.196262418392785840e-03,-1.233502251189166898e-02,2.214131306910539429e-02,5.579734972716374718e-03,7.512184691135519177e-02,-1.015001684427261353e-01,1.230000822429943019e-01,1.408353218523369088e-01,2.368186112397452706e-02,-7.827400565147399347e-02,5.090099313006613002e-02,2.506381497380919532e-01,-1.782740056514739990e-01,1.331875920295715332e-01,1.886095225811004472e-01,5.181933295798925032e-01,-4.522023200988769531e-01,1.968530416488647461e-01,1.075000399883180364e+02,2.187846422195434681e-01
9.309250000000000025e-01,-9.911741633350776293e-03,1.387543148027392363e-02,9.441118240356445312e-01,-3.210808008129468344e-03,-1.028482192164204001e-02,2.353221547269598868e-02,5.455613699332223857e-03,6.886325914516301661e-02,-1.009051650762557983e-01,2.896615164052327995e-01,8.639726399786830380e-02,9.809178721592806682e-02,-6.772613942734732884e-02,1.436877543700112170e-01,2.622705453496009254e-01,-1.431911945343017634e-01,2.128702819347381425e-01,1.963026344776153398e-01,5.212037034543248737e-01,-3.020522594451904297e-01,2.841166257858276367e-01,1.085010725130751013e+02,2.187846422195434681e-01
9.618400000000000283e-01,-1.004618813987280881e-02,1.456412919007421362e-02,9.432803988456726074e-01,-4.425834293983303431e-04,-8.865924606855202228e-03,2.385158376851579873e-02,-3.561541797235787902e-03,5.937139186520935807e-02,-9.454581141471862793e-02,2.637775049374602720e-01,1.250238662220421182e-01,3.866870739960470704e-02,-1.379905954122637723e-01,1.371944881185732656e-01,2.822653191976883802e-01,-1.899037063121795654e-01,2.042344808578491211e-01,2.153778612613677923e-01,5.176502675972921574e-01,-4.792062044143676758e-01,-1.553050279617309570e-01,1.113152333945254213e+02,2.187846422195434681e-01
9.826939999999999564e-01,-1.016336729050241333e-02,1.523187182413675116e-02,9.424738287925720215e-01,2.530484551603710570e-03,-7.842487939267339669e-03,2.420666147069246155e-02,-4.073648364463013614e-03,6.592190219044098687e-02,-9.022065252065658569e-02,2.857384293616314075e-01,1.223281603295172520e-01,-4.617922392895791421e-03,-1.249388425295151761e-01,1.497953795930530019e-01,2.827709299651263164e-01,-1.646494746208190807e-01,2.091788470745086503e-01,2.148481428623199296e-01,5.176041578915233643e-01,-4.753335714340209961e-01,6.159135103225708008e-01,-3.693202471026911127e+01,2.187846422195434681e-01
9.974300000000000388e-01,-1.025440298477126901e-02,1.590162168242832338e-02,9.416336417198181152e-01,5.565937851443447833e-03,-6.302750904564557999e-03,2.438606016264634538e-02,1.139673674545811123e-02,7.717252511433618511e-02,-9.834928065538406372e-02,3.196828283377102786e-01,1.712697689805334211e-01,-2.251701981598559082e-02,-1.451133083790793477e-01,1.553282821547971593e-01,2.745827903514647117e-01,-1.732611715793609675e-01,1.924588501453399492e-01,2.061758100986480768e-01,5.182287897836379553e-01,-4.852068424224853516e-01,8.747206926345825195e-01,1.077948582736524656e+02,2.187846422195434681e-01
1.021913999999999989e+00,-1.045154506331875781e-02,1.793103876220282500e-02,9.391016960144042969e-01,1.276646376215750250e-02,-3.111434859953243759e-03,2.180377703112341969e-02,1.180950439967358954e-02,6.418041615122251076e-02,-9.522204846143722534e-02,1.963946888960114989e-01,4.737474310248609988e-02,-1.330483442933498572e-01,-2.268464828938200895e-01,1.981467576916724482e-01,2.823557711255302860e-01,-1.982368469238281194e-01,2.166108548641204889e-01,2.212187826633453258e-01,5.231324969241666345e-01,-2.255848050117492676e-01,-4.541671276092529297e-02,1.300130879832995845e+02,2.187846422195434681e-01
1.048675999999999942e+00,-1.062988461389161379e-02,1.942600142181150069e-02,9.373095631599426270e-01,1.468145679743919699e-02,-2.196246372489385479e-03,1.959703543583601881e-02,1.755553850027078864e-03,8.423501040742716051e-02,-1.038603410124778748e-01,9.895837949741008444e-02,-4.619101980194704506e-03,-1.170547601319535946e-01,-1.475438852127772538e-01,1.855554923303697756e-01,2.752147028717290556e-01,-1.249916374683380099e-01,2.057929873466491644e-01,2.202264368534088135e-01,5.270514752863446617e-01,-6.261169910430908203e-02,-1.256552934646606445e-01,9.859251025394843282e+01,2.187846422195434681e-01
1.070373999999999937e+00,-1.085100015251335738e-02,2.103957063146487394e-02,9.354342222213745117e-01,1.476234924168248058e-02,-2.623640253917480791e-03,1.693178912795393481e-02,5.752795839354396534e-03,8.355818735512497708e-02,-1.133235692977905273e-01,-4.316413033221194046e-02,-3.676641586941353096e-02,-1.429941145449690476e-01,-2.384998951933743339e-01,1.751879137399385555e-01,2.306250636565063128e-01,-2.131344974040985107e-01,1.940927445888519232e-01,1.831086158752441295e-01,5.262855107192205839e-01,-1.579502820968627930e-01,5.286480188369750977e-01,-7.145825871937380214e+01,2.187846422195434681e-01
1.096748000000000056e+00,-1.122157101728539497e-02,2.352341283837732985e-02,9.323798418045043945e-01,1.278584118118181873e-02,-5.702848437025398454e-03,1.245359014050010163e-02,-1.945490707751193829e-03,7.849763278560233093e-02,-1.117066890001296997e-01,-6.169491341598381390e-02,-1.526974687396203678e-01,-1.315706600652566949e-01,-1.512530503199535359e-01,1.370486317605263682e-01,-1.738295218328922420e-01,-1.367487967014312800e-01,1.830793440341949296e-01,-2.089329957962036133e-01,5.208360530744204908e-01,-4.681015014648437500e-01,-6.739151477813720703e-02,9.847717567962359908e+01,2.187846422195434681e-01
1.127197000000000005e+00,-1.161504877030533275e-02,2.605418206230483355e-02,9.291859269142150879e-01,9.246109097188114079e-03,-1.003227059975486668e-02,7.573942109947835732e-03,8.910077857846566973e-03,8.781783477367743895e-02,-1.172615438699722290e-01,-1.155069409459837937e-01,-1.463581268420861836e-01,-1.899820025295601011e-01,7.277535284882268030e-02,-6.176921367949124442e-02,-1.963217780457732209e-01,5.480804443359375139e-02,3.579837083816528147e-03,-2.178293466567993164e-01,5.234494884474438781e-01,-3.709137439727783203e-01,1.991021633148193359e-02,1.078151849166224281e+02,2.187846422195434681e-01
1.153000999999999943e+00,-1.193071384302139652e-02,2.786488277103711664e-02,9.270836710929870605e-01,6.050425150596803157e-03,-1.291653491001953924e-02,4.238367425529895004e-03,3.103160157660152501e-03,8.892470513439806878e-02,-1.237846463918685913e-01,-2.009375283057192596e-01,-1.500639278300935908e-01,-1.545465729584390990e-01,1.863590689583239923e-01,-2.739784155694759971e-01,-2.094481685509933522e-01,1.467344284057617021e-01,-1.834664583206176702e-01,-2.216709852218627930e-01,5.199041034681469720e-01,-6.066054701805114746e-01,8.905619382858276367e-01,-1.083694035413501844e+00,2.187846422195434681e-01
1.175299000000000094e+00,-1.229432486693611548e-02,2.974598727326318789e-02,9.248802065849304199e-01,2.350223774963426573e-03,-1.651800540418246754e-02,7.784969531692146130e-04,-1.956586625916241213e-04,8.351601380182348267e-02,-1.148774400353431702e-01,-1.946496794627537441e-01,-1.947311534071993200e-01,-1.907638107626487833e-01,2.551272851127702190e-01,-2.962123870849609486e-01,-2.212337779883171429e-01,1.941156506538390947e-01,-1.962123870849609431e-01,-2.237660408020019365e-01,5.197299789324986152e-01,-5.989294052124023438e-01,2.351053953170776367e-01,1.123576432052744281e+02,2.187846422195434681e-01
1.197049000000000030e+00,-1.276407058828531518e-02,3.169522689594473502e-02,9.227256178855895996e-01,-1.759061665168091095e-03,-2.009161114574919971e-02,-2.005285663280673755e-03,-4.964290956379600189e-03,9.682825603619014954e-02,-1.235704198479652405e-01,-1.878515738702647708e-01,-2.116458557859874634e-01,-1.117690715537500573e-01,3.063289284706115501e-01,-2.945856809616088645e-01,-2.305193215999614409e-01,2.063289284706115723e-01,-1.945856809616088867e-01,-2.252700448036193681e-01,5.187702458044287646e-01,-7.040043473243713379e-01,4.215410947799682617e-01,7.474711774813999909e+01,2.187846422195434681e-01
1.222469000000000028e+00,-1.359775993813279286e-02,3.480110201483220533e-02,9.196396470069885254e-01,-8.042725682979336849e-03,-2.572834335825024965e-02,-3.279943658186168769e-03,-1.302641467272256694e-02,9.821768112964369968e-02,-1.170043423771858215e-01,-1.717566879626195031e-01,-2.300935660162733154e-01,-2.442079559725666982e-02,3.176706671714782937e-01,-3.077179193496704102e-01,-2.358827078534012356e-01,2.176706671714782604e-01,-2.077179193496704046e-01,-2.269319415092468095e-01,5.184655599641332380e-01,-7.166301012039184570e-01,-3.731647729873657227e-01,8.719860041639743997e+01,2.187846422195434681e-01
1.246933999999999987e+00,-1.459459589672890828e-02,3.778813653521731486e-02,9.169250130653381348e-01,-1.243006339269582192e-02,-2.958104286988727516e-02,-2.395245621766633679e-03,-1.618423693258725510e-02,1.021990452931594434e-01,-1.030011847615242004e-01,-1.106850526053182598e-01,-5.787277296323766612e-02,1.421318540939817132e-02,3.224708557128906361e-01,-2.983805418014526256e-01,-2.339228049389666386e-01,2.224708557128906306e-01,-1.983805418014526201e-01,-2.273191452026367132e-01,5.174950205547123039e-01,-7.337740063667297363e-01,-6.137477159500122070e-01,7.263443095482833201e+01,2.187846422195434681e-01
1.271049000000000095e+00,-1.572703312219355179e-02,4.037012840792970209e-02,9.144989252090454102e-01,-1.316840821765732569e-02,-2.942099341681347902e-02,-8.437352903039509883e-04,-2.810743165471470129e-02,9.537994707543089035e-02,-1.027950644493103027e-01,-6.107206585242901456e-03,7.581452138022747034e-02,2.501873592081311007e-02,-1.113743960857391246e-01,6.730309128761291504e-02,2.109583587091353463e-01,-2.113743960857391302e-01,1.673030912876129206e-01,2.132774949073791559e-01,5.187536157360573830e-01,-6.841973662376403809e-01,-1.341077089309692383e-01,1.121354298308172304e+02,2.187846422195434681e-01
1.295074000000000058e+00,-1.680309590285950991e-02,4.297082569282566211e-02,9.124109148979187012e-01,-9.644083715466506695e-03,-2.464950741579441384e-02,1.633379392337974082e-03,-1.225864479450593757e-02,1.026267633530526108e-01,-9.785199910402297974e-02,1.556969582453255896e-01,2.304321488247576821e-01,9.697999595248457672e-02,4.057666063308716653e-02,5.651052594184874378e-02,1.991096236199963454e-01,-5.942333936691283902e-02,1.565105259418487493e-01,1.943175494670867920e-01,5.191389493906314323e-01,-6.616631150245666504e-01,-1.091607809066772461e-01,9.638125017053515364e+01,2.187846422195434681e-01
1.319379999999999997e+00,-1.788557792684590531e-02,4.560257270689765940e-02,9.104546308517456055e-01,-2.571903530545853727e-03,-1.699420412231078537e-02,4.477806905703234606e-03,-2.631415475690880926e-02,1.045450743813769179e-01,-9.759476035833358765e-02,2.044515615561388611e-01,3.422925678771545632e-01,1.210846872748162911e-01,-2.404522895812985506e-03,2.593409419059752863e-02,2.042404260832065832e-01,-1.024045228958129911e-01,1.259340941905975342e-01,1.913026750087737926e-01,5.202912596612041529e-01,-6.158477067947387695e-01,3.355904817581176758e-01,-9.158603219391036276e+00,2.187846422195434681e-01
1.345002999999999949e+00,-1.791688378007145685e-02,4.794410116605102301e-02,9.088737964630126953e-01,7.272421893086419321e-03,-7.896822807786918474e-03,6.693010327895497318e-03,-2.028577076514486571e-02,9.648802584940287252e-02,-8.307001739740371704e-02,3.637704952739652109e-01,2.750889117308406018e-01,2.440457918420131656e-02,-8.497095016423512892e-02,1.169821162194820685e-01,2.248817523846027011e-01,-1.358907938003539873e-01,1.918916523456573320e-01,2.057787716388702337e-01,5.200283586750324982e-01,-5.873426795005798340e-01,-1.805531978607177734e-02,9.405516094679560979e+01,2.187846422195434681e-01
1.370435000000000070e+00,-1.788628913475929019e-02,5.032333795062463033e-02,9.071428179740905762e-01,1.443021023128576545e-02,-7.328214770998542349e-04,5.164227191002730526e-03,-1.532822732193392205e-02,1.022478967126348864e-01,-8.171982318162918091e-02,2.128389432490095656e-01,1.493727047859181589e-01,-9.269374582130196494e-02,-1.560066166830464396e-01,1.647467105452189440e-01,2.220040375125978127e-01,-1.678178966045379694e-01,1.902863502502441240e-01,2.073737025260925237e-01,5.219331770139986615e-01,-4.949697256088256836e-01,-2.402818202972412109e-02,9.371305726183717866e+01,2.187846422195434681e-01
1.396398000000000028e+00,-1.793510386734319118e-02,5.296004634003224215e-02,9.052854180335998535e-01,1.740433982327942164e-02,2.129746122387476959e-03,2.378305851935547978e-03,-1.470562714482810326e-02,1.068979090295428674e-01,-9.336004406213760376e-02,3.781423932128279153e-02,9.320690750798063529e-02,-1.200055394795862818e-01,-2.235722267017196674e-01,2.070331268146803627e-01,2.277704565864582253e-01,-2.204994142055511364e-01,2.145196437835693304e-01,2.210548996925353893e-01,5.228099816690473522e-01,-5.104454755783081055e-01,-1.198652982711791992e-01,7.714782678856192888e+01,1.951600313186645508e-01
1.421745000000000037e+00,-1.820641427280567104e-02,5.573475944464312271e-02,9.034286737442016602e-01,1.811260918757663305e-02,1.796982653873735458e-03,-7.143418018739337459e-04,-1.721149463527283166e-02,1.005483885951706652e-01,-9.801866859197616577e-02,-1.476553129943441664e-02,-3.471611126759491933e-02,-7.167214730307901183e-02,-1.270471680139873549e-01,1.803678732491231507e-01,6.521242757248034427e-02,-1.158066451549529946e-01,1.925833404064178356e-01,6.712208390235900601e-02,5.249352464443384214e-01,-4.304541349411010742e-01,-5.288481712341308594e-03,-2.083069385523196360e+01,1.951600313186645508e-01
1.448455000000000048e+00,-1.871555056178785675e-02,5.891226681377552399e-02,9.015685915946960449e-01,1.735022342667824624e-02,-2.739138263072593560e-04,-4.653373989908005104e-03,-1.747192882759485838e-02,1.122714079772859225e-01,-9.321608394384384155e-02,1.874434332185081434e-03,-1.231150998934621710e-01,-1.476772824059217060e-01,2.216293842327910768e-01,1.830838965489186287e-01,-1.289852537611682615e-01,2.157504558563232422e-01,2.095011949539184459e-01,-1.161563873291015514e-01,5.214156443937080221e-01,-6.198027729988098145e-01,-3.951386213302612305e-01,1.771959732980451463e+01,1.951600313186645508e-01
1.469384999999999941e+00,-1.903831284875608099e-02,6.107015535208880352e-02,9.004148840904235840e-01,1.499546669247268232e-02,-2.270588360869796318e-03,-7.196625573724764642e-03,-2.316859159880623603e-02,1.111821225532167723e-01,-1.075496524572372437e-01,-1.566544527817473609e-01,-6.679888720507735911e-02,-1.028414888212609152e-01,-6.328816113403537558e-02,-2.402318362805671570e-01,-2.173006962304153689e-01,-8.337811231613158347e-02,-1.960603952407836970e-01,-1.974620819091796875e-01,5.214985789590327325e-01,-6.868608593940734863e-01,6.340540647506713867e-01,-1.241517850527152511e+01,1.951600313186645508e-01
1.499868999999999897e+00,-1.977870127503906020e-02,6.550217843987311828e-02,8.980107903480529785e-01,8.448450363345967606e-03,-8.572691908295793084e-03,-1.053189178828048238e-02,-1.985561336535393573e-02,1.132949156470551694e-01,-1.045736744999885559e-01,-1.998766166026982039e-01,-1.202137923635464428e-01,-2.192693919673371905e-02,2.179621598745049016e-01,-2.873313340286183792e-01,-2.529177955525777066e-01,1.503669977188110407e-01,-2.046128511428833008e-01,-2.239112734794616588e-01,5.209626735250453278e-01,-7.241248488426208496e-01,3.076779842376708984e-02,9.202746902751557911e+01,1.951600313186645508e-01
1.519884000000000013e+00,-2.074797295785634973e-02,6.776631101374423760e-02,8.970487713813781738e-01,6.971716482752995762e-03,-1.276522425059822829e-02,-1.039169406942039298e-02,-2.287052788834573538e-02,1.125215952440345030e-01,-8.477583527565002441e-02,-3.986280109889760170e-02,-2.091302229017853731e-01,2.089454296359536528e-02,2.699798154178680853e-01,-2.959517478942871316e-01,-2.531320118246213058e-01,1.912612795829772838e-01,-1.959517478942870983e-01,-2.246689081192016491e-01,5.200274237941058253e-01,-7.097148299217224121e-01,-6.099975109100341797e-02,1.114844854821583340e+02,1.951600313186645508e-01
1.546067999999999998e+00,-2.214197292775836601e-02,7.111812931671435134e-02,8.957217335700988770e-01,5.498594465713358380e-03,-1.510352404937909121e-02,-8.727206266803630777e-03,-3.212608881806013755e-02,9.903350553477346940e-02,-7.497818022966384888e-02,-2.361225358475138938e-02,3.238176337193901522e-02,3.933215899080649142e-02,-7.404613486644640030e-02,9.720857739448546253e-02,1.546290179631943651e-01,-1.549132525920867975e-01,1.972085773944854681e-01,1.783802032470702958e-01,5.211512695937438044e-01,-6.242484450340270996e-01,6.288872957229614258e-01,-8.030181690197706246e+01,1.951600313186645508e-01
1.572446000000000010e+00,-2.333210504975860231e-02,7.444516217103330780e-02,8.945451974868774414e-01,6.401609769598997322e-03,-1.183821394458073328e-02,-5.879977730716457601e-03,-6.990395107658291945e-03,1.074912617314889851e-01,-7.917223870754241943e-02,6.264610996237099383e-02,1.827124503465956395e-01,9.929640715150053754e-02,-5.412548224742907976e-02,3.394594202336295719e-02,1.734935100492950022e-01,-1.398669719696044866e-01,1.290072798728942871e-01,1.894272387027740312e-01,5.241438290063539229e-01,-4.929601550102233887e-01,-2.775524854660034180e-01,9.900234892490588834e+01,1.989269971847534291e-01
1.596157000000000048e+00,-2.399008525311435713e-02,7.659475684701250175e-02,8.938212394714355469e-01,8.686761610794766636e-03,-7.632266023142264544e-03,-4.422469219536220852e-03,-2.439218808029671934e-02,9.457485773461260514e-02,-6.998919695615768433e-02,1.572069704082631469e-01,1.585780728613683521e-01,4.511746514628570126e-02,1.512460475252490333e-03,7.332217410474529962e-02,1.785936550082562468e-01,-6.032899618148803572e-02,1.581327795982360729e-01,1.904867291450500488e-01,5.223495786938305852e-01,-5.653265118598937988e-01,-1.945078372955322266e-02,1.172847299366573566e+02,1.989269971847534291e-01
1.618942000000000103e+00,-2.429227711773863929e-02,7.978851517177382169e-02,8.929246068000793457e-01,1.231220237856680937e-02,-3.205772731141642851e-03,-5.760727809054226600e-03,-2.964390396698385853e-03,1.072051779629573515e-01,-7.268128544092178345e-02,1.152998068314081415e-01,9.631958286392537649e-02,-1.013061929829348340e-01,-7.535227352692561165e-02,1.456934043832418535e-01,1.936858946851532093e-01,-1.273735821247100886e-01,1.835463881492614691e-01,2.095525681972503496e-01,5.239167299277858181e-01,-5.041095018386840820e-01,-1.355282068252563477e-01,9.471474548475457311e+01,1.989269971847534291e-01
1.648141000000000078e+00,-2.463277081642662597e-02,8.303018091515144972e-02,8.920773267745971680e-01,1.380431160827759289e-02,-1.729456938765583374e-03,-8.125670773832456215e-03,-2.368501171491468882e-02,1.000351505102658883e-01,-6.477693468332290649e-02,2.944615902036345177e-03,2.235869400219866673e-02,-8.546202867354135702e-02,-1.475195039925177032e-01,1.195007040560367995e-01,1.993978450224817289e-01,-1.851592898368835394e-01,1.670977234840393122e-01,2.218107104301452470e-01,5.226874047092229247e-01,-5.514692068099975586e-01,-2.600544691085815430e-01,8.433255741801170302e+01,1.989269971847534291e-01
1.671961000000000030e+00,-2.488103184170683407e-02,8.522103197570855826e-02,8.914911746978759766e-01,1.411373988569659954e-02,-1.745906420902221257e-03,-1.012090310503188130e-02,-7.643107552997736691e-03,1.079612211728392668e-01,-7.092712074518203735e-02,3.024022710880991741e-02,-4.270935351516030876e-02,-9.747419398517653821e-02,2.664880949597633331e-01,1.767860705291678103e-01,1.397504889549955609e-01,2.221040725708007812e-01,2.099787354469299372e-01,1.678435027599334550e-01,5.231343057830571963e-01,-5.631685853004455566e-01,1.537334918975830078e-02,1.099018896703313573e+02,1.989269971847534291e-01
1.696391999999999900e+00,-2.511922443395269572e-02,8.742516668355318488e-02,8.908999562263488770e-01,1.347052241289979115e-02,-2.696775070216483883e-03,-1.243555062147476929e-02,-1.789627847716699846e-02,1.063187924613800406e-01,-7.298529148101806641e-02,-7.466454810765175976e-02,-4.605910206121775069e-02,-1.248801624620113210e-01,2.164916606939139287e-01,-2.256033249831903842e-01,9.672796238883879516e-02,1.685740470886230302e-01,-1.757227420806884710e-01,1.311847150325775035e-01,5.237338214312953211e-01,-5.503190159797668457e-01,-1.155287027359008789e-01,9.082289003530296156e+01,1.989269971847534291e-01
1.720866000000000007e+00,-2.607111149366676817e-02,9.056023953346750699e-02,8.900195956230163574e-01,1.161260127497108774e-02,-5.712821164060688517e-03,-1.548285954240746776e-02,-2.386203279048265680e-02,1.053495786528092226e-01,-6.331842392683029175e-02,-5.261640782890861928e-02,-1.124825583242804461e-01,-7.295838170185134364e-02,2.390127396158973627e-01,-2.486033084909983759e-01,-2.643329808456964525e-01,1.768791675567626953e-01,-1.748848199844360296e-01,-2.214946389198303167e-01,5.209193024802430960e-01,-6.768248081207275391e-01,-1.105238199234008789e-01,8.464237479876348402e+01,1.989269971847534291e-01
1.745460000000000012e+00,-2.673604122083672249e-02,9.264968007676119277e-02,8.894547224044799805e-01,1.175728823890717992e-02,-8.742943536717229236e-03,-1.766719000170493062e-02,-7.443253199160806272e-03,9.862162318981333720e-02,-5.987094715237617493e-02,1.655647235299164202e-02,-1.436205882061498684e-01,-1.354467036335598451e-01,2.826983179079586850e-01,5.941186878935442173e-02,-2.413530757647230351e-01,2.243618488311767412e-01,1.403050839900970292e-01,-1.924430608749389537e-01,5.213474457447129229e-01,-6.504757404327392578e-01,-3.086193799972534180e-01,9.717829909572978409e+01,1.989269971847534291e-01
1.773301999999999934e+00,-2.768982939022148621e-02,9.560292761585094390e-02,8.887894749641418457e-01,1.463194892389493330e-02,-1.034889577616926459e-02,-1.885396709848566679e-02,-2.406114967430143803e-02,9.810015895805387909e-02,-5.913307145237922668e-02,1.215532709132526312e-01,2.362448244544999160e-02,3.384072779163703470e-02,2.266065367853169477e-01,1.189814269542693870e-01,1.542075908654455818e-01,1.842835664749145341e-01,2.189814269542693925e-01,2.061817288398742620e-01,5.233404898147299145e-01,-5.511912703514099121e-01,5.821049213409423828e-02,-1.249623270166152480e+02,1.989269971847534291e-01
1.796337999999999990e+00,-2.825120981660838790e-02,9.752820553171728801e-02,8.883908390998840332e-01,1.834400192471142416e-02,-8.783179455501777255e-03,-1.795756076878399915e-02,-1.480266769079926180e-02,9.407344245395378446e-02,-4.029428586363792419e-02,2.563751571334115242e-01,5.517130118887685758e-02,6.104869073990505657e-02,1.760549720302670151e-01,1.307368961103226312e-01,1.622689072795306664e-01,1.584854364395141546e-01,2.189619898796081598e-01,2.118111670017242265e-01,5.226577242735396256e-01,-5.227582454681396484e-01,6.990786790847778320e-01,-1.571511439332419258e+01,1.989269971847534291e-01
1.819177999999999962e+00,-2.902766159586989830e-02,1.006700710015489275e-01,8.879672884941101074e-01,2.615711700728163419e-02,-5.663385837559875569e-03,-1.675532164913632119e-02,-9.426638795716712343e-03,8.948115592389413453e-02,-4.076115787029266357e-02,3.112015063617195043e-01,3.854764383778949005e-02,-6.414368712834300637e-04,1.357857236085410757e-01,1.527724441038758596e-01,1.534125896741575790e-01,1.695477962493896484e-01,2.185096263885497880e-01,1.996710240840911810e-01,5.220449041395193168e-01,-5.670353174209594727e-01,-6.470477581024169922e-02,9.984709989126389473e+01,1.989269971847534291e-01
1.845641000000000087e+00,-2.950111033236012606e-02,1.027824092807872319e-01,8.877928853034973145e-01,3.158460235902049718e-02,-5.028366788202065507e-03,-1.770955493673215253e-02,-2.342052841375107108e-02,7.907591310190340006e-02,-4.319295287132263184e-02,2.636872551382869467e-01,-1.399861408034962229e-02,-3.961936863044698137e-02,1.229757443303025055e-01,1.384849338902783833e-01,3.951788417335178050e-02,1.977375984191894476e-01,2.120786011219024658e-01,8.829680085182189941e-02,5.249315526492425166e-01,-4.284064173698425293e-01,7.601153850555419922e-02,1.068248894492406151e+02,1.989269971847534291e-01
1.870800999999999936e+00,-3.027893195651663177e-02,1.057655555141653464e-01,8.875121474266052246e-01,3.905969349662067464e-02,-6.701555280327342601e-03,-1.997221872336583243e-02,-1.235523363958563291e-02,7.907849615176831826e-02,-3.816972300410270691e-02,2.357770018168681703e-01,-6.749677393246296397e-02,-6.988545274369378779e-02,1.085899949073791393e-01,5.452787086673629990e-02,3.675159575943849621e-02,2.085899949073791448e-01,1.298804283142089844e-01,9.171906709671019675e-02,5.240598615774800795e-01,-4.646311998367309570e-01,4.030823707580566406e-03,1.004455747267187462e+02,1.989269971847534291e-01
1.896292000000000089e+00,-3.083342690827192006e-02,1.076720407974401383e-01,8.873523473739624023e-01,4.342136098755727813e-02,-8.720562020748001686e-03,-2.180516198025982816e-02,-1.265411635995050514e-02,6.957871387688358000e-02,-3.212831541895866394e-02,1.640499765487878070e-01,-1.188487107178811952e-01,-9.895288863381572486e-02,9.952595233917235773e-02,-1.840318856174161521e-01,-4.958623743122669847e-02,1.995259523391723633e-01,-9.296672344207763949e-02,1.024299860000610352e-02,5.219926719198670906e-01,-5.603722929954528809e-01,1.850783824920654297e-02,1.126461913769507817e+02,1.989269971847534291e-01
1.920917999999999903e+00,-3.195591810843524672e-02,1.108212527239644113e-01,8.869767189025878906e-01,4.819991984169431920e-02,-1.178831478166952884e-02,-2.330051361891122969e-02,-2.545401179049608387e-02,6.968308279288566720e-02,-4.203042015433311462e-02,1.055722916817985468e-01,-4.890586699631065820e-02,-1.296293573698959443e-02,-6.207910776138306219e-02,-2.728497385978698730e-01,6.545499574942506560e-02,3.792089223861694336e-02,-1.728497385978698675e-01,1.289139032363891546e-01,5.206791656613176666e-01,-6.801067590713500977e-01,1.250957250595092773e-01,-1.002702506009136840e+02,1.989269971847534291e-01
1.945349999999999913e+00,-3.280924229496672700e-02,1.129765776303938846e-01,8.866544961929321289e-01,5.081009550285513904e-02,-1.398877046091939746e-02,-2.408936983842329890e-02,-2.197278252190450198e-02,6.395543377536386243e-02,-3.510878235101699829e-02,1.422526111200226595e-01,-1.254913548728970873e-01,-3.409652462648496418e-02,-2.054529786109924316e-01,-2.786655902862548717e-01,-7.628094203941626628e-02,-1.054529786109924261e-01,-1.786655902862548662e-01,-1.083666086196899414e-02,5.206989130288880441e-01,-6.601880788803100586e-01,2.122629880905151367e-01,7.530760307143124521e+01,1.989269971847534291e-01
1.971940000000000026e+00,-3.396713921687836979e-02,1.159199862322207869e-01,8.861239552497863770e-01,5.283622001741070107e-02,-1.384310507769637155e-02,-2.459591113454469638e-02,-2.193563029890409008e-02,5.334520724430069638e-02,-3.675895929336547852e-02,1.682590621003592427e-02,1.097273160664909430e-01,-3.246420991090430419e-02,-3.151788771152496116e-01,-1.710579395294190008e-02,1.353247367183691152e-01,-2.151788771152496338e-01,8.289420604705810547e-02,2.021450757980346735e-01,5.270178716945366215e-01,-3.332144021987915039e-01,8.065465688705444336e-01,-1.380187595396607136e+01,1.989269971847534291e-01
1.998404000000000069e+00,-3.498585516446889310e-02,1.185784932139028747e-01,8.853438496589660645e-01,5.268490610322627832e-02,-9.435668542457475994e-03,-2.479308387279202316e-02,-8.345095795489546053e-03,5.512534429719712775e-02,-5.644460767507553101e-02,-3.489018180374944822e-02,2.249848239643639503e-01,3.434131966318653556e-02,-3.133953690528869518e-01,-2.120136331724073453e-03,1.273760637121371941e-01,-2.133953690528869462e-01,9.274889230728149137e-02,1.953333735466003251e-01,5.314589536296582262e-01,-1.798380613327026367e-01,-6.648814678192138672e-02,9.276804594865255638e+01,1.989269971847534291e-01
2.021206999999999976e+00,-3.527056721018381052e-02,1.204320349938001744e-01,8.848730325698852539e-01,5.086808102940421072e-02,-4.561135593978749014e-03,-2.541148605140537350e-02,-2.237155230137716569e-02,3.713917747592892366e-02,-4.123237729072570801e-02,-1.071887786157113415e-01,2.211406561914717739e-01,-6.292209584538817346e-02,-3.162553906440734863e-01,-4.147734447880246922e-03,1.192217047804468855e-01,-2.162553906440734808e-01,7.177594900131224753e-02,1.892640352249145563e-01,5.276328940710468540e-01,-3.383137583732604980e-01,-1.343357563018798828e-02,-1.329706281958068246e+02,1.989269971847534291e-01
2.045478000000000129e+00,-3.556573741304559777e-02,1.221226906144995128e-01,8.842742443084716797e-01,4.713141107296145438e-02,-1.237918216627775791e-04,-2.620539845120074471e-02,-1.281915612063937344e-02,3.896640178034798535e-02,-4.951719194650650024e-02,-2.030352319781648374e-01,2.232791782635915601e-01,-4.074180645528356626e-02,-3.119974017143249401e-01,8.659744036863736838e-02,1.224839067193836672e-01,-2.119974017143249345e-01,1.248839020729064914e-01,1.953339815139770452e-01,5.275390121113113784e-01,-3.869215846061706543e-01,-1.152814626693725586e-01,9.501537626107267442e+01,1.989269971847534291e-01
2.072210999999999803e+00,-3.601192610353565193e-02,1.245363877236351641e-01,8.833369016647338867e-01,3.931959308593514085e-02,3.448670105393736307e-03,-2.798348383750767429e-02,-9.905580559427055662e-03,4.193595983374156372e-02,-3.362830355763435364e-02,-2.485025725907648309e-01,3.109032211972119486e-02,-8.606644130034712958e-02,-3.165310502052307018e-01,-8.952988852407009479e-02,8.832698011982340058e-02,-2.165310502052306962e-01,-7.475945949554442527e-02,1.665130376815795732e-01,5.262068124114972489e-01,-4.082084894180297852e-01,1.466213464736938477e-01,9.389181697279475713e+01,1.989269971847534291e-01
2.095059000000000005e+00,-3.631862701573918689e-02,1.260160026734210015e-01,8.826872110366821289e-01,3.287523582878961598e-02,4.744055582980077901e-03,-2.935909134997061534e-02,-1.353517049416209234e-02,2.875298547068750113e-02,-4.014353454113006592e-02,-3.538602421649944541e-01,6.956926018414369417e-02,-4.347169494808256207e-02,-3.138690107062115375e-01,-4.793954245405422643e-02,8.504929395714669327e-02,-2.173304378986358476e-01,-3.842768669128417830e-02,1.671664059162139837e-01,5.263655091955946608e-01,-4.352955818176269531e-01,1.036219954490661621e+00,-1.677671020545176361e+01,2.072439908981323353e-01
2.119146999999999892e+00,-3.700471791535920457e-02,1.283756645950334951e-01,8.817360401153564453e-01,2.316862265920717825e-02,4.608845492990010229e-03,-3.144426708943279247e-02,-8.388488023663575807e-03,3.774144997437150345e-02,-3.872983157634735107e-02,-2.933587052459140088e-01,1.075042645979284832e-02,-3.747270490949236588e-02,-2.115773794125778984e-01,-2.645583791587358125e-02,-2.008800299759578301e-01,-1.886465370655059648e-01,-1.978905200958252023e-02,-1.128810524940490612e-01,5.251629196470153360e-01,-5.072739720344543457e-01,-1.690088510513305664e-01,-7.462277415429991834e+01,2.072439908981323353e-01
2.146920999999999857e+00,-3.771901671947954643e-02,1.303670213189895011e-01,8.811366558074951172e-01,1.615408366438899485e-02,4.895940678133037238e-03,-3.302440202822687354e-02,-1.321480063587120342e-02,2.486490411382672946e-02,-3.411692753434181213e-02,-3.637331602723017920e-01,2.409026437865209591e-02,-8.891678042903657098e-02,-8.591200803910795103e-02,1.338096059421901574e-01,-2.784516580869736968e-01,-9.915572404861450195e-02,1.432123661041259655e-01,-1.860406637191772405e-01,5.248543197142783168e-01,-5.154069662094116211e-01,4.743353128433227539e-01,1.260787077760754897e+02,2.072439908981323353e-01
2.171250000000000124e+00,-3.867512147819159030e-02,1.332588163296721528e-01,8.802369236946105957e-01,5.357945998327751438e-03,6.071931958883336478e-03,-3.346521469365278806e-02,-9.587120425283613204e-03,3.552878337110903367e-02,-3.274669498205184937e-02,-3.807647699830662980e-01,1.138852276829449700e-01,2.517031432570958349e-02,2.972552435129638959e-01,2.134271012912078158e-01,-3.034572404002464641e-01,2.018031835556030329e-01,2.123540461063384843e-01,-2.097383737564086914e-01,5.230892397273420036e-01,-6.175926923751831055e-01,1.447697877883911133e-01,9.751639345964541405e+01,2.072439908981323353e-01
2.195958000000000077e+00,-3.930352822084174497e-02,1.351603234450745594e-01,8.797371387481689453e-01,-8.032852959181834484e-04,6.176898680797737740e-03,-3.213551863686818499e-02,2.351432007385830750e-03,4.276973665354624754e-02,-2.443117089569568634e-02,-2.624006042357598378e-01,-2.601993859714890264e-02,1.109431081813336412e-01,3.168239116668701283e-01,2.264989979350989224e-01,-3.125178424569875490e-01,2.168239116668701227e-01,2.164801597595214788e-01,-2.224860906600951982e-01,5.215540783727505847e-01,-6.772980690002441406e-01,-2.982223033905029297e-02,1.561951565060610960e+02,2.072439908981323353e-01
2.221667000000000058e+00,-3.992457990100773541e-02,1.370298678309629647e-01,8.794784545898437500e-01,-5.349546810157388387e-03,5.923204519044933392e-03,-3.035980060580815293e-02,-2.164342467140005846e-02,2.920002957489454057e-02,-3.650825005024671555e-03,-1.667816389709445846e-01,-3.746309897962919050e-02,7.649712695206564717e-02,3.192635774612426758e-01,1.469162419384895391e-01,-3.089985823404825527e-01,2.192635774612426702e-01,1.584869027137756348e-01,-2.240229249000549316e-01,5.202141956180755811e-01,-6.746083498001098633e-01,2.961431741714477539e-01,1.046932010696579738e+02,2.072439908981323353e-01
2.247443000000000080e+00,-4.086695760570261543e-02,1.392019320493597390e-01,8.792906999588012695e-01,-6.691056320311652983e-03,2.317549225448134465e-03,-2.634274359811671767e-02,-7.198032995930869933e-03,3.381646823068598651e-02,1.107093784958124161e-02,1.497418280038420070e-02,-1.193680311134196342e-01,1.243460000485136357e-01,3.151575088500976340e-01,5.340971986819601641e-03,-2.991915624019985120e-01,2.151575088500976562e-01,2.660445570945739815e-02,-2.254919528961181474e-01,5.197742159713771848e-01,-6.466087698936462402e-01,9.080978631973266602e-01,-1.102524013181580784e+02,2.072439908981323353e-01
2.272145000000000081e+00,-4.188077155523618061e-02,1.411839250308796756e-01,8.795172572135925293e-01,-2.011687270072302046e-03,-4.167153588532590547e-03,-2.153854981248197811e-02,-3.204714148186065675e-02,2.244606941247836648e-02,3.162814304232597351e-02,1.981786011093404076e-01,-2.562017996736412617e-01,1.290929529425513533e-01,3.239879846572876199e-01,-1.082162790628134197e-01,-2.810815128671530494e-01,2.239879846572875866e-01,-2.325371503829955916e-02,-2.210942387580871471e-01,5.175743078951543508e-01,-6.874057650566101074e-01,4.543765783309936523e-01,1.249754409798216699e+02,2.072439908981323353e-01
2.295317999999999969e+00,-4.252809146334485951e-02,1.424512259573888773e-01,8.797126412391662598e-01,2.846843270625789516e-03,-8.400590681494790601e-03,-1.805147092378461826e-02,-1.066728907806520528e-02,3.540898221023001946e-02,1.461586635559797287e-02,2.390342977708900252e-01,-1.463851873228882161e-01,1.870201085652576090e-01,3.228662490844726451e-01,9.998686782019128305e-02,-2.572874976044718931e-01,2.228662490844726396e-01,1.930328071117401179e-01,-2.072287559509277399e-01,5.205338897092338657e-01,-6.000351309776306152e-01,-3.327811956405639648e-01,1.000272188098662980e+02,2.072439908981323353e-01
2.322013000000000105e+00,-4.332340212731573131e-02,1.440829088846681261e-01,8.800730705261230469e-01,1.173304752097885373e-02,-1.344931294583395776e-02,-1.287619776189655868e-02,-2.766819059423443125e-02,2.356732438931639223e-02,2.820455282926559448e-02,3.257111018523273782e-01,-1.611432480295528213e-01,1.846676015159939011e-01,2.754044853380731017e-01,9.461164474487290810e-03,-2.347040870025624282e-01,2.197376489639282227e-01,1.094611644744872964e-01,-1.996266603469848688e-01,5.196866847006536005e-01,-5.950139164924621582e-01,1.817015409469604492e-01,1.009673670283618776e+02,2.072439908981323353e-01
2.347646999999999817e+00,-4.374762287827932417e-02,1.451848762029928908e-01,8.803548812866210938e-01,2.139635362887273157e-02,-1.465071444032384207e-02,-7.949102302490781979e-03,1.810860201346672048e-03,3.796190036987862754e-02,2.510297857224941254e-02,3.763758254033900408e-01,-5.408314979936606343e-02,1.617370353504171410e-01,2.148084979625364266e-01,1.025058150291442705e-01,2.073871363280421071e-03,2.078864336013794001e-01,2.025058150291442760e-01,2.315561771392822196e-02,5.250240103429396621e-01,-3.223383426666259766e-01,6.551945209503173828e-02,9.734226461694511556e+01,2.072439908981323353e-01
2.370667000000000080e+00,-4.401623319544719498e-02,1.458592876924807435e-01,8.805467486381530762e-01,2.792846480359036099e-02,-1.515545214063940271e-02,-4.788137152653776374e-03,-2.434790481242147045e-02,1.503657791185365744e-02,2.537448890507221222e-02,2.941226199668214858e-01,-2.451698474181071563e-03,1.678938019747562849e-01,1.811889282533929446e-02,8.697732686996459406e-02,7.500006237028061795e-02,7.229583263397217074e-02,1.869773268699645996e-01,8.685109019279479980e-02,5.333215223263954030e-01,1.292283535003662109e-01,1.579903364181518555e-01,9.577180605127325919e+01,2.072439908981323353e-01
2.397203999999999890e+00,-4.429954821207375548e-02,1.464203630899704733e-01,8.806279301643371582e-01,3.429749616913126825e-02,-1.557541077240709448e-02,-1.911457087092521649e-03,-1.110499712271056059e-02,2.617399150181976344e-02,1.955115236341953278e-02,3.175890631695992838e-01,-2.521088038980961663e-02,1.189997943144815856e-01,5.621575446792631547e-02,6.047801375389097456e-02,-8.464383834915045757e-03,1.393236994743347057e-01,1.604780137538909801e-01,-4.807591438293457031e-03,5.280739226057246105e-01,-1.865231394767761230e-01,4.942834377288818359e-02,1.039050655413302024e+02,2.072439908981323353e-01
2.421241999999999894e+00,-4.452290222668740111e-02,1.473525505195798502e-01,8.806877732276916504e-01,4.283314783603946185e-02,-1.731150516767132608e-02,-9.586994493290498017e-05,-1.482301474718414509e-02,9.140794203023369646e-03,2.688676491379737854e-02,2.963245501290949213e-01,-1.174667608993315293e-01,4.668362576963821370e-02,-1.397275924682617188e-01,-2.822696924209594505e-01,6.033264678239026041e-02,-3.972759246826172014e-02,-1.822696924209594727e-01,5.849157571792602123e-02,5.194735097660466705e-01,-6.278247237205505371e-01,-8.114874362945556641e-02,9.871819939505500940e+01,2.072439908981323353e-01
