timestamp,x,y,z,roll,pitch,yaw,vx,vy,vz,p,q,r,psp,qsp,rsp,pres,qres,rres,thrust_sp, thrust_res
0.000000000000000000e+00,-1.118419758518820372e-04,2.255864662033903525e-02,1.000171899795532227e+00,1.231821826126517326e-02,-7.622386139870762634e-03,-4.186084376982046780e-03,1.245341106928784386e-02,-6.989284870330984487e-03,3.796047298237681389e-03,-8.471697775465289459e-03,-3.677288446656856377e-03,2.306501670024473788e-02,-7.143363285921480732e-02,-3.961169914549363819e-02,-1.160460837120108613e-02,0.000000000000000000e+00,0.000000000000000000e+00,0.000000000000000000e+00,5.116550716813534905e-01,-0.000000000000000000e+00,-2.358046770095825195e-01,9.806075953649543919e+01,0.000000000000000000e+00
2.616100000000000023e-02,6.684765997997843719e-04,2.305077179165002793e-02,1.000352740287780762e+00,1.277700488702787976e-02,-8.262921761998720527e-03,-4.160481234705377257e-03,1.973142043965175896e-02,4.575229934642765194e-03,-4.591315984725952148e-03,1.789530582293716657e-02,-2.593918379995731674e-02,2.905144073985999054e-02,-6.365547493503685705e-02,-3.923336420086601106e-02,-1.151623366178905483e-02,0.000000000000000000e+00,0.000000000000000000e+00,0.000000000000000000e+00,5.122688351866852008e-01,-0.000000000000000000e+00,1.864486932754516602e-01,1.164424036874546999e+02,0.000000000000000000e+00
5.114099999999999896e-02,1.350079180494659272e-03,2.301123597251248862e-02,1.000435471534729004e+00,1.273827022470952822e-02,-8.213287775735267360e-03,-4.399934857105256870e-03,6.389950739492267044e-03,-1.763473977142325164e-02,3.629568731412291527e-03,2.997869687709005856e-03,-3.685411116892140914e-03,-1.134929869514078420e-02,-8.305523483827600972e-02,-5.021772920445877197e-02,-1.218241856176299764e-02,0.000000000000000000e+00,0.000000000000000000e+00,0.000000000000000000e+00,5.116473966636536641e-01,-0.000000000000000000e+00,4.419434070587158203e-02,1.113360791318722960e+02,0.000000000000000000e+00
7.323899999999999855e-02,2.032891967200915924e-03,2.290832015060329310e-02,1.000468730926513672e+00,1.247067332564415210e-02,-7.906819260607322875e-03,-4.408157362408299772e-03,1.816878820086828550e-02,5.472543515235891998e-03,-1.296986360102891922e-02,-5.629670355717570490e-02,7.022986490223553924e-02,-1.120045069707241263e-02,-5.938186925240913905e-02,-3.637184151446339053e-02,-1.221911121706242831e-02,0.000000000000000000e+00,0.000000000000000000e+00,0.000000000000000000e+00,5.128889297580601081e-01,-0.000000000000000000e+00,7.279716730117797852e-01,7.238456043687446773e+00,0.000000000000000000e+00
9.951599999999999335e-02,3.026531085308941174e-03,2.273703850407161539e-02,1.000376105308532715e+00,1.165632194821894160e-02,-7.926774661021873669e-03,-4.236594226141738792e-03,1.678455366311695091e-02,-1.078009765217400641e-02,-6.565963849425315857e-03,-2.187345559044457516e-02,-3.979196069891624554e-02,3.055680862128207567e-02,-7.063411099085864508e-02,-3.857006980018166248e-02,-1.175904212483158684e-02,0.000000000000000000e+00,0.000000000000000000e+00,0.000000000000000000e+00,5.124255397846607663e-01,-0.000000000000000000e+00,-8.150207996368408203e-02,1.237293549280228859e+02,0.000000000000000000e+00
1.257429999999999937e-01,4.033560446273862753e-03,2.253325471401308733e-02,1.000047326087951660e+00,9.821825427179216653e-03,-6.958723046503134668e-03,-4.268721059318943481e-03,1.895406150553126390e-02,-2.964505464211469703e-03,-1.646439172327518463e-02,-7.107990504854416747e-02,5.586875085577053951e-02,-2.909075553474121945e-02,-5.010825969144049735e-02,-2.966678999372009823e-02,-1.187617574031224477e-02,0.000000000000000000e+00,0.000000000000000000e+00,0.000000000000000000e+00,5.131987970440353708e-01,-0.000000000000000000e+00,-1.008836030960083008e-01,9.646229719522652601e+01,0.000000000000000000e+00
1.490400000000000058e-01,4.376245034117235040e-03,2.225735367527856626e-02,9.997087717056274414e-01,8.442142326119577225e-03,-6.168538278378266071e-03,-4.063861556429961344e-03,2.149534414981775152e-02,-1.086025459914130922e-02,-2.515117824077606201e-02,-8.231849677581218327e-02,4.249013032008751994e-02,4.965514279613653797e-02,-4.878546004605012476e-02,-2.249777174632251742e-02,-1.133333203802350253e-02,0.000000000000000000e+00,0.000000000000000000e+00,0.000000000000000000e+00,5.138895391858281370e-01,-0.000000000000000000e+00,-5.996762514114379883e-01,6.138696720327158118e+01,0.000000000000000000e+00
1.757499999999999896e-01,4.942639765851710582e-03,2.178156930562137258e-02,9.991081953048706055e-01,6.585970858967887288e-03,-5.066664808331955427e-03,-4.080457036220682711e-03,1.953166411013045056e-02,-4.237168825676639397e-03,-2.555097267031669617e-02,-5.382885639953891715e-02,-3.772293054648551656e-03,-1.015098968801480053e-02,-3.050057582544621684e-02,-1.685617281414159702e-02,-1.139449407337744802e-02,0.000000000000000000e+00,0.000000000000000000e+00,0.000000000000000000e+00,5.139884314169875790e-01,-0.000000000000000000e+00,-5.190145969390869141e-02,1.058214800186523803e+02,0.000000000000000000e+00
2.010460000000000025e-01,5.337644487793994329e-03,2.145283130455817935e-02,9.986273050308227539e-01,5.397078527170163890e-03,-3.742576485062043545e-03,-4.112337044153393378e-03,2.212144686205817778e-02,-1.537481338697846769e-02,-3.078263252973556519e-02,-8.447671882918909858e-02,1.130729143057236652e-01,2.209369141645157065e-03,-3.286338006049327465e-02,-5.526209073163544476e-03,-1.150766406298803224e-02,0.000000000000000000e+00,0.000000000000000000e+00,0.000000000000000000e+00,5.144402061258511738e-01,-0.000000000000000000e+00,-1.270307302474975586e-01,1.130659748033397705e+02,0.000000000000000000e+00
2.229780000000000095e-01,5.736283311019736882e-03,2.110547447819400776e-02,9.980823397636413574e-01,4.757832225586602383e-03,-3.006739694715099276e-03,-4.222620814655461859e-03,3.171171207394284791e-02,3.462399239256998881e-03,-3.890238329768180847e-02,-2.202400025550162524e-02,2.422861182396292279e-02,-1.557514876207624112e-02,-1.213672786348814724e-02,6.836701791079955598e-03,-1.183456349997769053e-02,0.000000000000000000e+00,0.000000000000000000e+00,0.000000000000000000e+00,5.151204612754510803e-01,-0.000000000000000000e+00,-3.974391222000122070e-01,1.053113741706791444e+02,0.000000000000000000e+00
2.496039999999999925e-01,6.532021154052504962e-03,2.018577638073167438e-02,9.971412420272827148e-01,3.697589362867973340e-03,-1.559206754692343821e-03,-4.211706195645421695e-03,1.348239818561543409e-02,-1.933600480768106478e-02,-3.583808243274688721e-02,-5.308137691810604908e-02,5.951510268170145251e-02,-1.692356599150857122e-02,-2.685011297599606758e-02,9.223089021236055736e-04,-1.179340098042352958e-02,0.000000000000000000e+00,0.000000000000000000e+00,0.000000000000000000e+00,5.149963613905037541e-01,-0.000000000000000000e+00,3.731429576873779297e-02,6.253269728559536844e+01,0.000000000000000000e+00
2.757609999999999784e-01,7.658177864105893129e-03,1.845771869177863234e-02,9.959852099418640137e-01,2.843769377680478803e-03,-7.233421304975173882e-04,-3.925810125237337925e-03,3.233451700039065291e-02,-7.257625031159015659e-03,-4.672237858176231384e-02,-4.929656205910291217e-02,3.099723460650904983e-02,8.962732783929026892e-03,-9.324496264379521573e-03,2.482104864970958655e-02,-1.101490348351658044e-02,0.000000000000000000e+00,0.000000000000000000e+00,0.000000000000000000e+00,5.159345523778192666e-01,-0.000000000000000000e+00,1.684509515762329102e-01,1.059265693092222023e+02,0.000000000000000000e+00
2.995200000000000085e-01,8.416790714330312298e-03,1.738240419742302992e-02,9.951028823852539062e-01,2.112996636273200592e-03,-5.220010964877008774e-04,-3.596017204576111223e-03,2.347096944883029709e-02,-9.727417522064322683e-03,-4.844103381037712097e-02,-3.838513367051872571e-02,-3.881115680960297437e-02,1.987223188672668228e-02,-8.982323875658535656e-03,1.690621354584952510e-02,-1.007915750106069819e-02,0.000000000000000000e+00,0.000000000000000000e+00,0.000000000000000000e+00,5.161737977032720970e-01,-0.000000000000000000e+00,5.238648653030395508e-01,9.867643961846955847e+01,0.000000000000000000e+00
3.267579999999999929e-01,9.560438244065020894e-03,1.579866135460740451e-02,9.936925172805786133e-01,9.679749028486735619e-04,-4.969136068124768713e-04,-3.238265654096907867e-03,2.403197416935566252e-02,-9.389280786685152633e-03,-5.014364048838615417e-02,-5.148737894561336570e-02,2.823089001305789224e-03,-9.971706774183328875e-03,-1.873540286259939508e-03,1.962328204126044182e-02,-9.074052733016313432e-03,0.000000000000000000e+00,0.000000000000000000e+00,0.000000000000000000e+00,5.164560200594379147e-01,-0.000000000000000000e+00,2.519956827163696289e-01,8.189477411077494651e+01,0.000000000000000000e+00
3.528439999999999910e-01,1.044562741776656860e-02,1.441150641381679781e-02,9.926361441612243652e-01,2.509057013117720536e-04,-6.239332772042249786e-04,-3.015714145210233663e-03,3.737531763849984839e-02,-3.867448256528280715e-03,-6.465224176645278931e-02,-6.607711276593489225e-02,1.087907734077809586e-02,4.504652177814698344e-02,6.306487464229277792e-03,2.992972714437579923e-02,-8.453374182545159155e-03,0.000000000000000000e+00,0.000000000000000000e+00,0.000000000000000000e+00,5.176704118840248503e-01,-0.000000000000000000e+00,5.620825290679931641e-02,9.500601890190976917e+01,0.000000000000000000e+00
3.745769999999999933e-01,1.145232507307174241e-02,1.267781837251025917e-02,9.914954304695129395e-01,1.447473836681949774e-05,-1.033049496095284070e-03,-2.951828505181302697e-03,2.529843349336215186e-02,-7.384010563419756042e-03,-5.693107843399047852e-02,5.246762753802041920e-03,-4.197193663656143686e-02,-1.608904269630887993e-02,3.182175574362671767e-03,1.655061301050509900e-02,-8.266914520150492329e-03,0.000000000000000000e+00,0.000000000000000000e+00,0.000000000000000000e+00,5.172450056436476151e-01,-0.000000000000000000e+00,-6.606757640838623047e-02,1.016752341735636520e+02,0.000000000000000000e+00
3.980940000000000034e-01,1.250486639306112348e-02,1.099077013065741584e-02,9.903110861778259277e-01,-4.105955563559888209e-04,-1.046496408593666771e-03,-2.790694130072096570e-03,2.366239920253284182e-02,-1.361890268653655547e-02,-6.354107707738876343e-02,-5.179770742771636766e-02,4.297264080328254410e-02,1.983191247139715410e-02,4.552923443165400597e-04,1.766082225973113901e-02,-7.811030105912220023e-03,0.000000000000000000e+00,0.000000000000000000e+00,0.000000000000000000e+00,5.178861073304227292e-01,-0.000000000000000000e+00,-2.059355974197387695e-01,7.987392604104327631e+01,0.000000000000000000e+00
4.244209999999999927e-01,1.408937377282753166e-02,8.557285328592517323e-03,9.885469675064086914e-01,-9.916626583919957688e-05,-1.454565627475812306e-03,-2.758513324159579585e-03,4.140708860881762987e-02,-6.941986638315245962e-03,-6.118207797408103943e-02,5.240247245908293688e-02,-5.878138604960958524e-02,2.303021997334489882e-02,3.167127865035659906e-03,3.047037777903474631e-02,-7.725584665514650951e-03,0.000000000000000000e+00,0.000000000000000000e+00,0.000000000000000000e+00,5.179138859003137307e-01,-0.000000000000000000e+00,-4.227530956268310547e-02,1.043479759882488480e+02,0.000000000000000000e+00
4.499719999999999831e-01,1.575482999619862504e-02,6.290754792295006476e-03,9.867625832557678223e-01,-1.349246261844436504e-04,-1.504237580107981032e-03,-2.732477278372864773e-03,4.129473325236741182e-02,-9.622111801578400042e-03,-5.916368961334228516e-02,-1.359948967013008443e-02,-1.450905425766297295e-02,-1.091673250311145371e-02,-1.103033315312067046e-03,2.872225196971050706e-02,-7.648080770072784862e-03,0.000000000000000000e+00,0.000000000000000000e+00,0.000000000000000000e+00,5.179635592886844275e-01,-0.000000000000000000e+00,3.429305553436279297e-02,8.278420134449400791e+01,0.000000000000000000e+00
4.765659999999999896e-01,1.715473543629527503e-02,4.526964606750946869e-03,9.848750829696655273e-01,-4.043661730425779583e-04,-1.883887789496219156e-03,-2.558722088820268668e-03,3.848806914661297152e-02,-1.748533507902190476e-02,-5.864281952381134033e-02,1.365529156115540292e-03,-3.741509337245850497e-02,-1.400086336042190294e-02,-6.330541233152126371e-03,2.510198122429508141e-02,-7.154668537175945531e-03,0.000000000000000000e+00,0.000000000000000000e+00,0.000000000000000000e+00,5.181324438575684033e-01,-0.000000000000000000e+00,5.208504199981689453e-02,9.848207975544767123e+01,0.000000000000000000e+00
5.004960000000000520e-01,1.811728308575273269e-02,3.427552898911179376e-03,9.835650324821472168e-01,-7.839872873125873368e-04,-2.347342173175226421e-03,-2.305536857947618722e-03,4.424732389583213577e-02,-4.091187238433676918e-03,-6.938101351261138916e-02,-8.619864816692399991e-04,-3.931257131992306475e-02,3.893776126391924192e-02,7.202844166368381658e-03,2.772695925809917639e-02,-6.452613484758507045e-03,0.000000000000000000e+00,0.000000000000000000e+00,0.000000000000000000e+00,5.190976432226747095e-01,-0.000000000000000000e+00,3.307926654815673828e-02,1.045339893601049823e+02,0.000000000000000000e+00
5.261850000000000138e-01,1.955337983977682020e-02,1.899060093201229227e-03,9.815877676010131836e-01,-1.304449969677900318e-03,-3.284240464405563387e-03,-2.043865021682263802e-03,4.137765059843836329e-02,-1.019752956518832007e-02,-6.255564838647842407e-02,-1.144926849547397291e-02,-4.091561708754351545e-02,-1.146537436799595355e-02,2.848023156239618339e-03,1.968514281572321042e-02,-5.713506309729943222e-03,0.000000000000000000e+00,0.000000000000000000e+00,0.000000000000000000e+00,5.188167294141656782e-01,-0.000000000000000000e+00,3.210755586624145508e-01,1.005996774547725749e+02,0.000000000000000000e+00
5.523949999999999694e-01,2.054430428045799992e-02,9.520633424389828318e-04,9.802714586257934570e-01,-1.380861143181011472e-03,-3.905925738936444347e-03,-2.039495029166134028e-03,5.926148545836915082e-02,-5.150496588938882972e-05,-7.775586843490600586e-02,-3.267881383406174428e-02,4.493596151426572545e-03,1.626367021053519435e-02,1.168423749919145910e-02,3.085544895885918362e-02,-5.703961895362763546e-03,0.000000000000000000e+00,0.000000000000000000e+00,0.000000000000000000e+00,5.201232356332995410e-01,-0.000000000000000000e+00,-3.066772222518920898e-01,9.621753736631912091e+01,0.000000000000000000e+00
5.730089999999999906e-01,2.146215699158741247e-02,-4.409732155138185367e-04,9.789899587631225586e-01,-1.162183946094957161e-03,-4.493105696588228781e-03,-1.992444426552478134e-03,4.092357635510730091e-02,-1.036793771666089103e-02,-6.288877874612808228e-02,4.383593910347412942e-02,-8.114289888794259942e-02,2.102311938756559837e-03,-2.577134296079027637e-04,1.093479527190511884e-02,-5.573174341454878444e-03,0.000000000000000000e+00,0.000000000000000000e+00,0.000000000000000000e+00,5.191998451412070947e-01,-0.000000000000000000e+00,-2.079373598098754883e-01,1.030041430992380072e+02,0.000000000000000000e+00
5.989590000000000192e-01,2.284441406604626953e-02,-2.443066475059213569e-03,9.771609902381896973e-01,-5.906321880504639870e-04,-4.940645459287296148e-03,-2.048270359737153733e-03,5.605981031540586274e-02,-9.011932240486614622e-04,-7.082288712263107300e-02,6.428767232724304399e-03,1.970397840078218915e-02,-1.706062345538742614e-02,3.779544282035583389e-03,2.360178519995775881e-02,-5.731895865867697726e-03,0.000000000000000000e+00,0.000000000000000000e+00,0.000000000000000000e+00,5.200076670432101089e-01,-0.000000000000000000e+00,4.992139339447021484e-02,9.970061282413462322e+01,0.000000000000000000e+00
6.245560000000000000e-01,2.429667861208024277e-02,-4.313119552423671718e-03,9.753101468086242676e-01,-2.318679634911233929e-05,-4.901000235391084203e-03,-2.018340121521569261e-03,4.265968593109394080e-02,-1.268006208926516186e-02,-6.301360577344894409e-02,1.095409744993635671e-02,2.698091739584774704e-02,-4.208868872036682605e-03,-1.178576125295034867e-02,1.231568000932114181e-02,-5.646293990320461198e-03,0.000000000000000000e+00,0.000000000000000000e+00,0.000000000000000000e+00,5.196485759438160823e-01,-0.000000000000000000e+00,-9.034550189971923828e-02,1.035656187999589122e+02,0.000000000000000000e+00
6.470770000000000133e-01,2.528002903714160129e-02,-5.467441145828757024e-03,9.740254878997802734e-01,2.079232713481109403e-04,-4.897724149217852485e-03,-1.984118253541099133e-03,5.319567821385575573e-02,-3.230199191815052561e-03,-7.368025928735733032e-02,9.647060869345986528e-03,-9.221693440399574004e-03,6.895390061659935343e-03,-4.851074615658436048e-03,2.328115202058283692e-02,-5.553673538532644116e-03,0.000000000000000000e+00,0.000000000000000000e+00,0.000000000000000000e+00,5.206196299059648869e-01,-0.000000000000000000e+00,-3.906198740005493164e-01,9.715335524488089902e+01,0.000000000000000000e+00
6.740190000000000348e-01,2.617369041296475907e-02,-5.861649389734570163e-03,9.720814228057861328e-01,1.987093788140321558e-04,-5.186654363912746035e-03,-1.809151785515242640e-03,4.661497494368662536e-02,-1.986127929665585691e-03,-6.698355823755264282e-02,1.220177092445886039e-03,-2.928748808255831823e-02,-1.640454985353831732e-02,-5.457549118978467610e-03,1.555708486673687205e-02,-5.063997965410516056e-03,0.000000000000000000e+00,0.000000000000000000e+00,0.000000000000000000e+00,5.203573840963773289e-01,-0.000000000000000000e+00,6.099092960357666016e-02,-8.447218014502510641e+01,0.000000000000000000e+00
6.978760000000000518e-01,2.677291594457864576e-02,-6.083680018669599017e-03,9.707735180854797363e-01,4.215045561719315160e-05,-5.484674668044808854e-03,-1.541343614498895702e-03,5.534557092059728262e-02,4.541471371899004697e-03,-7.531753182411193848e-02,1.794891960464219073e-03,-3.201346041309832604e-03,5.184591927527441163e-02,3.745608045004600838e-04,2.194733253503918305e-02,-4.316262935216419461e-03,0.000000000000000000e+00,0.000000000000000000e+00,0.000000000000000000e+00,5.211628290848958622e-01,-0.000000000000000000e+00,7.537043094635009766e-02,9.372033824349240660e+01,0.000000000000000000e+00
7.236080000000000290e-01,2.771062494240580237e-02,-6.300078390905327827e-03,9.687529206275939941e-01,-2.204361413678545851e-04,-6.407574082151867856e-03,-1.351067476668715850e-03,4.172635784817511906e-02,-2.862184004984273233e-03,-6.641064584255218506e-02,-1.424902215666089787e-02,-5.146609762289991452e-02,9.978266508008036204e-03,-4.857760093078103414e-03,4.886967879603422958e-03,-3.781642349317659857e-03,0.000000000000000000e+00,0.000000000000000000e+00,0.000000000000000000e+00,5.207452905747176342e-01,-0.000000000000000000e+00,-1.432322263717651367e-01,1.037989517223848850e+02,0.000000000000000000e+00
7.519970000000000265e-01,2.832763859247008215e-02,-6.418643362979890854e-03,9.674307703971862793e-01,1.313180426546301318e-04,-6.980411126472851890e-03,-1.145406939008367011e-03,5.888378480242489194e-02,6.102988520440322077e-03,-7.126110047101974487e-02,5.445860582082640011e-02,-1.831627030204337897e-02,-1.799334315959773972e-02,8.956986539491703161e-04,1.717625472735322817e-02,-3.208472288361796654e-03,0.000000000000000000e+00,0.000000000000000000e+00,0.000000000000000000e+00,5.212994498993666070e-01,-0.000000000000000000e+00,1.893891096115112305e-01,1.110569702816288924e+02,0.000000000000000000e+00
7.729190000000000227e-01,2.897371547928737773e-02,-6.625314661837992600e-03,9.660600423812866211e-01,2.401576810336246610e-04,-7.611237571802265123e-03,-9.311440160030069312e-04,4.191648177707207878e-02,-3.932531636070012160e-03,-6.889023631811141968e-02,4.120473024278394070e-02,-4.422388144606756444e-02,3.076594394430842011e-02,-9.156084351911841779e-03,-2.049817376193384388e-03,-2.607544472595368923e-03,0.000000000000000000e+00,0.000000000000000000e+00,0.000000000000000000e+00,5.213150946205162839e-01,-0.000000000000000000e+00,2.163542509078979492e-01,9.660231607321178160e+01,0.000000000000000000e+00
7.987990000000000368e-01,2.998609865380501976e-02,-7.037273239661884228e-03,9.641542434692382812e-01,1.220793167320128421e-03,-8.035332762612590329e-03,-8.170510344392156472e-04,5.830309957512268965e-02,6.684613902116405722e-03,-6.991331279277801514e-02,5.694789642039490424e-02,-3.019678277132719149e-02,-9.343142170676690256e-03,-6.008998999868591338e-03,1.134243351478942709e-02,-2.291339941287107163e-03,0.000000000000000000e+00,0.000000000000000000e+00,0.000000000000000000e+00,5.216337967655645391e-01,-0.000000000000000000e+00,2.811027765274047852e-01,8.400484494163450222e+01,0.000000000000000000e+00
8.278269999999999795e-01,3.106751293157307414e-02,-7.360378444913480075e-03,9.623610973358154297e-01,2.196346846344424293e-03,-8.041443598991726560e-03,-8.860267451714696043e-04,4.808479521498871395e-02,4.037933526558136130e-03,-6.457081437110900879e-02,2.247506022182875485e-02,9.406529619091194604e-04,-2.882808871320131916e-02,-1.615537211560188688e-02,1.910813176512597428e-03,-2.481573240146195403e-03,0.000000000000000000e+00,0.000000000000000000e+00,0.000000000000000000e+00,5.214646266589451074e-01,-0.000000000000000000e+00,2.605086565017700195e-01,9.172547904355263881e+01,0.000000000000000000e+00
8.509999999999999787e-01,3.180307999958991577e-02,-7.556496025721707969e-03,9.612564444541931152e-01,2.832344038625689980e-03,-7.682232689423473815e-03,-6.707436869412382796e-04,5.331858989594432524e-02,1.140184287125847046e-02,-7.667289674282073975e-02,3.270590601710133410e-02,2.458967163333131492e-02,2.830208276695026989e-02,-1.426108103629097207e-02,1.036499396850595195e-02,-1.885750385283657682e-03,0.000000000000000000e+00,0.000000000000000000e+00,0.000000000000000000e+00,5.225382649927036161e-01,-0.000000000000000000e+00,2.868322134017944336e-01,8.845299880841612605e+01,0.000000000000000000e+00
8.774319999999999897e-01,3.317952670927665215e-02,-7.757878943676774913e-03,9.597069621086120605e-01,3.111409273707673590e-03,-7.674681539752592485e-03,-5.262829635901794230e-04,4.882080668201789486e-02,9.015092925543626706e-03,-7.117271423339843750e-02,-3.195284024873409207e-02,-1.196482400380857562e-02,-1.014680604565259409e-02,-1.911782468508122640e-02,7.306595921165517926e-03,-1.478699565822694240e-03,0.000000000000000000e+00,0.000000000000000000e+00,0.000000000000000000e+00,5.223514596509005736e-01,-0.000000000000000000e+00,4.101167917251586914e-01,1.080302129320727715e+02,0.000000000000000000e+00
9.072310000000000096e-01,3.417105117610702569e-02,-7.866296672750509866e-03,9.587507843971252441e-01,3.331589062852946190e-03,-7.656387820577315040e-03,-4.050397517950859788e-04,6.390678948217043409e-02,1.351671527432273326e-02,-7.285702228546142578e-02,-3.011447014359008769e-03,-2.034303169499404856e-03,-4.584975179742468120e-03,-1.673799340917431905e-02,2.075077032316875042e-02,-1.152316352571458591e-03,0.000000000000000000e+00,0.000000000000000000e+00,0.000000000000000000e+00,5.226563138648269158e-01,-0.000000000000000000e+00,-2.724815607070922852e-01,1.246823302417797379e+02,0.000000000000000000e+00
9.248290000000000122e-01,3.466004226751773221e-02,-7.908634860682332152e-03,9.582821726799011230e-01,3.288847759219778316e-03,-7.912855903664306467e-03,-4.429142002689102691e-04,4.715575902360587962e-02,8.639592368341197579e-03,-6.801798194646835327e-02,1.475847356884195556e-02,-2.924684458887160526e-02,-8.447032253459114959e-03,-2.093803591959779789e-02,4.460011029791816420e-03,-1.243338049256470512e-03,0.000000000000000000e+00,0.000000000000000000e+00,0.000000000000000000e+00,5.224313842310278622e-01,-0.000000000000000000e+00,6.714332103729248047e-02,9.887737012347298560e+01,0.000000000000000000e+00
9.538609999999999589e-01,3.618595094610201068e-02,-7.954780751601867386e-03,9.569132924079895020e-01,2.966438998177123049e-03,-8.144670682192822753e-03,-2.393976256586265226e-04,5.335659596393300952e-02,1.113340465539936451e-02,-7.421498000621795654e-02,-3.424121262443398372e-02,3.129874612422176017e-02,-9.000308373399859910e-03,-1.622634257235716290e-02,1.130885025462984028e-02,-6.786512471525507628e-04,0.000000000000000000e+00,0.000000000000000000e+00,0.000000000000000000e+00,5.230954071967884866e-01,-0.000000000000000000e+00,4.607141017913818359e-02,4.066028005362598918e+01,0.000000000000000000e+00
9.801969999999999850e-01,3.718644639830805815e-02,-7.972269354565766214e-03,9.560264348983764648e-01,2.880485960535451428e-03,-8.752332859147671229e-03,-7.062332556542745912e-05,5.081319735812440952e-02,1.084233285912061980e-02,-6.444453448057174683e-02,-3.351069595795073356e-03,-5.044448933058301443e-02,-2.455263681215416930e-04,-1.625574350158871112e-02,5.506097560912913934e-03,-2.016024656081305544e-04,0.000000000000000000e+00,0.000000000000000000e+00,0.000000000000000000e+00,5.225467760878030887e-01,-0.000000000000000000e+00,-5.888342857360839844e-03,7.529827303302501207e+01,0.000000000000000000e+00
9.992929999999999868e-01,3.765832503492683170e-02,-8.097796669103020373e-03,9.556195139884948730e-01,2.779675096064526674e-03,-8.732791673267570332e-03,-5.182132127353065098e-05,4.551494302892307442e-02,1.190281350661172299e-02,-6.610771268606185913e-02,-3.777054832556419467e-02,1.268702938751239268e-02,2.286712432619802254e-02,-1.479478718984852600e-02,2.386703272794350045e-03,-1.467815118753046377e-04,0.000000000000000000e+00,0.000000000000000000e+00,0.000000000000000000e+00,5.227981997523817315e-01,-0.000000000000000000e+00,-2.935508489608764648e-01,8.983227354903016248e+01,0.000000000000000000e+00
1.026496000000000075e+00,3.861667872249150563e-02,-8.343479912766033763e-03,9.548187851905822754e-01,3.069433005487269377e-03,-9.239806396953653689e-03,-2.498730267609003105e-04,5.563295399682905568e-02,1.678767191328145100e-02,-6.224186345934867859e-02,5.014052683310516595e-02,-3.798622672501215242e-02,-6.935989428628448750e-03,-1.311496260200326579e-02,8.684264289151434266e-03,-7.073144684244248026e-04,0.000000000000000000e+00,0.000000000000000000e+00,0.000000000000000000e+00,5.226788664792596517e-01,-0.000000000000000000e+00,-4.190260171890258789e-01,1.048152155689910785e+02,0.000000000000000000e+00
1.050511999999999890e+00,3.957873966836912560e-02,-8.555400117163686202e-03,9.540711045265197754e-01,2.995893012385809299e-03,-9.306624171120159161e-03,-4.250703763074683617e-04,3.920848237038688372e-02,5.942599111325995963e-03,-5.924489721655845642e-02,-1.170455140908078194e-02,-1.765591418883024136e-03,1.523493642713194193e-02,-2.193858849678343922e-02,-5.158159094773921184e-03,-1.187246418933918246e-03,0.000000000000000000e+00,0.000000000000000000e+00,0.000000000000000000e+00,5.226051315944237885e-01,-0.000000000000000000e+00,-9.892117977142333984e-02,9.609111056478218416e+01,0.000000000000000000e+00
1.076000999999999985e+00,4.056507922523115012e-02,-8.729803733450813494e-03,9.532767534255981445e-01,3.191158515979877243e-03,-9.528647192703409985e-03,-6.102703465052399705e-04,5.476965617096347938e-02,1.797151204940758418e-02,-5.200780183076858521e-02,-9.839565983547804602e-04,-1.188341970779436402e-02,-2.135695036939220734e-02,-1.230160241921559282e-02,8.910968221963022629e-03,-1.717274903022092403e-03,0.000000000000000000e+00,0.000000000000000000e+00,0.000000000000000000e+00,5.222343033718227501e-01,-0.000000000000000000e+00,-4.774606227874755859e-02,7.905831949187371777e+01,0.000000000000000000e+00
1.099976999999999983e+00,4.151690090463673599e-02,-8.892461772068061335e-03,9.525461196899414062e-01,3.190574908373894607e-03,-9.416449156153472444e-03,-6.781035327905969015e-04,5.767221106471422110e-02,1.831867557924066886e-02,-5.823045223951339722e-02,2.538910849966696456e-02,9.308920066895206430e-03,8.160753279085121090e-03,-1.381623074224060631e-02,1.048368533015253505e-02,-1.908185489892966213e-03,0.000000000000000000e+00,0.000000000000000000e+00,0.000000000000000000e+00,5.228394997470225958e-01,-0.000000000000000000e+00,-3.306306600570678711e-01,1.282573878571478190e+02,0.000000000000000000e+00
1.126449000000000034e+00,4.250044144965599985e-02,-8.998951641838819765e-03,9.517583250999450684e-01,2.987820445541123499e-03,-9.601406815884061530e-03,-7.286251839130615353e-04,4.211464330502536629e-02,7.881980391962790586e-03,-4.339867830276489258e-02,1.233475277352294626e-02,-5.084755619964539952e-02,-5.718052920337095973e-03,-2.077339364117260917e-02,-2.220412047722602946e-03,-2.038733030375328159e-03,0.000000000000000000e+00,0.000000000000000000e+00,0.000000000000000000e+00,5.218932004322627272e-01,-0.000000000000000000e+00,-3.250609636306762695e-01,4.103189698598804114e+01,0.000000000000000000e+00
1.156069999999999931e+00,4.379930845290111452e-02,-9.291680459820098742e-03,9.510291218757629395e-01,2.745823497957788385e-03,-9.619550128544540613e-03,-7.378548175607385368e-04,5.664448462026903941e-02,1.502890818471259819e-02,-6.109959632158279419e-02,-1.993289912000020120e-02,2.550399887232258564e-02,-1.565495439250728753e-03,-1.228014886513324050e-02,1.208329103867451966e-02,-2.075234056454322573e-03,0.000000000000000000e+00,0.000000000000000000e+00,0.000000000000000000e+00,5.233469304913500597e-01,0.000000000000000000e+00,-1.213253736495971680e-01,9.511862140056659598e+01,0.000000000000000000e+00
1.177418999999999993e+00,4.443612722665362530e-02,-9.438059598151160925e-03,9.506665468215942383e-01,2.690367167708666331e-03,-9.884663073242982989e-03,-8.118737593261204921e-04,5.152935399260070298e-02,1.483439185951222761e-02,-5.240976810455322266e-02,-5.380769136419692039e-03,1.010998726183573795e-02,-4.258218559427027344e-02,-1.314833130987847973e-02,5.126819267274522300e-03,-2.276826139361587398e-03,0.000000000000000000e+00,0.000000000000000000e+00,0.000000000000000000e+00,5.228307989742014827e-01,-0.000000000000000000e+00,-2.563143968582153320e-01,1.369978170134730533e+02,0.000000000000000000e+00
1.206639000000000017e+00,4.573021942985133759e-02,-9.673053389869927174e-03,9.499025940895080566e-01,2.330005884659969856e-03,-1.019710874276813506e-02,-6.565369093712048474e-04,4.590868824747305899e-02,1.385897998290088091e-02,-6.019503250718116760e-02,-4.390906351862661205e-02,-1.129253570613509942e-02,2.734750524319798717e-02,-1.168504587852975396e-02,3.972827082735841463e-04,-1.838452154645453529e-03,0.000000000000000000e+00,0.000000000000000000e+00,0.000000000000000000e+00,5.235540825812854404e-01,-0.000000000000000000e+00,-4.258090257644653320e-01,8.977643675256530287e+01,0.000000000000000000e+00
1.223799999999999999e+00,4.636205166461823679e-02,-9.769747169415940111e-03,9.495200514793395996e-01,2.255774349817510783e-03,-1.040866765683934325e-02,-7.422261835584107858e-04,5.717496198004586722e-02,1.708672531257909855e-02,-5.768008530139923096e-02,-3.445639938921055134e-02,-6.340135005287252622e-03,5.768265615846862072e-03,-8.565840668734673452e-03,9.355996412433408710e-03,-2.084524630393380651e-03,0.000000000000000000e+00,0.000000000000000000e+00,0.000000000000000000e+00,5.235045028125960842e-01,-0.000000000000000000e+00,-2.497497797012329102e-01,1.052476894868579507e+02,0.000000000000000000e+00
1.254591000000000012e+00,4.887112763359811179e-02,-1.016282673845277963e-02,9.481553435325622559e-01,2.036040553001325099e-03,-1.124821419423960300e-02,-8.607016190559915389e-04,4.713588112432692823e-02,8.381119721447482726e-03,-4.873443394899368286e-02,-5.126639901894262247e-02,8.528218914650312690e-03,-2.237603542257637565e-02,-1.462299512245057026e-02,-3.579412843638232755e-03,-2.408421378299940852e-03,0.000000000000000000e+00,0.000000000000000000e+00,0.000000000000000000e+00,5.230403619887236122e-01,-0.000000000000000000e+00,2.153023481369018555e-01,7.824261048986659262e+01,0.000000000000000000e+00
1.277751000000000081e+00,5.008680723902386028e-02,-1.063629070210561113e-02,9.475316405296325684e-01,2.401905066456625545e-03,-1.149558138801265450e-02,-9.913937029862591836e-04,6.011413589700772414e-02,2.380008013585758683e-02,-5.537357926368713379e-02,4.352950607592318694e-02,-3.047260587060596562e-02,-1.705126497023987803e-02,-3.964627273012824235e-03,7.330353804669709726e-03,-2.782307821709295581e-03,0.000000000000000000e+00,0.000000000000000000e+00,0.000000000000000000e+00,5.236770761646597494e-01,-0.000000000000000000e+00,-1.510781049728393555e-01,1.021420502825773440e+02,0.000000000000000000e+00
1.302848999999999924e+00,5.191073181335977699e-02,-1.125160369801471785e-02,9.467124938964843750e-01,2.581430544028688427e-03,-1.119926703592333261e-02,-1.368833057241510649e-03,3.921711585991479593e-02,1.233362505265400352e-02,-4.318631812930107117e-02,-1.306972657075490584e-03,-4.938918220231853194e-03,-1.119853044863711351e-02,-1.661378971681584313e-02,-7.301709691053137434e-03,-3.828437820558805438e-03,0.000000000000000000e+00,0.000000000000000000e+00,0.000000000000000000e+00,5.229274510156833866e-01,-0.000000000000000000e+00,4.275966882705688477e-01,-7.933265403988727371e+01,0.000000000000000000e+00
1.324179999999999913e+00,5.310587001309043792e-02,-1.162713204055159863e-02,9.462022185325622559e-01,2.563855921966875107e-03,-1.072969670850354440e-02,-1.456548779254329901e-03,5.239555190515847449e-02,2.314163113573639019e-02,-5.359315127134323120e-02,-1.023560033286256138e-02,6.447041585067085634e-02,-1.041167518807146943e-03,-6.614754868901076557e-03,9.888295139679230059e-03,-4.086790117135530309e-03,0.000000000000000000e+00,0.000000000000000000e+00,0.000000000000000000e+00,5.238304466726265707e-01,0.000000000000000000e+00,-4.760348796844482422e-02,1.030906269545087213e+02,0.000000000000000000e+00
1.351610999999999896e+00,5.488283452145908958e-02,-1.207794298958312328e-02,9.454548358917236328e-01,2.652627855230732003e-03,-1.085628557370799108e-02,-1.718530493299670874e-03,4.901286761486630533e-02,1.500640043021770828e-02,-3.746770322322845459e-02,1.618179408208837711e-02,-5.112207260709208251e-02,1.741985787975530026e-02,-1.530229800833355150e-02,6.234728864635624528e-03,-4.815512848362679676e-03,0.000000000000000000e+00,0.000000000000000000e+00,0.000000000000000000e+00,5.227926519246135495e-01,-0.000000000000000000e+00,-2.605441808700561523e-01,5.152772915523615893e+01,0.000000000000000000e+00
1.371976000000000084e+00,5.605128680840568839e-02,-1.167931065462528631e-02,9.450142383575439453e-01,2.351670908425530695e-03,-1.093157556944013287e-02,-1.869880850715269259e-03,4.242594917946344163e-02,1.894416457396372669e-02,-3.696712106466293335e-02,2.202110288370904764e-02,-5.793519774132341142e-03,-3.367735070377880086e-02,-8.834646194652216039e-03,2.108574929458839533e-03,-5.236857409060047264e-03,0.000000000000000000e+00,0.000000000000000000e+00,0.000000000000000000e+00,5.228711271894148638e-01,-0.000000000000000000e+00,6.496113538742065430e-01,-1.012125025176736273e+02,0.000000000000000000e+00
1.399528000000000105e+00,5.774399334373826742e-02,-1.100012430588448963e-02,9.443117976188659668e-01,1.398912110529322225e-03,-1.130633692291183046e-02,-1.763773407569130302e-03,5.283406351365848436e-02,1.753299052803101651e-02,-3.723236173391342163e-02,-5.616853729978292520e-02,-7.401153553606900498e-03,-1.017778759693280764e-02,-3.863206679858504668e-03,1.011667631188571323e-02,-4.942960370511673140e-03,0.000000000000000000e+00,0.000000000000000000e+00,0.000000000000000000e+00,5.230338856522335211e-01,-0.000000000000000000e+00,5.439156293869018555e-01,-5.437137937842800284e+01,0.000000000000000000e+00
1.424854999999999983e+00,5.940195467108420196e-02,-1.031586931894813708e-02,9.437553286552429199e-01,7.687921001593213963e-04,-1.218816501635622274e-02,-1.560820722988825364e-03,4.386593720212442898e-02,1.978316507801851018e-02,-3.938866034150123596e-02,-2.056557402942837953e-02,-3.724124109930120052e-02,4.340260286561641728e-02,2.610963817474700778e-03,-2.802178462002958247e-03,-4.368828050384021555e-03,0.000000000000000000e+00,0.000000000000000000e+00,0.000000000000000000e+00,5.233153529515510716e-01,-0.000000000000000000e+00,1.234561204910278320e-01,1.058837986646395848e+02,0.000000000000000000e+00
1.450930999999999971e+00,6.104104051101941902e-02,-9.559366776739533500e-03,9.433016180992126465e-01,4.409149257506559164e-04,-1.258161697556658964e-02,-1.671237372860753670e-03,4.968793365292538400e-02,2.815518987880535201e-02,-3.790250793099403381e-02,-1.688762751152008204e-02,-6.338893969819811222e-03,-2.861093656529942880e-02,1.149570468043619592e-02,1.822664324968276345e-03,-4.680125265382195643e-03,0.000000000000000000e+00,0.000000000000000000e+00,0.000000000000000000e+00,5.233325463180465986e-01,-0.000000000000000000e+00,1.924277544021606445e-01,7.924246822208642982e+01,0.000000000000000000e+00
1.473057999999999979e+00,6.206063570822781955e-02,-8.783084370834094365e-03,9.430881738662719727e-01,6.489777165143980698e-04,-1.249129514754931947e-02,-1.799546198631574254e-03,5.146952663395255173e-02,1.855549042940254564e-02,-2.878028154373168945e-02,2.386627810319862965e-03,1.043751461566530189e-02,-1.203309078521051963e-02,1.993255125971885901e-03,4.134481298704145366e-03,-5.039726217822559917e-03,0.000000000000000000e+00,0.000000000000000000e+00,0.000000000000000000e+00,5.227627150157481140e-01,-0.000000000000000000e+00,2.719938755035400391e-02,1.065911057343294175e+02,0.000000000000000000e+00
1.498712000000000044e+00,6.356779239827249628e-02,-7.591643884085159596e-03,9.428034424781799316e-01,6.813261644939441839e-04,-1.205928412477708100e-02,-1.765860066853605290e-03,4.335440159957725664e-02,3.471270789920086891e-02,-3.648037090897560120e-02,-2.533424919449386165e-02,5.288896672172358621e-02,2.518262970384817570e-02,1.654365613979938421e-02,1.454058613865983479e-03,-4.945275173229346510e-03,0.000000000000000000e+00,0.000000000000000000e+00,0.000000000000000000e+00,5.234291296238116065e-01,0.000000000000000000e+00,1.767596006393432617e-01,9.095280706350577304e+01,0.000000000000000000e+00
1.524180000000000090e+00,6.504285923793014235e-02,-6.328807855358573563e-03,9.425766468048095703e-01,4.526903036142244778e-04,-1.194386321002416373e-02,-1.588049307424138678e-03,4.332194349627578600e-02,2.197487086346294055e-02,-1.791362091898918152e-02,5.044748303118908386e-03,-2.631738479489095089e-02,2.224452718245336497e-02,6.643032927389559347e-03,4.930151420172561479e-03,-4.448229143398263474e-03,0.000000000000000000e+00,0.000000000000000000e+00,0.000000000000000000e+00,5.221616855205725161e-01,-0.000000000000000000e+00,-8.484971523284912109e-02,1.143582056131711653e+02,0.000000000000000000e+00
1.550629999999999953e+00,6.646966506287213527e-02,-4.914863978965098440e-03,9.424250125885009766e-01,1.224179432081919604e-04,-1.190946788145041957e-02,-1.419488133300665211e-03,4.627963202680983323e-02,3.477877748777254141e-02,-1.836146786808967590e-02,4.571620073429771142e-02,-4.648265306495220212e-02,1.179847234108993489e-02,2.158078535710650225e-02,8.689559666358578904e-03,-3.980903072806796228e-03,0.000000000000000000e+00,0.000000000000000000e+00,0.000000000000000000e+00,5.222795867679428383e-01,-0.000000000000000000e+00,1.119016408920288086e-01,8.470502129383083911e+01,0.000000000000000000e+00
1.576897999999999911e+00,6.790853019809879598e-02,-3.214477568701178036e-03,9.423450827598571777e-01,-2.642150358291154352e-04,-1.219768814549393454e-02,-1.329863137266987195e-03,3.245544641635688538e-02,2.754880129758105825e-02,-1.015728712081909180e-02,-1.532722005115044750e-02,-4.746979979107336135e-03,-5.331036363606747597e-02,1.773631677966246156e-02,-3.071786415914136859e-03,-3.721910632598801616e-03,0.000000000000000000e+00,0.000000000000000000e+00,0.000000000000000000e+00,5.217417828554319348e-01,-0.000000000000000000e+00,2.629653215408325195e-01,7.574190747999567463e+01,0.000000000000000000e+00
1.600065000000000071e+00,6.882783275218393171e-02,-2.082925666951781791e-03,9.423379302024841309e-01,-5.467702878175583316e-05,-1.264982530634184421e-02,-8.684790914959003919e-04,4.489391499714767003e-02,4.100188962219625949e-02,-2.251487970352172852e-02,2.594437947203119543e-02,-1.041694663668224149e-02,2.577215526236891277e-02,2.866998124682239996e-02,6.406861142538008980e-03,-2.437463166831133066e-03,0.000000000000000000e+00,0.000000000000000000e+00,0.000000000000000000e+00,5.227285657331111057e-01,-0.000000000000000000e+00,7.691943645477294922e-02,8.836415170769259930e+01,0.000000000000000000e+00
1.626017000000000046e+00,7.015611067177054960e-02,-3.343883350174651288e-04,9.422543048858642578e-01,3.175522016357663229e-04,-1.328820142053910303e-02,-6.313971144884355634e-04,3.650156621677585339e-02,3.846795614728203139e-02,-6.475695408880710602e-03,2.588730217804261977e-02,-6.860137088535805949e-02,-1.739401335086214126e-02,2.360870160756844277e-02,-4.625767960883937768e-03,-1.763528540319192484e-03,0.000000000000000000e+00,0.000000000000000000e+00,0.000000000000000000e+00,5.216180862816189867e-01,-0.000000000000000000e+00,4.555547237396240234e-02,-1.220989460844585217e+01,0.000000000000000000e+00
1.652109999999999967e+00,7.128514148595481437e-02,1.581444718835246311e-03,9.423449635505676270e-01,1.223783531213794512e-03,-1.371251249587368548e-02,-5.363777176323244328e-04,3.945774869462730094e-02,3.425023687815596102e-02,-4.084103275090456009e-03,2.697353491020168872e-02,1.145078517120434562e-02,-7.664160088295003843e-03,1.607189619776738104e-02,-2.760363441723431756e-03,-1.498806970894051016e-03,0.000000000000000000e+00,0.000000000000000000e+00,0.000000000000000000e+00,5.214966014389312843e-01,-0.000000000000000000e+00,2.311109304428100586e-01,8.525494714466525181e+01,0.000000000000000000e+00
1.673224999999999962e+00,7.197688368440983975e-02,2.947116686746411966e-03,9.424646496772766113e-01,1.800240754799707806e-03,-1.355516834681824712e-02,-3.627812155658806381e-04,3.745016610910022192e-02,4.640433526243428752e-02,-1.480667106807231903e-02,-2.157636130892611956e-02,4.245050703315630947e-02,1.518560966464077740e-02,2.336452007028935046e-02,-3.147953963159322906e-03,-1.010832568734076897e-03,0.000000000000000000e+00,0.000000000000000000e+00,0.000000000000000000e+00,5.223392903825514466e-01,0.000000000000000000e+00,-3.498901128768920898e-01,8.718272876431361951e+00,0.000000000000000000e+00
1.698782000000000014e+00,7.299824890601200322e-02,4.987611856604993836e-03,9.426586627960205078e-01,2.894364614990122160e-03,-1.381006611581181431e-02,-2.150072149027618405e-06,3.740019828871823243e-02,3.787030650790970676e-02,-3.726638155058026314e-03,6.120600624342517615e-02,-6.716152446692831568e-02,1.798270048735170490e-02,9.265329081523433069e-03,-3.347685911446162017e-03,-8.179865267909924853e-07,0.000000000000000000e+00,0.000000000000000000e+00,0.000000000000000000e+00,5.215718162853194562e-01,-0.000000000000000000e+00,4.231184720993041992e-01,1.726766898412469970e+02,0.000000000000000000e+00
1.723532999999999982e+00,7.399042701113946185e-02,7.027361408249661705e-03,9.429660439491271973e-01,3.383030500931977300e-03,-1.346430198087844587e-02,1.837497412980744981e-04,3.790630796046219608e-02,5.079581508848671906e-02,-1.079839933663606644e-02,-1.897078454318308280e-02,5.626512950165423604e-02,-1.002659819102858473e-02,1.880808410161927818e-02,1.563781610611579944e-04,5.141352105719754206e-04,0.000000000000000000e+00,0.000000000000000000e+00,0.000000000000000000e+00,5.221328384420190760e-01,0.000000000000000000e+00,6.886814832687377930e-01,-8.124565513017174112e+00,0.000000000000000000e+00
1.749691000000000107e+00,7.516695198514443399e-02,9.003586620420911749e-03,9.433002471923828125e-01,3.653603945730238538e-03,-1.350463036354043744e-02,7.742719230555491919e-04,2.438100671356764268e-02,3.600718662280988358e-02,5.661122850142419338e-04,8.661686577317015412e-03,-1.983875904134636478e-03,1.826517642477653441e-02,5.010003828026128418e-03,-9.505060471105511444e-03,2.184361552972469145e-03,0.000000000000000000e+00,0.000000000000000000e+00,0.000000000000000000e+00,5.213207583685643964e-01,-0.000000000000000000e+00,8.102655410766601562e-04,8.902039628314743425e+01,0.000000000000000000e+00
1.775700000000000056e+00,7.639295367567526529e-02,1.093502802722141377e-02,9.436827898025512695e-01,3.902409821962618541e-03,-1.345200622603326401e-02,1.424322304980812741e-03,3.495321694672832991e-02,5.108308334663373002e-02,-1.294644735753536224e-02,-1.482776443879967911e-02,4.818327114324835736e-02,4.492834210180329108e-02,1.853752459620629928e-02,1.964379433795711630e-03,3.983290865038069395e-03,0.000000000000000000e+00,0.000000000000000000e+00,0.000000000000000000e+00,5.223554123312812436e-01,0.000000000000000000e+00,6.155359745025634766e-02,7.809868474367608826e+01,0.000000000000000000e+00
1.801333999999999991e+00,7.758329717576227524e-02,1.288413781727249137e-02,9.440326690673828125e-01,4.495563712335769527e-03,-1.414853680845173933e-02,1.922330083198608031e-03,2.789259265597530263e-02,4.843407492128660313e-02,7.803744636476039886e-03,9.890148408810474703e-03,-7.059599254972932780e-02,2.184319668002766834e-02,1.200353047067822046e-02,-8.119816061099332377e-03,5.401125931535466496e-03,0.000000000000000000e+00,0.000000000000000000e+00,0.000000000000000000e+00,5.208538118069406808e-01,-0.000000000000000000e+00,2.401840686798095703e-02,8.547394350002336694e+01,0.000000000000000000e+00
1.822357000000000005e+00,7.833121157159876613e-02,1.412194538518944144e-02,9.442848563194274902e-01,5.243690037676548149e-03,-1.420060157471914053e-02,2.158556340152451621e-03,3.014968373350518371e-02,4.850697819529620203e-02,4.552812315523624420e-03,7.273773226364295408e-02,-1.573873395384099011e-02,7.056071987189920652e-03,8.494728872329781327e-03,-4.896156516338913932e-03,6.055968825076696316e-03,0.000000000000000000e+00,0.000000000000000000e+00,0.000000000000000000e+00,5.211233025833091892e-01,-0.000000000000000000e+00,1.678673028945922852e-01,9.228761727262302372e+01,0.000000000000000000e+00
1.848519999999999941e+00,7.928686951136960925e-02,1.582470013571991505e-02,9.445881247520446777e-01,5.960217030496772934e-03,-1.367185112239588385e-02,2.505631704384208430e-03,2.251499696018181146e-02,4.686006783515329205e-02,-2.045129192993044853e-03,-1.976449651813253286e-02,7.570493686341450701e-02,2.623243325971505099e-02,3.710977009517462191e-03,-6.951705000508423028e-03,7.034060577319034557e-03,0.000000000000000000e+00,0.000000000000000000e+00,0.000000000000000000e+00,5.216327062721891616e-01,0.000000000000000000e+00,8.241379261016845703e-02,7.734338876487774428e+01,0.000000000000000000e+00
1.875572000000000017e+00,8.018539798880577885e-02,1.750141646616868926e-02,9.448743462562561035e-01,7.064373938036897817e-03,-1.362741792429167376e-02,2.842134113571624394e-03,3.046017296328630553e-02,4.794268736851736712e-02,3.932928200811147690e-03,8.089063573943285068e-02,-4.348295773027716776e-02,3.216989772819648513e-02,-1.122252612773379579e-03,1.719916155294207985e-03,7.952230208431110281e-03,0.000000000000000000e+00,0.000000000000000000e+00,0.000000000000000000e+00,5.212288638082644976e-01,-0.000000000000000000e+00,6.528195142745971680e-01,9.917578108831084194e+01,0.000000000000000000e+00
1.901296000000000097e+00,8.106141738674720043e-02,1.919823959471348568e-02,9.450539946556091309e-01,7.259909872536166736e-03,-1.308926358586504080e-02,3.257726772020110885e-03,2.557531380031874413e-02,5.014550496919512740e-02,4.244330339133739471e-03,2.654070602682479137e-03,-9.895831030148939667e-03,-6.046759843591726497e-03,4.337507622640566704e-04,1.171112608488406774e-03,9.117398691806444244e-03,0.000000000000000000e+00,0.000000000000000000e+00,0.000000000000000000e+00,5.212380827710825226e-01,-0.000000000000000000e+00,-3.839286565780639648e-01,7.929304577289036615e+01,0.000000000000000000e+00
1.922436999999999951e+00,8.159719508778751074e-02,2.022534786052618619e-02,9.451617598533630371e-01,7.319520273406371694e-03,-1.302541903913012611e-02,3.707594196419047080e-03,2.673694141917195080e-02,5.086684374577959272e-02,-7.434262894093990326e-03,-1.252514222249384189e-03,2.871685144573637299e-02,2.609900470534236641e-02,9.974368922909780666e-04,3.685121344711677141e-03,1.036885398907949618e-02,0.000000000000000000e+00,0.000000000000000000e+00,0.000000000000000000e+00,5.221426523495333871e-01,0.000000000000000000e+00,2.029669284820556641e-02,9.048324521844574519e+01,0.000000000000000000e+00
1.949486000000000052e+00,8.244458243494552641e-02,2.170464482734773062e-02,9.451914429664611816e-01,7.385217548296956792e-03,-1.344284816315099995e-02,4.370386759586836548e-03,2.797127534458783427e-02,5.388841216282652669e-02,4.983829800039529800e-03,1.583240839561353766e-02,-4.099194904788847071e-02,4.804119505857716577e-02,4.064682860699191623e-03,2.942560799309628782e-03,1.222652780142730045e-02,0.000000000000000000e+00,0.000000000000000000e+00,0.000000000000000000e+00,5.212823144046747625e-01,-0.000000000000000000e+00,-2.463401556015014648e-01,7.518121042084015926e+01,0.000000000000000000e+00
1.976039000000000101e+00,8.324176684285204686e-02,2.314750380770359481e-02,9.451944828033447266e-01,7.517051409894265519e-03,-1.307614001348067490e-02,4.789401805726162427e-03,1.474081526141272913e-02,3.669977733653435881e-02,1.049991417676210403e-02,3.560565597206974409e-02,1.889785858611082135e-03,5.106510292189943116e-03,-9.578626490341617811e-03,-4.348894679220803583e-03,1.342226768309617846e-02,0.000000000000000000e+00,0.000000000000000000e+00,0.000000000000000000e+00,5.209086114917719224e-01,-0.000000000000000000e+00,5.537688732147216797e-02,-2.843702815648452642e+01,0.000000000000000000e+00
2.002205000000000013e+00,8.403121254113903038e-02,2.452975861059139562e-02,9.449934363365173340e-01,8.114849842640919214e-03,-1.296781678970337914e-02,5.124167290423935553e-03,3.370525193842637685e-02,4.999422775461265928e-02,6.756754126399755478e-03,5.444798269227827531e-02,-9.483624587304211734e-03,-6.448470650153913762e-03,3.987783976025080154e-04,1.401482740184250252e-02,1.429733366581503740e-02,0.000000000000000000e+00,0.000000000000000000e+00,0.000000000000000000e+00,5.212592595880499724e-01,-0.000000000000000000e+00,1.960211992263793945e-01,7.253031838130983999e+01,0.000000000000000000e+00
2.022762000000000171e+00,8.445499115509969013e-02,2.568823991869708182e-02,9.448630809783935547e-01,8.170596389015445313e-03,-1.271135503607268014e-02,5.571456608473203051e-03,1.456226525975197299e-02,4.131874675560978649e-02,1.307040173560380936e-02,4.880302274351969866e-02,-4.783623020764064121e-02,4.432554671292901483e-02,-7.643509545116763948e-03,-1.369398823516532714e-03,1.560374613626241969e-02,0.000000000000000000e+00,0.000000000000000000e+00,0.000000000000000000e+00,5.208309418150104397e-01,-0.000000000000000000e+00,2.662432193756103516e-02,4.135257778261472339e+01,0.000000000000000000e+00
2.048646000000000189e+00,8.496244431171755263e-02,2.776887966408993907e-02,9.446880221366882324e-01,7.937408779409436260e-03,-1.217953907472280051e-02,5.996049559866110761e-03,2.798644432705264112e-02,5.034650755378886067e-02,-1.110559678636491299e-03,1.384799972620353974e-02,1.121027409277763551e-02,6.156691389648813809e-04,3.476369172774357308e-03,1.583318010273812582e-02,1.673177636557521275e-02,0.000000000000000000e+00,0.000000000000000000e+00,0.000000000000000000e+00,5.219456842967241661e-01,-0.000000000000000000e+00,5.902349948883056641e-02,8.168825651103044549e+01,0.000000000000000000e+00
2.075962000000000085e+00,8.542338111587276239e-02,2.982512289847190357e-02,9.444473981857299805e-01,7.273173842993753760e-03,-1.206281662291552870e-02,6.741861298967814081e-03,9.877340792753709978e-03,4.018464482635041024e-02,1.017600577324628830e-02,-1.450466187011876205e-02,-5.295819500574786703e-03,1.479369859198888075e-02,1.645144459575999946e-04,1.271186390021579807e-03,1.887231055431493054e-02,0.000000000000000000e+00,0.000000000000000000e+00,0.000000000000000000e+00,5.211669125590110418e-01,-0.000000000000000000e+00,2.074682712554931641e-02,4.658332447921266350e+01,0.000000000000000000e+00
2.101208000000000187e+00,8.581238424619477834e-02,3.183715371205206313e-02,9.441279172897338867e-01,6.382325967607745988e-03,-1.225330055757734016e-02,7.455227495012780800e-03,1.321508775522499922e-02,5.195456581885372904e-02,-6.110724061727523804e-03,-1.095509222874899852e-02,7.517791499994735949e-03,3.676350924272287629e-02,1.785282239436664781e-02,5.598855803744948872e-03,2.085489958203284866e-02,0.000000000000000000e+00,0.000000000000000000e+00,0.000000000000000000e+00,5.224456878972358886e-01,-0.000000000000000000e+00,5.430003404617309570e-01,-6.351828760641268445e+00,0.000000000000000000e+00
2.122440000000000104e+00,8.636327831863689630e-02,3.294644712902806971e-02,9.438832998275756836e-01,5.856070220638247802e-03,-1.271574277969356181e-02,7.913573758333200189e-03,6.556040379645377593e-03,3.991719387012554465e-02,5.728956311941146851e-03,-8.659340803659317659e-03,-1.913435679864146019e-02,1.644466673051752856e-02,1.121334101458139332e-02,-2.292146489499382982e-03,2.216352590094888830e-02,0.000000000000000000e+00,0.000000000000000000e+00,0.000000000000000000e+00,5.216381895212414133e-01,-0.000000000000000000e+00,-3.416430950164794922e-02,9.960541364748299031e+01,0.000000000000000000e+00
2.148274999999999935e+00,8.712604286420952415e-02,3.453725822423166225e-02,9.436576962471008301e-01,5.902596094101266247e-03,-1.317350186301213810e-02,8.294373881798818710e-03,1.966707557257874397e-02,4.896877709468212131e-02,1.870549516752362251e-03,4.853632990182179391e-02,-1.675855287413925351e-02,-1.441091093202437508e-02,2.081224949727429607e-02,6.780728983811220613e-03,2.320080578178351782e-02,0.000000000000000000e+00,0.000000000000000000e+00,0.000000000000000000e+00,5.219993513403098362e-01,-0.000000000000000000e+00,3.789865970611572266e-02,7.370845771124533030e+01,0.000000000000000000e+00
2.173589999999999911e+00,8.764497647170449435e-02,3.559207432759650680e-02,9.435131549835205078e-01,6.146127980195632487e-03,-1.329187200162751381e-02,8.730045819537089746e-03,4.384126867643082723e-03,3.892340043325463739e-02,1.596521027386188507e-02,4.854867828612677294e-02,-4.419914136120332848e-02,4.778529112770462522e-02,1.117141786336137838e-02,-6.998714755673425374e-03,2.446411599381465019e-02,0.000000000000000000e+00,0.000000000000000000e+00,0.000000000000000000e+00,5.210051560773819590e-01,-0.000000000000000000e+00,1.573797464370727539e-01,6.796831892144243170e+01,0.000000000000000000e+00
2.203879000000000143e+00,8.832882834845051656e-02,3.713430636887263964e-02,9.431436061859130859e-01,6.993627614298751280e-03,-1.301769034550770421e-02,8.906361002368501020e-03,1.945942930449841984e-02,5.085974865490381497e-02,-1.177642028778791428e-03,6.079325464813387092e-02,-5.930826595644220515e-04,-1.688783919919153304e-02,1.735953920323124802e-02,9.330935561324851454e-03,2.490276333602453596e-02,0.000000000000000000e+00,0.000000000000000000e+00,0.000000000000000000e+00,5.223533330028932165e-01,-0.000000000000000000e+00,-6.537520885467529297e-02,8.566434868351581144e+01,0.000000000000000000e+00
2.228190000000000115e+00,8.871012054779328637e-02,3.820312796394875060e-02,9.429290890693664551e-01,7.214409666833973209e-03,-1.248682807957890439e-02,9.221443232617197380e-03,1.208924548495449516e-02,4.461227952342401021e-02,1.953202765434980392e-03,-3.170908671496241917e-03,2.468446176687316349e-02,5.168537865632132772e-02,1.033044998744296096e-02,5.461556914216224648e-03,2.579983526284429507e-02,0.000000000000000000e+00,0.000000000000000000e+00,0.000000000000000000e+00,5.221834761000390124e-01,0.000000000000000000e+00,-1.582134962081909180e-01,2.992181224430233399e+01,0.000000000000000000e+00
2.253306999999999949e+00,8.897149807183089842e-02,3.926879139677404845e-02,9.426018595695495605e-01,7.547200668669931493e-03,-1.215967295882358634e-02,9.271539610531285766e-03,1.742042123553114510e-02,5.071231364366768357e-02,1.791635062545537949e-03,2.071412741128816903e-02,-1.529478369053772265e-03,5.853381875937557679e-04,1.473662789302478127e-02,1.336731522835588395e-02,2.590883665660687063e-02,0.000000000000000000e+00,0.000000000000000000e+00,0.000000000000000000e+00,5.222778020563448864e-01,-0.000000000000000000e+00,7.485364675521850586e-01,-7.101175559295172945e+01,0.000000000000000000e+00
2.279472000000000165e+00,8.919598706711878711e-02,4.033599994306465847e-02,9.422979354858398438e-01,7.372218123337145879e-03,-1.177323109281336322e-02,9.661662333025048191e-03,7.202025230271993234e-03,5.178145375364225089e-02,-9.503232315182685852e-03,-1.703744872594645243e-02,4.961200705247240106e-02,3.236374064044678783e-02,1.666821692967188767e-02,7.390254760816106043e-03,2.702404492879634246e-02,0.000000000000000000e+00,0.000000000000000000e+00,0.000000000000000000e+00,5.231802270125748278e-01,0.000000000000000000e+00,1.037226915359497070e-01,6.689311737248819156e+01,0.000000000000000000e+00
2.303068000000000115e+00,8.943934077041255926e-02,4.139713137400168746e-02,9.418909549713134766e-01,7.256023387513833856e-03,-1.190549730331524891e-02,9.855294364020363018e-03,3.464521103260691584e-03,4.082550607281073413e-02,1.594657194800674915e-03,-2.550120585669661197e-02,1.026727853174357226e-02,6.001176055539556020e-03,9.764838119020492757e-03,5.662524987304803394e-03,2.757402921912066596e-02,0.000000000000000000e+00,0.000000000000000000e+00,0.000000000000000000e+00,5.224485018185722751e-01,-0.000000000000000000e+00,-5.389933586120605469e-01,1.025071580446603718e+02,0.000000000000000000e+00
2.328851999999999922e+00,8.963821052213186147e-02,4.245716693355674337e-02,9.415551424026489258e-01,7.114068578040252250e-03,-1.203930729633340135e-02,1.007449589327366266e-02,2.053091267261463598e-02,5.911472019185431970e-02,-1.692708022892475128e-02,-3.393220751329703577e-02,4.876538523389841590e-02,2.883539201590372761e-02,2.709962554784758199e-02,1.889405878200646829e-02,2.813208686844576034e-02,0.000000000000000000e+00,0.000000000000000000e+00,0.000000000000000000e+00,5.239111036288608414e-01,0.000000000000000000e+00,7.586578130722045898e-01,-9.351751577608888510e+01,0.000000000000000000e+00
2.353123000000000076e+00,8.979374583677356136e-02,4.383485480322358435e-02,9.411554336547851562e-01,7.088754236112353689e-03,-1.250949765832065630e-02,1.036300303482318337e-02,3.585847673933307243e-03,4.274056879267616738e-02,2.896773628890514374e-03,1.836194872894505309e-02,-6.529569323766075406e-02,1.334184569162562457e-02,1.338156998496423805e-02,8.648857606398624269e-04,2.901216890528746095e-02,0.000000000000000000e+00,0.000000000000000000e+00,0.000000000000000000e+00,5.225290478891740920e-01,-0.000000000000000000e+00,-3.597213029861450195e-01,4.587935054183778760e+01,0.000000000000000000e+00
2.377301999999999804e+00,8.992071033808332614e-02,4.554949116016913935e-02,9.407723546028137207e-01,7.128273695736443358e-03,-1.248034863657809801e-02,1.047486278320601885e-02,2.724538556212672148e-03,4.716585125430405867e-02,-8.353705517947673798e-03,-2.233640611475960769e-02,3.602327908408373830e-02,2.522120900996428078e-02,2.007852798496734953e-02,3.030171520124099079e-03,2.931717822402479801e-02,0.000000000000000000e+00,0.000000000000000000e+00,0.000000000000000000e+00,5.234443435850714144e-01,0.000000000000000000e+00,2.406989336013793945e-01,6.371659446500118662e+01,0.000000000000000000e+00
2.400827000000000044e+00,9.002743254988995747e-02,4.718979656535076533e-02,9.403705000877380371e-01,7.520364925436556248e-03,-1.288437585810409125e-02,1.048748906372972030e-02,9.533601752653031100e-03,5.279916853507082147e-02,-6.655397824943065643e-03,3.922291290824948817e-02,1.368303532099547810e-02,-2.193430424051478686e-02,2.258322585526520779e-02,6.295262174532120780e-03,2.933859136829675140e-02,0.000000000000000000e+00,0.000000000000000000e+00,0.000000000000000000e+00,5.234178862452995018e-01,-0.000000000000000000e+00,-1.853200197219848633e-01,-8.517077189333400611e+01,0.000000000000000000e+00
2.423849999999999838e+00,9.014428738713244071e-02,4.883865567167119254e-02,9.400112032890319824e-01,7.894269476803167027e-03,-1.293517487459583393e-02,1.062202784603511786e-02,4.699507224432718298e-04,4.514385600165935625e-02,-2.960676793009042740e-03,-4.434988655199536937e-03,6.838964034781075049e-03,5.034990493128551486e-02,1.479482586258311187e-02,-1.679325401608970213e-03,2.974722390591472143e-02,0.000000000000000000e+00,0.000000000000000000e+00,0.000000000000000000e+00,5.232247095267245074e-01,-0.000000000000000000e+00,-3.575412034988403320e-01,9.866795652352040236e+01,0.000000000000000000e+00
