timestamp,x,y,z,roll,pitch,yaw,vx,vy,vz,p,q,r,psp,qsp,rsp,pres,qres,rres,thrust_sp, thrust_res
0.000000000000000000e+00,2.761841515914569278e-01,1.027013308263091812e-01,2.417219728231430054e-01,9.473811144035934606e-03,7.000311175494822180e-03,-1.085417208512584608e-02,2.196422846135317531e-04,-4.994065883483827985e-04,1.881314819911494851e-04,1.526260366126572189e-03,-9.386881866599677783e-04,-1.040790482407378788e-03,-2.079691083270449881e-01,3.112197435650611577e-01,1.117855026905954230e-01,-2.024210793722663604e-01,2.112197435650611521e-01,1.429239411175569352e-01,5.624607849053920861e-01,-2.437013387680053711e-01,-1.704257130622863770e+00,4.886064956737290288e+01,-3.352131366729736439e-01
2.565999999999999878e-02,2.761939103158155273e-01,1.027096020259386233e-01,2.417414635419845581e-01,9.458065764458499849e-03,6.994177169643567282e-03,-1.084214357000679030e-02,1.370261269149971738e-04,-4.518222825471785234e-04,2.150672953575849533e-04,-2.692511139966645125e-04,-1.370925947632630187e-03,8.041455220034164370e-04,-2.075419214320431971e-01,3.111890865038984266e-01,1.116020261123907842e-01,-2.024036265366283560e-01,2.111890865038984211e-01,1.427097499149829751e-01,5.631342556943632616e-01,-2.428210377693176270e-01,-1.723280966281890869e+00,5.700683177533952062e+01,-3.352131366729736439e-01
4.791299999999999726e-02,2.761989338648947467e-01,1.027135142890056585e-01,2.417550235986709595e-01,9.458287771939693708e-03,6.991301752174328143e-03,-1.083447865952846811e-02,2.002702488834524539e-04,-5.277221386873245370e-04,1.563905680086463690e-04,-2.642631819021836240e-04,-4.695527027600079895e-04,1.063210725651930451e-03,-2.074016696868423992e-01,3.111934588511188204e-01,1.116735683406098745e-01,-2.024130300856951947e-01,2.111934588511187871e-01,1.427630410371688585e-01,5.637971687565387358e-01,-2.428806424140930176e-01,-1.707358539104461670e+00,5.291017993381424844e+01,-3.352131366729736439e-01
7.333399999999999641e-02,2.762211500184672541e-01,1.027337358344027757e-01,2.418053150177001953e-01,9.475979317616864059e-03,6.989752825529160773e-03,-1.082164473204039190e-02,1.783468976880596998e-04,-3.195490734418837860e-04,1.890421262942254543e-04,4.925425229307298612e-04,7.309362512233994608e-04,-4.974113848938932448e-04,-2.071286698270572990e-01,3.111956779243662541e-01,1.117164139422219260e-01,-2.023951388099181070e-01,2.111956779243662485e-01,1.427751048446088689e-01,5.644400433101165460e-01,-2.435489892959594727e-01,-1.723280966281890869e+00,5.700683177533952062e+01,-3.352131366729736439e-01
9.749800000000000133e-02,2.762298765974836035e-01,1.027408778865278594e-01,2.418341487646102905e-01,9.483268998997042634e-03,6.986263519999091898e-03,-1.081653411074068316e-02,4.753552249834729375e-05,-5.313570795317349186e-04,4.363254702184349298e-04,2.742560029441770317e-04,-9.180439743783991248e-05,7.705422018205417608e-04,-2.071683112640057556e-01,3.112108261710074819e-01,1.115843011542325958e-01,-2.024284834812096479e-01,2.112108261710075041e-01,1.426309665778414948e-01,5.650747298130611718e-01,-2.438647150993347168e-01,-1.704257130622863770e+00,4.886064956737290288e+01,-3.352131366729736439e-01
1.233220000000000011e-01,2.762380354473530364e-01,1.027442849660425567e-01,2.418781667947769165e-01,9.477620833366499908e-03,6.978515068572832547e-03,-1.079269868261434340e-02,-1.270370164678293824e-05,-7.151858250500033780e-04,4.554614424705505371e-04,-9.120962606372223520e-04,-3.989620845636786435e-04,9.111084052945317598e-04,-2.070498925511313759e-01,3.112024015989466319e-01,1.115060429946583553e-01,-2.024528183315636165e-01,2.112024015989466541e-01,1.424882469447900368e-01,5.657358016707322301e-01,-2.434718012809753418e-01,-1.723280966281890869e+00,5.824208856220924702e+01,-3.352131366729736439e-01
1.480899999999999994e-01,2.762416803011939481e-01,1.027442617673328257e-01,2.419047504663467407e-01,9.480365589755984645e-03,6.962587117423701955e-03,-1.079064310307376040e-02,8.560993875177125029e-05,-7.494769195086722251e-04,4.985802806913852692e-04,-3.009365023806198722e-04,-8.137616084003286825e-04,-1.253174290255855503e-03,-2.068580771159279907e-01,3.111987718390505364e-01,1.114342935843995464e-01,-2.024486148121173723e-01,2.111987718390505309e-01,1.424141565126471054e-01,5.663859637077715004e-01,-2.436537742614746094e-01,-1.689760804176330566e+00,5.038539367692986559e+01,-3.352131366729736439e-01
1.740669999999999995e-01,2.762475735272732491e-01,1.027437881926440838e-01,2.419413924217224121e-01,9.489816403635489492e-03,6.949782533886894598e-03,-1.079739406371849064e-02,9.175313708498686305e-05,-5.926583131108550907e-04,4.564263217616826296e-04,-3.578736994521807793e-04,1.013189632732353551e-03,-3.536129672601808068e-04,-2.066889946578952808e-01,3.111074190109271997e-01,1.096320392698640622e-01,-2.025338226703920774e-01,2.111074190109271942e-01,1.406349779759934193e-01,5.671890187437764741e-01,-2.352679371833801270e-01,-1.662216782569885254e+00,5.057769765301157605e+01,-3.324433565139770508e-01
1.979519999999999891e-01,2.762487839663148592e-01,1.027449451271316427e-01,2.419623136520385742e-01,9.497911115953881420e-03,6.960969765321234348e-03,-1.078720537123767365e-02,-5.496110061130936130e-05,-5.482117116910333087e-04,2.686331572476774454e-04,-1.493556352723771031e-03,1.558316947725894418e-03,1.415286668190418552e-03,-2.065502876367631135e-01,3.111083244251017232e-01,1.096896777730757833e-01,-2.025533834450864434e-01,2.111083244251017454e-01,1.406677659389155843e-01,5.678589421030183493e-01,-2.351617813110351562e-01,-1.676065683364868164e+00,5.344528427414972782e+01,-3.324433565139770508e-01
2.251980000000000093e-01,2.762489608579187794e-01,1.027443506249335753e-01,2.419873028993606567e-01,9.498106159926343953e-03,6.957448358905660157e-03,-1.078388264067942082e-02,-3.640357692785326600e-05,-5.434742625171995554e-04,2.029358147410675883e-04,-6.418431734625690841e-04,1.182302298749760049e-03,7.717560872387416908e-04,-2.063267662256750568e-01,3.112121205667227053e-01,1.129987085528317003e-01,-2.025282090132773938e-01,2.112121205667226997e-01,1.439708974867625335e-01,5.683717855770200611e-01,-2.436199188232421875e-01,-1.709432065486907959e+00,4.714956765197423039e+01,-3.324433565139770508e-01
2.473440000000000083e-01,2.762507234609224427e-01,1.027434428310351894e-01,2.420073598623275757e-01,9.510176483255304222e-03,6.966445269534826679e-03,-1.078847021897355596e-02,1.284434790228195964e-04,-5.883610364963839587e-04,3.661593364086002111e-04,1.141311234323558925e-03,6.289924608396738059e-04,-1.257421894944245116e-03,-2.063107063116529638e-01,3.112221824548034865e-01,1.113279415269759209e-01,-2.026074947605894516e-01,2.112221824548034810e-01,1.423173671737204826e-01,5.690779545491297942e-01,-2.399767637252807617e-01,-1.709432065486907959e+00,4.942939941955986427e+01,-3.324433565139770508e-01
2.728559999999999874e-01,2.762578625747106886e-01,1.027450520562752101e-01,2.420500367879867554e-01,9.503685866967049797e-03,6.956954264271564270e-03,-1.078121878602966710e-02,1.789329402603835779e-04,-3.033421527194987330e-04,5.275318981148302555e-04,8.187896477250916380e-06,5.629888607975810531e-04,-1.267245919417039614e-05,-2.055653627082893731e-01,3.112576165911937753e-01,1.145743952074456395e-01,-2.023068720050640312e-01,2.112576165911937698e-01,1.455477990065882354e-01,5.695418734092201341e-01,-2.502385377883911133e-01,-1.709432065486907959e+00,4.714956765197423039e+01,-3.324433565139770508e-01
2.979899999999999771e-01,2.762623441394662094e-01,1.027472328274245950e-01,2.420733571052551270e-01,9.506418694045067064e-03,6.937960351750094290e-03,-1.078556776977901421e-02,4.284734710946098979e-04,-2.272889988926660068e-04,2.921436098404228687e-04,7.135306758275405037e-04,-8.303087525216072901e-04,-6.323081121347118262e-04,-2.055087548078141924e-01,3.112128976578861228e-01,1.131655106921854170e-01,-2.024508701919824072e-01,2.112128976578861173e-01,1.441548241321402857e-01,5.703029875513391245e-01,-2.449099421501159668e-01,-1.707358539104461670e+00,5.291017993381424844e+01,-3.324433565139770508e-01
3.229409999999999781e-01,2.762754723337200180e-01,1.027556748447181478e-01,2.421065717935562134e-01,9.501717701769054128e-03,6.930046857029026341e-03,-1.075541083932352038e-02,5.585444320501916412e-04,-6.851180526714542704e-05,5.908437888137996197e-04,-2.487505471409585727e-04,-1.811490908540139191e-03,6.907945908405605049e-04,-2.051247669864169898e-01,3.111999043416492361e-01,1.132148357465203869e-01,-2.024012442279207180e-01,2.111999043416492583e-01,1.441236867708488856e-01,5.709260942199418931e-01,-2.453768849372863770e-01,-1.723280966281890869e+00,5.105660319685618731e+01,-3.324433565139770508e-01
3.466679999999999762e-01,2.762833378434376708e-01,1.027624712952316388e-01,2.421276271343231201e-01,9.497521411800225952e-03,6.931943008954277730e-03,-1.074833468171076944e-02,4.298696099697653307e-04,-6.665324434674329223e-05,5.807190900668501854e-04,-1.544050351638630260e-03,6.320374691080217489e-04,-1.102843962530201405e-06,-2.043253797124058302e-01,3.112872548271433670e-01,1.162574874395731761e-01,-2.018131031054095637e-01,2.112872548271433337e-01,1.471492920759452094e-01,5.713880754683899887e-01,-2.564237117767333984e-01,-1.723280966281890869e+00,5.700683177533952062e+01,-3.324433565139770508e-01
3.753150000000000097e-01,2.762898123438231601e-01,1.027746741900179978e-01,2.421547174453735352e-01,9.476952955145693733e-03,6.931904119950260679e-03,-1.073562673437433723e-02,2.409782719150584313e-04,-3.309127971631620923e-05,3.770918701775372028e-04,-5.451949807279992842e-04,-1.236276467816917277e-03,4.481648487140567436e-04,-2.045593740883746847e-01,3.111479108968809859e-01,1.129119715033912175e-01,-2.024046752112992897e-01,2.111479108968810081e-01,1.437704083074280437e-01,5.722774221106948778e-01,-2.433559894561767578e-01,-1.702183842658996582e+00,4.910562113214457725e+01,-3.324433565139770508e-01
3.970060000000000255e-01,2.762924417630362450e-01,1.027833932038567377e-01,2.421707361936569214e-01,9.481465167558149332e-03,6.916201644481034805e-03,-1.072431044888477736e-02,2.356309704090024410e-04,-6.078407226901820249e-05,4.349251976236701012e-04,2.432948805507459443e-04,-1.119301608027427380e-04,9.252728814481990310e-04,-2.038214414272402908e-01,3.112398694926123421e-01,1.159642024553499129e-01,-2.018180371102143433e-01,2.112398694926123366e-01,1.467940881074174808e-01,5.727256787784651415e-01,-2.549173831939697266e-01,-1.709432065486907959e+00,4.942939941955986427e+01,-3.324433565139770508e-01
4.241039999999999810e-01,2.762942836289782877e-01,1.027977895552052712e-01,2.421906441450119019e-01,9.474612690595216741e-03,6.921086824016153827e-03,-1.072877109594183587e-02,1.952580141170147333e-04,2.274475552852658000e-04,3.035411937162280083e-04,5.294711159282457355e-04,-1.165362482140813385e-04,-9.961105226159153083e-04,-2.040076386047910972e-01,3.110825520089403051e-01,1.108034497775203242e-01,-2.024500229326714751e-01,2.110825520089402718e-01,1.416502548047540722e-01,5.736790308972757879e-01,-2.377813458442687988e-01,-1.723280966281890869e+00,5.105660319685618731e+01,-3.324433565139770508e-01
4.476160000000000139e-01,2.762954017393648432e-01,1.028102293145798790e-01,2.421994209289550781e-01,9.469286061343283253e-03,6.921269606070090674e-03,-1.074106799456320260e-02,3.699294055462582116e-04,1.773846040834326843e-04,1.731435622787103057e-04,-6.593156892152537149e-04,6.823446249561511585e-04,-2.243572796077906767e-04,-2.031543819364578785e-01,3.112180458977964470e-01,1.159963848244027207e-01,-2.017682450685569506e-01,2.112180458977964692e-01,1.468807954585520936e-01,5.740538078965875535e-01,-2.543669342994689941e-01,-1.716032743453979492e+00,5.527373957534048543e+01,-3.324433565139770508e-01
4.739639999999999964e-01,2.762968274951284608e-01,1.028234116347731958e-01,2.422155141830444336e-01,9.470847585699800411e-03,6.899755099367688160e-03,-1.074607427530960280e-02,-4.457669398050472344e-05,-1.530639939785918399e-06,3.369268670212477446e-04,-1.780028563212974861e-03,-2.107512737963920411e-04,-6.512698159187631643e-05,-2.035474589521686084e-01,3.111281748501200095e-01,1.136924324638581840e-01,-2.022421717081054893e-01,2.111281748501199762e-01,1.445918584021387288e-01,5.748140247457590446e-01,-2.472180128097534180e-01,-1.709432065486907959e+00,4.561256676795167664e+01,-3.324433565139770508e-01
4.974680000000000213e-01,2.762906356722488743e-01,1.028300092531397730e-01,2.422278374433517456e-01,9.478033048802115418e-03,6.901139255424793006e-03,-1.075384179415261876e-02,-1.817077190018274774e-04,-1.017643898005893320e-04,4.327449132688343525e-04,-8.408538690357994662e-06,7.218344371791550473e-04,-1.056370803533564825e-03,-2.037065546314132392e-01,3.110720794973347303e-01,1.101486862024572411e-01,-2.025107795259164511e-01,2.110720794973347247e-01,1.410731099310077175e-01,5.756323869950651373e-01,-2.369254827499389648e-01,-1.714606821537017822e+00,5.323395139104036389e+01,-3.324433565139770508e-01
5.249810000000000310e-01,2.762791386249897618e-01,1.028369852779560528e-01,2.422531396150588989e-01,9.477770923661102409e-03,6.893510011971359930e-03,-1.074295829441385131e-02,-1.474231229102443614e-04,-4.342203551320263387e-05,5.977660766802728176e-04,6.753169103038796084e-04,9.747118727034075449e-04,-2.717382302439362140e-04,-2.034357268307443734e-01,3.110614852639782546e-01,1.100805932113897434e-01,-2.024928822746911439e-01,2.110614852639782490e-01,1.409782062865321262e-01,5.762652933698311220e-01,-2.371008396148681641e-01,-1.716032743453979492e+00,6.122398522929673703e+01,-3.324433565139770508e-01
5.491179999999999950e-01,2.762738028436203530e-01,1.028418553908579530e-01,2.422659397125244141e-01,9.478459067383034758e-03,6.897977556825862777e-03,-1.071403713021568116e-02,-1.628720252626234498e-04,-8.774595524622730075e-05,3.844850871246308088e-04,3.562873557266458267e-06,4.097744622171812070e-04,1.069718350201701506e-03,-2.032245034668315187e-01,3.110864521231093138e-01,1.121864964874029202e-01,-2.024321427646288418e-01,2.110864521231093083e-01,1.430062762795595854e-01,5.768451656874723499e-01,-2.418944239616394043e-01,-1.723280966281890869e+00,5.700683177533952062e+01,-3.324433565139770508e-01
5.730809999999999516e-01,2.762588868472136139e-01,1.028470503853347873e-01,2.422835081815719604e-01,9.476213672910313232e-03,6.904507742360621592e-03,-1.069481960870755088e-02,-5.578398695820138958e-04,-7.946615727520417308e-05,5.018079536966979504e-04,-2.218835119415393212e-04,1.214847576889226790e-05,3.160269400007020049e-05,-2.030245988898498888e-01,3.110610288951541347e-01,1.118925354600803224e-01,-2.024513176728800767e-01,2.110610288951541291e-01,1.426609539250951464e-01,5.774964695793670666e-01,-2.411268949508666992e-01,-1.693642556667327881e+00,5.430256863763470676e+01,-3.324433565139770508e-01
5.963319999999999732e-01,2.762436537641763112e-01,1.028514300491887579e-01,2.422924041748046875e-01,9.462530183512630685e-03,6.900851758753878684e-03,-1.068832773640560063e-02,-6.969404818236336766e-04,-7.751925110410121751e-05,3.010650107171386480e-04,-4.058630804613960232e-03,7.128661518765364545e-04,6.040317203272632142e-04,-2.027491801537760485e-01,3.110264801180218086e-01,1.116967163511336236e-01,-2.024573761383673121e-01,2.110264801180218031e-01,1.424493397807496120e-01,5.781776210101491342e-01,-2.398922443389892578e-01,-1.714606821537017822e+00,5.486337497981694611e+01,-3.324433565139770508e-01
6.226749999999999785e-01,2.762160217207360602e-01,1.028574568940847783e-01,2.423155307769775391e-01,9.465205530163068801e-03,6.904711010087494216e-03,-1.068188534111702559e-02,-7.612739344614117068e-04,2.289164669659153324e-04,4.272345540812239051e-05,-7.530527451236996520e-04,-8.159256521454422270e-05,-1.092849657086742885e-04,-2.021829064526532160e-01,3.110342885924879397e-01,1.131421331493953908e-01,-2.022680214153220746e-01,2.110342885924879341e-01,1.438814388922633747e-01,5.787547213828563297e-01,-2.449166178703308105e-01,-1.714606821537017822e+00,5.486337497981694611e+01,-3.324433565139770508e-01
6.463619999999999921e-01,2.761955576460506379e-01,1.028653094883414942e-01,2.423269152641296387e-01,9.461834120632660675e-03,6.901321869045906610e-03,-1.066903764856119707e-02,-9.476957173073969915e-04,3.056263191979542325e-04,1.657949323998764157e-04,-1.018347541699670539e-03,-1.249371124715900519e-04,1.132612975630533031e-03,-2.019443928461470972e-01,3.110084710809662978e-01,1.128942074771640824e-01,-2.022608299626420802e-01,2.110084710809663200e-01,1.436002505764842063e-01,5.794003454904648187e-01,-2.444107532501220703e-01,-1.723280966281890869e+00,5.700683177533952062e+01,-3.324433565139770508e-01
6.717509999999999870e-01,2.761599888920236445e-01,1.028758562009937927e-01,2.423568814992904663e-01,9.458108453841481550e-03,6.884700602009852233e-03,-1.063961027103399459e-02,-1.258492199373704989e-03,2.494359517710522701e-04,6.088172449381090701e-05,8.962539193813240683e-04,-5.119483174599418233e-04,5.592472617201919806e-04,-2.018030020757652920e-01,3.109599387474668575e-01,1.124688600850307085e-01,-2.022891470852221374e-01,2.109599387474668242e-01,1.430941066158406549e-01,5.800733945812436287e-01,-2.430817484855651855e-01,-1.709432065486907959e+00,5.105879568757976728e+01,-3.324433565139770508e-01
6.965919999999999890e-01,2.761308446628426561e-01,1.028826807321330111e-01,2.423759698867797852e-01,9.468810785388801984e-03,6.890441662237956066e-03,-1.062576663011638445e-02,-1.401796772064255268e-03,2.552777655609045891e-04,5.485008296091109514e-05,6.642892850166145794e-07,-2.428439762721920408e-04,1.025321495115509265e-04,-2.016898573317052745e-01,3.109602008381789351e-01,1.124387615257544104e-01,-2.023096423834770674e-01,2.109602008381789295e-01,1.430289706333015276e-01,5.807151179030116683e-01,-2.432236671447753906e-01,-1.708938360214233398e+00,6.842125608606265530e+01,-3.324433565139770508e-01
7.217080000000000162e-01,2.760900068004203955e-01,1.028911854665672115e-01,2.423954606056213379e-01,9.481473599969538271e-03,6.896981448907713030e-03,-1.063890076258844353e-02,-1.310815700190925970e-03,9.809844936216879430e-05,-2.343050482522812672e-07,-3.712241445993458115e-04,-8.314959318036906782e-05,-5.466162467940967546e-04,-2.017140105548087814e-01,3.109897266055858811e-01,1.125974218596471899e-01,-2.023440828375001888e-01,2.109897266055858478e-01,1.432279606008091954e-01,5.813493580370709957e-01,-2.439742088317871094e-01,-1.728455722332000732e+00,5.939986709822893829e+01,-3.324433565139770508e-01
7.477190000000000225e-01,2.760714844812776070e-01,1.028941841587428241e-01,2.424060553312301636e-01,9.476473575869242064e-03,6.905329281869487801e-03,-1.064033316546098007e-02,-1.380056019684436971e-03,2.037440137900630376e-04,1.023784352582879364e-04,-2.615048657365851448e-03,-1.277071864747121414e-03,5.304362028202222207e-04,-2.013845879491013569e-01,3.109815029622782778e-01,1.125329243673588997e-01,-2.023271615212503816e-01,2.109815029622782723e-01,1.431711182886455380e-01,5.819879637050069388e-01,-2.438377141952514648e-01,-1.723393201828002930e+00,5.747395182777127332e+01,-3.324433565139770508e-01
7.729540000000000299e-01,2.760421343140033734e-01,1.029020143130163767e-01,2.424325644969940186e-01,9.481797511544962781e-03,6.905222630078533541e-03,-1.064673018541628657e-02,-1.457082058489328783e-03,4.191517331987818927e-04,9.163931099465116858e-05,-2.150275335369334836e-03,2.886816622893051133e-05,-3.145804971740836543e-04,-2.006768137089031956e-01,3.110536379714244903e-01,1.142441490347607946e-01,-2.019068428530670922e-01,2.110536379714244848e-01,1.449044419690578567e-01,5.825260527322391191e-01,-2.499836683273315430e-01,-1.709432065486907959e+00,5.105879568757976728e+01,-3.324433565139770508e-01
7.985210000000000363e-01,2.760152606713580092e-01,1.029176143302536206e-01,2.424572110176086426e-01,9.484867056690389486e-03,6.915523386320954202e-03,-1.063193649807558927e-02,-1.395892545790424280e-03,6.080649471931977475e-04,-1.586770231369882822e-04,-6.654740967968761974e-05,-2.242944410320891493e-04,1.694807486466037372e-03,-2.003917193184046319e-01,3.110461053971504963e-01,1.144420040003181482e-01,-2.018923229005148701e-01,2.110461053971504630e-01,1.450653906222673928e-01,5.831836211599528141e-01,-2.500251531600952148e-01,-1.714606821537017822e+00,5.486337497981694611e+01,-3.324433565139770508e-01
8.213610000000000078e-01,2.759990339825265093e-01,1.029310808446293884e-01,2.424833029508590698e-01,9.466450776195295055e-03,6.909694033730318097e-03,-1.062968919655360445e-02,-1.528763848384027567e-03,6.974076463363515586e-04,-2.043252607109025121e-04,-1.925357233985470476e-03,-1.961584395590333218e-03,1.576706084200869785e-03,-2.000229477571272563e-01,3.110042324367408018e-01,1.141472368143738036e-01,-2.018733722877402992e-01,2.110042324367408240e-01,1.447664937899638404e-01,5.838487412605249949e-01,-2.487591505050659180e-01,-1.702316761016845703e+00,5.650501777701867923e+01,-3.324433565139770508e-01
8.489679999999999449e-01,2.759808510136985138e-01,1.029445385644455757e-01,2.425067424774169922e-01,9.469175827564813366e-03,6.928108450890979597e-03,-1.063197674494054112e-02,-1.473681486863571933e-03,6.593355146027507540e-04,-3.202176885679364204e-04,7.114309131954507735e-04,1.596157246627028653e-03,-1.251038231485952909e-04,-1.998969169871987750e-01,3.110260271005173549e-01,1.143907747815573195e-01,-2.018886776809783179e-01,2.110260271005173494e-01,1.450202728271674235e-01,5.844910073383198235e-01,-2.491117715835571289e-01,-1.709432065486907959e+00,5.266660855782242834e+01,-3.324433565139770508e-01
8.796340000000000270e-01,2.759659973840178915e-01,1.029580929739929568e-01,2.425281852483749390e-01,9.481317513495431462e-03,6.919071482479388635e-03,-1.061731404812427115e-02,-1.348006877256011440e-03,7.902706688568356206e-04,-2.891528711188584566e-04,-2.809531975024241561e-04,-1.774092126405917534e-03,1.335575585268531805e-04,-1.996723831688472506e-01,3.110233890347468000e-01,1.144730259552071694e-01,-2.018688086593130315e-01,2.110233890347467667e-01,1.450659954985124844e-01,5.851173092154456912e-01,-2.498075366020202637e-01,-1.709432065486907959e+00,4.561256676795167664e+01,-3.324433565139770508e-01
9.026070000000000482e-01,2.759596833343673783e-01,1.029646833745526818e-01,2.425383329391479492e-01,9.482447296189758235e-03,6.915931879493131262e-03,-1.060990993665900106e-02,-1.275210046674947473e-03,8.334899739833527121e-04,-3.915837442036718130e-04,-1.471570974154406833e-03,6.686336152035370593e-04,3.385922653408114159e-04,-1.994724120967283354e-01,3.110182396594765031e-01,1.145379154654642129e-01,-2.018629506695011899e-01,2.110182396594764975e-01,1.451135918596037078e-01,5.857638866220757912e-01,-2.498411536216735840e-01,-1.695582985877990723e+00,4.668116010888392964e+01,-3.324433565139770508e-01
9.263719999999999732e-01,2.759547470259481883e-01,1.029705099327757611e-01,2.425474375486373901e-01,9.497701947913699677e-03,6.912684654181822097e-03,-1.061142326036113026e-02,-1.120585847469590061e-03,6.140099658779958527e-04,-4.315347177907824516e-04,3.517504767019643836e-03,-5.500720504853688977e-04,-7.144847195628690724e-04,-1.995664200174793457e-01,3.110520064887535296e-01,1.147474398077367730e-01,-2.019008298871353135e-01,2.110520064887534963e-01,1.453305623885693953e-01,5.863906494690495075e-01,-2.507750988006591797e-01,-1.709432065486907959e+00,4.561256676795167664e+01,-3.324433565139770508e-01
9.480600000000000138e-01,2.759449710271685285e-01,1.029768223215189182e-01,2.425626367330551147e-01,9.485837467541681153e-03,6.907305871966196165e-03,-1.060817619496945419e-02,-1.207476568969911629e-03,3.967546716972081386e-04,-5.405785632319748402e-04,-5.273637746839323313e-04,7.632207382260107042e-04,-1.017173672150865904e-03,-1.994502211084157040e-01,3.110390224164828465e-01,1.146032691753335331e-01,-2.019338422109711040e-01,2.110390224164828132e-01,1.451787337672982847e-01,5.870517839572958474e-01,-2.498775720596313477e-01,-1.709432065486907959e+00,5.266660855782242834e+01,-3.324433565139770508e-01
9.778419999999999890e-01,2.759382824375198884e-01,1.029787149733391999e-01,2.425752729177474976e-01,9.496582313937964107e-03,6.914694871185123048e-03,-1.059956759423030803e-02,-1.052431654958657127e-03,2.869718081726531085e-04,-5.480056861415505409e-04,4.040399640821519187e-04,3.914671888596272620e-04,9.370831309671958688e-04,-1.993989278408709598e-01,3.110699460745419698e-01,1.149105608153244140e-01,-2.019526877106212759e-01,2.110699460745419642e-01,1.454659779606757852e-01,5.876746548056770436e-01,-2.508448958396911621e-01,-1.697656512260437012e+00,4.101292272047374610e+01,-3.324433565139770508e-01
9.975889999999999480e-01,2.759402216635120642e-01,1.029760640774789182e-01,2.425865828990936279e-01,9.495546671875097766e-03,6.911458269361903106e-03,-1.059670229383957718e-02,-6.731229479677981829e-04,5.108495592530341964e-05,-5.450455937534570694e-04,3.164353225907108190e-04,4.654235070406212600e-04,1.386313648994030195e-04,-1.993581446047508754e-01,3.111018177465131318e-01,1.152901079028517406e-01,-2.019636324854063303e-01,2.111018177465131263e-01,1.458405423106300114e-01,5.882967554178591962e-01,-2.517979741096496582e-01,-1.709432065486907959e+00,5.266660855782242834e+01,-3.324433565139770508e-01
1.022453000000000056e+00,2.759513956110327682e-01,1.029679794303679924e-01,2.426119893789291382e-01,9.506356525868930527e-03,6.929046169359187601e-03,-1.058072578190016877e-02,-7.330476154453515998e-04,2.203961922756577253e-04,-5.184935871511697769e-04,1.720876569496470037e-03,1.236619743509325287e-03,1.333647129880608960e-03,-1.991051840825445729e-01,3.111147774298131941e-01,1.154667606388838363e-01,-2.019532523603871921e-01,2.111147774298131607e-01,1.459772902035630926e-01,5.889213682066402056e-01,-2.524013519287109375e-01,-1.704257130622863770e+00,4.886064956737290288e+01,-3.324433565139770508e-01
1.046572000000000058e+00,2.759588618369046009e-01,1.029630552762858114e-01,2.426297813653945923e-01,9.501151164852519870e-03,6.913179427608273642e-03,-1.058177380936498047e-02,-5.979705827644770516e-04,2.507612708089656454e-04,-5.638691945932805538e-04,-1.491400794592562468e-03,-1.786058978320941926e-03,2.060869613356221557e-04,-1.988715527519187565e-01,3.110997716433345772e-01,1.154083143003926393e-01,-2.019337926841731912e-01,2.110997716433345994e-01,1.459247044388114756e-01,5.895637301627163485e-01,-2.522430419921875000e-01,-1.714606821537017822e+00,5.323395139104036389e+01,-3.324433565139770508e-01
1.079078999999999899e+00,2.759780289570353817e-01,1.029538140101201871e-01,2.426528632640838623e-01,9.501407503815766792e-03,6.908813768883304007e-03,-1.056650896792832306e-02,-2.353896012432347973e-04,3.662916365511052497e-05,-4.479078634176403284e-04,-1.839215751061686315e-03,-6.037458616263294622e-04,6.832672404265019385e-04,-1.988390861175987900e-01,3.111317046039453471e-01,1.157931067858505580e-01,-2.019376299817607634e-01,2.111317046039453416e-01,1.462698026615179281e-01,5.901726679713239498e-01,-2.533857226371765137e-01,-1.709544122219085693e+00,5.138258763537339036e+01,-3.324433565139770508e-01
1.100278000000000089e+00,2.759860331524674470e-01,1.029481268353549389e-01,2.426581680774688721e-01,9.510852675838187692e-03,6.911538675776984775e-03,-1.057354507157470813e-02,-2.111990711145667044e-04,-1.248587401803913062e-04,-5.748589755967259407e-04,8.866005528704349551e-04,-1.139195469453477277e-04,-1.461520619402367457e-04,-1.988381191066246889e-01,3.111556551412111848e-01,1.159019170600891213e-01,-2.019739796547141142e-01,2.111556551412111793e-01,1.464013376148745049e-01,5.908117378146875431e-01,-2.537166476249694824e-01,-1.702183842658996582e+00,5.463740500131624600e+01,-3.324433565139770508e-01
1.122794999999999987e+00,2.759940129834905775e-01,1.029419990440176846e-01,2.426629215478897095e-01,9.510519070613497952e-03,6.909523063573841384e-03,-1.055753355459820853e-02,-2.644152470553792419e-04,-1.555992711358140761e-04,-4.773242399096488953e-04,-1.037425911830176708e-03,8.460340694066634248e-04,7.467547155294167226e-04,-1.986641378992950457e-01,3.111520845940489721e-01,1.158733700960459523e-01,-2.019769370459804092e-01,2.111520845940489666e-01,1.463309528945736793e-01,5.914408369374062335e-01,-2.537224292755126953e-01,-1.707358539104461670e+00,5.835643275910443606e+01,-3.324433565139770508e-01
1.154422999999999977e+00,2.760157605759763211e-01,1.029218907501079638e-01,2.426799833774566650e-01,9.520615622749349985e-03,6.912705768745031065e-03,-1.054434551690319743e-02,-2.568257092374220149e-04,-2.030130770767367193e-04,-2.894921926781535149e-04,4.760640861364357672e-04,1.057305501432754945e-05,5.906016355478787075e-04,-1.985932286334937957e-01,3.111729181067210970e-01,1.159817779564924489e-01,-2.019836976307645138e-01,2.111729181067210914e-01,1.464060639237556583e-01,5.920489952111109844e-01,-2.545361518859863281e-01,-1.709432065486907959e+00,4.561256676795167664e+01,-3.324433565139770508e-01
1.174808000000000074e+00,2.760236533108935686e-01,1.029151151717005858e-01,2.426836341619491577e-01,9.513086466271254704e-03,6.911263487957119978e-03,-1.053679661158257730e-02,-3.143663804296829866e-04,-4.237625039974886402e-05,-3.096229047514498234e-04,-1.474019326436153794e-04,3.726999024926524865e-05,7.445194976857920106e-04,-1.980547628230744928e-01,3.112252270819561017e-01,1.172754435443617849e-01,-2.017754968483475575e-01,2.112252270819561240e-01,1.476820012077908750e-01,5.925798713244012639e-01,-2.608159780502319336e-01,-1.723280966281890869e+00,5.220641773230364890e+01,-3.351823687553405762e-01
1.198566999999999938e+00,2.760368066585162650e-01,1.029025726067834268e-01,2.426892966032028198e-01,9.519210918800164595e-03,6.924115530923202755e-03,-1.052512692127605121e-02,-4.456429499166447467e-04,-1.425645232771200117e-04,-4.027198592666536570e-04,1.802037408410224082e-03,3.079149076880346048e-03,-4.164531727668266208e-04,-1.980466640605121342e-01,3.112479645522685523e-01,1.174044595778902800e-01,-2.018139210316464149e-01,2.112479645522685190e-01,1.477812262143781419e-01,5.932207074852863249e-01,-2.607678771018981934e-01,-1.718106269836425781e+00,5.458587122402850156e+01,-3.351823687553405762e-01
1.227915000000000090e+00,2.760559625281534535e-01,1.028846956324680623e-01,2.426866441965103149e-01,9.505956082683487962e-03,6.919708938150082034e-03,-1.050278178503094573e-02,-5.437137911749373356e-04,-2.259109465617533329e-04,-5.212298710830509663e-04,1.847610313961993900e-04,-2.402385172523692318e-04,2.849320211189390514e-05,-1.978460400699350863e-01,3.112372775064914387e-01,1.173443162613923008e-01,-2.018220111162946639e-01,2.112372775064914332e-01,1.476604176298337845e-01,5.938797069628467540e-01,-2.597423791885375977e-01,-1.709544122219085693e+00,5.301196341282577862e+01,-3.352131366729736439e-01
1.251530000000000031e+00,2.760583091277247214e-01,1.028756596131514267e-01,2.426827549934387207e-01,9.492132730698463888e-03,6.912048757772071284e-03,-1.048595986768829924e-02,-8.122761656699944467e-04,-2.147568721284287487e-04,-5.214989068917930126e-04,-7.004561951699384958e-04,9.740522873115584328e-04,5.244726292101063291e-04,-1.975766778007927715e-01,3.112122578043898802e-01,1.170117324024075589e-01,-2.018277073439475600e-01,2.112122578043899024e-01,1.472824823867237842e-01,5.945374634542330838e-01,-2.582857608795166016e-01,-1.714606821537017822e+00,5.323395139104036389e+01,-3.352131366729736439e-01
1.276642999999999972e+00,2.760607697546985095e-01,1.028613288565577016e-01,2.426778078079223633e-01,9.469887413221229552e-03,6.909462592963766525e-03,-1.048704919979503991e-02,-5.329449611374383403e-04,-2.151549713812233222e-04,-5.352980224415659904e-04,-4.772208354960624592e-04,-1.299027521304837313e-03,-5.558728253311230041e-04,-1.972164748987463301e-01,3.111890803885942747e-01,1.171105342065388299e-01,-2.017808793971949399e-01,2.111890803885942414e-01,1.473871823530567005e-01,5.951746911469353307e-01,-2.581179141998291016e-01,-1.690408229827880859e+00,4.450598391485581828e+01,-3.352131366729736439e-01
1.299358999999999931e+00,2.760634215255081125e-01,1.028579552240407730e-01,2.426774650812149048e-01,9.473280165294249364e-03,6.897289658773342325e-03,-1.048812051319369942e-02,-2.929352303972257389e-04,-1.823335171393578296e-04,-4.298700368963181973e-04,1.066323551118428335e-03,-1.189147538777560534e-03,5.248225160262156653e-05,-1.970128934881314464e-01,3.111722879999291314e-01,1.171944817497681812e-01,-2.017520128367722432e-01,2.111722879999291258e-01,1.474777738493002477e-01,5.957842089531336649e-01,-2.590802907943725586e-01,-1.723280966281890869e+00,5.824208856220924702e+01,-3.352131366729736439e-01
1.328208000000000055e+00,2.760710410759780742e-01,1.028430062514428533e-01,2.426679134368896484e-01,9.472589578250161305e-03,6.875680818238860681e-03,-1.049196816973085866e-02,-5.187322175452632094e-04,-4.081617700451296415e-04,-7.112228195182979107e-04,3.752486160351417230e-03,-8.245736289102010381e-04,-1.681773010074082315e-03,-1.970694301236374790e-01,3.110413683360732096e-01,1.156295046593301956e-01,-2.018302716927752594e-01,2.110413683360732318e-01,1.459242302788070211e-01,5.964792109034865453e-01,-2.564203143119812012e-01,-1.728455722332000732e+00,5.344962827446185827e+01,-3.352131366729736439e-01
1.355131000000000085e+00,2.760703720165679220e-01,1.028339688199460672e-01,2.426517605781555176e-01,9.467517072423957403e-03,6.871028870558903989e-03,-1.049796800739311031e-02,-6.551356772113607141e-04,8.206400886114266035e-05,-6.271604797802865505e-04,2.220356686112278689e-03,3.372427851344179505e-04,-1.251900088717254698e-03,-1.964535429055389026e-01,3.110144775747513135e-01,1.153188986571459795e-01,-2.017518865279681328e-01,2.110144775747512802e-01,1.456353512274988493e-01,5.971238065483038815e-01,-2.553606033325195312e-01,-1.718106269836425781e+00,5.565870269734074327e+01,-3.352131366729736439e-01
1.377161999999999997e+00,2.760702319636770818e-01,1.028315135071275477e-01,2.426372766494750977e-01,9.463075328118330728e-03,6.875113201337379465e-03,-1.048618471743223424e-02,-5.623691110452763361e-04,-3.819869941061776236e-05,-7.858545286580920219e-04,-4.988546496104986037e-04,-8.975412193149223065e-04,1.847503902732132225e-03,-1.964053135719161791e-01,3.110261477006793784e-01,1.155182667352569748e-01,-2.017706184829457794e-01,2.110261477006794006e-01,1.458040810428538336e-01,5.977690378033433394e-01,-2.551862597465515137e-01,-1.709432065486907959e+00,4.714956765197423039e+01,-3.352131366729736439e-01
1.404312000000000005e+00,2.760714612731760553e-01,1.028282180115844130e-01,2.426192015409469604e-01,9.450113684899712901e-03,6.867531391290926379e-03,-1.049248811346648047e-02,-4.042882499829625418e-04,-6.498126562807466440e-05,-9.413606021553277969e-04,-9.743373272880742522e-06,-7.569000659123443966e-04,1.622040748263801771e-03,-1.961371296754055304e-01,3.110103944212786464e-01,1.155337045136084206e-01,-2.017546426502256351e-01,2.110103944212786409e-01,1.458397776938374080e-01,5.984185173822001991e-01,-2.547388076782226562e-01,-1.728455722332000732e+00,5.939986709822893829e+01,-3.352131366729736439e-01
1.425529000000000046e+00,2.760823140386035046e-01,1.028228848058271860e-01,2.425906658172607422e-01,9.444414235989287074e-03,6.866284350123930125e-03,-1.050801055220484947e-02,-1.113803353992866800e-04,-1.189650095906578952e-04,-1.144592999480664730e-03,1.597424834045296869e-03,2.657671720009481303e-04,-4.982688635971159723e-04,-1.959483850605991118e-01,3.110233250313324538e-01,1.157639892976527196e-01,-2.017426720408496132e-01,2.110233250313324482e-01,1.461167658838728178e-01,5.990619560953988065e-01,-2.548700571060180664e-01,-1.709432065486907959e+00,5.105879568757976728e+01,-3.352131366729736439e-01
1.448568999999999996e+00,2.761005513289745972e-01,1.028160370356390602e-01,2.425593137741088867e-01,9.479391107213039000e-03,6.877763021420291167e-03,-1.049246019036753630e-02,-6.362374326707828014e-05,-9.455638592266759604e-05,-1.183201908133924007e-03,1.808207496393644548e-03,-1.749874869740918396e-04,2.908419289497793121e-04,-1.960211819806794986e-01,3.110757947644993138e-01,1.161759343883043416e-01,-2.017750021115551906e-01,2.110757947644992805e-01,1.464904185207419329e-01,5.996684198980183345e-01,-2.565508484840393066e-01,-1.676065683364868164e+00,5.344528427414972782e+01,-3.352131366729736439e-01
1.472566000000000042e+00,2.761129878014324524e-01,1.028102927742909484e-01,2.425402104854583740e-01,9.475212463819018133e-03,6.889711366687478744e-03,-1.048500286337139542e-02,-1.023148743297307096e-04,-2.337608823145388519e-04,-1.209478243254125118e-03,-9.944176838199544812e-04,5.986641695155129001e-04,-1.556094526454150726e-03,-1.960327191091981724e-01,3.110727424258118989e-01,1.145155743448643126e-01,-2.018905693835240378e-01,2.110727424258118934e-01,1.448116454671846132e-01,6.003803651226969906e-01,-2.517278790473937988e-01,-1.683160006999969482e+00,4.799906218471081587e+01,-3.352131366729736439e-01
1.496996999999999911e+00,2.761338933022938202e-01,1.027986576176573436e-01,2.425138503313064575e-01,9.469185462510002274e-03,6.893939012517336096e-03,-1.047501249804017043e-02,5.018909147171367053e-05,-2.280070592502302248e-04,-1.265386235900223255e-03,-6.372641063129215900e-04,-8.291778950339611775e-04,-1.743317369809414786e-04,-1.957979721902364245e-01,3.110805518214685428e-01,1.147406200233129503e-01,-2.018775640434189167e-01,2.110805518214685650e-01,1.450122079374857320e-01,6.010122129862042195e-01,-2.518744468688964844e-01,-1.709432065486907959e+00,4.561256676795167664e+01,-3.352131366729736439e-01
1.522799999999999931e+00,2.761514595746658585e-01,1.027909300164205342e-01,2.424944341182708740e-01,9.469197248796050112e-03,6.881723527470073876e-03,-1.045706805686541507e-02,3.011404184489843185e-04,-2.553126313955554117e-04,-1.274908543564379215e-03,-1.470008339091260466e-04,-7.844737071270659360e-04,3.751826240293688148e-04,-1.956360005985486872e-01,3.110839976966960352e-01,1.149042552096506131e-01,-2.018625157004960147e-01,2.110839976966960296e-01,1.451288320587708347e-01,6.016360953236952192e-01,-2.522644996643066406e-01,-1.714606821537017822e+00,5.323395139104036389e+01,-3.352131366729736439e-01
1.554729999999999945e+00,2.761788152464227375e-01,1.027767404890852915e-01,2.424604147672653198e-01,9.479362764314455334e-03,6.902363564604163670e-03,-1.045281332002412356e-02,5.288333606158466291e-05,-4.028039214376653984e-04,-1.371072256006300449e-03,7.170965307825942752e-04,4.209413708089874317e-05,-5.080650966293174305e-04,-1.956872524271353608e-01,3.111118952757483402e-01,1.150129055763871033e-01,-2.019177019715944765e-01,2.111118952757483347e-01,1.452282857737450250e-01,6.022715054536261770e-01,-2.522978782653808594e-01,-1.723280966281890869e+00,5.824208856220924702e+01,-3.352131366729736439e-01
1.583374000000000059e+00,2.761857373908526703e-01,1.027714503941330737e-01,2.424496263265609741e-01,9.476132380810069200e-03,6.903827808330209592e-03,-1.043507792789921673e-02,1.103973697147514694e-04,-3.582494879633790047e-04,-1.232049311511218548e-03,1.989025442254727799e-03,-4.426603219639694219e-04,1.256126091819292825e-03,-1.954379977037184468e-01,3.111112688865689258e-01,1.151072535197209812e-01,-2.018990132808759497e-01,2.111112688865689202e-01,1.452765799597755259e-01,6.028861886308732876e-01,-2.525566220283508301e-01,-1.709432065486907959e+00,5.105879568757976728e+01,-3.352131366729736439e-01
1.608406999999999920e+00,2.762071233862257724e-01,1.027561103736392839e-01,2.424241751432418823e-01,9.466162818250299302e-03,6.909577231961616661e-03,-1.039970185867034047e-02,2.133364248923734876e-04,-2.003348115721764430e-04,-1.310833380557596684e-03,1.056939727968527701e-03,-2.053183524846799210e-05,8.531515266761107276e-04,-1.950892093174959041e-01,3.110960852564372825e-01,1.153422953175156362e-01,-2.018625942005519702e-01,2.110960852564372492e-01,1.454162456439906659e-01,6.035217971109411161e-01,-2.524402737617492676e-01,-1.676065683364868164e+00,5.492372653132318305e+01,-3.352131366729736439e-01
1.637734999999999941e+00,2.762195814249266412e-01,1.027518611353201994e-01,2.424106448888778687e-01,9.478988662424041658e-03,6.914051170336943386e-03,-1.039520144191663498e-02,7.588841825176969403e-06,-3.285839379356916736e-05,-1.140471431426703930e-03,1.129014035636225540e-03,2.636722664311962842e-04,-9.318705979874116840e-05,-1.950787981956576267e-01,3.110601638662916502e-01,1.137937313192212418e-01,-2.020200211273949498e-01,2.110601638662916724e-01,1.438590134310775703e-01,6.042201377424604170e-01,-2.474236488342285156e-01,-1.689914703369140625e+00,5.927829656119188684e+01,-3.352131366729736439e-01
1.670992000000000033e+00,2.762169947599908415e-01,1.027676604860884996e-01,2.424190342426300049e-01,9.474118202984724638e-03,6.925688752432934692e-03,-1.035961317853972830e-02,-7.407553502940684423e-04,3.945849590400765357e-04,-1.034885528497397900e-03,1.200154653199502668e-03,-8.477995478948061221e-04,2.017250350533787706e-03,-1.946111456892796743e-01,3.109855019747179705e-01,1.132265053671769883e-01,-2.019965586417135361e-01,2.109855019747179927e-01,1.431953662326246324e-01,6.048656064442925473e-01,-2.457208633422851562e-01,-1.683293044567108154e+00,4.995223674014599879e+01,-3.352131366729736439e-01
1.696495000000000086e+00,2.762045624095132434e-01,1.027891704289557451e-01,2.424201965332031250e-01,9.471610630565962391e-03,6.908662277445243305e-03,-1.033213849677294682e-02,-7.972624851339251903e-04,7.076400385672455828e-04,-8.760829805396497250e-04,-8.677770047695954406e-05,-5.889559830889788770e-04,4.796802986674546070e-04,-1.942193745377179814e-01,3.109370194124007059e-01,1.129849700958014957e-01,-2.019425657928473616e-01,2.109370194124007281e-01,1.428807737744675066e-01,6.054860877937177088e-01,-2.453591823577880859e-01,-1.716165721416473389e+00,6.422308031271431616e+01,-3.352131366729736439e-01
1.724369999999999958e+00,2.761948164570101616e-01,1.028080263652147719e-01,2.424221634864807129e-01,9.476483784567679008e-03,6.907156188046270628e-03,-1.031341414070552354e-02,-7.478335357703364559e-04,9.227709260381132192e-04,-6.678094505332410336e-04,4.851753368139521787e-04,-5.677850472035674565e-04,4.340181703712681907e-04,-1.939371297993372489e-01,3.109281187001425861e-01,1.130342866794779855e-01,-2.019028137184462612e-01,2.109281187001425528e-01,1.428819210484222613e-01,6.060876048086332180e-01,-2.459093332290649414e-01,-1.702183842658996582e+00,4.910562113214457725e+01,-3.352131366729736439e-01
1.754669999999999952e+00,2.761784255038761127e-01,1.028401234834570716e-01,2.424264997243881226e-01,9.481190752340974692e-03,6.901215802021187784e-03,-1.030541491652270381e-02,-6.871057409897754270e-04,8.896572433282636493e-04,-4.805179196409881115e-04,-3.406449757852831684e-04,-2.799865827868432784e-04,8.024460762904760602e-04,-1.938247096484768672e-01,3.109328150037023453e-01,1.130450193497943012e-01,-2.018998277529910901e-01,2.109328150037023397e-01,1.428733336304532642e-01,6.066908863905464688e-01,-2.463810443878173828e-01,-1.709432065486907959e+00,5.266660855782242834e+01,-3.352131366729736439e-01
1.779541000000000039e+00,2.761624549382745153e-01,1.028747787603996044e-01,2.424355745315551758e-01,9.468618980912701585e-03,6.897292436289115258e-03,-1.030673972280538031e-02,-6.490671769934677586e-04,1.012565405922304443e-03,-5.012463661842048168e-04,-7.341427072099342968e-04,3.094374795933524163e-04,-1.097258235291570126e-03,-1.934499565051231162e-01,3.109075967424921316e-01,1.129600427761243975e-01,-2.018694881487343717e-01,2.109075967424921538e-01,1.427951771156128202e-01,6.073241487659062354e-01,-2.458018064498901367e-01,-1.709432065486907959e+00,5.105879568757976728e+01,-3.352131366729736439e-01
1.805960000000000010e+00,2.761461992354961037e-01,1.029102878340268507e-01,2.424423545598983765e-01,9.482235322913904266e-03,6.898390642593010824e-03,-1.031569890278816182e-02,-8.869859477507322431e-04,1.139882062635586652e-03,-4.956935299560427666e-04,8.139565205776442625e-04,4.134802481143437188e-04,-9.809520038407207061e-04,-1.936998980613644228e-01,3.108106321845125475e-01,1.108471731299392471e-01,-2.022789160468513592e-01,2.108106321845125142e-01,1.407111052306018739e-01,6.080518410785000771e-01,-2.393143177032470703e-01,-1.676065683364868164e+00,5.344528427414972782e+01,-3.352131366729736439e-01
1.828114000000000017e+00,2.761356062442793524e-01,1.029294825159084020e-01,2.424434423446655273e-01,9.479795220298365549e-03,6.910318199830012276e-03,-1.030406342554268662e-02,-1.065502848151642524e-03,1.211380977142196983e-03,-4.815821012016385794e-04,3.305637806877798025e-04,9.886640212808063197e-04,1.647942510322314468e-03,-1.934817421717432429e-01,3.108018199092478784e-01,1.107941547757451128e-01,-2.022795986481559227e-01,2.108018199092478728e-01,1.406287217758955821e-01,6.086785242012890951e-01,-2.389484643936157227e-01,-1.709432065486907959e+00,4.561256676795167664e+01,-3.352131366729736439e-01
1.848597999999999963e+00,2.761236288964494245e-01,1.029496722737455183e-01,2.424367368221282959e-01,9.504676917571008854e-03,6.932189879719441450e-03,-1.029700883806605738e-02,-1.035181784142890846e-03,1.233265793012757339e-03,-5.664431955665349960e-04,9.602641700881023009e-04,2.812188284796764267e-04,-1.035962194476966079e-03,-1.934944011399594710e-01,3.108435996986976813e-01,1.111742597400254551e-01,-2.023096992417178497e-01,2.108435996986977035e-01,1.409942183007257543e-01,6.092866993922088081e-01,-2.401199936866760254e-01,-1.716680169105529785e+00,5.063762573278926737e+01,-3.352131366729736439e-01
1.877075999999999967e+00,2.761104530117323708e-01,1.029772341148948028e-01,2.424250543117523193e-01,9.496023784796039924e-03,6.941874292013094916e-03,-1.027345956942737892e-02,-1.015626454865007147e-03,1.420230973041415211e-03,-5.283086211420595646e-04,-1.015888555734336535e-03,-3.175726188668293254e-04,9.646121708709538877e-04,-1.931172410129536332e-01,3.108278735085820421e-01,1.113034951848906884e-01,-2.022760049957761097e-01,2.108278735085820366e-01,1.410613988767561167e-01,6.099085145718160517e-01,-2.399611473083496094e-01,-1.709432065486907959e+00,5.105879568757976728e+01,-3.352131366729736439e-01
1.909612000000000087e+00,2.760984713889668152e-01,1.030062162594044817e-01,2.424150705337524414e-01,9.525743303519042943e-03,6.961415958377958901e-03,-1.027877391586207168e-02,-9.357816517911425472e-04,1.345860819689119687e-03,-6.509291124530136585e-04,7.565734979287550531e-04,5.299264284700704129e-04,-3.945855656640172857e-04,-1.932392156190361199e-01,3.108841449705177507e-01,1.117335131076165888e-01,-2.023174650982776379e-01,2.108841449705177451e-01,1.415111320998644895e-01,6.105136220711188111e-01,-2.414261698722839355e-01,-1.714606821537017822e+00,5.323395139104036389e+01,-3.352131366729736439e-01
1.934639999999999915e+00,2.760855337134056620e-01,1.030281705100334483e-01,2.424038499593734741e-01,9.520370621431685845e-03,6.989665133225964055e-03,-1.028156756038001163e-02,-9.800610943068352975e-04,1.087555744186623381e-03,-4.811821854673326015e-04,2.084574426752600822e-04,-1.964188947265347121e-04,-3.421535067593330526e-04,-1.932104928503262653e-01,3.109235839480730679e-01,1.119678755472643950e-01,-2.023520509412773671e-01,2.109235839480730346e-01,1.417557249920212148e-01,6.111158875456081940e-01,-2.418668270111083984e-01,-1.702183842658996582e+00,4.910562113214457725e+01,-3.352131366729736439e-01
1.959654000000000007e+00,2.760777751604072128e-01,1.030360626295900028e-01,2.423939406871795654e-01,9.505705827304913522e-03,6.977227551828724117e-03,-1.027304560500841291e-02,-9.965200454147063718e-04,9.082282173226186332e-04,-5.536373355425894260e-04,-8.633530425260192449e-04,-5.183478504862319529e-04,3.763549726306728558e-04,-1.930450365458911410e-01,3.109028943285066515e-01,1.118206633698441976e-01,-2.023674144012924392e-01,2.109028943285066460e-01,1.415859904011390058e-01,6.117543431777250351e-01,-2.410196065902709961e-01,-1.702183842658996582e+00,5.614236205284768744e+01,-3.352131366729736439e-01
1.988436000000000092e+00,2.760588665183785206e-01,1.030437036937839335e-01,2.423827797174453735e-01,9.523017000751816952e-03,6.992548722895453039e-03,-1.027958976233156463e-02,-1.359439477996011092e-03,7.416633471174632897e-04,-3.723713161889463663e-04,-3.291622694806616662e-04,8.808931386196024475e-04,-1.226433930530737289e-04,-1.931267224994857590e-01,3.109280422784921338e-01,1.116460490303947395e-01,-2.024232785884758634e-01,2.109280422784921283e-01,1.414325008649049698e-01,6.123566284887761446e-01,-2.413320541381835938e-01,-1.702183842658996582e+00,4.910562113214457725e+01,-3.352131366729736439e-01
2.011702000000000101e+00,2.760398175584500846e-01,1.030399033159974803e-01,2.423680871725082397e-01,9.512612646856247536e-03,6.995930644104975116e-03,-1.025733962257446841e-02,-1.108279259896673401e-03,5.023248686760974817e-04,-4.355104174464941025e-04,-5.113042753884429210e-04,4.708727748162693590e-04,5.193013030403250459e-04,-1.930440391454244786e-01,3.109419404941233811e-01,1.120092491839522475e-01,-2.024399681091944292e-01,2.109419404941234033e-01,1.417358181052088828e-01,6.129752049134822300e-01,-2.416377067565917969e-01,-1.709432065486907959e+00,5.105879568757976728e+01,-3.352131366729736439e-01
2.030095000000000205e+00,2.760385222902624891e-01,1.030370459732746768e-01,2.423600405454635620e-01,9.523339662390512689e-03,7.002635356388786647e-03,-1.025982102997091694e-02,-7.506017507225612017e-04,4.094060060545837718e-04,-3.108065866399556398e-04,-3.198114976681169265e-04,-1.694036146464476507e-03,-1.737152057703987530e-04,-1.929786046657596121e-01,3.109892710412801575e-01,1.124775911472226664e-01,-2.024382035428974325e-01,2.109892710412801797e-01,1.422154602352928565e-01,6.135596288937132936e-01,-2.432432174682617188e-01,-1.697656512260437012e+00,4.101292272047374610e+01,-3.352131366729736439e-01
2.047404999999999919e+00,2.760393033546313935e-01,1.030337939491451915e-01,2.423570603132247925e-01,9.528586636792790721e-03,7.008025037696041792e-03,-1.026049409775842136e-02,-7.323329913759020872e-04,3.579023114024349286e-04,-3.333355416543781757e-04,9.455983082028660827e-04,9.978254832738267001e-04,-5.310146142902393441e-04,-1.928877439767747726e-01,3.110042932924902415e-01,1.125809000266195514e-01,-2.024510365458487282e-01,2.110042932924902359e-01,1.423237903627569689e-01,6.141732718749817188e-01,-2.435640096664428711e-01,-1.695695161819458008e+00,4.863434490960286638e+01,-3.352131366729736439e-01
2.077221999999999902e+00,2.760400229050889997e-01,1.030159096299597121e-01,2.423545420169830322e-01,9.520559969251383634e-03,7.039765939152786700e-03,-1.025550688972876046e-02,-8.188117274378464141e-04,2.321698453162375595e-04,-8.110343333100900054e-05,-9.266996049445320885e-04,1.734324534671287475e-03,-2.341880389350669775e-04,-1.927647784052996804e-01,3.110351424230342054e-01,1.127849765424904505e-01,-2.024634393047035075e-01,2.110351424230341721e-01,1.425166496528220972e-01,6.147667723778256210e-01,-2.439908981323242188e-01,-1.709432065486907959e+00,4.561256676795167664e+01,-3.352131366729736439e-01
2.099671999999999983e+00,2.760423537106155845e-01,1.030058816894020846e-01,2.423457354307174683e-01,9.521657686067717605e-03,7.049936998695383039e-03,-1.024198319622349196e-02,-6.026289896489297722e-04,2.119437710861491961e-04,-1.174441640614531934e-04,1.956852644910045587e-04,-1.020093027094803526e-03,7.795704733397436402e-04,-1.926127190832372937e-01,3.110580479221383698e-01,1.131603393998433238e-01,-2.024590161648917030e-01,2.110580479221383643e-01,1.428580817639137912e-01,6.153747051616906827e-01,-2.446899414062500000e-01,-1.704257130622863770e+00,4.725423005572092450e+01,-3.352131366729736439e-01
2.124071999999999960e+00,2.760478388692811369e-01,1.029958070347830046e-01,2.423379719257354736e-01,9.502756208524729825e-03,7.051507443446070056e-03,-1.022039312136691080e-02,-4.457964963806230595e-04,2.955111290213113589e-04,-1.219758923980407417e-04,-2.119408796890529401e-03,-1.034685576086372079e-05,6.985603021166326889e-04,-1.922501510807952119e-01,3.110412725171239345e-01,1.133128751109665211e-01,-2.024229789965154291e-01,2.110412725171239290e-01,1.429529531360494710e-01,6.159966413023548748e-01,-2.443615794181823730e-01,-1.683160006999969482e+00,4.248591790178411287e+01,-3.352131366729736439e-01
2.148273000000000099e+00,2.760645738512038094e-01,1.029811547360710289e-01,2.423276454210281372e-01,9.493638718543492491e-03,7.050408718385581253e-03,-1.021589965704916558e-02,-9.926962841440407860e-05,2.924264622303385675e-04,-1.931242877617478371e-04,-1.347870389669794840e-03,-9.444701265282874018e-04,-2.947576250217562852e-04,-1.920251766389167170e-01,3.110532802504868410e-01,1.136335227259752945e-01,-2.023977829227850411e-01,2.110532802504868077e-01,1.432642380615840316e-01,6.166115499130412347e-01,-2.447240352630615234e-01,-1.695582985877990723e+00,4.668116010888392964e+01,-3.352131366729736439e-01
2.179140999999999995e+00,2.760891534655991464e-01,1.029675170397950784e-01,2.423179149627685547e-01,9.490433230760566413e-03,7.075766181569687063e-03,-1.019328271829000876e-02,1.855371100279248637e-05,4.332373334750356164e-04,-2.229200908914208412e-04,-7.733583427871707503e-04,1.200380584271093769e-03,2.573779022307296741e-04,-1.917481478858082955e-01,3.110718095406861949e-01,1.140790338831354778e-01,-2.023738761893209559e-01,2.110718095406861894e-01,1.436507850621120130e-01,6.172202817550944687e-01,-2.452616691589355469e-01,-1.700757741928100586e+00,4.341009713800019654e+01,-3.352131366729736439e-01
2.202789000000000108e+00,2.760976635016645919e-01,1.029646233317352000e-01,2.423126101493835449e-01,9.506571362140376832e-03,7.071955006104913011e-03,-1.019453174059448131e-02,1.264001594964034531e-04,5.373464076737272024e-04,-9.498321742285043001e-05,1.213047015577166160e-03,-1.263738996715677151e-03,-2.964271396856742549e-04,-1.916335992722936477e-01,3.110881188990557433e-01,1.141807033212324241e-01,-2.023595729939191290e-01,2.110881188990557378e-01,1.437602817971870284e-01,6.178111484997160785e-01,-2.462277412414550781e-01,-1.704369366168975830e+00,5.234870423309335052e+01,-3.352131366729736439e-01
2.222545999999999911e+00,2.761212452822985886e-01,1.029591461933767049e-01,2.423023283481597900e-01,9.507669044319166235e-03,7.068734176986390949e-03,-1.017391930110433940e-02,1.215804545288246512e-04,7.442073168315749580e-04,-2.202602991019375622e-05,-1.341197470890760494e-05,-1.504318365428072499e-03,1.128896091987431453e-03,-1.913428605772261593e-01,3.110731315169920075e-01,1.141993933903389380e-01,-2.023261795213066316e-01,2.110731315169919742e-01,1.437250755213215492e-01,6.184198072613166230e-01,-2.462948560714721680e-01,-1.709432065486907959e+00,5.266660855782242834e+01,-3.352131366729736439e-01
2.248105999999999938e+00,2.761407483462794965e-01,1.029596439017797932e-01,2.422936260700225830e-01,9.517163782961295115e-03,7.070357031354612687e-03,-1.016913485430293029e-02,1.491417736102407959e-04,6.206595692804691951e-04,6.504759949166327715e-05,2.188371772914270066e-03,9.631060818017411936e-04,4.302200445301411144e-04,-1.913621579794380356e-01,3.110985138843057607e-01,1.143174139870410666e-01,-2.023457789201229817e-01,2.110985138843057551e-01,1.438326102173814458e-01,6.190176636791446807e-01,-2.469301819801330566e-01,-1.709544122219085693e+00,5.301196341282577862e+01,-3.352131366729736439e-01
2.275580000000000158e+00,2.761549142641328558e-01,1.029602092992051021e-01,2.422908097505569458e-01,9.525688765105297731e-03,7.072476932052040866e-03,-1.016976143813663747e-02,1.815486817822395415e-04,6.889173078120135532e-04,2.559756103437393904e-04,-7.662945361863993630e-04,1.146057694569564862e-03,4.234531000968219574e-04,-1.911913821819227199e-01,3.111129891403582315e-01,1.143767902904841427e-01,-2.023326689275192214e-01,2.111129891403582537e-01,1.438977966458626634e-01,6.196071106909879500e-01,-2.476210594177246094e-01,-1.709432065486907959e+00,5.105879568757976728e+01,-3.352131366729736439e-01
2.298309000000000157e+00,2.761741883289332566e-01,1.029610586334704647e-01,2.422917336225509644e-01,9.535073720339645384e-03,7.067526314872507598e-03,-1.015296684260724724e-02,2.304382392449016387e-05,6.190703184612688509e-04,4.234328225720673800e-04,4.522001929530662721e-04,-1.035987706114597931e-03,1.757240977922220389e-03,-1.911635774056107684e-01,3.111156985584201395e-01,1.142650516963049645e-01,-2.023506652777367076e-01,2.111156985584201340e-01,1.437416326678511713e-01,6.202046592504089073e-01,-2.478348016738891602e-01,-1.709432065486907959e+00,5.105879568757976728e+01,-3.352131366729736439e-01
2.328377000000000141e+00,2.761845411704796915e-01,1.029625260970159079e-01,2.422967702150344849e-01,9.519151280148666419e-03,7.061209454184202983e-03,-1.013052012293824689e-02,1.539293148581262483e-04,6.689193629400222441e-04,5.396165070123970509e-04,-1.303097375424500538e-03,1.532713019112125999e-04,7.641273880920980335e-04,-1.908331591490955992e-01,3.110979041423564406e-01,1.143117653556398050e-01,-2.023160625434230475e-01,2.110979041423564351e-01,1.437282514006498202e-01,6.208120916589592309e-01,-2.476106286048889160e-01,-1.695582985877990723e+00,4.831055296180924330e+01,-3.352131366729736439e-01
2.351925000000000043e+00,2.761963588553881799e-01,1.029661764901143584e-01,2.423040121793746948e-01,9.523846942176393202e-03,7.070468503929783211e-03,-1.011751330331689402e-02,-2.686806321914842979e-05,5.839239336475706863e-04,4.521554510574787855e-04,-1.992238267641954080e-04,1.215106981231965882e-04,1.993364066469236709e-04,-1.907981304205996487e-01,3.111037015691185958e-01,1.143262378996788009e-01,-2.023479044763827339e-01,2.111037015691185625e-01,1.437088437567382859e-01,6.214303704716536148e-01,-2.474551200866699219e-01,-1.709432065486907959e+00,5.105879568757976728e+01,-3.352131366729736439e-01
2.372351000000000099e+00,2.762032081161885366e-01,1.029658338548477409e-01,2.423119395971298218e-01,9.525442499333411708e-03,7.066545315640881952e-03,-1.011368748674801310e-02,1.738410233166137541e-05,3.172789452084453610e-04,4.533548490144312382e-04,-1.174089262688740674e-03,-8.476330319743191144e-04,-3.012089277558470477e-04,-1.908383273440044936e-01,3.111225336958960419e-01,1.143778259066395298e-01,-2.023838783967132904e-01,2.111225336958960086e-01,1.437517058154198502e-01,6.220369718794275249e-01,-2.476557493209838867e-01,-1.681086599826812744e+00,5.519515824893948519e+01,-3.352131366729736439e-01
2.401148000000000060e+00,2.762119560434075916e-01,1.029557661215630693e-01,2.423193752765655518e-01,9.523469927524941953e-03,7.047340521935785418e-03,-1.007201290732906429e-02,-5.532738314443264466e-05,1.526915520877171418e-04,3.007548511959612370e-04,2.802735388496187252e-04,3.981408979346758937e-04,1.692597784447704822e-03,-1.907820765542639907e-01,3.110979431028760844e-01,1.142805637192231549e-01,-2.024132157669799870e-01,2.110979431028760511e-01,1.435392659248738434e-01,6.226661632102286070e-01,-2.470307350158691406e-01,-1.709544122219085693e+00,5.464135285065651004e+01,-3.352131366729736439e-01
2.431417000000000161e+00,2.762180144070970345e-01,1.029474225316985014e-01,2.423139810562133789e-01,9.530418294219833095e-03,7.060718585512049117e-03,-1.006453471351997919e-02,1.003055443043044238e-04,1.791467973250610458e-04,3.583532816264778376e-04,6.310697326155938940e-04,5.377826827822467523e-04,-1.031530824881878500e-04,-1.906385819979968255e-01,3.111265965252597021e-01,1.146141519985268420e-01,-2.024067300524137192e-01,2.111265965252596966e-01,1.438563052568969935e-01,6.232574401989825486e-01,-2.479732036590576172e-01,-1.683160006999969482e+00,4.944257485446881617e+01,-3.352131366729736439e-01
2.450781000000000098e+00,2.762257710051130855e-01,1.029398504831920136e-01,2.423152178525924683e-01,9.539587496436728944e-03,7.064753962543912635e-03,-1.005594670612541819e-02,7.217838921482929695e-05,3.376474815739056458e-04,5.816360353492200375e-04,1.975250990172110668e-05,1.118728848385671651e-03,-2.683945053048284487e-04,-1.904357221714375603e-01,3.111313651369260191e-01,1.146447779538322387e-01,-2.023844529342964660e-01,2.111313651369260136e-01,1.438670350955551791e-01,6.238417170163989001e-01,-2.486200928688049316e-01,-1.709432065486907959e+00,4.714956765197423039e+01,-3.352131366729736439e-01
