timestamp,x,y,z,roll,pitch,yaw,vx,vy,vz,p,q,r,psp,qsp,rsp,pres,qres,rres,thrust_sp, thrust_res
0.000000000000000000e+00,5.682602713119386598e-03,-1.095529107640738804e-02,1.007205605506896973e+00,1.192008891464139443e-02,-9.697494393157812809e-03,-9.576537656709778121e-03,2.342494232306093719e-03,2.747908107799595934e-02,-4.099933430552482605e-03,7.244674128233390478e-03,5.042099979397621570e-03,-1.067842256880861037e-03,-2.812988968980132398e-01,9.564068217283069884e-02,1.015451232595542819e-01,-2.193751215934753307e-01,1.534658432006835993e-01,1.281812667846679576e-01,4.992547951425879704e-01,-6.579113602638244629e-01,-7.786732912063598633e-01,9.692149081312648207e+01,-7.702231407165527344e-03
2.649299999999999919e-02,5.495957417409254829e-03,-1.065691237939831587e-02,1.007312417030334473e+00,1.203861438923047207e-02,-9.714675842994680011e-03,-9.482659954425732077e-03,-4.428051066716413332e-03,1.459976540328719770e-02,-1.181500614620745182e-03,4.305297428110838043e-03,4.955758577561710475e-03,3.640850071633392089e-03,-2.947436451283372283e-01,1.238570030872446076e-01,1.521500020035821132e-01,-2.177556574344634843e-01,1.876143693923950084e-01,1.785333573818206621e-01,4.993232010909957053e-01,-6.420235037803649902e-01,-7.672499418258666992e-01,9.621494872462368164e+01,-7.702231407165527344e-03
5.258600000000000080e-02,5.290713672737376062e-03,-1.021968034547591532e-02,1.007472753524780273e+00,1.235249952986165918e-02,-9.266565639846957581e-03,-9.383629224106506891e-03,-2.970795923022839617e-03,2.587079992686430047e-02,-1.081022433936595917e-02,1.509207375964663088e-03,8.533428833162376784e-03,3.097152146008595990e-03,-2.767461186820585062e-01,1.376939793740821483e-01,1.764847661791947298e-01,-2.090416610240936335e-01,1.965717494487762285e-01,2.025777876377105602e-01,5.002702875877135247e-01,-6.300707459449768066e-01,-1.089405417442321777e+00,9.465281615955005634e+01,-7.702231407165527344e-03
7.587599999999999900e-02,5.066247200584234403e-03,-9.822975019168721580e-03,1.007465600967407227e+00,1.234474183991417402e-02,-9.371024390842475071e-03,-9.738024913846315966e-03,-7.216480609210736055e-04,2.014415619642405397e-02,-4.518534522503614426e-03,-7.208193391101357355e-04,1.004638404744033833e-02,7.719735789710909218e-04,-2.767279242921387161e-01,1.456966770712127268e-01,1.763668236228842223e-01,-2.031112968921661432e-01,2.037395417690276989e-01,2.034661889076232744e-01,4.992907317316233051e-01,-6.563271880149841309e-01,-1.126088261604309082e+00,-6.306558181445059574e+01,-7.702231407165527344e-03
1.009580000000000061e-01,4.781152504342689458e-03,-9.141486187245593045e-03,1.007111907005310059e+00,9.249001966783840234e-03,-9.889389114545066306e-03,-1.142627301106713573e-02,-9.288022003360164522e-03,2.635046749132205490e-02,-2.812076918780803680e-02,-8.037379121319142977e-03,7.925948046540974568e-03,-3.718989927255037745e-03,-6.253506884663827259e-02,1.115669369073257061e-01,1.724347757774743750e-01,-1.528787612915039062e-02,1.804450392723083441e-01,2.042617857456207331e-01,5.019149057591185681e-01,-6.145614981651306152e-01,-6.110960245132446289e-01,9.633964065811143485e+01,-7.702231407165527344e-03
1.242479999999999973e-01,4.555252164489185379e-03,-8.611126642255564900e-03,1.006580352783203125e+00,5.822118784134900499e-03,-1.139121048869085051e-02,-1.327878319665840197e-02,5.822972519645841158e-03,3.136775675260927015e-02,-3.871457651257514954e-02,-1.947283859191409339e-02,5.054910649594731437e-03,-1.150886558141222572e-02,1.241062462954417439e-01,4.936868017136540610e-02,1.621604858207636168e-01,1.454011917114257646e-01,1.147577047348022350e-01,1.992232561111450251e-01,5.059067095443328110e-01,-4.499706029891967773e-01,-6.524413824081420898e-01,1.104378409541239279e+02,-7.702231407165527344e-03
1.495900000000000007e-01,4.306399583248502264e-03,-7.989880793226749461e-03,1.005646467208862305e+00,1.174670779607314740e-03,-1.374358678012299606e-02,-1.487322388044813939e-02,-1.582904777347451594e-02,2.785614124401740097e-02,-4.718216136097908020e-02,-3.357842030915781512e-02,-1.996402190256208777e-03,-1.862014273731138134e-02,1.780284451962721448e-01,-1.358102083206176869e-01,1.371976074470118989e-01,1.723759889602660966e-01,-3.581020832061767439e-02,1.787728607654571478e-01,5.071872609418432987e-01,-4.214762449264526367e-01,-7.300826311111450195e-01,6.985845083083839313e+01,-7.702231407165527344e-03
1.748639999999999917e-01,3.843081227188259452e-03,-7.045425814654893149e-03,1.003825306892395020e+00,-4.936869742839907621e-03,-1.828605391193494079e-02,-1.785392797337188170e-02,-1.072349449236892349e-02,3.116028721290280828e-02,-6.647489964962005615e-02,-5.155668344293921901e-02,-1.304934263695586502e-02,-2.752060297049873511e-02,2.506966191055288173e-01,-2.846868634223937988e-01,1.545300611630285592e-01,2.013335108757018932e-01,-1.846868634223937933e-01,2.045808076858520452e-01,5.062306168471267798e-01,-5.585960745811462402e-01,-5.184110403060913086e-01,5.067215916923285590e+01,-7.702231407165527344e-03
1.996410000000000129e-01,3.307439903084683549e-03,-6.124367543567784018e-03,1.001603603363037109e+00,-7.153634448340975317e-03,-2.284791067686753330e-02,-2.064368999323789797e-02,-1.670661804604535103e-02,3.296900995806653634e-02,-8.445922285318374634e-02,-6.356127874589168059e-02,-2.563938109020936010e-02,-3.533127728106429111e-02,2.733712094924813929e-01,-3.065008401870727428e-01,1.648297178536040353e-01,2.079643607139587402e-01,-2.065008401870727373e-01,2.227756440639495905e-01,5.058618569784846253e-01,-6.620607376098632812e-01,-7.603513002395629883e-01,9.784556759650502045e+01,-7.702231407165527344e-03
2.247659999999999936e-01,2.984888460409393981e-03,-5.537600812156020548e-03,9.998548030853271484e-01,-6.474847819464230568e-03,-2.445066460065814518e-02,-2.256149124019739619e-02,-1.844272726815898711e-02,2.646053707846083430e-02,-9.290082007646560669e-02,-6.844256632360085080e-02,-3.604953903068700699e-02,-4.146032025447491526e-02,2.598644367530773547e-01,-3.097252130508422741e-01,1.611332336984677149e-01,2.037961006164550615e-01,-2.097252130508422685e-01,2.244618415832519420e-01,5.062195840017926773e-01,-6.880380511283874512e-01,-5.906585454940795898e-01,2.063992872077025709e+02,-7.702231407165527344e-03
2.492310000000000081e-01,2.545899340096291312e-03,-4.675216362430615301e-03,9.966798424720764160e-01,-2.424192355225978333e-03,-2.293591415321971638e-02,-2.569556457631465632e-02,-5.861364454733618799e-03,2.709857056112894083e-02,-1.155033707618713379e-01,-6.922764097623471113e-02,-4.354719922424234169e-02,-5.146174383165399296e-02,2.145680968200686101e-01,-3.034085035324096680e-01,1.482257368505550676e-01,1.826358318328857311e-01,-2.034085035324096624e-01,2.201701998710632324e-01,5.083041528970135836e-01,-6.854701042175292969e-01,-6.427344083786010742e-01,8.217589786682350450e+01,-7.702231407165527344e-03
2.734639999999999849e-01,2.539473409952849869e-03,-4.453557982232800652e-03,9.942642450332641602e-01,1.863471900849280162e-03,-1.908348124282088776e-02,-2.817032785641363293e-02,-1.479659692938624198e-02,2.376186629419229507e-02,-1.198472231626510620e-01,-6.125581441413875672e-02,-4.424199988879812945e-02,-6.271966717340303477e-02,1.357893365508370531e-01,-2.971930742263794167e-01,1.380334749888475210e-01,1.345212578773498369e-01,-1.971930742263793834e-01,2.167964100837707353e-01,5.091087214471058386e-01,-6.757797002792358398e-01,-6.244486570358276367e-01,9.515954789407331305e+01,-7.702231407165527344e-03
2.991469999999999962e-01,2.753891367495180618e-03,-4.612194246448856998e-03,9.915509819984436035e-01,7.186234883389636292e-03,-1.388926403052259673e-02,-3.028166238090739329e-02,9.148410194444079810e-03,3.244183085194922433e-02,-1.402086764574050903e-01,-4.613435183238170229e-02,-3.733886007743808522e-02,-7.354608331513756703e-02,5.823680170623801028e-02,-2.425665081923363831e-01,1.155114284352555809e-01,8.409326076507568637e-02,-1.622963190078735296e-01,2.001200616359710693e-01,5.121430033883337396e-01,-6.130130290985107422e-01,-1.445644021034240723e+00,1.594234454172676294e+02,-7.702231407165527344e-03
3.231859999999999733e-01,3.113434292427651965e-03,-4.785016263566440817e-03,9.870814085006713867e-01,1.531151572719568164e-02,-4.555063039771489741e-03,-3.384651671202143497e-02,-1.193166642841870205e-02,2.229954827451246721e-02,-1.448043286800384521e-01,-2.278493852542586365e-02,-1.869946043194898461e-02,-8.428303814416274187e-02,-2.058863660330503831e-01,-6.085720849098236185e-02,5.359119218705657439e-02,-1.171464085578918374e-01,-2.139834165573119978e-02,1.482165098190307562e-01,5.148669066948274864e-01,-5.111136436462402344e-01,-4.651199579238891602e-01,9.676590593402275431e+01,-7.702231407165527344e-03
3.512170000000000014e-01,3.502807552710719349e-03,-4.922660541839024746e-03,9.820408821105957031e-01,2.234325088841330326e-02,5.575034274033940918e-03,-3.698677332225688147e-02,5.953281827338539195e-03,2.740165486031275952e-02,-1.755696982145309448e-01,5.990150214239963952e-03,9.773245780095331930e-03,-9.350273062849161210e-02,-2.649683535099029430e-01,1.591817200847910618e-01,-5.931376814842224954e-02,-1.649683535099029374e-01,1.163142979145049966e-01,4.068623185157775601e-02,5.225051608789476054e-01,-2.509945034980773926e-01,-1.329445242881774902e+00,8.057107149679541891e+00,-7.702231407165527344e-03
3.748440000000000105e-01,3.884398396082852124e-03,-5.382773762401896374e-03,9.783640503883361816e-01,2.547483880821545948e-02,1.179602285499670167e-02,-3.893560637472058550e-02,-8.650787014117653287e-03,1.618903376435472038e-02,-1.740401089191436768e-01,3.779188777935582610e-02,4.070905843185151918e-02,-9.934661817503549763e-02,-3.115339159965515026e-01,2.845628113929088987e-01,7.252744436264035865e-02,-2.115339159965514970e-01,2.147827327251434215e-01,1.725274443626403642e-01,5.251050782947649376e-01,-1.281477212905883789e-01,-3.568490743637084961e-01,-2.528810945852813319e+01,-7.702231407165527344e-03
3.998349999999999960e-01,4.531919913335981202e-03,-6.567171855735604025e-03,9.725817441940307617e-01,2.660028212813786430e-02,1.902089197851064561e-02,-4.063350342185896580e-02,1.617295561496524120e-02,3.293349594806693065e-02,-2.088929265737533569e-01,6.596530331501136712e-02,7.429697843545537972e-02,-1.024350911939471559e-01,-3.204994678497314342e-01,3.255992412567138561e-01,1.143151164054870550e-01,-2.204994678497314287e-01,2.255992412567138505e-01,2.143151164054870605e-01,5.358039343700212731e-01,2.855811119079589844e-01,-1.429964184761047363e+00,-5.092965388584774900e+01,-7.702231407165527344e-03
4.232250000000000179e-01,4.984517126290287196e-03,-7.236138934227794549e-03,9.686409831047058105e-01,2.487473487148150406e-02,2.121508203350930266e-02,-4.158837586834530226e-02,-9.698936783783801766e-03,1.985404876153950074e-02,-1.973232924938201904e-01,9.273833049351401514e-02,1.080910787107691312e-01,-1.013867338305653315e-01,-3.211339354515075906e-01,3.264843702316284069e-01,1.150722682476043590e-01,-2.211339354515075573e-01,2.264843702316284013e-01,2.150722682476043646e-01,5.396667430246393504e-01,5.183119773864746094e-01,-7.325321435928344727e-01,3.021207820855495285e+01,-7.702231407165527344e-03
4.524989999999999846e-01,5.618672141763121110e-03,-8.212436791863548732e-03,9.626476168632507324e-01,1.933565773351875530e-02,1.891543613335477936e-02,-4.362178148198958549e-02,7.283075818950725776e-03,2.488001675416202582e-02,-1.999395936727523804e-01,1.036712837164335960e-01,1.337689673077877561e-01,-9.852509487169160141e-02,-3.097108542919159158e-01,3.230646252632141113e-01,1.068157851696014404e-01,-2.097108542919158825e-01,2.230646252632141058e-01,2.068157851696014460e-01,5.333957604704463451e-01,1.257510185241699219e-01,-8.738800287246704102e-01,9.791698405446666698e+01,-7.702231407165527344e-03
4.768709999999999893e-01,6.049624128537210363e-03,-8.770624850652976312e-03,9.586473703384399414e-01,1.387913223186240143e-02,1.418350890858244284e-02,-4.524161232485233303e-02,7.464198183937243922e-03,2.661459379582025928e-02,-2.050556838512420654e-01,1.007617249033988804e-01,1.496077230350779108e-01,-9.560480085084951951e-02,-2.456863257313097182e-01,3.138526008426968938e-01,6.915535330772398792e-02,-1.677870333194732555e-01,2.147572517395019420e-01,1.691553533077239935e-01,5.299134666506732927e-01,-1.137026548385620117e-01,-1.032542824745178223e+00,6.275144775414337062e+01,-7.702231407165527344e-03
5.011649999999999716e-01,6.098092960592505114e-03,-8.377573602094096072e-03,9.528694152832031250e-01,4.327527731726225034e-03,4.960947927985293049e-03,-4.832796698267027152e-02,-9.549007665615073673e-04,2.571733728483283771e-02,-1.948591321706771851e-01,7.585519303595009144e-02,1.429011710304760041e-01,-9.351768565155546553e-02,-5.804484030590429874e-03,2.054991897274626722e-01,8.403480052947970291e-04,1.030383110046386753e-02,1.721438527107238825e-01,1.008403480052948026e-01,5.321240116777499196e-01,1.288425922393798828e-02,-6.182214021682739258e-01,-7.081411723912823675e+01,-7.702231407165527344e-03
5.264140000000000486e-01,6.180892509366317684e-03,-8.045948479657455063e-03,9.491005539894104004e-01,-3.066940233569303426e-03,-2.110562474916255482e-03,-4.994801774140297107e-02,7.110532486253328538e-03,3.401890928483627258e-02,-2.092833817005157471e-01,3.662606579663273132e-02,1.214358731481857134e-01,-9.120731878649018798e-02,1.416358653957295599e-01,5.391508192532405708e-02,3.314979076385496382e-02,1.022757411003112765e-01,5.894104242324828963e-02,1.331497907638549694e-01,5.383592709414034561e-01,2.719782590866088867e-01,-1.133139491081237793e+00,9.359076955493726757e+01,-7.702231407165527344e-03
5.518079999999999652e-01,6.271988714224316017e-03,-7.414510755101151769e-03,9.437378048896789551e-01,-1.260718181832471731e-02,-1.347763475225205454e-02,-5.208407509521376100e-02,8.479918214594142287e-03,3.418925433895440846e-02,-1.941103339195251465e-01,-1.225705605112189546e-02,8.259754266824914648e-02,-8.939954245067262273e-02,2.767421603202819824e-01,-1.994211607203611181e-01,5.807854533195494495e-02,1.767421603202819769e-01,-1.212455034255981445e-01,1.580785453319549505e-01,5.280089472955016294e-01,-2.711495161056518555e-01,-6.779021024703979492e-01,1.127335904775702744e+02,-7.702231407165527344e-03
5.753139999999999921e-01,6.325678176599432503e-03,-6.931199314776366298e-03,9.403662681579589844e-01,-1.727332861169665265e-02,-2.057704956693817699e-02,-5.341872833988238478e-02,2.045654817826091185e-03,2.776789488046129545e-02,-1.750081181526184082e-01,-6.829064108083537921e-02,3.007883874694849274e-02,-8.594572455612853323e-02,3.118283867835998646e-01,-3.009073972702026589e-01,1.122315585613250510e-01,2.118283867835998591e-01,-2.009073972702026256e-01,2.122315585613250566e-01,5.221114086161099399e-01,-5.412595868110656738e-01,-1.587795495986938477e+00,3.764877110139190819e+01,-5.075371265411376953e-02
5.997850000000000126e-01,6.115422895988494034e-03,-6.451844172873659813e-03,9.355235099792480469e-01,-1.993167358103052622e-02,-2.836235761088179430e-02,-5.525458675174461237e-02,1.824424192486375634e-02,3.825854380899309376e-02,-1.766856759786605835e-01,-1.190380654267590987e-01,-2.868458838451976023e-02,-8.209018009742433120e-02,3.226755976676941029e-01,-3.208691835403442161e-01,1.278693199157714677e-01,2.226755976676940973e-01,-2.208691835403442383e-01,2.278693199157714733e-01,5.199242330169698834e-01,-6.973842978477478027e-01,-8.722916841506958008e-01,8.710268406988295453e+01,-6.638834476470947821e-02
6.254920000000000480e-01,6.051089746285442245e-03,-6.093503475551324128e-03,9.323853850364685059e-01,-1.874283862706405471e-02,-3.100055986565708466e-02,-5.716329502078102559e-02,1.161458174534969919e-02,2.444212800592537177e-02,-1.642309725284576416e-01,-1.590121451740151293e-01,-8.575592877556140192e-02,-7.939515423502256641e-02,3.183292388916015847e-01,-3.144286990165710560e-01,1.259285449981689398e-01,2.183292388916015514e-01,-2.144286990165710505e-01,2.259285449981689453e-01,5.197916043481618509e-01,-6.791957616806030273e-01,-1.768054485321044922e+00,9.594307987490049072e+01,1.810123920440673967e-02
6.550559999999999716e-01,6.096150162668888609e-03,-5.521355144301239720e-03,9.277133345603942871e-01,-1.335037309443129483e-02,-2.876299064207454848e-02,-6.056282217696953157e-02,2.221536477626712483e-02,3.627482051301116062e-02,-1.741647273302078247e-01,-1.755097169166369708e-01,-1.284438793029892834e-01,-7.886139800301437963e-02,3.123790264129638894e-01,-3.082439899444580078e-01,1.234108984470367321e-01,2.123790264129638561e-01,-2.082439899444580023e-01,2.234108984470367376e-01,5.211455981401734716e-01,-6.762602925300598145e-01,-1.066264033317565918e+00,1.009584126503599890e+02,1.810123920440673967e-02
6.758159999999999723e-01,6.136901185941980724e-03,-5.305841969864393166e-03,9.260953068733215332e-01,-1.080245743763011412e-02,-2.690886354642163525e-02,-6.191545164485420111e-02,2.416324230849737492e-02,3.429553572289264357e-02,-1.769456565380096436e-01,-1.792128092738675682e-01,-1.619318037499400675e-01,-8.075897006194446281e-02,3.002805499549173196e-01,-3.070004463195800670e-01,1.229127228260040172e-01,2.070313453674316462e-01,-2.070004463195800615e-01,2.229127228260040228e-01,5.215675564637387573e-01,-6.833422780036926270e-01,-1.047331690788269043e+00,1.015954439036795662e+02,1.810123920440673967e-02
6.995710000000000539e-01,6.380005936396619323e-03,-5.041579064224745339e-03,9.228577017784118652e-01,-5.163066415488369414e-03,-2.183069896652223285e-02,-6.450101810049364837e-02,1.336807098231539669e-02,4.182191992247165369e-02,-1.800810247659683228e-01,-1.591909251134242809e-01,-1.721662293900592944e-01,-8.446266861996024056e-02,2.510744742721746081e-01,-3.024034261703490989e-01,1.201482772827148215e-01,1.890289306640624833e-01,-2.024034261703491211e-01,2.201482772827148271e-01,5.223708769453427880e-01,-6.779198646545410156e-01,-1.322633385658264160e+00,1.110764909622767931e+02,1.810123920440673967e-02
7.276899999999999480e-01,6.935783204117653387e-03,-4.870303607170872046e-03,9.179181456565856934e-01,5.123924077665353502e-03,-1.300401439857679087e-02,-6.849108386484829836e-02,1.851587556948997709e-02,3.187733286979117092e-02,-1.699222922325134277e-01,-1.184644917546636422e-01,-1.582724908733665892e-01,-8.999124031182288708e-02,4.805865800335519522e-02,-2.288832652407219448e-01,1.094207108020782415e-01,6.157196760177612027e-02,-1.597429633140563798e-01,2.094207108020782471e-01,5.233205549987702820e-01,-6.184085011482238770e-01,-1.137449145317077637e+00,8.589117926585193175e+01,1.810123920440673967e-02
7.503429999999999822e-01,7.331026143343675507e-03,-4.739947609701452083e-03,9.145008921623229980e-01,1.186104647269175909e-02,-6.249544440103171894e-03,-7.121633331093198127e-02,1.764480203584645884e-02,3.431080158706873579e-02,-1.842858344316482544e-01,-6.275534598213619586e-02,-1.204697263235037230e-01,-9.482179167179324852e-02,-2.855918223742299686e-02,-8.821686153568633615e-02,1.025734245777130127e-01,2.610601186752319405e-02,-6.094286441802978377e-02,2.025734245777130182e-01,5.275376000980158686e-01,-4.728094339370727539e-01,-1.088855624198913574e+00,1.349112710616623190e+01,1.810123920440673967e-02
7.747089999999999810e-01,7.948810470775152098e-03,-4.519886439336272960e-03,9.092690348625183105e-01,2.222301879785686107e-02,3.518396632649301026e-03,-7.491138273977440698e-02,2.259493616659473403e-02,3.246785157340720956e-02,-1.890028268098831177e-01,3.679317211805199772e-03,-7.102225125666232486e-02,-9.968021453350464633e-02,-2.180960536003112848e-01,5.836049423985530116e-02,-7.447409629821780119e-03,-1.180960536003112793e-01,1.903427839279174874e-02,9.255259037017822543e-02,5.300404587096572140e-01,-3.893197774887084961e-01,-8.640667200088500977e-01,1.064662088951665737e+02,1.810123920440673967e-02
7.989450000000000163e-01,8.678567416210427113e-03,-4.328446725545175705e-03,9.038398861885070801e-01,3.027181165897734755e-02,1.357334307351121261e-02,-7.876430552282957798e-02,2.525908489237778040e-02,4.108097570655621505e-02,-2.046125680208206177e-01,7.210500743662101586e-02,-1.081164685730925425e-02,-1.041103303045693984e-01,-3.171634793281555287e-01,2.887994408607482688e-01,8.220127820968625709e-02,-2.171634793281555231e-01,1.887994408607482910e-01,1.822012782096862626e-01,5.289474516306441609e-01,-5.473503470420837402e-01,-1.398800492286682129e+00,1.626158621749532358e+02,1.810123920440673967e-02
8.261469999999999647e-01,9.468780146841226236e-03,-4.261550285004076129e-03,8.983698487281799316e-01,3.494954795116937685e-02,2.135163729136091426e-02,-8.195424957935647237e-02,2.350147828383341436e-02,2.704812792978909808e-02,-1.977662742137908936e-01,1.329036358200370582e-01,5.067430128032350545e-02,-1.084207305069778415e-01,-3.249493062496185414e-01,3.271802425384521262e-01,1.219519197940826249e-01,-2.249493062496185358e-01,2.271802425384521484e-01,2.219519197940826305e-01,5.367824168858376099e-01,-1.259721517562866211e-01,-7.711023092269897461e-01,-8.068365862752662565e+01,1.810123920440673967e-02
8.490480000000000249e-01,1.005145117898595918e-02,-4.157462209204887578e-03,8.946683406829833984e-01,3.546472368803746389e-02,2.481928540327293931e-02,-8.358822572745600032e-02,2.735289184147450536e-02,3.231094233563963636e-02,-2.103096246719360352e-01,1.790329025868911406e-01,1.068895229170070127e-01,-1.119828945166679440e-01,-3.258089900016784557e-01,3.277116417884826660e-01,1.212371289730072021e-01,-2.258089900016784501e-01,2.277116417884826605e-01,2.212371289730072077e-01,5.433466425782682574e-01,1.587258577346801758e-01,-9.443401098251342773e-01,1.015739561285507051e+02,1.810123920440673967e-02
8.743549999999999933e-01,1.096874306623401088e-02,-3.972418506877857525e-03,8.893870115280151367e-01,3.217489563942001890e-02,2.515532737172265776e-02,-8.662115709107902350e-02,3.062190667496025517e-02,3.023349534343425585e-02,-2.020003348588943481e-01,2.000082284430847734e-01,1.524833913802577656e-01,-1.148902113219626708e-01,-3.250371038913726363e-01,3.276241838932036909e-01,1.186989188194274847e-01,-2.250371038913726585e-01,2.276241838932037131e-01,2.186989188194274902e-01,5.489610818552709270e-01,4.697543382644653320e-01,-1.386948823928833008e-01,-3.425567655570214498e+01,1.810123920440673967e-02
8.982550000000000257e-01,1.152752160744378515e-02,-3.126856625823467174e-03,8.842024207115173340e-01,2.512133679782145579e-02,1.989108678322182300e-02,-9.017850179314942927e-02,2.430980100363477892e-02,3.019743359159251031e-02,-1.891139894723892212e-01,1.906668154789069036e-01,1.701467580063605600e-01,-1.162284304053166767e-01,-3.201451659202575462e-01,3.248273730278015137e-01,1.145862340927124023e-01,-2.201451659202575684e-01,2.248273730278015081e-01,2.145862340927124079e-01,5.480156057572643791e-01,4.317998886108398438e-01,-1.317252993583679199e+00,1.245766672153196453e+02,1.810123920440673967e-02
9.239889999999999493e-01,1.184303926639197237e-02,-2.338538250938413526e-03,8.808835148811340332e-01,1.865247486440704469e-02,1.425370760278510396e-02,-9.268785972676074625e-02,2.713909634742957960e-02,3.005612982225492127e-02,-1.865088194608688354e-01,1.665082874852168160e-01,1.727707278974530136e-01,-1.172666801754396887e-01,-3.092029690742492676e-01,3.209151744842529408e-01,5.939332842826841596e-02,-2.092029690742492620e-01,2.209151744842529352e-01,1.593933284282684215e-01,5.331707752879818463e-01,-4.117997884750366211e-01,-1.117892861366271973e+00,1.259509968989745943e+02,1.810123920440673967e-02
9.511249999999999982e-01,1.240240650072378485e-02,-1.122269679642350602e-03,8.762964606285095215e-01,8.171863815135431072e-03,4.350131090744335793e-03,-9.630770567890799272e-02,3.795479672221339223e-02,2.821436592603962512e-02,-1.682891100645065308e-01,1.225324132957058276e-01,1.505835481670230735e-01,-1.188458239705123820e-01,-1.256578229093857080e-01,2.537050738274623241e-01,-5.445045828819275457e-02,-9.372802376747131625e-02,1.946877479553222601e-01,4.554954171180725098e-02,5.314103320779919315e-01,-4.693683981895446777e-01,-9.630683660507202148e-01,9.311476001130074565e+01,1.810123920440673967e-02
9.741649999999999476e-01,1.282709731133510264e-02,-3.055202615182970780e-04,8.735697865486145020e-01,7.137048902172724116e-04,-2.773683873751542350e-03,-9.853826193566035674e-02,4.961769483914831025e-02,3.013723024222236466e-02,-1.718386709690093994e-01,6.226376445775066992e-02,1.081776194951735715e-01,-1.178626594437805625e-01,1.338189598983472450e-01,1.861884018520380546e-01,-1.923711299896241345e-02,1.134737133979797363e-01,1.651266574859619196e-01,8.076288700103759211e-02,5.330974825819358998e-01,-4.165393710136413574e-01,-7.167810201644897461e-01,1.024370529830193703e+02,1.810123920440673967e-02
1.002615000000000034e+00,1.328941770158818987e-02,1.157644952218203800e-03,8.696807622909545898e-01,-9.710511526475259017e-03,-1.352345075077199255e-02,-1.010719565163462064e-01,2.757250692593797570e-02,3.494700799526917478e-02,-1.720301955938339233e-01,-5.053688778237408301e-03,5.409236609840284427e-02,-1.160257201120280246e-01,2.923439705735016991e-01,-2.060635715385003008e-01,-8.199059367179871438e-02,1.998272895812988337e-01,-1.408538818359375000e-01,1.800940632820129464e-02,5.336010360770090388e-01,-4.198571443557739258e-01,-1.238941550254821777e+00,1.022167588917189391e+02,1.810123920440673967e-02
1.029335000000000111e+00,1.332137562708428195e-02,2.419173320428783490e-03,8.674311041831970215e-01,-1.507927738544535823e-02,-2.049198834132814895e-02,-1.022324479085234272e-01,3.007469467527072379e-02,4.058271162282303668e-02,-1.539965122938156128e-01,-7.661812777109822115e-02,-4.089863694885165039e-03,-1.133118847644452309e-01,3.128117561340332253e-01,-2.985978364944458230e-01,1.091913104057311845e-01,2.128117561340331920e-01,-1.985978364944457897e-01,2.091913104057311901e-01,5.295665082119677125e-01,-5.933709144592285156e-01,-1.311550736427307129e+00,1.136769352245974147e+02,1.810123920440673967e-02
1.052866000000000080e+00,1.334692989439141726e-02,3.637040368060583985e-03,8.652947545051574707e-01,-1.857933107103086970e-02,-2.731340105686008712e-02,-1.029268681371534461e-01,3.341529734476614971e-02,4.201368865531453917e-02,-1.410576403141021729e-01,-1.428404421853118333e-01,-6.467792727007566633e-02,-1.080752122415605532e-01,3.188890695571899303e-01,-3.136768579483032449e-01,1.248833954334258867e-01,2.188890695571899248e-01,-2.136768579483032116e-01,2.248833954334258922e-01,5.278829273737618566e-01,-6.565450429916381836e-01,-1.089115977287292480e+00,1.099695631846278445e+02,1.810123920440673967e-02
1.077684000000000086e+00,1.333435346404227353e-02,4.885503466028658613e-03,8.634570837020874023e-01,-1.904721660067166394e-02,-3.228961302099087050e-02,-1.036592185825476464e-01,2.416697307328314129e-02,3.594318059299339563e-02,-1.347783356904983521e-01,-1.951005509730825149e-01,-1.240895249562742331e-01,-1.030616629825564373e-01,3.204109907150268777e-01,-3.182833552360534446e-01,1.272781074047088512e-01,2.204109907150268444e-01,-2.182833552360534668e-01,2.272781074047088568e-01,5.269600139703454200e-01,-7.027668952941894531e-01,-1.051093220710754395e+00,7.764785127732022829e+01,1.810123920440673967e-02
1.100983000000000045e+00,1.343609331820496203e-02,6.083059830021327746e-03,8.618227839469909668e-01,-1.733525972811513979e-02,-3.418443055960640464e-02,-1.048732578601564297e-01,3.570344716599806872e-02,4.308885542357266535e-02,-1.321597099304199219e-01,-2.313796770120372659e-01,-1.744338113221093889e-01,-9.783392225458650837e-02,3.199609518051147461e-01,-3.184226870536804310e-01,1.275156080722808782e-01,2.199609518051147405e-01,-2.184226870536804255e-01,2.275156080722808838e-01,5.269536404099399718e-01,-7.129718065261840820e-01,-9.404100179672241211e-01,1.378879545868657885e+02,1.810123920440673967e-02
1.126130999999999993e+00,1.388228158591830151e-02,6.833270569855577452e-03,8.602057695388793945e-01,-1.365304336534791697e-02,-3.288749251906941673e-02,-1.069189055163997232e-01,3.546009958142743584e-02,3.569902285658323876e-02,-1.302984207868576050e-01,-2.409662004120042000e-01,-2.101850383428936764e-01,-9.357910275549999324e-02,3.152099370956421009e-01,-3.182600736618041992e-01,1.270929992198943925e-01,2.152099370956420954e-01,-2.182600736618041937e-01,2.270929992198943981e-01,5.269386841841271485e-01,-7.262223958969116211e-01,-1.007672667503356934e+00,8.100422672603200169e+01,1.810123920440673967e-02
1.155068999999999901e+00,1.508627163378913581e-02,7.244500938567945657e-03,8.579714894294738770e-01,-5.558862454138713098e-03,-2.653405332953995277e-02,-1.104721799966985191e-01,4.110304604563627673e-02,4.377128927478401987e-02,-1.234849691390991211e-01,-2.192156749037436347e-01,-2.163357609617320709e-01,-9.201926007965999244e-02,2.826616069279825338e-01,-3.147449493408203125e-01,1.230229437351226807e-01,2.032954931259155218e-01,-2.147449493408203069e-01,2.230229437351226862e-01,5.271594147019199594e-01,-7.095667123794555664e-01,-1.141125559806823730e+00,9.275840855173366606e+01,1.810123920440673967e-02
1.177947000000000077e+00,1.590440321364047782e-02,7.526718723600728765e-03,8.564239740371704102e-01,1.176917428654265059e-03,-2.029581245936840084e-02,-1.129981042223852233e-01,3.238579227234339442e-02,3.630867891777334044e-02,-1.282018870115280151e-01,-1.786244657606116670e-01,-2.009602688969440165e-01,-9.130669396461880971e-02,1.692642725177698759e-01,-3.047400236129760853e-01,1.053868293762206809e-01,1.414391040802001898e-01,-2.047400236129760798e-01,2.053868293762206865e-01,5.283564376342926305e-01,-6.823782324790954590e-01,-9.412103891372680664e-01,6.560533301580647958e+01,1.810123920440673967e-02
1.204034000000000049e+00,1.709721084544226638e-02,8.008991422069004773e-03,8.541422486305236816e-01,1.266655031026372308e-02,-1.018912974385166592e-02,-1.167078253832109364e-01,4.864839502099276014e-02,3.984814906642227678e-02,-1.251067221164703369e-01,-1.170543827417578620e-01,-1.600839544107575396e-01,-9.130666689657297719e-02,-1.821967259837983799e-02,-1.999795793964957158e-01,4.831625223159788374e-02,2.475214004516601562e-02,-1.733139038085937389e-01,1.483162522315978893e-01,5.291624044219704892e-01,-6.489663124084472656e-01,-7.070124149322509766e-02,-1.979955044151889254e+01,1.810123920440673967e-02
1.226191999999999949e+00,1.798825314536899034e-02,8.549459040293810527e-03,8.525937795639038086e-01,2.002644958328475208e-02,-2.747900106012446386e-03,-1.192288783082107034e-01,3.203511636622779352e-02,3.273804456674591495e-02,-1.277115046977996826e-01,-4.640971844957355458e-02,-1.081136118384973255e-01,-9.235722530969961430e-02,-1.391104949889792886e-01,-1.376628617731351645e-01,5.174458026885972450e-03,-4.057987332344054759e-02,-1.446853280067443848e-01,1.051744580268859780e-01,5.297090994923560059e-01,-6.489049792289733887e-01,-8.284286260604858398e-01,8.555436897750027470e+01,1.810123920440673967e-02
1.251095000000000068e+00,1.951437779724086649e-02,9.610464775506546986e-03,8.503168225288391113e-01,3.070049340234658544e-02,8.260415976080848210e-03,-1.227268457767412002e-01,5.143222190342894296e-02,3.441501662678284751e-02,-1.301675736904144287e-01,3.082357846170126134e-02,-4.857089289966762258e-02,-9.395066038367225203e-02,-3.069055855274200328e-01,1.908247620888688656e-01,-8.502874970436097302e-02,-2.069055855274200273e-01,9.703559875488280972e-02,1.497125029563903774e-02,5.297810443257058299e-01,-6.780155897140502930e-01,-9.608000516891479492e-01,7.759469191501001717e+01,1.810123920440673967e-02
1.275781999999999972e+00,2.116845733548493660e-02,1.064790473402956426e-02,8.479138016700744629e-01,3.804863839332884440e-02,1.939104127548629819e-02,-1.255107027393929653e-01,3.910551141486050264e-02,2.822879908741863370e-02,-1.340789347887039185e-01,1.050136507646397266e-01,1.224870879009353278e-02,-9.553792352046183711e-02,-3.244119524955749734e-01,3.254529178142547829e-01,1.240641236305236594e-01,-2.244119524955749401e-01,2.254529178142547496e-01,2.240641236305236650e-01,5.305529979972074539e-01,-6.747242212295532227e-01,-4.181472063064575195e-01,8.497710187941829929e+01,1.810123920440673967e-02
1.300516999999999923e+00,2.296611324794326989e-02,1.163763883343795456e-02,8.455042243003845215e-01,4.113985677698733107e-02,2.885696748936705802e-02,-1.274555600443384451e-01,5.825319640534638160e-02,3.069290012189854200e-02,-1.337241679430007935e-01,1.655445379559185026e-01,7.394294554594253721e-02,-9.782378954192878784e-02,-3.265848815441131370e-01,3.279302597045898326e-01,1.261200904846191129e-01,-2.265848815441131592e-01,2.279302597045898271e-01,2.261200904846191184e-01,5.331462128729397287e-01,-5.552855134010314941e-01,-1.010359168052673340e+00,1.366126763065543628e+02,1.810123920440673967e-02
1.325055000000000094e+00,2.396268798778894080e-02,1.357343711926683495e-02,8.430277705192565918e-01,3.953142233437243608e-02,3.454305136456925496e-02,-1.286677680177263638e-01,4.480042807305980451e-02,2.432435177005133967e-02,-1.266817003488540649e-01,2.068986707410788439e-01,1.295714665077201955e-01,-9.779119467372426877e-02,-3.266058385372161421e-01,3.280851483345031960e-01,1.253955364227294644e-01,-2.266058385372161643e-01,2.280851483345031627e-01,2.253955364227294700e-01,5.416891000477396245e-01,-7.826972007751464844e-02,-1.006622910499572754e+00,8.374591930038847920e+01,1.810123920440673967e-02
1.348611000000000004e+00,2.466782774264594802e-02,1.474767976279284763e-02,8.413922786712646484e-01,3.608476149004367223e-02,3.438835674822882105e-02,-1.301086485253913905e-01,5.978704911080526957e-02,2.971034637066470238e-02,-1.293707042932510376e-01,2.281100239319830414e-01,1.731369327695228832e-01,-9.916677929238913725e-02,-3.258401215076446311e-01,3.280011594295501598e-01,1.249599277973174882e-01,-2.258401215076446533e-01,2.280011594295501542e-01,2.249599277973174938e-01,5.430535475417814784e-01,-3.406816720962524414e-02,-7.442444562911987305e-01,7.765020769258387645e+01,1.810123920440673967e-02
1.373394000000000004e+00,2.583743604892013712e-02,1.646579131625942535e-02,8.389986753463745117e-01,2.832678370187027145e-02,2.897416767002258808e-02,-1.332637338408351468e-01,6.071366914075051330e-02,2.762793241726063317e-02,-1.271673738956451416e-01,2.212614329915628397e-01,1.965177722134488492e-01,-9.991023353073359703e-02,-3.229634702205658181e-01,3.273145496845245583e-01,1.199831426143646018e-01,-2.229634702205657848e-01,2.273145496845245250e-01,2.199831426143646074e-01,5.376738157727811718e-01,-3.482467532157897949e-01,-1.066662669181823730e+00,8.332491327013806881e+01,1.810123920440673967e-02
1.399354999999999905e+00,2.717296711948128871e-02,1.800949621306415296e-02,8.367676138877868652e-01,1.884218560430362538e-02,1.978672821310945018e-02,-1.368311273828365371e-01,5.742183745884772705e-02,1.825052557048314344e-02,-1.153245046734809875e-01,1.846235617537131668e-01,1.885815014782409871e-01,-1.002088721195091570e-01,-3.047876131341348271e-01,3.238203823566436768e-01,9.413975477218627930e-02,-2.098782598972320501e-01,2.238203823566436712e-01,1.941397547721862848e-01,5.317677668703848504e-01,-6.497163772583007812e-01,-1.033182024955749512e+00,9.437384391309005593e+01,1.810123920440673967e-02
1.425478000000000023e+00,2.777580493238175283e-02,1.919724801846711681e-02,8.354194164276123047e-01,1.159349963364979426e-02,1.304659957399034731e-02,-1.389033458687712053e-01,6.222036148248163284e-02,2.448111226288469250e-02,-1.181413903832435608e-01,1.313822005702164064e-01,1.615712786244476451e-01,-1.004508433329260042e-01,-1.800496224158948111e-01,3.164238154888153187e-01,-5.125347971916199147e-02,-1.406206190586090088e-01,2.164238154888153132e-01,4.874652028083801408e-02,5.327148114751740771e-01,-6.284875273704528809e-01,-1.454928040504455566e+00,7.869730301310352161e+01,1.810123920440673967e-02
1.448266999999999971e+00,2.846327372210079656e-02,2.037974691314685741e-02,8.342481851577758789e-01,4.285615105541392897e-03,6.000651061152995069e-03,-1.411752960319196948e-01,7.604571281673190575e-02,2.422858591976325901e-02,-1.074940264225006104e-01,6.224866510738961967e-02,1.165771433731204870e-01,-9.890024207146794200e-02,1.327021160016916279e-01,3.083339154720306508e-01,-1.094351172447204645e-01,1.222277998924255343e-01,2.083339154720306452e-01,-9.435117244720458984e-03,5.330761995917205898e-01,-5.851498246192932129e-01,-1.231206297874450684e+00,3.641252735218711223e+01,1.810123920440673967e-02
1.473262000000000072e+00,2.959301730973611794e-02,2.218810520116963961e-02,8.325759172439575195e-01,-6.462167355165021956e-03,-4.682883406032622986e-03,-1.436550667651564639e-01,6.867090313576783289e-02,3.217047703000483483e-02,-1.012897267937660217e-01,-1.337986069736638028e-02,6.144914019646578740e-02,-9.620585137631491868e-02,2.958634098109589328e-01,9.252121630090708038e-02,-8.944511413574232628e-03,2.069712281227111816e-01,6.300356984138488770e-02,9.105548858642577292e-02,5.350728357786580514e-01,-4.706304073333740234e-01,-1.673506796360015869e+00,1.319421246502079441e+02,4.020273685455322266e-02
1.500016000000000016e+00,3.073188851642307332e-02,2.405009688088023678e-02,8.312379717826843262e-01,-1.477641444181700819e-02,-1.532938279468143428e-02,-1.445078189953850623e-01,6.243090589726178058e-02,3.242968041967999454e-02,-9.392664581537246704e-02,-9.080844005014114539e-02,1.164371791090079711e-03,-9.172476310533075883e-02,3.190501451492309681e-01,-2.445488405965214607e-01,1.089476227760314830e-01,2.190501451492309626e-01,-2.039223432540893388e-01,2.089476227760314886e-01,5.339931427474911008e-01,-5.194082260131835938e-01,-4.489542245864868164e-01,3.831637428143646673e+01,4.020273685455322266e-02
1.523096999999999923e+00,3.168856225212193789e-02,2.492771220002440447e-02,8.305889964103698730e-01,-1.692894876951171745e-02,-2.279003595093165302e-02,-1.448517091304032944e-01,7.057359737904753128e-02,3.320252066494865789e-02,-7.948271185159683228e-02,-1.611924377070370618e-01,-6.077903609648745153e-02,-8.618309889030265070e-02,3.216035366058349609e-01,-2.977360018091738114e-01,1.255284667015075517e-01,2.216035366058349554e-01,-2.167305707931518610e-01,2.255284667015075573e-01,5.308862701365369974e-01,-6.483377218246459961e-01,-3.278852701187133789e-01,1.362727326689209661e+01,4.020273685455322266e-02
1.551411000000000096e+00,3.318640090879432930e-02,2.615474395980972588e-02,8.300118446350097656e-01,-1.486959231963588118e-02,-3.147856265259063591e-02,-1.463995090087449880e-01,5.751658499139095104e-02,3.014365569829152713e-02,-6.205890700221061707e-02,-2.080222892077929764e-01,-1.230913740059726286e-01,-8.063407357156229804e-02,3.207480549812317117e-01,-3.201248884201050027e-01,1.274849414825439398e-01,2.207480549812316784e-01,-2.201248884201049694e-01,2.274849414825439453e-01,5.284042853412713736e-01,-7.289177775382995605e-01,-1.506875872611999512e+00,7.495491942344847303e+01,4.020273685455322266e-02
1.575455000000000050e+00,3.427359919327888083e-02,2.693004175607782366e-02,8.296517729759216309e-01,-1.076254532158659946e-02,-3.345933696772540600e-02,-1.481857271386983199e-01,7.725108522607897210e-02,3.422077769121929097e-02,-7.369598746299743652e-02,-2.306897246850428407e-01,-1.758942105032691439e-01,-7.898734105919105741e-02,3.180328369140624778e-01,-3.194710731506347767e-01,1.267265200614929033e-01,2.180328369140625000e-01,-2.194710731506347712e-01,2.267265200614929088e-01,5.293317063494195063e-01,-7.384231686592102051e-01,-1.088229537010192871e+00,1.121469455297578719e+02,4.020273685455322266e-02
1.597936999999999941e+00,3.548136050581909839e-02,2.775018651655324076e-02,8.294591903686523438e-01,-5.638361326047465656e-03,-3.160903634343426027e-02,-1.503022104037522455e-01,6.037927672605338664e-02,2.523470690143476969e-02,-5.958567187190055847e-02,-2.304587177863672842e-01,-2.139694012963801462e-01,-7.799932710698546934e-02,2.955885729343922796e-01,-3.169455051422119252e-01,1.219389557838439775e-01,2.082962751388549860e-01,-2.169455051422119196e-01,2.219389557838439830e-01,5.284562695778580732e-01,-7.422456145286560059e-01,-1.265057444572448730e+00,7.861245157304445286e+01,4.020273685455322266e-02
1.625378999999999907e+00,3.748258938835632298e-02,2.901370205804830113e-02,8.289911746978759766e-01,3.686801007657983589e-03,-2.439832627783022900e-02,-1.537703330891140585e-01,8.044215956128542011e-02,4.052810173527422039e-02,-8.027704805135726929e-02,-1.967912973354304929e-01,-2.235224683264971923e-01,-7.950987976518190947e-02,2.266113612279745393e-01,-2.923356010185315101e-01,1.140932977199554388e-01,1.858273029327392467e-01,-2.071216106414794922e-01,2.140932977199554443e-01,5.305352733472131765e-01,-7.255102992057800293e-01,-1.053425908088684082e+00,9.741717130157265103e+01,5.584561824798583984e-02
1.648365000000000080e+00,3.901663367751498357e-02,2.991390345167105683e-02,8.288258910179138184e-01,1.054268944181811600e-02,-1.779365657557119285e-02,-1.564069663355411588e-01,6.564542614348013727e-02,2.646394198540094264e-02,-7.270640879869461060e-02,-1.429382349564770061e-01,-2.055249238111082621e-01,-8.183543873895435250e-02,6.418953484894020234e-02,-2.534206695439714663e-01,9.263920187950133722e-02,8.221778869628905417e-02,-1.987089157104492132e-01,1.926392018795013428e-01,5.304336463954243408e-01,-7.133635282516479492e-01,-1.544286370277404785e+00,1.195005662468145573e+02,5.584561824798583984e-02
1.675527999999999906e+00,4.132430589270324334e-02,3.118124138810879006e-02,8.284447789192199707e-01,2.094236351399941451e-02,-6.900250914504191257e-03,-1.598016974189058192e-01,8.036345968888437830e-02,3.277493167517223083e-02,-7.288161665201187134e-02,-7.601708335673273975e-02,-1.653447707159752533e-01,-8.271965551442750364e-02,-1.347988968975402935e-01,-1.355893134183274451e-01,1.476276516914366843e-02,-5.621153712272643904e-02,-1.625703334808349665e-01,1.147627651691436740e-01,5.309211923611251160e-01,-7.017082571983337402e-01,-7.715376615524291992e-01,9.861521380274956528e+01,5.584561824798583984e-02
1.698860999999999954e+00,4.288425373220632747e-02,3.203097126942159451e-02,8.280279040336608887e-01,2.730360173396367135e-02,3.481366842019717467e-04,-1.618086422874516206e-01,7.327836638847250172e-02,3.058446921362002746e-02,-7.413581013679504395e-02,-2.507450633800262316e-03,-1.148961268475312131e-01,-8.312019823162238030e-02,-1.929262042045593317e-01,-6.122516433634651867e-02,-1.971876621246343442e-03,-9.292620420455932617e-02,-1.279941558837890681e-01,9.802812337875366211e-02,5.308984419331649329e-01,-7.216069102287292480e-01,-1.068568587303161621e+00,7.096086385344595726e+01,5.584561824798583984e-02
1.723586999999999980e+00,4.531957720790649735e-02,3.338125848932554929e-02,8.272833824157714844e-01,3.407627391795072652e-02,1.118700406384287582e-02,-1.644623668824818086e-01,7.511360242190451286e-02,3.634924012267460453e-02,-7.368924468755722046e-02,6.981737819665091715e-02,-5.487396931575416748e-02,-8.435420121149572736e-02,-3.140731453895568848e-01,2.295174002647399902e-01,4.005780220031737726e-02,-2.140731453895568792e-01,1.295174002647399847e-01,1.400578022003173828e-01,5.309716998808807764e-01,-7.313527464866638184e-01,-1.112183451652526855e+00,-6.494921138375670466e+01,5.584561824798583984e-02
1.748961999999999906e+00,4.703125524367468557e-02,3.445385157437998169e-02,8.268370628356933594e-01,3.603407328984521013e-02,1.732203369267981685e-02,-1.656249779001450484e-01,8.605895780839409315e-02,3.912623826211125005e-02,-8.882428705692291260e-02,1.347787397691590228e-01,7.955350939814826577e-03,-8.515048401359011365e-02,-3.238883674144744651e-01,3.199151396751404031e-01,1.202094316482543723e-01,-2.238883674144744873e-01,2.199151396751403698e-01,2.202094316482543779e-01,5.332653297273286519e-01,-6.804252266883850098e-01,-6.540790796279907227e-01,9.720813336202439814e+01,5.584561824798583984e-02
1.776737000000000011e+00,4.970815304235867010e-02,3.609954835784468657e-02,8.260603547096252441e-01,3.474419317134019858e-02,2.383366862685565302e-02,-1.671811604758450809e-01,7.342558810776510236e-02,2.932641968302565280e-02,-7.409260421991348267e-02,1.836827585797150275e-01,6.780646633621467689e-02,-8.626681655060604303e-02,-3.247849583625793679e-01,3.269687235355377419e-01,1.201382100582122636e-01,-2.247849583625793346e-01,2.269687235355377086e-01,2.201382100582122692e-01,5.341290422200180021e-01,-5.896735787391662598e-01,-1.076826691627502441e+00,1.013334719980637288e+02,5.584561824798583984e-02
1.798688000000000065e+00,5.059132625345234835e-02,3.660754782198233359e-02,8.257941007614135742e-01,3.352116201640571724e-02,2.492776325500867252e-02,-1.677937249452800816e-01,8.040287078488211892e-02,3.121164457551507676e-02,-7.900315523147583008e-02,2.133219832095088475e-01,1.255558993092398823e-01,-8.859804824672931622e-02,-3.241531908512115256e-01,3.273216307163238081e-01,1.191666424274444580e-01,-2.241531908512115479e-01,2.273216307163238303e-01,2.191666424274444636e-01,5.385514084610718566e-01,-3.787546157836914062e-01,-5.541098117828369141e-02,1.196234959914964406e+02,5.584561824798583984e-02
1.827320000000000055e+00,5.325557619064623383e-02,3.816417278704412747e-02,8.249961733818054199e-01,2.718078114992402913e-02,2.321236468229725958e-02,-1.701648984384337149e-01,8.139666821780222605e-02,3.129705168292084422e-02,-6.354435533285140991e-02,2.155709876213266207e-01,1.687172630440497423e-01,-8.985424768646445293e-02,-3.188602268695831521e-01,3.268104910850524458e-01,1.170254170894622636e-01,-2.188602268695831188e-01,2.268104910850524680e-01,2.170254170894622692e-01,5.373613762163509389e-01,-3.987904191017150879e-01,-8.697501420974731445e-01,-8.445785723833559189e+01,5.584561824798583984e-02
1.848173000000000066e+00,5.496692511268237713e-02,3.962331703643969666e-02,8.244351744651794434e-01,2.154638696332678363e-02,1.933452966721982413e-02,-1.721186553923142459e-01,8.236162708761886331e-02,3.991107895089352625e-02,-6.272999197244644165e-02,1.961681757524012248e-01,1.934471225176165043e-01,-9.090126665309336551e-02,-2.857968481570534736e-01,3.250613689422607311e-01,1.084882676601409690e-01,-2.099195122718811035e-01,2.250613689422607255e-01,2.084882676601409746e-01,5.331573484543222774e-01,-6.419306397438049316e-01,-1.170254588127136230e+00,1.092021367898635589e+02,5.584561824798583984e-02
1.874432000000000098e+00,5.761699944777590177e-02,4.183664874653333227e-02,8.235388994216918945e-01,1.072989450405307382e-02,1.083769123516020727e-02,-1.749310621480000827e-01,8.386500601104339425e-02,2.686039333448444685e-02,-6.457978487014770508e-02,1.469274618360204010e-01,1.882718938750102822e-01,-8.995478581274543584e-02,6.829030891046093676e-02,3.164448082447052224e-01,-8.085932731628418801e-02,8.055925369262695312e-02,2.164448082447051891e-01,1.914067268371582101e-02,5.327072637098199115e-01,-6.894824504852294922e-01,-1.111842036247253418e+00,1.040853552146618597e+02,5.584561824798583984e-02
1.899653999999999954e+00,6.036658335050303775e-02,4.399830038102527791e-02,8.227664828300476074e-01,-3.206289026728786039e-04,9.944228830880419423e-04,-1.775486685711891444e-01,9.290809114558513937e-02,3.815871428955991407e-02,-6.668475270271301270e-02,8.161650826133962089e-02,1.610739778442673575e-01,-8.798194639618245327e-02,2.640357337732263665e-01,2.958375751972198708e-01,-1.541510105133056530e-01,1.894685268402099554e-01,1.958375751972198375e-01,-5.415101051330566129e-02,5.341201039281875396e-01,-6.359658837318420410e-01,-4.983321428298950195e-01,-2.687339636488809358e+00,5.584561824798583984e-02
1.924587999999999965e+00,6.315017137844072814e-02,4.622718364926452217e-02,8.220660090446472168e-01,-9.939046855931069069e-03,-9.485833801921472741e-03,-1.797303276815460649e-01,8.574525644498103005e-02,4.846055659710506169e-02,-6.037756055593490601e-02,6.941466305384447200e-03,1.137831653627907613e-01,-8.563316458160133426e-02,3.123612880706786998e-01,1.733512379230234268e-01,-1.493949890136718750e-01,2.123612880706786943e-01,1.432641863822936845e-01,-4.939498901367187639e-02,5.353700106613520360e-01,-5.568373799324035645e-01,-8.013230562210083008e-01,1.136788749983216888e+02,5.584561824798583984e-02
1.949462000000000028e+00,6.468510499454975526e-02,4.731741468925206723e-02,8.217233419418334961e-01,-1.446948345958677488e-02,-1.683619379584588849e-02,-1.799747066496742431e-01,7.818625099132765766e-02,4.044374631851956753e-02,-3.991041332483291626e-02,-6.850261089556565486e-02,5.984712683136759331e-02,-8.161119205308185742e-02,3.202224493026733509e-01,-1.933799113045968701e-02,2.096694707870482011e-02,2.202224493026733454e-01,-8.107781410217285373e-04,1.209669470787048257e-01,5.337338881386830547e-01,-5.781170129776000977e-01,-8.496876955032348633e-01,1.214734117470593731e+02,5.584561824798583984e-02
1.974353000000000025e+00,6.680434931756693007e-02,4.898586427064291482e-02,8.214831948280334473e-01,-1.580370170235576022e-02,-2.863147764757867364e-02,-1.789208966113333688e-01,7.459989649311099535e-02,4.476010790136285278e-02,-2.795870974659919739e-02,-1.305112994648927605e-01,-2.735589845422248343e-03,-7.401351218545007549e-02,3.242110013961791992e-01,-3.105270565969379115e-01,1.272352278232574407e-01,2.242110013961791937e-01,-2.152020335197448730e-01,2.272352278232574463e-01,5.305753768482801558e-01,-7.158333659172058105e-01,-1.321006894111633301e+00,1.146465283886049065e+02,5.584561824798583984e-02
2.001145999999999869e+00,6.884303843589927030e-02,5.055653244136048413e-02,8.215568661689758301e-01,-1.112170437969266582e-02,-3.818520583230511356e-02,-1.781685300459463217e-01,8.320649627302950657e-02,3.816593177749513788e-02,-2.331306226551532745e-02,-1.709828625797443769e-01,-6.832245905535162811e-02,-6.511404782535573643e-02,3.222811698913574108e-01,-3.199773311614990123e-01,1.276931703090667669e-01,2.222811698913574052e-01,-2.199773311614990068e-01,2.276931703090667725e-01,5.299802086194962403e-01,-7.401502132415771484e-01,-1.299293160438537598e+00,1.019267968708843881e+02,5.584561824798583984e-02
2.025033999999999779e+00,7.024574324104342071e-02,5.158253401421784151e-02,8.216255903244018555e-01,-6.121960822468122329e-03,-4.152018719408911984e-02,-1.786343962474912783e-01,7.146618765341281043e-02,3.983008289773318222e-02,-1.284771505743265152e-02,-1.876940887718763495e-01,-1.281697131357921182e-01,-5.729056727216068345e-02,3.171525001525878906e-01,-3.203740119934082031e-01,1.216278910636901800e-01,2.171525001525878851e-01,-2.203740119934081976e-01,2.216278910636901855e-01,5.291917567247237386e-01,-7.509425282478332520e-01,-9.112223386764526367e-01,9.706927561619804123e+01,5.584561824798583984e-02
2.048318000000000083e+00,7.231502153657835830e-02,5.203290286939048215e-02,8.216463923454284668e-01,-6.031036039225360192e-04,-4.111463376064627973e-02,-1.801181015680577424e-01,8.385040233790758135e-02,3.684271679953993878e-02,-2.613355778157711029e-02,-1.886331266620529523e-01,-1.800799061780782861e-01,-5.052441665694747119e-02,3.008973533727737903e-01,-3.207005977630615345e-01,5.394359827041625421e-02,2.090642452239990234e-01,-2.207005977630615290e-01,1.539435982704162598e-01,5.303103348533672046e-01,-7.528594732284545898e-01,1.981011629104614258e-01,-1.467993092271706068e+01,5.584561824798583984e-02
2.073690000000000033e+00,7.543319383245362941e-02,5.267692960795575252e-02,8.215122818946838379e-01,9.268570858550085473e-03,-3.575524459026491186e-02,-1.824266350509002044e-01,7.883666604059540173e-02,4.413548357428042496e-02,-2.429747767746448517e-02,-1.601776871102245925e-01,-2.063730334319581472e-01,-4.745208076729871133e-02,1.785647099332924315e-01,-3.188134312629699596e-01,3.424944281578062855e-02,1.459733605384826716e-01,-2.188134312629699540e-01,1.342494428157806341e-01,5.304106615495869370e-01,-7.508233189582824707e-01,-1.396862864494323730e+00,1.209831954099492179e+02,5.584561824798583984e-02
2.100356000000000112e+00,7.849088864016739997e-02,5.331641962018599662e-02,8.212171792984008789e-01,1.962860300035499522e-02,-2.581911787319546292e-02,-1.846995776965519587e-01,7.634451870649235083e-02,4.499634788092551213e-02,-3.084219060838222504e-02,-1.134223269239096610e-01,-2.043675548480142490e-01,-4.703082477358280084e-02,-3.754803492106907614e-02,-2.876285024271735269e-01,5.777221918106079102e-02,-8.954107761383056641e-04,-2.106018304824829046e-01,1.577722191810607966e-01,5.313520310601137497e-01,-7.367692589759826660e-01,-9.649833440780639648e-01,7.877474369791312370e+01,5.584561824798583984e-02
2.123159999999999936e+00,8.044165826254189022e-02,5.367931263751241772e-02,8.209782838821411133e-01,2.644302598058673875e-02,-1.886956190734023764e-02,-1.855346235068827676e-01,8.302908412328845189e-02,3.921072232068074231e-02,-4.349670931696891785e-02,-5.084520360399198691e-02,-1.781733302919266682e-01,-4.466877488909996169e-02,-1.866121818447715186e-01,-2.284804664103823324e-01,3.644883632659912109e-02,-1.009180784225463812e-01,-2.017699241638183649e-01,1.364488363265991266e-01,5.328130280362650684e-01,-7.188019752502441406e-01,-4.253188371658325195e-01,7.904888700062991802e+01,5.584561824798583984e-02
2.150504000000000193e+00,8.391192897222692071e-02,5.433493500379709545e-02,8.203900456428527832e-01,3.472473632610222766e-02,-7.431018152942225896e-03,-1.867843610084938821e-01,7.254171449287027951e-02,3.855096672391530171e-02,-3.693979233503341675e-02,2.202399568121242782e-02,-1.327783346278977317e-01,-4.109338107570682797e-02,-3.062561869621276966e-01,-1.160320584854379611e-01,2.443264722824095569e-02,-2.062561869621276911e-01,-1.552251577377319336e-01,1.244326472282409612e-01,5.322040047114230399e-01,-7.392444014549255371e-01,-6.708804368972778320e-01,-5.464434361973933285e+00,5.584561824798583984e-02
2.176521999999999846e+00,8.619115015221541498e-02,5.479391949935814854e-02,8.198794722557067871e-01,3.796125887252196907e-02,3.052657180555584659e-04,-1.879120597554586325e-01,8.942853636046758925e-02,3.295340814302050170e-02,-4.489015787839889526e-02,9.376657248609585049e-02,-7.664090546727146680e-02,-3.718799775226423743e-02,-3.161059916019439697e-01,2.680067598819732555e-01,-2.195107936859130859e-01,-2.161059916019439642e-01,1.680067598819732499e-01,-1.195107936859130804e-01,5.335978545524190375e-01,-7.079882025718688965e-01,-8.032816648483276367e-01,8.719350509527660620e+01,5.584561824798583984e-02
2.202927999999999997e+00,8.849140272540638452e-02,5.525443643478143707e-02,8.192622065544128418e-01,3.860566187130949622e-02,7.558885972267281872e-03,-1.884149859620246337e-01,7.864080394442203581e-02,4.155308236052779325e-02,-4.349970445036888123e-02,1.591090415342827358e-01,-1.662538913478808084e-02,-3.460090378592754756e-02,-3.215683996677398682e-01,3.129131078720092662e-01,-1.089133739471435658e-01,-2.215683996677398626e-01,2.129131078720092607e-01,-8.913373947143555034e-03,5.336569379088957898e-01,-7.126724123954772949e-01,-6.639105081558227539e-01,-3.443202520988270265e+01,5.584561824798583984e-02
2.223465000000000025e+00,9.078278414113957751e-02,5.576299872733966878e-02,8.182901740074157715e-01,3.647239319166736132e-02,1.427385514158729940e-02,-1.890913328042672648e-01,7.310020722606819232e-02,2.919830680425189451e-02,-4.652111604809761047e-02,2.042241879662254345e-01,4.841395767501136677e-02,-3.503983251963362772e-02,-3.220159173011779563e-01,3.229435503482818715e-01,4.672048091888425514e-02,-2.220159173011779785e-01,2.229435503482818659e-01,1.467204809188842607e-01,5.343244806346838516e-01,-7.027568817138671875e-01,-7.751830816268920898e-01,7.381981028528404920e+01,5.584561824798583984e-02
2.252835000000000143e+00,9.397815889004401679e-02,5.690327089702128249e-02,8.169757127761840820e-01,3.055231371854804159e-02,1.970878724737112897e-02,-1.879051211686213751e-01,8.052304981999844347e-02,3.608103487373198054e-02,-3.728750348091125488e-02,2.168681947522466680e-01,1.135259572895503943e-01,-3.593952775494143465e-02,-3.197407066822052224e-01,3.252196013927459717e-01,8.771005272865295410e-02,-2.197407066822051891e-01,2.252196013927459661e-01,1.877100527286529597e-01,5.342249948575755747e-01,-6.886682510375976562e-01,-1.007892489433288574e+00,9.253088129010220086e+01,5.584561824798583984e-02
2.275589999999999780e+00,9.583529641807758681e-02,5.812180340890114871e-02,8.160463571548461914e-01,2.553224520016920615e-02,1.948195380968154033e-02,-1.870579281063722843e-01,7.522489825183791001e-02,4.063047187190677034e-02,-3.028607368469238281e-02,2.081143689903447724e-01,1.682381165008024759e-01,-3.653621557202299530e-02,-2.928535530292845079e-01,3.249710142612457497e-01,9.353956580162048340e-02,-2.104122340679168701e-01,2.249710142612457164e-01,1.935395658016204889e-01,5.343892291169645148e-01,-6.662789583206176758e-01,-1.206359982490539551e+00,1.082315942295614235e+02,5.584561824798583984e-02
2.300720000000000098e+00,9.857702723804669109e-02,5.988413667221546138e-02,8.148700594902038574e-01,1.618475098613329430e-02,1.383090254815400044e-02,-1.873582348578934353e-01,7.280293853525965364e-02,2.875641958092722134e-02,-2.732951939105987549e-02,1.746848431009859204e-01,2.027460862276941056e-01,-3.505512149898516727e-02,6.023577505408209826e-02,3.208506941795349343e-01,-1.321440219879150280e-01,8.825662136077880304e-02,2.208506941795349010e-01,-3.214402198791503629e-02,5.345210856048736581e-01,-6.624099612236022949e-01,-1.030764937400817871e+00,1.029915960417327057e+02,5.584561824798583984e-02
2.324626999999999999e+00,1.013716647680018151e-01,6.160662023894092343e-02,8.136833310127258301e-01,5.596145729589626847e-03,4.421067891118735105e-03,-1.884859631242960243e-01,8.236869324041748430e-02,3.524924208490164135e-02,-2.399162389338016510e-02,1.186812239113179401e-01,2.051603574363989879e-01,-3.121862410424167122e-02,2.527289423675220803e-01,3.118365585803985485e-01,-2.345062017440796009e-01,2.005419015884399303e-01,2.118365585803985429e-01,-1.345062017440795954e-01,5.343494548760773233e-01,-6.746696829795837402e-01,-1.054571032524108887e+00,-5.085116818209512957e+01,5.584561824798583984e-02
2.350524000000000058e+00,1.030879973360426111e-01,6.236859993520235679e-02,8.129159212112426758e-01,-1.361649511941631814e-03,-2.177670189854818972e-03,-1.891311668784795841e-01,8.014758056539672548e-02,3.652167750695598653e-02,-1.560845877975225449e-02,5.100800419276363407e-02,1.795808491617901514e-01,-2.587037767567081786e-02,3.123194028307825776e-01,3.085944116115569846e-01,-2.499886989593505804e-01,2.124483346939086970e-01,2.085944116115570068e-01,-1.499886989593505748e-01,5.352076981040979620e-01,-6.073535680770874023e-01,-1.305215954780578613e+00,3.393430932506387876e+01,5.584561824798583984e-02
2.374454000000000065e+00,1.053139262484718286e-01,6.298935561767782243e-02,8.118187189102172852e-01,-9.551523956138936386e-03,-1.307561734030038281e-02,-1.882580172857919176e-01,7.192384567977415377e-02,4.113568741859632838e-02,-1.491164229810237885e-02,-2.047564749663920505e-02,1.358947596843019245e-01,-2.170617323391048001e-02,3.104912519454955944e-01,2.379783091660113148e-01,-2.208771467208862360e-01,2.104912519454955888e-01,2.086685299873352051e-01,-1.208771467208862305e-01,5.355543771464162939e-01,-5.998623967170715332e-01,-1.058791518211364746e+00,9.376872330357278429e+01,5.584561824798583984e-02
2.399481999999999893e+00,1.066605029776547392e-01,6.339902442999537091e-02,8.113746047019958496e-01,-1.108405465450651613e-02,-2.138544005188869335e-02,-1.864564932598671010e-01,6.961929172008382571e-02,3.179164732555382622e-02,9.599114768207073212e-03,-8.911498556826709383e-02,7.958076341513831142e-02,-1.538848517800677461e-02,3.096783638000488170e-01,1.754958380173756438e-01,9.336068034172056995e-02,2.096783638000488115e-01,1.974026441574096569e-01,1.933606803417205755e-01,5.316871889025005515e-01,-7.264503240585327148e-01,-6.345463991165161133e-01,-4.133110025276961608e+01,5.584561824798583984e-02
2.423448000000000047e+00,1.085057529891126915e-01,6.393305114527343680e-02,8.108565211296081543e-01,-8.055388056076242739e-03,-3.345256479070379818e-02,-1.828591324748064795e-01,6.069109358449537722e-02,3.239922180116503597e-02,2.378985472023487091e-02,-1.401371375305995870e-01,1.300793642113511409e-02,-4.707226876629446236e-03,3.148509502410888894e-01,-2.844978570938110352e-01,1.170067667961120494e-01,2.148509502410888561e-01,-1.844978570938110296e-01,2.170067667961120550e-01,5.306414764147733276e-01,-7.378880381584167480e-01,-1.177600264549255371e+00,9.499330791986436395e+01,5.584561824798583984e-02
