timestamp,x,y,z,roll,pitch,yaw,vx,vy,vz,p,q,r,psp,qsp,rsp,pres,qres,rres,thrust_sp, thrust_res
0.000000000000000000e+00,2.767855173196778415e-02,-1.752051554520631452e-02,1.005649924278259277e+00,2.985994900123255247e-02,6.219377342195908653e-04,-8.834851517409710031e-03,8.018418222756508798e-03,1.618725621557194280e-02,-4.951006267219781876e-04,1.911390037642573397e-02,-3.883792792632212096e-03,1.676918526046557124e-03,-1.000000000000000056e-01,2.762699348283568709e-02,-2.491680168482490743e-02,0.000000000000000000e+00,0.000000000000000000e+00,0.000000000000000000e+00,5.115675386269771252e-01,-0.000000000000000000e+00,5.928968191146850586e-01,1.099975259790898861e+02,0.000000000000000000e+00
2.488100000000000034e-02,2.828775828368607081e-02,-1.806992562375932601e-02,1.006024479866027832e+00,2.984300797716671338e-02,3.869593780114755077e-05,-8.585462953043236645e-03,1.214587366053468398e-02,4.144256096888686985e-03,5.471431650221347809e-03,1.150055649409241834e-02,-3.139434715652555941e-02,1.270395817497266440e-02,-1.000000000000000056e-01,2.664797215112429951e-02,-2.420065290496931087e-02,0.000000000000000000e+00,0.000000000000000000e+00,0.000000000000000000e+00,5.110873106291282664e-01,-0.000000000000000000e+00,-1.272875070571899414e-01,1.926989249402758162e+02,0.000000000000000000e+00
4.699699999999999711e-02,2.867069113722856347e-02,-1.838359395160173507e-02,1.006289601325988770e+00,3.017469047398332188e-02,-2.495524844068341963e-04,-8.645619089871256491e-03,1.046193288893714803e-02,1.197524988887981902e-02,-9.970578830689191818e-04,2.461009803235542429e-02,3.098609803478285965e-04,-1.870722136834296681e-02,-1.000000000000000056e-01,2.308741388600502042e-02,-2.435531913132471526e-02,0.000000000000000000e+00,0.000000000000000000e+00,0.000000000000000000e+00,5.115417846567990035e-01,-0.000000000000000000e+00,3.061419725418090820e-01,8.926524490451404859e+01,0.000000000000000000e+00
7.435500000000000442e-02,2.925814760256270977e-02,-1.886266212060096550e-02,1.006692409515380859e+00,3.034271047558748102e-02,-5.381315915626849744e-04,-8.509545716312525224e-03,1.359177789567238628e-02,9.892317643581477471e-03,-1.418016036041080952e-03,-5.389149291932885180e-03,-7.964444047978665522e-03,1.765354034773452402e-02,-1.000000000000000056e-01,2.453521758364357250e-02,-2.398180893877299713e-02,0.000000000000000000e+00,0.000000000000000000e+00,0.000000000000000000e+00,5.115389716123762698e-01,-0.000000000000000000e+00,4.474604129791259766e-02,3.593309246868182072e+01,0.000000000000000000e+00
9.816800000000000526e-02,2.960510150214025124e-02,-1.908578077951163243e-02,1.006869196891784668e+00,2.975588999461278167e-02,-3.246518214070626129e-04,-8.460947879814962116e-03,3.135468866297626278e-03,9.441668501467735675e-03,-6.427441257983446121e-03,-2.217833390792919510e-02,1.696280084156910964e-02,-1.365143347961514072e-03,-1.000000000000000056e-01,1.733440713663831137e-02,-2.379777442497693629e-02,0.000000000000000000e+00,0.000000000000000000e+00,0.000000000000000000e+00,5.118952206679346917e-01,-0.000000000000000000e+00,4.132400751113891602e-01,1.152035166550411134e+02,0.000000000000000000e+00
1.224760000000000015e-01,3.003334554810202506e-02,-1.910827079988884625e-02,1.007002234458923340e+00,2.750394330086336145e-02,-2.395752839521314570e-04,-8.118293348154677347e-03,1.559427141279113443e-02,1.520059212616818069e-02,-1.719568111002445221e-02,-1.290217372065002588e-01,-5.665536792620252948e-03,8.025922493088517504e-03,-1.000000000000000056e-01,2.984712584318848644e-02,-2.290639234839758620e-02,0.000000000000000000e+00,0.000000000000000000e+00,0.000000000000000000e+00,5.126948228760833670e-01,-0.000000000000000000e+00,2.508820295333862305e-01,1.450053941926126129e+02,0.000000000000000000e+00
1.471939999999999915e-01,3.027121305609840884e-02,-1.906428521152701144e-02,1.006928443908691406e+00,2.553924444830812934e-02,-5.752310254778514320e-04,-7.840276914199929489e-03,4.916208365565553559e-03,1.774585834356478750e-02,-1.957472041249275208e-02,-8.019661858567399271e-02,-2.233313474844766250e-02,5.509009026151199737e-03,-1.000000000000000056e-01,1.752000346559251173e-02,-2.204884150844599322e-02,0.000000000000000000e+00,0.000000000000000000e+00,0.000000000000000000e+00,5.128860908071168900e-01,-0.000000000000000000e+00,2.342096567153930664e-01,1.891929478581732553e+02,0.000000000000000000e+00
1.713069999999999871e-01,3.056977813042347294e-02,-1.889965495226901201e-02,1.006630420684814453e+00,2.227312875432543859e-02,-1.104785638888383659e-03,-7.448170859530241737e-03,3.814935094671258881e-03,1.504394122541179331e-02,-2.776173502206802368e-02,-1.280985599287993160e-01,7.109403344786099227e-04,3.046221278758377490e-02,-1.000000000000000056e-01,1.508685718858395267e-02,-2.092574063176644295e-02,0.000000000000000000e+00,0.000000000000000000e+00,0.000000000000000000e+00,5.135336950275669610e-01,-0.000000000000000000e+00,-3.625780344009399414e-01,6.050076552638805616e+00,0.000000000000000000e+00
1.968870000000000064e-01,3.074913302588942743e-02,-1.874608997539869981e-02,1.006307840347290039e+00,2.049047272700444539e-02,-1.431975932498774640e-03,-7.384415870128824104e-03,5.892661080053078308e-03,2.076713484374735977e-02,-3.299435228109359741e-02,-9.250531847970749899e-02,1.023518828186399318e-02,-1.670882220759355857e-02,-1.000000000000000056e-01,1.498937214723296968e-02,-2.074364360590202905e-02,0.000000000000000000e+00,0.000000000000000000e+00,0.000000000000000000e+00,5.139696199490024764e-01,-0.000000000000000000e+00,-1.706159114837646484e-02,1.017799478037291152e+02,0.000000000000000000e+00
2.225989999999999913e-01,3.107973208140582186e-02,-1.847367749410891435e-02,1.005705595016479492e+00,1.708233597779762816e-02,-1.689934436598150569e-03,-7.057594845313981506e-03,3.956483032747284273e-03,2.416815238917217543e-02,-3.903320804238319397e-02,-1.414451507562754784e-01,-5.845903656222715440e-03,2.815176688410816683e-02,-1.000000000000000056e-01,1.177997177892676703e-02,-1.980633678434201572e-02,0.000000000000000000e+00,0.000000000000000000e+00,0.000000000000000000e+00,5.144910278177536878e-01,-0.000000000000000000e+00,1.923784017562866211e-01,1.028156025573889849e+02,0.000000000000000000e+00
2.468700000000000061e-01,3.127297176611017193e-02,-1.817712925567624080e-02,1.005152583122253418e+00,1.472779085159075380e-02,-1.918809122799292055e-03,-6.828549586574864799e-03,-2.228586784182502636e-03,2.470531474028772254e-02,-4.289400950074195862e-02,-1.176836510394537738e-01,3.580966604897704939e-03,5.657027730393516737e-03,-9.076227212048458559e-02,5.851100596623011116e-03,-1.913936391869475173e-02,0.000000000000000000e+00,0.000000000000000000e+00,0.000000000000000000e+00,5.148513329881595491e-01,-0.000000000000000000e+00,-3.734012842178344727e-01,9.238552120418599145e+01,0.000000000000000000e+00
2.715839999999999921e-01,3.148940739736053734e-02,-1.760951955082426176e-02,1.004223585128784180e+00,1.065528385295881099e-02,-2.475258016727321930e-03,-6.382136352508479930e-03,4.403178812854685251e-03,3.479396821233405462e-02,-5.502596870064735413e-02,-1.573991450028180972e-01,-1.816667001102797302e-02,1.897318688525083744e-02,-5.589213589471986321e-02,8.632305277240161223e-03,-1.789356305368944300e-02,0.000000000000000000e+00,0.000000000000000000e+00,0.000000000000000000e+00,5.158634247870240719e-01,-0.000000000000000000e+00,-1.425186395645141602e-01,1.227303304788817968e+02,0.000000000000000000e+00
2.970700000000000007e-01,3.163059134423817920e-02,-1.712309783891039286e-02,1.003529191017150879e+00,8.526209508004487306e-03,-2.662911696422742835e-03,-6.394194424541171061e-03,-1.316184999406092796e-03,3.404294805010779634e-02,-5.338816717267036438e-02,-1.078706268245276517e-01,-5.539006238482900059e-03,-1.734553675344044366e-02,-4.377980503179429439e-02,2.106047618696493991e-03,-1.790839919782416523e-02,0.000000000000000000e+00,0.000000000000000000e+00,0.000000000000000000e+00,5.158393176234740141e-01,-0.000000000000000000e+00,1.041284799575805664e-01,1.692832059747745461e+02,0.000000000000000000e+00
3.223520000000000274e-01,3.159009344670915542e-02,-1.653105283528246566e-02,1.002399563789367676e+00,5.283767366639728104e-03,-2.687041178371263328e-03,-6.100590411895649885e-03,-5.061476882851657748e-03,4.159621266839624160e-02,-5.929149314761161804e-02,-1.189328973951033069e-01,7.198284828494458908e-03,3.758109312434406574e-02,-1.615598520163560869e-02,-1.664174854607228119e-04,-1.708138681413640114e-02,0.000000000000000000e+00,0.000000000000000000e+00,0.000000000000000000e+00,5.164107561161572768e-01,-0.000000000000000000e+00,1.830176115036010742e-01,1.114617682729788726e+02,0.000000000000000000e+00
3.462379999999999902e-01,3.144676501261874091e-02,-1.607589613657502831e-02,1.001597881317138672e+00,3.238406358587067688e-03,-2.770559173508102546e-03,-5.900793745605561330e-03,3.156842303076697807e-05,4.408063302020300001e-02,-6.317888945341110229e-02,-1.170796585608585433e-01,1.817995265985473431e-03,-9.527796311015376265e-04,-1.600265191933026351e-03,3.899416204326687681e-03,-1.652743342761553436e-02,0.000000000000000000e+00,0.000000000000000000e+00,0.000000000000000000e+00,5.168140974378536701e-01,-0.000000000000000000e+00,7.686150074005126953e-02,9.970643897549665269e+01,0.000000000000000000e+00
3.705160000000000120e-01,3.120526386824055975e-02,-1.517095401936957751e-02,1.000151395797729492e+00,6.429131572013132212e-04,-3.251924841036979430e-03,-5.370437260747514333e-03,-9.579084996052707190e-03,5.342298662458860176e-02,-6.451714783906936646e-02,-7.980405487344713333e-02,-2.002284323648841069e-02,2.772582106847217703e-02,2.297469487812304687e-02,-7.701638738747199932e-03,-1.502927219509803125e-02,0.000000000000000000e+00,0.000000000000000000e+00,0.000000000000000000e+00,5.170790883224283263e-01,-0.000000000000000000e+00,4.655897617340087891e-02,9.802121957139023323e+01,0.000000000000000000e+00
3.958760000000000057e-01,3.103014687546069156e-02,-1.445920697957226234e-02,9.991404414176940918e-01,-4.291176561447665764e-04,-3.467441071839161282e-03,-5.288662891209234412e-03,-2.010215883767721857e-03,5.312142745893320972e-02,-6.633013486862182617e-02,-4.881958566032389840e-02,-9.826037132214261380e-03,1.282962330319240398e-03,2.893924915575612697e-02,-1.704677938967009976e-03,-1.480691503583603241e-02,0.000000000000000000e+00,0.000000000000000000e+00,0.000000000000000000e+00,5.173500427489490239e-01,-0.000000000000000000e+00,-6.979895234107971191e-01,1.491317983381624401e+02,0.000000000000000000e+00
4.224559999999999982e-01,3.078266673470201817e-02,-1.330931413251628358e-02,9.975981116294860840e-01,-1.084705484297158627e-03,-3.686609158682907506e-03,-5.126778156211968945e-03,-8.658429333836144964e-03,6.299527620621726831e-02,-6.533499807119369507e-02,-2.774862034898598409e-02,-1.143313024883885198e-02,2.100196659139169988e-02,4.193654874687424705e-02,-9.615058112023571954e-03,-1.434616172178970750e-02,0.000000000000000000e+00,0.000000000000000000e+00,0.000000000000000000e+00,5.174544919580723601e-01,-0.000000000000000000e+00,4.579222202301025391e-02,1.047249751096768762e+02,0.000000000000000000e+00
4.471410000000000107e-01,3.063260417305123384e-02,-1.242553995129283551e-02,9.964963793754577637e-01,-1.251541151041343607e-03,-3.633891663935795435e-03,-4.978165991498603379e-03,-2.475395921306854617e-03,6.989176437375645146e-02,-7.555183023214340210e-02,-1.728405994403857740e-02,-2.268677515819041146e-02,5.361050990656293994e-03,4.773117630501647057e-02,-3.465386121538733058e-03,-1.393529397121046065e-02,0.000000000000000000e+00,0.000000000000000000e+00,0.000000000000000000e+00,5.183615179432151665e-01,-0.000000000000000000e+00,1.268303394317626953e-02,1.181023035803078756e+02,0.000000000000000000e+00
4.724720000000000031e-01,3.032321827184867799e-02,-1.085065877313082239e-02,9.947797656059265137e-01,-1.102494061048215832e-03,-3.458407677883412745e-03,-4.542775159327276831e-03,-1.278365350091956697e-02,7.501011735371007627e-02,-6.992370635271072388e-02,1.097828141721817787e-02,-6.183371026035808064e-03,2.626048161000699849e-02,5.100419765012902812e-02,-1.150686827680934450e-02,-1.270589793277870916e-02,0.000000000000000000e+00,0.000000000000000000e+00,0.000000000000000000e+00,5.181444644833591573e-01,-0.000000000000000000e+00,6.066739559173583984e-02,1.011473220224241913e+02,0.000000000000000000e+00
4.985640000000000072e-01,2.993745604951356110e-02,-8.989486032954970007e-03,9.930167198181152344e-01,-1.178360378353665415e-04,-3.113897790677944144e-03,-4.431265610717618174e-03,-1.079651008239812179e-02,8.244388853819928364e-02,-7.350371778011322021e-02,6.587913437506498493e-02,1.808900977336127397e-02,-1.151034032106535918e-02,5.109938823490302318e-02,-6.420244646950321737e-03,-1.239716431457060786e-02,0.000000000000000000e+00,0.000000000000000000e+00,0.000000000000000000e+00,5.186141169307065812e-01,-0.000000000000000000e+00,6.634606122970581055e-01,1.006740787054015271e+02,0.000000000000000000e+00
5.250639999999999752e-01,2.976210200161578945e-02,-7.661290894519261901e-03,9.918761849403381348e-01,5.563322971366613983e-04,-3.037950763683738842e-03,-4.218583538474545910e-03,-1.447074114712043613e-02,9.154639313254539501e-02,-7.491397112607955933e-02,2.794723201044065769e-02,-8.574366735420013014e-03,9.867308879852994263e-03,5.390307598823727148e-02,-9.205641057964241564e-03,-1.179362934862165924e-02,0.000000000000000000e+00,0.000000000000000000e+00,0.000000000000000000e+00,5.188810986944893955e-01,-0.000000000000000000e+00,3.555516004562377930e-01,7.433565349216009110e+01,0.000000000000000000e+00
5.474560000000000537e-01,2.953174346040771808e-02,-6.201629528199513811e-03,9.907062649726867676e-01,1.670227114976846009e-03,-2.544301348235578075e-03,-3.985388157112759733e-03,-1.096254305143015868e-02,8.928484989063746602e-02,-7.269746810197830200e-02,4.096243922410758298e-02,-4.914517666570796146e-03,8.940594468082818658e-03,4.476271481676545594e-02,-2.763112460274026651e-03,-1.115323168183429692e-02,0.000000000000000000e+00,0.000000000000000000e+00,0.000000000000000000e+00,5.188799222002226097e-01,-0.000000000000000000e+00,2.134369611740112305e-01,9.724929208196290631e+01,0.000000000000000000e+00
5.724449999999999816e-01,2.917533626981659578e-02,-3.795302997334598985e-03,9.888700246810913086e-01,3.142602624294385701e-03,-2.140156088659139755e-03,-3.727108049844307311e-03,-2.074106420171330928e-02,9.957654471627649939e-02,-7.242538034915924072e-02,5.785833882345846335e-02,1.129079492106133467e-02,1.804395116061604729e-02,4.540703714927258466e-02,-8.593510252675904890e-03,-1.041170115538886387e-02,0.000000000000000000e+00,0.000000000000000000e+00,0.000000000000000000e+00,5.190764627878486914e-01,-0.000000000000000000e+00,-2.004754543304443359e-02,1.056945204623601882e+02,0.000000000000000000e+00
5.967519999999999492e-01,2.887295567218666273e-02,-2.034524819291440474e-03,9.876225590705871582e-01,4.042451627888456363e-03,-2.030209574603203393e-03,-3.525537748428580857e-03,-1.228842879608348961e-02,1.047145250211043710e-01,-8.042764663696289062e-02,3.358142084033205466e-02,-3.265388339959105629e-02,8.020022103648974734e-03,4.344263700543351397e-02,4.307850088083485171e-05,-9.872028808023625146e-03,0.000000000000000000e+00,0.000000000000000000e+00,0.000000000000000000e+00,5.198430619248299855e-01,-0.000000000000000000e+00,3.599828481674194336e-01,9.728105246160346553e+01,0.000000000000000000e+00
6.240919999999999801e-01,2.845967268680655443e-02,6.764787715820082432e-04,9.857556223869323730e-01,5.851746238195940086e-03,-2.023075060817891568e-03,-3.265500364458171281e-03,-2.325942292769028405e-02,1.098592159296402498e-01,-7.359223067760467529e-02,6.464967759109294110e-02,1.478565238065595059e-03,8.077173509069281512e-03,3.708743542906892815e-02,-1.001615446364163310e-02,-9.106315646773499584e-03,0.000000000000000000e+00,0.000000000000000000e+00,0.000000000000000000e+00,5.195629857394332696e-01,-0.000000000000000000e+00,2.852082252502441406e-03,1.736576416098442337e+02,0.000000000000000000e+00
6.487450000000000161e-01,2.814811977349734179e-02,3.366701082084192029e-03,9.838114380836486816e-01,7.496361582549107040e-03,-1.491520281816871574e-03,-3.184660490220383566e-03,-1.802456352876925794e-02,1.150142838477174884e-01,-8.350156247615814209e-02,4.691720792229252257e-02,4.014319324646013765e-02,6.132022656927806417e-03,3.157568015303746645e-02,-1.051493453772919329e-03,-8.913106858165542601e-03,0.000000000000000000e+00,0.000000000000000000e+00,0.000000000000000000e+00,5.205267404435737211e-01,-0.000000000000000000e+00,-9.207522869110107422e-02,1.094004171814690238e+02,0.000000000000000000e+00
6.720270000000000410e-01,2.789508151252730397e-02,5.297413617725223352e-03,9.825075864791870117e-01,8.508293181967090807e-03,-1.318360119374695216e-03,-3.091820408633414331e-03,-2.099650659927117247e-02,1.213577103634644466e-01,-8.130783587694168091e-02,3.346322388945222742e-02,2.607381425158662724e-02,4.433512389229662953e-03,3.086276984438902221e-02,-3.162333321754094966e-03,-8.642908294961948457e-03,0.000000000000000000e+00,0.000000000000000000e+00,0.000000000000000000e+00,5.205568286828072821e-01,-0.000000000000000000e+00,-2.636047601699829102e-01,1.197934310980463550e+02,0.000000000000000000e+00
6.964200000000000390e-01,2.762454979093312279e-02,7.343975904800008336e-03,9.811946749687194824e-01,9.328918683432966749e-03,-1.428787812494780596e-03,-2.765770084312326078e-03,-2.050402710731193470e-02,1.261038949006036969e-01,-8.061629533767700195e-02,3.890225164790084983e-02,-2.250871470287548262e-02,1.388344062372302845e-02,3.003972686489492228e-02,-3.200089016560912075e-03,-7.728749394862011179e-03,0.000000000000000000e+00,0.000000000000000000e+00,0.000000000000000000e+00,5.206975520303864791e-01,-0.000000000000000000e+00,-2.296432256698608398e-01,1.002809876582889501e+02,0.000000000000000000e+00
7.247500000000000053e-01,2.721277451846188661e-02,1.050766937732501571e-02,9.793236851692199707e-01,1.058634256662377773e-02,-1.506764737165378065e-03,-2.501151051619533369e-03,-2.557303614617917678e-02,1.291244640237128871e-01,-8.111574500799179077e-02,4.330902944256407455e-02,3.220178980162517746e-02,7.769821806304107355e-03,2.590378684174688209e-02,-8.004145950061675868e-03,-6.960502178736838186e-03,0.000000000000000000e+00,0.000000000000000000e+00,0.000000000000000000e+00,5.209679869572414468e-01,-0.000000000000000000e+00,-9.664714336395263672e-02,9.799781934329377009e+01,0.000000000000000000e+00
7.465549999999999686e-01,2.699549382070741063e-02,1.267130631650987584e-02,9.781742095947265625e-01,1.174306381857102323e-02,-1.721189945522283438e-03,-2.484398429180175848e-03,-2.255420025931729675e-02,1.307681906214692991e-01,-7.576394826173782349e-02,4.957996137704093198e-02,-3.230276837444917906e-03,7.733247188091874058e-03,2.114370166792398781e-02,-6.425511953923183570e-03,-6.920012442230505378e-03,0.000000000000000000e+00,0.000000000000000000e+00,0.000000000000000000e+00,5.207531825671248837e-01,-0.000000000000000000e+00,8.725416660308837891e-02,1.035172815512027285e+02,0.000000000000000000e+00
7.711400000000000476e-01,2.663492515687263668e-02,1.604365391084199011e-02,9.764009714126586914e-01,1.307554843169787297e-02,-1.684167474251152541e-03,-2.335195051202875252e-03,-2.725043329728962099e-02,1.415112056287887166e-01,-8.641471713781356812e-02,3.647033824066789331e-02,2.150155319834480896e-02,9.818837646610747115e-04,2.297472891514084140e-02,-1.054765867860044462e-02,-6.471918017971423076e-03,0.000000000000000000e+00,0.000000000000000000e+00,0.000000000000000000e+00,5.217715152017797786e-01,-0.000000000000000000e+00,-8.109557628631591797e-02,1.064012401357814070e+02,0.000000000000000000e+00
7.961819999999999453e-01,2.633293725990655879e-02,1.843269203150194394e-02,9.752072691917419434e-01,1.382129070760053369e-02,-1.655743992819092014e-03,-2.083333258248764100e-03,-2.622231404565033425e-02,1.354916360061588221e-01,-8.018825948238372803e-02,1.619271779391510610e-02,1.130852816936151611e-02,2.267915172691697262e-02,1.395968169544949469e-02,-9.041184929922311750e-03,-5.776016563527885950e-03,0.000000000000000000e+00,0.000000000000000000e+00,0.000000000000000000e+00,5.214974491313283389e-01,-0.000000000000000000e+00,-1.100422143936157227e-01,1.638520444524555160e+02,0.000000000000000000e+00
8.204190000000000094e-01,2.595218543969073782e-02,2.193650711722278449e-02,9.733095765113830566e-01,1.493080670888299530e-02,-1.743116246995191077e-03,-1.764862704076429608e-03,-2.985200716172874136e-02,1.456103087601414992e-01,-8.412916958332061768e-02,6.087620483990308778e-02,3.056588950793905773e-02,6.486413022459409233e-03,1.808592904094904336e-02,-1.283710332220930860e-02,-4.852070275525532939e-03,0.000000000000000000e+00,0.000000000000000000e+00,0.000000000000000000e+00,5.220362008425826206e-01,-0.000000000000000000e+00,1.095777750015258789e-01,1.003816373258982537e+02,0.000000000000000000e+00
8.491610000000000547e-01,2.563806960911311356e-02,2.521340509927936027e-02,9.715258479118347168e-01,1.620766966979924825e-02,-2.188092560882148874e-03,-1.557703417691702098e-03,-2.526182954645347575e-02,1.424140748584614147e-01,-8.117109537124633789e-02,4.001591953326730233e-02,-5.171763585193802498e-02,8.919284277875527689e-03,8.424210894398683272e-03,-1.178848531342692463e-02,-4.276611666148122382e-03,0.000000000000000000e+00,0.000000000000000000e+00,0.000000000000000000e+00,5.220505682975302708e-01,-0.000000000000000000e+00,-5.453467369079589844e-03,1.382597354437679371e+02,0.000000000000000000e+00
8.737930000000000419e-01,2.538147969347081395e-02,2.752313968482123299e-02,9.703581333160400391e-01,1.710524083783829252e-02,-2.092931612459381086e-03,-1.477089101662223784e-03,-3.652183259153915507e-02,1.475744603008790345e-01,-7.896717637777328491e-02,5.841690051849201398e-02,9.992570574866502589e-03,-5.682997837105472141e-03,9.090663686759273276e-03,-2.084176914797938873e-02,-3.976664512426453246e-03,0.000000000000000000e+00,0.000000000000000000e+00,0.000000000000000000e+00,5.220815206441542511e-01,-0.000000000000000000e+00,3.851056098937988281e-03,1.063315585458689299e+02,0.000000000000000000e+00
8.990320000000000533e-01,2.494874588537459095e-02,3.108020966828070608e-02,9.687713980674743652e-01,1.820206918471509519e-02,-2.043055057497467075e-03,-1.171647190407642831e-03,-2.639396174033986978e-02,1.471282668620393641e-01,-7.723508030176162720e-02,3.678785361967557704e-02,-8.608833944740438421e-03,1.305832948650728978e-02,3.644070102857684297e-03,-1.121955447607710619e-02,-3.191845384023506149e-03,0.000000000000000000e+00,0.000000000000000000e+00,0.000000000000000000e+00,5.221725685219947843e-01,-0.000000000000000000e+00,3.643786907196044922e-02,9.744268205812264227e+01,0.000000000000000000e+00
9.219770000000000465e-01,2.466473490645277461e-02,3.344392988130953648e-02,9.677011966705322266e-01,1.889785918660712508e-02,-1.886004666462381962e-03,-1.132103493230084352e-03,-3.417992630195397508e-02,1.525084769832555365e-01,-8.172259479761123657e-02,5.144148896550753552e-02,3.645280926444894199e-03,-5.882931750274295046e-03,5.287616034875482034e-03,-1.794413221997795405e-02,-3.021254005401097231e-03,0.000000000000000000e+00,0.000000000000000000e+00,0.000000000000000000e+00,5.226896645354000004e-01,-0.000000000000000000e+00,9.983457326889038086e-01,8.255547196956861455e+01,0.000000000000000000e+00
9.485630000000000450e-01,2.442196219622480569e-02,3.571931535092579685e-02,9.666873812675476074e-01,1.940639616486988447e-02,-1.968346029359580029e-03,-9.270443187736883504e-04,-3.105680444254653103e-02,1.506345189143996066e-01,-8.231713622808456421e-02,1.272708982837330964e-02,-1.393427053110493294e-02,2.218339172582145177e-02,1.706840547266395662e-03,-1.507582732419716909e-02,-2.469325125109389507e-03,0.000000000000000000e+00,0.000000000000000000e+00,0.000000000000000000e+00,5.229133150119373852e-01,-0.000000000000000000e+00,5.919879674911499023e-01,-5.752972032234443134e+01,0.000000000000000000e+00
9.730320000000000080e-01,2.398366316366904588e-02,3.926523722051463577e-02,9.651877284049987793e-01,2.050768364217435066e-02,-1.860495748276846939e-03,-8.158316545353837268e-04,-3.584958999195923118e-02,1.488805391314325655e-01,-7.470665872097015381e-02,3.863278145960422072e-02,2.232850675894707676e-02,-2.423111642768248006e-04,-3.610597628699888269e-03,-1.887032430589081003e-02,-2.120321321078810772e-03,0.000000000000000000e+00,0.000000000000000000e+00,0.000000000000000000e+00,5.225707822959103632e-01,-0.000000000000000000e+00,-2.063840627670288086e-01,1.001765404055011146e+02,0.000000000000000000e+00
9.966180000000000039e-01,2.367764612848910141e-02,4.167837613149444342e-02,9.643503427505493164e-01,2.112724602578078259e-02,-1.716691434372696889e-03,-5.937172106155695888e-04,-2.882359212560709968e-02,1.525683398822665349e-01,-7.728467881679534912e-02,2.079824326414775326e-02,1.576854501016687615e-02,3.074602004481529621e-02,-2.493682905745637016e-03,-1.194069787854907042e-02,-1.555068110001833759e-03,0.000000000000000000e+00,0.000000000000000000e+00,0.000000000000000000e+00,5.229293870830481472e-01,-0.000000000000000000e+00,1.133638620376586914e-01,9.878946558885492379e+01,0.000000000000000000e+00
1.022262999999999922e+00,2.311351880432772551e-02,4.542923833106367326e-02,9.630393981933593750e-01,2.171052793847461429e-02,-1.708848136499296899e-03,-5.969621556238536826e-04,-3.793499966045626309e-02,1.568533736158175540e-01,-7.487528771162033081e-02,1.671717529851371800e-02,-1.989033969056980961e-02,8.471353504567053980e-03,-4.924709368006961047e-04,-2.040814939410338230e-02,-1.481325816616030355e-03,0.000000000000000000e+00,0.000000000000000000e+00,0.000000000000000000e+00,5.229592105307303562e-01,-0.000000000000000000e+00,6.314660310745239258e-01,-4.826422720376363174e+01,0.000000000000000000e+00
1.049609999999999932e+00,2.254406997872337656e-02,4.801666038316761143e-02,9.622758030891418457e-01,2.193752330240730797e-02,-1.860805837791135176e-03,-3.146410811890953756e-04,-4.005760594750418235e-02,1.538835162790543609e-01,-7.567238807678222656e-02,8.869688151954734090e-03,-2.666100418254275031e-02,1.828987115071913430e-02,-2.707262222790316787e-03,-2.211899722938633767e-02,-6.741273863754004836e-04,0.000000000000000000e+00,0.000000000000000000e+00,0.000000000000000000e+00,5.231768637890066298e-01,-0.000000000000000000e+00,8.357728719711303711e-01,1.287242449472965404e+02,0.000000000000000000e+00
1.072103000000000028e+00,2.193500458514097834e-02,5.063073736811088410e-02,9.615105986595153809e-01,2.217160790378755811e-02,-2.096941168703958525e-03,-3.552743137791605733e-04,-4.010746240914900285e-02,1.541649529741439817e-01,-7.383620738983154297e-02,-3.228079937702353283e-03,3.920765419862967671e-02,-1.088895996416220507e-02,-1.293114281574506488e-03,-2.383324566320290869e-02,-7.683653482601360274e-04,0.000000000000000000e+00,0.000000000000000000e+00,0.000000000000000000e+00,5.232057585842000424e-01,-0.000000000000000000e+00,6.726325750350952148e-01,1.079098240177621193e+02,0.000000000000000000e+00
1.099229000000000012e+00,2.099655046186699528e-02,5.464122772926191529e-02,9.604411125183105469e-01,2.286865546757134784e-02,-2.355385419040567641e-03,-2.019659902674692572e-04,-3.570525278470555036e-02,1.567734340335600329e-01,-7.509670406579971313e-02,3.353330943336319675e-02,-2.699609694472464294e-02,5.245176716516188227e-03,-7.767586504416803400e-04,-2.266829570751463518e-02,-3.428884300671342089e-04,0.000000000000000000e+00,0.000000000000000000e+00,0.000000000000000000e+00,5.234869645447226549e-01,-0.000000000000000000e+00,-1.940456628799438477e-01,1.067700020490703992e+02,0.000000000000000000e+00
1.127104000000000106e+00,1.998503925425662228e-02,5.872383969943190812e-02,9.593578577041625977e-01,2.306824242738928291e-02,-2.510969477081959056e-03,-1.571395889457141519e-04,-4.515323018767791741e-02,1.589203338571155699e-01,-6.620487570762634277e-02,7.771191142350072044e-03,-1.418939641096326858e-02,8.679597655722419772e-03,2.674863021500522263e-03,-3.239281060379547994e-02,-1.152899282527153346e-04,0.000000000000000000e+00,0.000000000000000000e+00,0.000000000000000000e+00,5.230229139649213987e-01,-0.000000000000000000e+00,-5.474126338958740234e-02,1.365939889089852102e+02,0.000000000000000000e+00
1.148301999999999934e+00,1.957848007916126662e-02,6.004292848148030937e-02,9.590097069740295410e-01,2.318032538330943096e-02,-2.484109116416721719e-03,-9.683114524989295949e-05,-4.360885395946380305e-02,1.551817575004506011e-01,-6.640253216028213501e-02,1.053739296574984254e-02,-2.057516155242410084e-04,9.287717244966440383e-03,2.166475564977302093e-04,-2.998627372373677269e-02,2.849270277760496128e-05,0.000000000000000000e+00,0.000000000000000000e+00,0.000000000000000000e+00,5.231594527561099772e-01,-0.000000000000000000e+00,1.296354532241821289e-01,9.921142784558914229e+01,0.000000000000000000e+00
1.173162999999999956e+00,1.834809072797103160e-02,6.400984889141689282e-02,9.581056833267211914e-01,2.354779886951575973e-02,-2.339496886020864252e-03,-4.858607794858154125e-05,-4.320673076167899640e-02,1.599199434699855871e-01,-7.097783684730529785e-02,1.189520949883713166e-02,6.058009223408441363e-02,6.206739467126529478e-03,5.009991199351416548e-03,-2.976080128695987939e-02,1.708032921094448930e-04,0.000000000000000000e+00,0.000000000000000000e+00,0.000000000000000000e+00,5.236717587903801929e-01,-0.000000000000000000e+00,3.070820569992065430e-01,7.899097382665738110e+01,0.000000000000000000e+00
1.197675000000000045e+00,1.706052897456677639e-02,6.805366931166177691e-02,9.572140574455261230e-01,2.448364548197817098e-02,-1.925502065373896343e-03,-1.496431800224664471e-04,-4.205767957538018159e-02,1.565038068931217941e-01,-7.172957807779312134e-02,4.342117297551855576e-02,-3.114228757420694875e-03,-2.504924076115713077e-03,-1.282231658527424427e-03,-2.710968119631656723e-02,-1.342998453388033475e-04,0.000000000000000000e+00,0.000000000000000000e+00,0.000000000000000000e+00,5.238967558658396140e-01,-0.000000000000000000e+00,3.858391046524047852e-01,7.826122275535487915e+01,0.000000000000000000e+00
1.221953999999999985e+00,1.574460109140295161e-02,7.216302601576836395e-02,9.563536643981933594e-01,2.507016717027210975e-02,-1.361179352133756737e-03,2.045843122045453380e-06,-4.859624361902977613e-02,1.568921128350893590e-01,-6.209927052259445190e-02,6.545340055925855278e-03,7.141554672860666100e-03,9.360547429681436576e-03,-7.602491555832417702e-04,-2.962117139518685022e-02,3.249418216358934686e-04,0.000000000000000000e+00,0.000000000000000000e+00,0.000000000000000000e+00,5.233618068180632132e-01,-0.000000000000000000e+00,3.173387050628662109e-02,3.842121768519616154e+01,0.000000000000000000e+00
1.247185999999999906e+00,1.469124325064940367e-02,7.495633954758039452e-02,9.557914137840270996e-01,2.550931450606567369e-02,-1.085803423939823986e-03,6.686148437893070539e-05,-4.691009748893589654e-02,1.557409582055733210e-01,-6.404060125350952148e-02,2.637930781484634432e-02,1.121217846485051892e-02,1.182953490639365376e-02,-2.204925393190487921e-03,-2.631373253251980890e-02,4.745603321033020627e-04,0.000000000000000000e+00,0.000000000000000000e+00,0.000000000000000000e+00,5.236456481525835205e-01,-0.000000000000000000e+00,-9.190332889556884766e-02,6.798155582805391361e+01,0.000000000000000000e+00
1.271193000000000017e+00,1.308501845378275824e-02,7.916222872811201627e-02,9.550079703330993652e-01,2.637898330403943073e-02,-8.096307001701497086e-04,1.491494576691189974e-04,-4.445825732463547925e-02,1.593523895924535971e-01,-6.346874684095382690e-02,1.674196417727526545e-02,-6.311455883779090378e-03,-9.389880841774501420e-04,-1.559987368097622354e-03,-2.391306020077663824e-02,6.883151662501196810e-04,0.000000000000000000e+00,0.000000000000000000e+00,0.000000000000000000e+00,5.237693480176043304e-01,-0.000000000000000000e+00,-2.476404905319213867e-01,6.857425915366010827e+01,0.000000000000000000e+00
1.297196999999999933e+00,1.200757811458096763e-02,8.198564326222737564e-02,9.545469880104064941e-01,2.721203812289498675e-02,-3.212170315880502613e-04,4.754750516553110748e-05,-5.235002092649391342e-02,1.557005968268777851e-01,-6.226809322834014893e-02,6.248870983605996771e-02,1.074626590096884257e-02,-7.139312327195665615e-03,-7.818589692809078256e-03,-2.804618410261533468e-02,4.547442431903636617e-04,0.000000000000000000e+00,0.000000000000000000e+00,0.000000000000000000e+00,5.238149460282334191e-01,-0.000000000000000000e+00,2.005010843276977539e-01,1.177768314059784274e+02,0.000000000000000000e+00
1.321820999999999913e+00,1.035477889011083598e-02,8.627039595836687169e-02,9.539731740951538086e-01,2.789615994643463923e-02,1.614578446726966376e-04,1.490196494878392335e-04,-4.932847615009703507e-02,1.544807526755993532e-01,-5.983429774641990662e-02,-1.122312080521426642e-02,2.707346313661412613e-03,1.096701071184460509e-02,-9.243947462536105525e-03,-2.255860045946763565e-02,6.816359864674215174e-04,0.000000000000000000e+00,0.000000000000000000e+00,0.000000000000000000e+00,5.237807221722960982e-01,-0.000000000000000000e+00,6.737244129180908203e-02,5.012613335641452039e+01,0.000000000000000000e+00
1.347045999999999966e+00,9.140243898372838946e-03,8.923458871331282904e-02,9.536406397819519043e-01,2.832015705023245913e-02,4.296596772426219957e-04,4.018505858278473698e-04,-5.218592100495179215e-02,1.592603240332133019e-01,-5.691237375140190125e-02,2.793274091947712742e-02,1.562627757237670945e-02,9.982752832675596127e-03,-5.390231202283263592e-03,-2.432121202746325567e-02,1.418037235810187813e-03,0.000000000000000000e+00,0.000000000000000000e+00,0.000000000000000000e+00,5.236972864287459117e-01,-0.000000000000000000e+00,4.332708120346069336e-01,7.987498472036462260e+01,0.000000000000000000e+00
1.373115000000000085e+00,7.315315745406644581e-03,9.369140058605324173e-02,9.532729387283325195e-01,2.891354995408664322e-02,2.067840702049128510e-04,4.650498326384477584e-04,-5.138366726781665866e-02,1.559119897178808667e-01,-5.705354735255241394e-02,2.588489879317803360e-02,-3.373772214421888460e-02,-4.845526120439447651e-03,-9.037792023464011337e-03,-2.597702649994929752e-02,1.618477399314033338e-03,0.000000000000000000e+00,0.000000000000000000e+00,0.000000000000000000e+00,5.238303824614435333e-01,-0.000000000000000000e+00,6.172648668289184570e-01,-1.900471108252075325e+00,0.000000000000000000e+00
1.396146000000000109e+00,6.066939462876993171e-03,9.665231692093936844e-02,9.530172348022460938e-01,2.962608690544410103e-02,7.672890863603676337e-04,4.676370498785023381e-04,-6.197218797118392991e-02,1.535424437507602324e-01,-5.177981778979301453e-02,6.164758155757558977e-02,4.517665768475057075e-02,-1.713733732039435416e-03,-1.222601866534706733e-02,-3.167803247245248865e-02,1.701422923248985253e-03,0.000000000000000000e+00,0.000000000000000000e+00,0.000000000000000000e+00,5.235603604415385304e-01,-0.000000000000000000e+00,-3.179919719696044922e-02,8.345506935496183587e+01,0.000000000000000000e+00
1.421817000000000109e+00,4.230608495490433690e-03,1.011400801785549280e-01,9.526212215423583984e-01,3.014451377307434538e-02,1.087591332707527059e-03,4.621789422816383964e-04,-5.027789648757696045e-02,1.548109390581499933e-01,-5.477005615830421448e-02,-4.186187036656148670e-03,1.183409486973035357e-02,5.063645859253485286e-04,-1.085303639311359196e-02,-2.022206517832124406e-02,1.550014380429842742e-03,0.000000000000000000e+00,0.000000000000000000e+00,0.000000000000000000e+00,5.239057313751582790e-01,-0.000000000000000000e+00,-6.530106067657470703e-02,5.400817382402882316e+01,0.000000000000000000e+00
1.446272000000000002e+00,2.901224069601118262e-03,1.042319143512109303e-01,9.522942900657653809e-01,3.032401764279613054e-02,1.465422466238930355e-03,7.043471196121188450e-04,-5.626664709485276056e-02,1.594679907723591805e-01,-5.485615506768226624e-02,8.016983712805183029e-03,1.508445893425282118e-02,1.133376230605266134e-02,-5.850177424986815512e-03,-2.502444664141029521e-02,2.295136043134471393e-03,0.000000000000000000e+00,0.000000000000000000e+00,0.000000000000000000e+00,5.240414001401826338e-01,-0.000000000000000000e+00,-2.318092584609985352e-01,6.420804706635111359e+01,0.000000000000000000e+00
1.471071000000000017e+00,8.720476402199990118e-04,1.090268629900971453e-01,9.519665837287902832e-01,3.079249082695079132e-02,1.701971585852612989e-03,8.004702996806062430e-04,-5.738484719385712057e-02,1.515360191294053416e-01,-4.964824393391609192e-02,3.377577827562055351e-02,-8.201514494036263314e-03,-1.174928524663790969e-02,-1.177302369032113064e-02,-2.494518766336376731e-02,2.563491534845752096e-03,0.000000000000000000e+00,0.000000000000000000e+00,0.000000000000000000e+00,5.237720932594983614e-01,-0.000000000000000000e+00,8.556469678878784180e-01,-6.541706568152424950e+01,0.000000000000000000e+00
1.496469000000000049e+00,-4.789477850617666465e-04,1.121579036357514131e-01,9.517022967338562012e-01,3.109237531090276035e-02,2.219729665109193562e-03,8.457814069889190052e-04,-6.095192616816956510e-02,1.502907436108640860e-01,-4.925134778022766113e-02,3.143933057142099530e-02,5.765020824459101551e-02,1.810673837078450796e-02,-1.079962393700711551e-02,-2.521519773170052825e-02,2.697988694016717481e-03,0.000000000000000000e+00,0.000000000000000000e+00,0.000000000000000000e+00,5.238578960246326188e-01,-0.000000000000000000e+00,2.295616865158081055e-01,1.603406032190169412e+02,0.000000000000000000e+00
1.522313000000000027e+00,-2.485151755844995213e-03,1.169284417937556803e-01,9.514025449752807617e-01,3.131522609605446456e-02,2.753977810327157272e-03,8.692548392785319489e-04,-5.279806501303146299e-02,1.549806129378191455e-01,-5.007747188210487366e-02,-4.425818229674184819e-03,5.224295304624907224e-03,-1.443080451068171934e-02,-4.695843598990000721e-03,-1.626856359607819699e-02,2.652023627399968664e-03,0.000000000000000000e+00,0.000000000000000000e+00,0.000000000000000000e+00,5.240409864588062572e-01,-0.000000000000000000e+00,-2.733124494552612305e-01,9.508143102053587370e+01,0.000000000000000000e+00
1.547236999999999973e+00,-3.812958868725033722e-03,1.201668893839908936e-01,9.511240720748901367e-01,3.113948968893503685e-02,3.238323746188820351e-03,1.285218446765554971e-03,-5.832850897162637077e-02,1.554488757965788170e-01,-4.774597659707069397e-02,-3.398485160050988222e-03,1.421419674830048767e-02,3.582690868207807217e-02,-8.865486236103144527e-04,-1.952925859475605069e-02,3.861747595626296992e-03,0.000000000000000000e+00,0.000000000000000000e+00,0.000000000000000000e+00,5.239867244451658079e-01,0.000000000000000000e+00,-2.462433576583862305e-01,1.324173145711440895e+02,0.000000000000000000e+00
1.572025999999999923e+00,-5.791954262405494235e-03,1.251998875864019645e-01,9.508286118507385254e-01,3.133734026986377541e-02,3.814871957252830015e-03,1.436887301382017840e-03,-5.957182339364759660e-02,1.474752456169303172e-01,-4.783901944756507874e-02,2.644842613768464898e-02,2.481707117123967132e-02,-1.670923957129218096e-02,-4.517285878348089798e-03,-1.734941095930249769e-02,4.256784606213981359e-03,0.000000000000000000e+00,0.000000000000000000e+00,0.000000000000000000e+00,5.241011991900382805e-01,-0.000000000000000000e+00,1.036183476448059082e+00,9.016441369553684027e+00,0.000000000000000000e+00
1.596702000000000066e+00,-7.072019972474307380e-03,1.284828256045544292e-01,9.505947828292846680e-01,3.155151167999643846e-02,4.176479338115379747e-03,1.672518128775115796e-03,-5.893903948303574891e-02,1.508073014828640868e-01,-4.004136472940444946e-02,1.512831262130160531e-02,2.496354941626286600e-02,3.061649009687398074e-02,1.062899735503199973e-03,-1.533996598491695409e-02,4.894401997912523061e-03,0.000000000000000000e+00,0.000000000000000000e+00,0.000000000000000000e+00,5.236441394579619546e-01,-0.000000000000000000e+00,-1.236466169357299805e-01,1.842710862215053851e+02,0.000000000000000000e+00
1.621286000000000005e+00,-8.995212352922754215e-03,1.334480939032700875e-01,9.503625631332397461e-01,3.213007196724467635e-02,4.879337044018994263e-03,1.671757691854987857e-03,-5.531431524323058430e-02,1.530395116198453587e-01,-4.900761693716049194e-02,1.893533705575266984e-02,2.508171115427432207e-02,-1.863727666027260171e-02,2.087953870680672556e-03,-9.328985764046979906e-03,4.813091896202437159e-03,0.000000000000000000e+00,0.000000000000000000e+00,0.000000000000000000e+00,5.244123835709100234e-01,-0.000000000000000000e+00,-3.566151857376098633e-01,9.887418725531976804e+01,0.000000000000000000e+00
1.646972000000000103e+00,-1.034322165892949223e-02,1.366496331288750421e-01,9.501628875732421875e-01,3.216315310365056718e-02,5.371520010210018015e-03,2.190027161119482979e-03,-6.076629638228225189e-02,1.506355619584426597e-01,-3.828138485550880432e-02,-8.056626612826493436e-03,5.808969456378714098e-03,3.850793942932369956e-02,3.076000895285801832e-03,-1.193370921949785633e-02,6.301775458464331514e-03,0.000000000000000000e+00,0.000000000000000000e+00,0.000000000000000000e+00,5.237311626845538859e-01,-0.000000000000000000e+00,2.227066755294799805e-01,1.061939848756065459e+02,0.000000000000000000e+00
1.671062000000000047e+00,-1.247767632407642720e-02,1.413352918351560294e-01,9.499268531799316406e-01,3.242238309526061790e-02,5.712482575423560860e-03,2.279989565384726510e-03,-6.046425213555414735e-02,1.487357517366882653e-01,-4.175435379147529602e-02,3.513781023715514817e-02,3.247914142641060431e-02,-8.426519211973966528e-03,3.872490153265440403e-03,-1.018119351604794554e-02,6.530807086083167956e-03,0.000000000000000000e+00,0.000000000000000000e+00,0.000000000000000000e+00,5.240903678711580360e-01,-0.000000000000000000e+00,-1.778019666671752930e-01,-7.813462519908870263e+01,0.000000000000000000e+00
1.695190999999999892e+00,-1.390012052367530296e-02,1.443994781111598846e-01,9.497984051704406738e-01,3.271515416032274443e-02,5.719020171846667111e-03,2.492585462718615880e-03,-5.888304668952932391e-02,1.459518734879426405e-01,-3.904889896512031555e-02,4.309652365029460405e-03,-1.077279445931631288e-02,2.205885615189836016e-02,3.007064812929449715e-03,-1.003323753060244433e-02,7.125317185587287661e-03,0.000000000000000000e+00,0.000000000000000000e+00,0.000000000000000000e+00,5.239867179326667124e-01,-0.000000000000000000e+00,-8.009731769561767578e-02,5.806614971937889180e+01,0.000000000000000000e+00
1.722105999999999915e+00,-1.598380863889375947e-02,1.489820043979527553e-01,9.496728777885437012e-01,3.328586786415295429e-02,5.915829613982959145e-03,2.549098658440321005e-03,-6.077839305692670641e-02,1.486705388627008462e-01,-3.856162354350090027e-02,3.510072143082464124e-02,3.447278670573786924e-02,-1.125127127685471295e-02,5.579416229832701718e-03,-1.194868492452355255e-02,7.314976561158925694e-03,0.000000000000000000e+00,0.000000000000000000e+00,0.000000000000000000e+00,5.240545280460201516e-01,-0.000000000000000000e+00,2.524646520614624023e-01,9.776530604356818799e+01,0.000000000000000000e+00
1.746026000000000078e+00,-1.737385701119427764e-02,1.519974770848313839e-01,9.495756626129150391e-01,3.344194341701292594e-02,6.270566048639514278e-03,2.820898392279144132e-03,-5.878491959197252453e-02,1.412660171066110193e-01,-3.489436209201812744e-02,-1.331853869278275433e-02,-4.686475690659355937e-03,3.245177627562638445e-02,1.385708430651561105e-03,-8.904584496440491256e-03,8.031476035844753447e-03,0.000000000000000000e+00,0.000000000000000000e+00,0.000000000000000000e+00,5.238672842025977605e-01,-0.000000000000000000e+00,-8.953416347503662109e-02,1.050917562681065647e+02,0.000000000000000000e+00
1.773061999999999916e+00,-1.992282046889997174e-02,1.571141081331984546e-01,9.494555592536926270e-01,3.354939990512820908e-02,6.771000488037692833e-03,2.842126465060729017e-03,-6.083322993435019699e-02,1.475470753963036286e-01,-3.737009316682815552e-02,2.292903313597917381e-02,3.792110922062384010e-02,-4.150408930243740940e-03,1.060117152343296315e-02,-9.286005155640889019e-03,8.100028207764842225e-03,0.000000000000000000e+00,0.000000000000000000e+00,0.000000000000000000e+00,5.241565704623128985e-01,-0.000000000000000000e+00,2.777775526046752930e-01,1.236386909969801309e+02,0.000000000000000000e+00
1.798227000000000020e+00,-2.160607888266419599e-02,1.604438627013902163e-01,9.493526220321655273e-01,3.349870301053475136e-02,6.751980893892062241e-03,2.897566529581420674e-03,-5.570605304079699616e-02,1.425113672366976891e-01,-3.875271230936050415e-02,-1.459630134453082477e-02,-4.369028748671447554e-02,1.642496667701671270e-02,9.049324428999477518e-03,-6.380427212573276836e-03,8.211814401716255318e-03,0.000000000000000000e+00,0.000000000000000000e+00,0.000000000000000000e+00,5.243424398724061408e-01,-0.000000000000000000e+00,7.263076305389404297e-02,5.045987005963968386e+01,0.000000000000000000e+00
1.822751000000000010e+00,-2.405764306240681244e-02,1.654192147597883522e-01,9.492516517639160156e-01,3.408875986239141842e-02,7.108459866352001555e-03,2.891285911261735724e-03,-6.230770850097776259e-02,1.417058919536923201e-01,-3.289161622524261475e-02,4.490046500596688722e-02,4.957037936032852171e-02,-1.359925704779676482e-02,9.616143301014934072e-03,-1.175689778065496481e-02,8.276764810277503770e-03,0.000000000000000000e+00,0.000000000000000000e+00,0.000000000000000000e+00,5.240114914818027048e-01,-0.000000000000000000e+00,-8.074080944061279297e-02,1.845059217855487645e+02,0.000000000000000000e+00
1.847102999999999939e+00,-2.565276958752365360e-02,1.686434093471132212e-01,9.491156935691833496e-01,3.433939829605301558e-02,7.516294720996130607e-03,2.972065240168505172e-03,-5.321154679303592705e-02,1.371967779591190539e-01,-3.377987816929817200e-02,-6.708836904135992776e-03,1.072137364338445267e-02,2.318013150516817431e-02,7.485550116771364816e-03,-2.287161173996768177e-03,8.361102075455484339e-03,0.000000000000000000e+00,0.000000000000000000e+00,0.000000000000000000e+00,5.241602202661859167e-01,-0.000000000000000000e+00,2.773512601852416992e-01,1.115315318251613803e+02,0.000000000000000000e+00
1.873429000000000011e+00,-2.857298861568809481e-02,1.738428052413509006e-01,9.489717483520507812e-01,3.489359063586484899e-02,8.314903555713737404e-03,2.875991734678949238e-03,-5.788114205869943074e-02,1.429614073656270690e-01,-3.385699167847633362e-02,2.661065277649875965e-02,2.184391775344267025e-02,-7.566329437962291543e-03,1.318305182784948633e-02,-4.073134232285690638e-03,8.120838957079268283e-03,0.000000000000000000e+00,0.000000000000000000e+00,0.000000000000000000e+00,5.242750630395820455e-01,-0.000000000000000000e+00,-2.438775300979614258e-01,6.414960113762332128e+01,0.000000000000000000e+00
1.899250000000000105e+00,-3.048922356572426884e-02,1.772227501106123093e-01,9.488062262535095215e-01,3.501314531311755518e-02,8.562033930780588165e-03,2.996062214319248403e-03,-5.693651245001881550e-02,1.371482760808467316e-01,-3.596441820263862610e-02,1.355785133781630195e-02,-2.012959094215038477e-02,1.442851882823088794e-02,1.002853048396931505e-02,-2.465937344430750491e-03,8.432164448560597325e-03,0.000000000000000000e+00,0.000000000000000000e+00,0.000000000000000000e+00,5.245162960522776752e-01,-0.000000000000000000e+00,5.218875408172607422e-02,1.008653581531077350e+02,0.000000000000000000e+00
1.924009999999999998e+00,-3.328621958849743712e-02,1.822414398897616306e-01,9.485911726951599121e-01,3.574743160046005980e-02,9.150274845705963500e-03,2.913009481112656916e-03,-5.752304071512576167e-02,1.339874893164343939e-01,-2.665617130696773529e-02,3.385625884793981577e-02,4.134001138736297792e-02,-2.479053024137515063e-03,8.164050487631637279e-03,-1.356429047700781617e-03,8.182829709507455362e-03,0.000000000000000000e+00,0.000000000000000000e+00,0.000000000000000000e+00,5.239329849521328075e-01,-0.000000000000000000e+00,-4.297888278961181641e-02,1.361625258591155045e+02,0.000000000000000000e+00
1.947022999999999948e+00,-3.508874557578757492e-02,1.855008242210720859e-01,9.483990669250488281e-01,3.621039104508991940e-02,9.725491902868865779e-03,2.860794898453187553e-03,-5.126605137804813445e-02,1.349975963072668483e-01,-2.894043922424316406e-02,1.679745520347547538e-02,2.427518196887956670e-02,5.388287285127692575e-03,9.272100433018170065e-03,5.986388976132774910e-03,7.920228576932974995e-03,0.000000000000000000e+00,0.000000000000000000e+00,0.000000000000000000e+00,5.241938572690147957e-01,-0.000000000000000000e+00,1.733084917068481445e-01,1.125264718211788022e+02,0.000000000000000000e+00
1.975043000000000104e+00,-3.791284577469243577e-02,1.902566109186475674e-01,9.481003880500793457e-01,3.666406046945729774e-02,1.064667377182582086e-02,2.727813724698209367e-03,-5.550344195647345658e-02,1.366675109063836269e-01,-2.576181106269359589e-02,2.525300829513177706e-02,1.368772552742941566e-02,1.682546272010918605e-03,1.158430518209257500e-02,5.707991717993310572e-03,7.550653863014789025e-03,0.000000000000000000e+00,0.000000000000000000e+00,0.000000000000000000e+00,5.240691136812564155e-01,-0.000000000000000000e+00,4.858791828155517578e-02,9.562512090865806158e+01,0.000000000000000000e+00
1.998586999999999891e+00,-3.978548124167831379e-02,1.933843165420071619e-01,9.478572010993957520e-01,3.652632280791481140e-02,1.125582749076059486e-02,2.906628764954016439e-03,-5.841653564035609314e-02,1.302743041464094753e-01,-3.045087121427059174e-02,-2.123274239368017242e-03,-5.386281566814026846e-03,8.009956986121544165e-03,9.975126235267106969e-03,6.651297829806945838e-03,8.037016379800254740e-03,0.000000000000000000e+00,0.000000000000000000e+00,0.000000000000000000e+00,5.245009478585901386e-01,-0.000000000000000000e+00,-1.422170400619506836e-01,5.982680856286809501e+01,0.000000000000000000e+00
2.021335000000000104e+00,-4.244151602637682985e-02,1.979767227056679901e-01,9.475176334381103516e-01,3.681319503968965429e-02,1.155675982991888340e-02,2.715010494829141110e-03,-5.573414347825703802e-02,1.297221126866981711e-01,-2.139019221067428589e-02,2.839279977710796807e-02,2.837887548913631958e-02,-6.398295781271289874e-03,1.289539393681683570e-02,9.012484990722316111e-03,7.460381614190048083e-03,0.000000000000000000e+00,0.000000000000000000e+00,0.000000000000000000e+00,5.239433074167632043e-01,-0.000000000000000000e+00,-2.087455987930297852e-01,1.286468998851352978e+02,0.000000000000000000e+00
2.047528999999999932e+00,-4.419536613565903937e-02,2.009612435107730188e-01,9.473538398742675781e-01,3.715548666930926225e-02,1.171577552054281490e-02,2.410872895552662078e-03,-4.778507270947437990e-02,1.274569241896779115e-01,-2.581765688955783844e-02,8.948323387826129932e-03,-3.346698406894783873e-02,-2.194214552730952214e-02,1.158863451273658626e-02,1.447503171764709558e-02,6.517795817650773316e-03,0.000000000000000000e+00,0.000000000000000000e+00,0.000000000000000000e+00,5.243495970525693384e-01,-0.000000000000000000e+00,4.085730314254760742e-01,2.857173997748468963e+01,0.000000000000000000e+00
2.074734999999999996e+00,-4.661659623226514781e-02,2.054165126152606713e-01,9.471301436424255371e-01,3.770823470255823401e-02,1.199917840470954289e-02,2.220187866075554791e-03,-5.820688699423802459e-02,1.269430435129250412e-01,-2.199078351259231567e-02,2.372318099502817787e-02,1.734934344372214207e-02,6.707643883844657297e-03,1.189863990283701774e-02,5.176468679794233099e-03,6.134724287484127903e-03,0.000000000000000000e+00,0.000000000000000000e+00,0.000000000000000000e+00,5.241701655615110811e-01,-0.000000000000000000e+00,3.874806165695190430e-01,1.358069462109246501e+02,0.000000000000000000e+00
2.097677000000000014e+00,-4.820237465048977238e-02,2.083533042452043182e-01,9.469535350799560547e-01,3.755762266902978180e-02,1.212844937960433356e-02,2.157017272276049152e-03,-5.270433820025149235e-02,1.195108622865550946e-01,-2.345084398984909058e-02,1.725660203204006310e-03,-1.787278303439859828e-02,-3.074467694801357939e-03,9.919868779360161565e-03,1.048725209839257433e-02,5.870641927564868023e-03,0.000000000000000000e+00,0.000000000000000000e+00,0.000000000000000000e+00,5.243512953451942016e-01,-0.000000000000000000e+00,2.789417505264282227e-01,1.027327182118108766e+02,0.000000000000000000e+00
2.124521000000000104e+00,-5.045397195628018028e-02,2.126996372061812912e-01,9.467208385467529297e-01,3.735944408571000019e-02,1.221081174876292863e-02,1.913324345717956317e-03,-5.036455757771696184e-02,1.259927432021371307e-01,-2.906227856874465942e-02,-4.238286318013072956e-02,1.168261970905907707e-02,-1.129573854563453196e-02,2.067684838307801143e-02,1.040674938388322715e-02,5.186553750950118058e-03,0.000000000000000000e+00,0.000000000000000000e+00,0.000000000000000000e+00,5.248723990032396758e-01,-0.000000000000000000e+00,3.649145364761352539e-01,8.789158457939775815e+01,0.000000000000000000e+00
2.145903999999999812e+00,-5.191412980924459825e-02,2.155121058721997940e-01,9.465082883834838867e-01,3.750893521902079475e-02,1.195067867535981598e-02,1.670069963845228827e-03,-4.795061588841880579e-02,1.192764535614448396e-01,-2.154789492487907410e-02,2.364278925624535913e-02,-3.550184068776855023e-02,-3.098160248697262240e-02,1.675656774911133198e-02,8.873374703091315915e-03,4.531206407709320594e-03,0.000000000000000000e+00,0.000000000000000000e+00,0.000000000000000000e+00,5.244038563183913704e-01,-0.000000000000000000e+00,-4.882353544235229492e-01,1.164048103262629468e+02,0.000000000000000000e+00
2.174565999999999999e+00,-5.389771429907784517e-02,2.195505934569353390e-01,9.462448954582214355e-01,3.756503734152333296e-02,1.205348439319009479e-02,1.412109312043311263e-03,-5.241185080585232525e-02,1.184060463286316367e-01,-2.884221076965332031e-02,-1.092296844250220146e-02,1.879872361249311855e-02,1.681901123977588147e-02,1.976017068992414957e-02,4.240646618972986406e-03,3.885365392940876017e-03,0.000000000000000000e+00,0.000000000000000000e+00,0.000000000000000000e+00,5.250400036017244254e-01,-0.000000000000000000e+00,-4.570413827896118164e-01,1.962131392305174131e+02,0.000000000000000000e+00
2.201264999999999805e+00,-5.510728786311584748e-02,2.221521439047113855e-01,9.460152983665466309e-01,3.770124870096527858e-02,1.221996638131694901e-02,1.198941826439525347e-03,-4.836108527720876793e-02,1.147927336602898030e-01,-2.316588349640369415e-02,8.123546611386226954e-03,1.725622263698576089e-02,-2.334152187990822316e-02,1.915357780848235894e-02,7.887779538635017809e-03,3.226339522224674905e-03,0.000000000000000000e+00,0.000000000000000000e+00,0.000000000000000000e+00,5.247138743983248421e-01,-0.000000000000000000e+00,2.755485773086547852e-01,9.503980784773381174e+01,0.000000000000000000e+00
2.222367999999999899e+00,-5.629259361830761532e-02,2.247297819505522376e-01,9.457996487617492676e-01,3.775566212097058311e-02,1.224692022559015214e-02,1.007125101048620850e-03,-4.365651969854466435e-02,1.193451114638831856e-01,-2.203700691461563110e-02,8.672362108485936680e-03,-7.834365604417015821e-03,-2.087344084758542551e-02,2.556004355308189729e-02,1.003891029175870732e-02,2.650265999176781850e-03,0.000000000000000000e+00,0.000000000000000000e+00,0.000000000000000000e+00,5.247309810007895203e-01,-0.000000000000000000e+00,1.146084070205688477e-01,9.141243781351261077e+01,0.000000000000000000e+00
2.248099999999999987e+00,-5.800531901083032238e-02,2.284842595385967179e-01,9.454849362373352051e-01,3.784498329199897926e-02,1.234565322588654368e-02,6.940729484582229894e-04,-4.845841907942737004e-02,1.126004847333007264e-01,-2.523350343108177185e-02,4.603278475472482277e-03,1.346635591373806715e-02,-2.677949311600510626e-02,2.224740599063178628e-02,4.872311686491008834e-03,1.861800457431783684e-03,0.000000000000000000e+00,0.000000000000000000e+00,0.000000000000000000e+00,5.250573668608112810e-01,-0.000000000000000000e+00,3.139353990554809570e-01,-2.748747818259642983e+01,0.000000000000000000e+00
2.274324000000000012e+00,-5.974491828896930090e-02,2.322211597017888596e-01,9.451941251754760742e-01,3.845109701722240064e-02,1.190103622307114861e-02,4.420039227908620100e-04,-4.398609053607416969e-02,1.105816880499384675e-01,-1.547243073582649231e-02,1.479985563667523402e-02,-2.365829300589466014e-02,1.113702581413593233e-02,2.160185731083116498e-02,4.530623848375925182e-03,1.160245206729304535e-03,0.000000000000000000e+00,0.000000000000000000e+00,0.000000000000000000e+00,5.244385378239061479e-01,-0.000000000000000000e+00,6.591814756393432617e-01,-1.378338150924096839e+00,0.000000000000000000e+00
2.298594000000000026e+00,-6.101659722125878788e-02,2.347258764889299243e-01,9.449592232704162598e-01,3.889011004616212130e-02,1.229866599096496316e-02,1.027027568820040865e-04,-4.297043613852778027e-02,1.124736823912826783e-01,-2.852326259016990662e-02,2.034758216818293233e-02,1.596823805962043624e-02,-2.707206668126456786e-02,2.232810141677168264e-02,6.279400753424526846e-03,1.778905817657605581e-04,0.000000000000000000e+00,0.000000000000000000e+00,0.000000000000000000e+00,5.254903292360986189e-01,-0.000000000000000000e+00,5.105298757553100586e-01,1.254653977697433618e+02,0.000000000000000000e+00
2.322960000000000136e+00,-6.282081230622316159e-02,2.384881572741406330e-01,9.445299506187438965e-01,3.908414573831928140e-02,1.260121251264201270e-02,-1.957266589510408303e-04,-4.264991498803487324e-02,1.075189074882989260e-01,-1.883699186146259308e-02,-2.757296341536034923e-02,-1.212984716027217490e-02,2.333621163066231657e-03,2.087419263233213085e-02,6.686080746584551621e-03,-6.657346127260654889e-04,0.000000000000000000e+00,0.000000000000000000e+00,0.000000000000000000e+00,5.248860138323051538e-01,-0.000000000000000000e+00,1.260989904403686523e-01,9.310461718038327206e+01,0.000000000000000000e+00
2.348145999999999844e+00,-6.397402480421045257e-02,2.408994203610532736e-01,9.442428350448608398e-01,3.902744571910349985e-02,1.281797171762399934e-02,-3.316187343549541742e-04,-4.051642759697694773e-02,1.070385605382069422e-01,-1.721336692571640015e-02,9.914859681271769726e-03,2.160758555486931576e-02,-9.653029897298824255e-03,2.422859620212091877e-02,8.606141994819137969e-03,-1.080973845156263380e-03,0.000000000000000000e+00,0.000000000000000000e+00,0.000000000000000000e+00,5.248622652160331858e-01,-0.000000000000000000e+00,4.659532308578491211e-01,-6.163704774954242538e+01,0.000000000000000000e+00
2.376323999999999881e+00,-6.507714408331591316e-02,2.433019855118418173e-01,9.440137147903442383e-01,3.913442583711762568e-02,1.272760533777694825e-02,-4.022742030483988322e-04,-4.035353091872545539e-02,1.067348771033283794e-01,-2.311264723539352417e-02,1.528867999542064468e-02,9.374569552558493016e-03,7.125037304458372439e-03,2.557324825023913825e-02,6.912221714660327955e-03,-1.249752905193801666e-03,0.000000000000000000e+00,0.000000000000000000e+00,0.000000000000000000e+00,5.253860569679350556e-01,-0.000000000000000000e+00,-2.275592088699340820e-01,-1.259659413528785876e+02,0.000000000000000000e+00
2.396215000000000206e+00,-6.575555577335251423e-02,2.454045658270594676e-01,9.437540769577026367e-01,3.930158791833252702e-02,1.273652723526219610e-02,-8.085351606928090854e-04,-3.275011751867114990e-02,9.947538134122510534e-02,-2.596575766801834106e-02,-5.324434120684860827e-03,-8.844545595057288698e-03,-2.913121388764864511e-02,2.107546056168137921e-02,1.204935557428299907e-02,-2.478283623819466097e-03,0.000000000000000000e+00,0.000000000000000000e+00,0.000000000000000000e+00,5.256774044933193446e-01,-0.000000000000000000e+00,-1.328217983245849609e-02,8.049627921783650208e+01,0.000000000000000000e+00
2.420507000000000186e+00,-6.669822497502389536e-02,2.485157222209062322e-01,9.433822035789489746e-01,3.951039728270291929e-02,1.303099935003637633e-02,-1.064694315317492529e-03,-3.930355743975832983e-02,9.730579090747966398e-02,-1.522743515670299530e-02,-2.523983762483303014e-02,-1.295918428990029334e-02,6.355184940142100287e-03,2.265176523813121345e-02,6.650065519215684479e-03,-3.101837982605493149e-03,0.000000000000000000e+00,0.000000000000000000e+00,0.000000000000000000e+00,5.250006434898635277e-01,-0.000000000000000000e+00,3.971067667007446289e-01,9.858001783795648976e+01,0.000000000000000000e+00
