timestamp,x,y,z,roll,pitch,yaw,vx,vy,vz,p,q,r,psp,qsp,rsp,pres,qres,rres,thrust_sp, thrust_res
0.000000000000000000e+00,-2.574844298376550294e-02,-2.787301416433816525e-03,9.966724514961242676e-01,1.147654400657461757e-02,9.690209798274285191e-04,5.009378587576884811e-03,3.504485403569861449e-03,-2.241132837625568405e-02,3.411879763007164001e-03,5.285714537638713795e-02,-4.193414780770683692e-02,-1.019198133765703701e-02,-3.092273824856698328e-01,1.668780141853931365e-01,6.307324486930253327e-02,-2.147658205645511242e-01,1.739606110565788122e-01,4.903429216123826595e-02,5.258635948702313767e-01,7.494790554046630859e-01,-6.517571210861206055e-01,7.845395703335429971e+01,0.000000000000000000e+00
2.703799999999999953e-02,-2.544461178437341237e-02,-4.127685640037109978e-03,9.970706105232238770e-01,1.153283492103344791e-02,8.811962835024722551e-04,4.877877237770444907e-03,1.402644569030611285e-02,-1.941679099764318309e-02,8.563770912587642670e-03,-1.497840658153205134e-02,5.647927101955540867e-03,-4.581665936549594864e-02,1.258474815177481054e-01,2.256855743474459608e-01,-1.599432496869414577e-01,2.159335226996573487e-01,2.251995198804427056e-01,-1.736002327310140481e-01,5.255308713054328562e-01,7.536478042602539062e-01,4.551814794540405273e-01,1.847432571988283598e+02,0.000000000000000000e+00
4.935799999999999910e-02,-2.532618232996059274e-02,-5.021112466764224812e-03,9.972662925720214844e-01,1.125104041991235523e-02,8.286901559406700812e-04,4.931790947461545116e-03,1.508247558378172579e-02,-1.744351589405174555e-02,-5.189478863030672073e-03,-2.464236687847033702e-02,-1.802100052792873427e-02,2.340039791827627433e-02,-2.145038219302546345e-01,1.838411630856572609e-01,-1.249599669570999882e-01,-1.268064625146852198e-01,1.843362749507641840e-01,-1.387698369437633805e-01,5.264814021114706533e-01,7.514396905899047852e-01,4.232736825942993164e-01,6.196871490544907601e+01,0.000000000000000000e+00
7.553899999999999504e-02,-2.528279125726439272e-02,-5.904081966497455244e-03,9.974092245101928711e-01,1.102451950028434866e-02,9.234600647956003883e-04,5.290286741636007761e-03,2.770906130100804759e-03,-1.635201883568226933e-02,6.183149293065071106e-03,3.905127069167752679e-03,-1.831389373966473347e-02,1.107328216276099939e-02,-2.681211996755689664e-01,1.695913689387677781e-01,4.603567040858483339e-02,-1.818592056474414298e-01,1.796362492841960534e-01,3.120402873605157557e-02,5.255834009327373657e-01,7.481775283813476562e-01,-3.170120716094970703e-02,9.310269789722650557e+01,0.000000000000000000e+00
9.870199999999999807e-02,-2.534006607655125282e-02,-7.194387252351169479e-03,9.976068735122680664e-01,1.142198295133326630e-02,-1.626196521464118305e-03,7.067829561408611738e-03,7.925967548471985619e-03,-2.263931913846371768e-02,1.577393151819705963e-03,-5.150954372063780949e-03,-1.405636981587828349e-01,1.093353473571325937e-02,-2.628565717677040503e-01,1.020045755391251197e-01,-1.224617976225025190e-02,-1.678424470988476025e-01,1.227513776820256253e-01,-3.207265457137561254e-02,5.258279454064145320e-01,7.440164089202880859e-01,2.105265855789184570e-01,9.725709898818422516e+01,0.000000000000000000e+00
1.239620000000000027e-01,-2.542886867120590713e-02,-8.010103101120470692e-03,9.976711869239807129e-01,1.096274543523660314e-02,-4.300253716480018085e-03,8.369701685601915742e-03,4.841965029168663302e-03,-1.537286655882984590e-02,-4.424261394888162613e-03,-3.905101683996092810e-02,-1.523640326559621838e-01,5.790102918303798724e-02,-2.645301517798122615e-01,1.115288688909720355e-01,-9.989503452649117765e-02,-1.787128140337031490e-01,1.529784130130932007e-01,-1.234078295678417425e-01,5.263213988300621260e-01,7.471175193786621094e-01,-1.827093362808227539e-01,-1.411482770852796875e+02,0.000000000000000000e+00
1.487130000000000118e-01,-2.544605891878542678e-02,-8.828911946967252927e-03,9.974547028541564941e-01,7.290379310062222035e-03,-8.942061886253238612e-03,8.871933949786248164e-03,-3.968830585020054549e-03,-4.988795440266951230e-03,-1.591888442635536194e-02,-1.200505343885871906e-01,-1.567068251063498674e-01,-5.891112785792964983e-03,-2.491165301116003705e-01,-2.634121011497373571e-02,-1.743765770035476670e-01,-1.939182601189486377e-01,5.198153668348075990e-02,-1.993204367146700073e-01,5.269568822342720615e-01,7.345421314239501953e-01,-7.028472423553466797e-02,1.021955306637785412e+02,0.000000000000000000e+00
1.730440000000000034e-01,-2.530765972174787992e-02,-8.876275599446989753e-03,9.971091151237487793e-01,2.684042999739948143e-03,-1.187784025858773518e-02,9.662957202834610015e-03,-2.230668319732105696e-03,-7.830575113206911719e-04,-3.234000131487846375e-02,-2.513826417720159134e-01,-1.305682799966200736e-01,6.850709158854988157e-02,-2.060917834894936962e-01,9.700844075373148134e-02,-1.848425478528993304e-01,-1.825910744804540298e-01,1.917114542892016105e-01,-2.119343449924920852e-01,5.284637336532661545e-01,7.488055229187011719e-01,2.077019214630126953e-02,1.023846176207611762e+02,0.000000000000000000e+00
1.981259999999999966e-01,-2.517220350898145831e-02,-8.730475940263908094e-03,9.962453842163085938e-01,-5.549673774922578122e-03,-1.548608669772866264e-02,1.191821597934383803e-02,-7.700737448448170125e-03,7.907486466149525259e-03,-3.965298831462860107e-02,-2.998684044625749556e-01,-8.360698652841845602e-02,9.840791964640015210e-02,-1.109564575823913102e-01,1.014984332037861536e-01,-1.120489523210277394e-02,-1.473769928635147164e-01,2.014984332037861592e-01,-4.443002119800909533e-02,5.288552536532128423e-01,7.357006072998046875e-01,-2.574189901351928711e-01,8.764315693890605985e+01,0.000000000000000000e+00
2.242959999999999954e-01,-2.515170324577461342e-02,-8.575735381801674606e-03,9.955264329910278320e-01,-1.167257758481837077e-02,-1.758686838661649432e-02,1.394994151340944732e-02,-4.013960562967563094e-04,1.139950593568912762e-02,-4.118921235203742981e-02,-2.919004587949287632e-01,-1.153064809758161668e-01,8.714206895620808802e-02,9.921033052084561599e-02,9.665205056579054266e-02,1.578198240480460368e-01,2.148958629599241263e-02,1.966520505657905482e-01,1.190795358904484791e-01,5.287426309571945371e-01,7.184052467346191406e-01,2.389808893203735352e-01,1.039901355474427191e+02,0.000000000000000000e+00
2.504449999999999732e-01,-2.522422663081129446e-02,-8.148770484555955748e-03,9.943329691886901855e-01,-1.966979076624097295e-02,-1.979182888446540112e-02,1.657829321206327755e-02,-1.945085898955237896e-02,1.240633019601544706e-02,-4.225662723183631897e-02,-2.604240590584975812e-01,-7.237122429392231493e-02,5.060983411180083880e-02,2.724139382796337827e-01,9.122229555504135501e-02,2.631655099824624644e-01,1.724139382796337772e-01,1.912222955550413606e-01,2.174165279651792682e-01,5.287979884947857645e-01,7.099382877349853516e-01,3.596414327621459961e-01,7.085136909086149615e+01,0.000000000000000000e+00
2.778789999999999871e-01,-2.517666170784617005e-02,-8.344903288910571551e-03,9.930600523948669434e-01,-2.466266295499734695e-02,-2.279623979603306871e-02,1.726968660516581267e-02,-4.414810969716224769e-03,1.825011539079733625e-02,-5.410104990005493164e-02,-1.227737382554884848e-01,-1.427539853815343873e-01,3.720505235752644829e-02,2.949418140470411176e-01,-3.118427028526479239e-01,2.702837369114194921e-01,1.949418140470411120e-01,-2.118427028526479461e-01,2.227747641691233127e-01,5.296532994815299489e-01,7.019944190979003906e-01,1.378844976425170898e-01,1.033909025609899857e+02,0.000000000000000000e+00
3.013149999999999995e-01,-2.517929885905940621e-02,-8.398317857674917827e-03,9.921677708625793457e-01,-2.556666821113285845e-02,-2.509075028899299120e-02,1.597470041147008857e-02,-2.470176955001165617e-02,1.488845822452813938e-02,-4.397793859243392944e-02,2.992345751704365495e-02,-1.667522936233636621e-01,-1.195090328360627757e-01,1.882180721580784533e-01,-3.051946094033984314e-01,2.576829468587359395e-01,8.821807215807843383e-02,-2.051946094033984258e-01,2.140317550283228620e-01,5.290342263608657225e-01,7.018020153045654297e-01,-1.685798168182373047e-02,9.688100828191581115e+01,0.000000000000000000e+00
3.233460000000000223e-01,-2.530141766314567692e-02,-8.458366659848566560e-03,9.912879467010498047e-01,-2.407582210893590910e-02,-2.719098060632263447e-02,1.429438686334982833e-02,-2.107514417393808667e-02,1.621354546584442141e-02,-5.707414448261260986e-02,1.388160174631142552e-01,-7.298817572287928657e-02,-8.771263829950746993e-02,-2.973587013080675190e-03,5.598576651749098687e-02,1.928259977789528179e-01,-1.029735870130806807e-01,1.559857665174909924e-01,1.538452772449308004e-01,5.303550637183703786e-01,7.156707048416137695e-01,1.597702503204345703e-02,1.048624804780475728e+02,0.000000000000000000e+00
3.489599999999999924e-01,-2.548517333696890055e-02,-8.439442906606085468e-03,9.898536205291748047e-01,-1.816678116530693818e-02,-2.814054772309115826e-02,1.072289406089588226e-02,-1.304768238059475158e-02,1.820342016091864093e-02,-5.908776074647903442e-02,2.301190390685876053e-01,7.328380995716214652e-02,-1.361946085183814714e-01,8.786148688517569916e-03,9.933763188761551843e-02,-5.820047469587569244e-02,-9.121385131148243564e-02,1.993376318876155240e-01,-8.745400903829614325e-02,5.302527478652820925e-01,6.930465698242187500e-01,-5.058362483978271484e-01,1.108277218123265868e+02,0.000000000000000000e+00
3.743719999999999826e-01,-2.554798097563619474e-02,-8.231672193564019621e-03,9.887114763259887695e-01,-1.332852959378906521e-02,-2.553439215150454800e-02,8.343632529997035974e-03,-1.982649178362760542e-02,2.894853206405263377e-02,-6.571248918771743774e-02,2.597920278931207805e-01,1.527632059098306683e-01,-8.929739546289608421e-02,1.050898597857298500e-01,1.143657935378807888e-01,-1.011657376589098212e-01,5.089859785729840963e-03,2.143657935378807944e-01,-1.240574218556501351e-01,5.308630441491305474e-01,6.918427944183349609e-01,3.340820074081420898e-01,2.444362486954775870e-01,0.000000000000000000e+00
3.991629999999999900e-01,-2.590083077658795682e-02,-7.625085121753132945e-03,9.867671728134155273e-01,-7.488523097216767156e-03,-2.102786716039029002e-02,5.729145672472180095e-03,-3.165698316020128245e-02,4.056156359744907819e-02,-8.020988106727600098e-02,1.668184932373562857e-01,1.252869928732434079e-01,-4.878055504321726632e-02,1.805106496007646832e-01,1.190002194912312405e-01,-1.051148422122428483e-01,1.089253245451976132e-01,2.190002194912312461e-01,-1.210052727416085216e-01,5.324934649710372225e-01,7.115194797515869141e-01,-8.444726467132568359e-02,9.920692675092610102e+01,0.000000000000000000e+00
4.271340000000000137e-01,-2.665641278142955733e-02,-6.653452506625485291e-03,9.847099781036376953e-01,-3.636979891866334077e-03,-1.947287844154210745e-02,5.939378332110223369e-03,-4.171687738795051142e-02,4.375520577128094724e-02,-7.611309736967086792e-02,1.166240504680087636e-01,3.712513672340999899e-03,-1.803496698723557057e-02,-1.586676070413740591e-01,8.433285254298877875e-02,-1.520724865012132443e-03,-2.068499680719756983e-01,1.843328525429887843e-01,-1.815554985149846201e-02,5.327586804905330986e-01,7.294387817382812500e-01,2.770553827285766602e-01,1.138714316914026909e+02,0.000000000000000000e+00
4.494679999999999787e-01,-2.737609609259941679e-02,-5.931284232891183977e-03,9.833125472068786621e-01,-1.352621946159279862e-03,-2.054704668966333969e-02,6.887339220405186424e-03,-4.682449023439354263e-02,5.208858602530047621e-02,-8.198668062686920166e-02,1.159203392475625372e-01,-8.630305052500664154e-02,9.792407556716298256e-02,-7.522275030535140183e-02,6.995552435189189566e-02,1.877263126700245699e-01,-1.152433192835078113e-01,1.699555243518919012e-01,1.683061840901227402e-01,5.334219372109255675e-01,7.321183681488037109e-01,1.152140498161315918e+00,-9.496876021998734529e+01,0.000000000000000000e+00
4.751799999999999913e-01,-2.775006894892913939e-02,-5.422171957419937537e-03,9.819543361663818359e-01,1.379226953900917997e-03,-2.246412673626752010e-02,7.261180494929408979e-03,-5.590950190888656357e-02,5.128639369087639038e-02,-8.144333958625793457e-02,1.469436678518808159e-01,-1.233562043319329227e-01,-3.236411556931646089e-02,-5.415739204747462010e-02,-8.912079610632435422e-02,1.872241537181877913e-01,-7.508179603169448657e-02,1.087920389367565653e-02,1.666328598085140000e-01,5.331956295398496692e-01,7.113331556320190430e-01,3.067504167556762695e-01,6.479765631626329991e+01,0.000000000000000000e+00
4.988110000000000044e-01,-2.842981109041494217e-02,-4.525359109485892206e-03,9.796875715255737305e-01,2.701581078900942845e-03,-2.534880476765577484e-02,6.899242185826937046e-03,-5.011268682141996333e-02,5.517230012972983155e-02,-8.691591024398803711e-02,-6.405076718119173673e-02,-6.797247801747580143e-02,-5.652999131975536273e-02,-7.152315721017771244e-02,-3.157574183245316912e-01,2.397551370910601942e-01,-8.763360832761757369e-02,-2.157574183245316857e-01,2.200711339096171060e-01,5.332342646843671874e-01,6.775956153869628906e-01,1.646398305892944336e-01,1.126711420579888490e+00,0.000000000000000000e+00
5.229669999999999597e-01,-2.893258700861201654e-02,-3.795115343072991837e-03,9.780014753341674805e-01,2.591814254509674197e-03,-2.677899516290294102e-02,5.273540155221301262e-03,-4.480749193647071832e-02,6.598327438919637800e-02,-9.965593367815017700e-02,-1.249054266091019104e-03,-6.475217027595478458e-02,-1.109147509714569213e-01,-1.653531110981189545e-01,-2.974401079673462123e-01,2.195752219745234768e-01,-1.906071022178559005e-01,-1.974401079673462345e-01,2.043751843054899264e-01,5.346176075815352036e-01,6.906318664550781250e-01,5.751490592956542969e-03,9.928589739810979609e+01,0.000000000000000000e+00
5.495050000000000212e-01,-2.976886082292237723e-02,-2.521354664724051366e-03,9.753021001815795898e-01,5.537925975312610154e-04,-2.672164980335534068e-02,2.139448749747252521e-03,-5.892513677155991614e-02,6.400476501213689384e-02,-1.060709804296493530e-01,-9.912097067605066258e-02,3.919760096027274932e-02,-1.176684924100067642e-01,-1.784084383879963875e-01,1.210369913703263911e-01,-1.709635431962879537e-01,-2.147300226017363201e-01,2.210369913703263967e-01,-1.772922099418988984e-01,5.360812639705128113e-01,7.286022901535034180e-01,-6.760394573211669922e-02,4.269374689784925891e+01,0.000000000000000000e+00
5.763519999999999754e-01,-3.110653178850035852e-02,-1.391177692246861565e-03,9.721554517745971680e-01,-2.656248173773842914e-03,-2.227416077942723227e-02,-1.437798744851503940e-03,-5.836781849333056577e-02,6.580584091282065673e-02,-1.168318688869476318e-01,-1.102209400078343060e-01,2.231111311700987032e-01,-1.040196023323764762e-01,-1.659818930170198492e-01,1.214632574464634962e-01,9.343252073458219176e-02,-2.255780758149117937e-01,2.214632574464635018e-01,9.728831508303453779e-02,5.374456851464090024e-01,7.418750524520874023e-01,1.042932271957397461e-01,1.154704814289402321e+02,0.000000000000000000e+00
5.986719999999999819e-01,-3.222321790076454473e-02,-5.518986165072377239e-04,9.699754714965820312e-01,-5.055572662901343557e-03,-1.831113320054567062e-02,-2.539524981470364651e-03,-5.825008479536306766e-02,7.150568952312008619e-02,-1.114906296133995056e-01,-1.411026053519330581e-01,1.739055921673322014e-01,-4.634033221090125276e-02,-1.408698476541849764e-01,1.221128986344671707e-01,1.029886388437308287e-01,-2.209810260459644238e-01,2.221128986344671763e-01,1.100132098803652814e-01,5.372615528605692026e-01,7.369737625122070312e-01,-2.384506464004516602e-01,1.117968573536597034e+02,0.000000000000000000e+00
6.247850000000000348e-01,-3.352658755619587760e-02,3.715692478525619126e-04,9.677792191505432129e-01,-7.228264138155958765e-03,-1.522975564766060330e-02,-2.643313512187939196e-03,-6.549938686964482115e-02,7.789503524119818778e-02,-1.229489669203758240e-01,-8.550704184859839185e-02,1.069288477563797579e-01,-2.748217783770751706e-03,-1.236708282079110183e-01,1.217213240053671153e-01,1.250309297167983835e-01,-2.227005478312381048e-01,2.217213240053671208e-01,1.324038028293889890e-01,5.384804324514717022e-01,7.424986362457275391e-01,-1.541298627853393555e-01,9.424991013060018474e+01,0.000000000000000000e+00
6.506100000000000216e-01,-3.566521086089563530e-02,1.945900202872485494e-03,9.647109508514404297e-01,-1.069113886678252009e-02,-1.377548096724057203e-02,-4.035422299530910806e-03,-8.222049529873126650e-02,8.224339772403761739e-02,-1.154755204916000366e-01,-9.603821504763283834e-02,1.957244846854414369e-02,-2.914940670727490454e-02,2.425809313974570669e-01,1.202682032129230028e-01,1.668628551222365031e-01,1.425809313974570613e-01,2.202682032129230083e-01,1.782388872979875083e-01,5.378441935236675242e-01,7.165799140930175781e-01,-2.332580089569091797e-02,9.836019502970879103e+01,0.000000000000000000e+00
6.764539999999999997e-01,-3.715992381677916956e-02,2.966870498285475305e-03,9.626592993736267090e-01,-1.368558861826279539e-02,-1.490982266026041891e-02,-5.664230426794647499e-03,-7.400243083092615526e-02,8.250219661127862480e-02,-1.211019232869148254e-01,-1.901041525968946155e-01,-7.807586148835499174e-02,-1.003010784911756298e-01,3.126813070407026274e-01,1.134149351518878301e-01,1.783071430213853670e-01,2.126813070407025941e-01,2.134149351518878357e-01,1.943512433070322676e-01,5.386648201954723492e-01,7.240481376647949219e-01,-7.644273042678833008e-01,1.055458272441290148e+02,0.000000000000000000e+00
6.991100000000000092e-01,-3.942472156657704507e-02,4.574444599215268109e-03,9.596003890037536621e-01,-1.762403958258567521e-02,-1.800058243284219373e-02,-7.664700335542562470e-03,-9.017205613916852436e-02,9.058341153659195399e-02,-1.191671565175056458e-01,-1.358396054101329575e-01,-1.015400273499540151e-01,-5.078515137065964247e-02,3.036477516974477320e-01,-1.582306289332557347e-01,1.970787197871292085e-01,2.036477516974477542e-01,-5.823062893325571532e-02,2.188859695921981374e-01,5.385429657392536429e-01,7.041320800781250000e-01,-7.995645403861999512e-01,1.195354275323382893e+02,0.000000000000000000e+00
7.256409999999999805e-01,-4.105755849017326403e-02,5.780834843996191831e-03,9.576205015182495117e-01,-1.747657234894108361e-02,-2.116779235823695871e-02,-9.621508912931453494e-03,-8.336435214045916087e-02,8.901289609695113569e-02,-1.023147404193878174e-01,7.306669415028357872e-02,-1.704470098724211180e-01,-1.158269251520337578e-01,1.983142152541770842e-01,-2.600918861852200559e-01,1.705553794706168302e-01,9.831421525417707863e-02,-1.600918861852200226e-01,1.978673551415977561e-01,5.376033956009296233e-01,7.038469314575195312e-01,6.246507167816162109e-02,7.872333286403043928e+01,0.000000000000000000e+00
7.487669999999999604e-01,-4.363272290648796681e-02,7.531744743967128293e-03,9.548853039741516113e-01,-1.314815739722661851e-02,-2.550105749715525505e-02,-1.306293172436445715e-02,-9.542243452516474544e-02,7.990691901581011003e-02,-9.477075189352035522e-02,2.062304008059856475e-01,-1.504085973101046414e-01,-1.471649658736966237e-01,2.086509957646908719e-01,-2.368541167483299847e-01,1.279735460197748143e-01,1.086509957646908525e-01,-1.368541167483299792e-01,1.647936630482713938e-01,5.372847935150132370e-01,6.978752613067626953e-01,8.447301387786865234e-02,7.649008640167888018e+01,0.000000000000000000e+00
7.747190000000000465e-01,-4.539268613321071483e-02,8.401302582039523598e-03,9.530399441719055176e-01,-8.528423966777776144e-03,-2.605958548957243437e-02,-1.532252864058136765e-02,-8.215137601527158773e-02,8.769095948236155236e-02,-1.036004573106765747e-01,2.703144017542000732e-01,5.276377553746333139e-03,-9.358798696097439529e-02,2.470864234053961328e-02,9.203751487132813547e-02,-5.162153398068970028e-02,-7.529135765946039227e-02,1.920375148713281410e-01,-8.801688527415814367e-03,5.383101438301141073e-01,7.051644325256347656e-01,6.124840974807739258e-01,-4.316094293613553567e+00,0.000000000000000000e+00
8.006889999999999841e-01,-4.811068255169033414e-02,9.512619663204106152e-03,9.503623843193054199e-01,3.453579190171694469e-05,-2.241857261849222738e-02,-1.914459741215446265e-02,-9.205211638235179239e-02,9.218839775917017643e-02,-1.063886061310768127e-01,2.849085186089447275e-01,1.854002634570894315e-01,-1.370689473725302809e-01,2.340208280914079508e-01,1.150093554055997835e-01,7.998464881543643212e-02,1.665834544659397509e-01,2.150093554055997891e-01,1.330377071947836942e-01,5.392421100966625636e-01,7.269072532653808594e-01,-1.009932756423950195e-01,-7.773972415184607598e+01,0.000000000000000000e+00
8.262220000000000120e-01,-4.995142782485521155e-02,1.038496126197926625e-02,9.484752416610717773e-01,5.048018454565112584e-03,-1.840884654627883421e-02,-2.052833908228168802e-02,-9.723128061968545899e-02,9.532595664613996433e-02,-1.107779517769813538e-01,2.153155507348937792e-01,2.049448267484238195e-01,-5.537408186242587932e-03,2.618380057362185709e-01,1.204702139816334894e-01,-1.570006515362578070e-01,2.246606989424580481e-01,2.204702139816334949e-01,-1.002796467196597069e-01,5.403624306524100751e-01,7.559686899185180664e-01,1.304064989089965820e-01,1.017252584790448253e+02,0.000000000000000000e+00
8.495030000000000081e-01,-5.298137133646621533e-02,1.186336554540337422e-02,9.456827640533447266e-01,1.142609989001033138e-02,-1.413648855127691562e-02,-2.210952598420412585e-02,-1.015625461406956392e-01,9.700806842115419770e-02,-1.052888408303260803e-01,2.096531243349204210e-01,1.090307037863431638e-01,-3.520512705927687780e-02,2.868263074709384575e-02,1.220237108677798277e-01,9.683592060579251926e-02,3.112333705860621455e-02,2.220237108677798332e-01,1.577760882676115528e-01,5.401685835904117550e-01,7.475765943527221680e-01,2.012103796005249023e-01,1.006421134200858631e+02,0.000000000000000000e+00
8.756110000000000282e-01,-5.518155309745168685e-02,1.291134276753272934e-02,9.439495205879211426e-01,1.575189506678912471e-02,-1.385447584226184858e-02,-2.319880986447619975e-02,-1.065506479532918466e-01,8.963968213818877817e-02,-8.735143393278121948e-02,2.086480891562582374e-01,-7.498371012360896537e-02,-7.361234951248965541e-02,-2.253781212004219159e-01,1.569815102628907555e-02,1.128660845391044054e-01,-1.899205082131886491e-01,1.156981510262890811e-01,1.766813974711299862e-01,5.386280242932968143e-01,7.187976837158203125e-01,-5.571615695953369141e-02,9.602336874859399529e+01,0.000000000000000000e+00
8.995450000000000390e-01,-5.816931462085411092e-02,1.517940097277180843e-02,9.415547847747802734e-01,2.278115074142781152e-02,-1.555019274385349703e-02,-2.394884405667174754e-02,-1.127386392192408632e-01,8.990381522646927193e-02,-8.989221602678298950e-02,1.987448213108130857e-01,-1.015471511352480094e-01,-5.074455060691271391e-02,-2.646554332030203183e-01,-1.743221478849627804e-01,1.060427496649392620e-01,-1.862895039736681968e-01,-7.432214788496277480e-02,1.715055317814465630e-01,5.389407028013915024e-01,7.088215351104736328e-01,1.773802042007446289e-01,8.647951810057848832e+01,0.000000000000000000e+00
9.248330000000000162e-01,-6.023023484028270508e-02,1.670100392054081270e-02,9.399840235710144043e-01,2.624495260432634092e-02,-1.726352957293353363e-02,-2.527429119813517922e-02,-1.176246272381971381e-01,9.507324532798713812e-02,-9.434474259614944458e-02,1.644127194691392124e-01,-1.172463055211334648e-01,-6.068254899855108492e-02,-2.577617479181019133e-01,-2.617232455123814083e-01,7.568784766441991052e-02,-1.619081742327034834e-01,-1.617232455123814028e-01,1.445306199623410393e-01,5.394031073381455599e-01,7.025618553161621094e-01,-3.818953037261962891e-02,9.721971736285674126e+01,0.000000000000000000e+00
9.513669999999999627e-01,-6.338800034101881031e-02,1.912774379807601066e-02,9.374899268150329590e-01,2.626598958732462991e-02,-1.803837771189265027e-02,-2.767466979781207925e-02,-1.255371768308520541e-01,9.658182514305747868e-02,-1.018177345395088196e-01,-9.343718041173479372e-02,4.749474879206749822e-02,-8.627595107618962755e-02,-2.769796416610605383e-01,8.126473360145544667e-02,-1.972735155613893343e-01,-1.827780834742382121e-01,1.812647336014554522e-01,-1.218331737485943839e-01,5.403919079623890065e-01,7.094025611877441406e-01,5.292059183120727539e-01,4.219638789041455951e+00,0.000000000000000000e+00
9.759740000000000082e-01,-6.547407223805984389e-02,2.088457262486948310e-02,9.357270598411560059e-01,2.313317012513959811e-02,-1.689327979035515348e-02,-2.915094939699525156e-02,-1.105140085802434335e-01,1.077463949099214113e-01,-1.171129718422889709e-01,-2.183002560203597398e-01,1.180007093099697812e-01,-7.652796908996301051e-02,-2.344557415309315718e-01,1.176193901587777313e-01,-1.955550305317905468e-01,-1.702212956164796398e-01,2.176193901587777368e-01,-1.157440359055349199e-01,5.418582129058374663e-01,7.147955894470214844e-01,8.657205104827880859e-02,9.945112650432156443e+01,0.000000000000000000e+00
1.000296000000000074e+00,-6.924000311925747331e-02,2.394113552656249033e-02,9.329434633255004883e-01,1.627757895933007459e-02,-1.258244731385116388e-02,-3.018741214118203509e-02,-1.159460232666393448e-01,1.046188488227077357e-01,-1.068591475486755371e-01,-2.151131556312767812e-01,1.402873579664888903e-01,1.802723363624864766e-02,-1.756837858930754559e-01,1.242342866005953783e-01,-1.877762014172940641e-01,-1.539123534254877856e-01,2.242342866005953839e-01,-1.045919591990587122e-01,5.415811181697858245e-01,7.197418212890625000e-01,-1.655730009078979492e-01,1.496666841124445000e+02,0.000000000000000000e+00
1.026143999999999945e+00,-7.182933859709633717e-02,2.600448502352757998e-02,9.312026500701904297e-01,1.104716806895974547e-02,-9.803815046261821209e-03,-2.973797614151685309e-02,-1.310368966379960032e-01,1.005466077700898492e-01,-1.002211198210716248e-01,-2.533878753731838573e-01,1.460682661614745026e-01,2.506417520698081200e-02,-1.169747481805740452e-01,1.240948957193673263e-01,-1.810918341379986751e-01,-1.278326546792357965e-01,2.240948957193673319e-01,-9.889629574878827656e-02,5.412538557466924916e-01,7.116849422454833984e-01,1.649345159530639648e-01,8.505157826212811756e+01,0.000000000000000000e+00
1.052318000000000087e+00,-7.455720657557607378e-02,2.801971653189197498e-02,9.295600652694702148e-01,6.327694793388557136e-03,-8.535561665012014743e-03,-2.847218932832173977e-02,-1.290489719267724211e-01,1.019709491804637186e-01,-1.010968685150146484e-01,-2.125059619651083753e-01,5.071172538178565781e-02,9.506981294032468277e-02,-2.297317560937095493e-02,1.138170309392087520e-01,-1.791482036748286433e-01,-6.783346120236397048e-02,2.138170309392087576e-01,-1.002677716892458881e-01,5.413507921944752388e-01,6.985160112380981445e-01,1.311758756637573242e-01,8.951841269628974374e+01,0.000000000000000000e+00
1.078522999999999898e+00,-7.881647864451357677e-02,3.111681222750012007e-02,9.274786114692687988e-01,7.599419825755513933e-04,-9.261577655131914000e-03,-2.630322149553077082e-02,-1.405320741397016182e-01,1.026837516285066670e-01,-8.241447806358337402e-02,-1.476336578163345847e-01,-2.098697144137847553e-02,1.197462203561261707e-01,1.582381260991698180e-01,9.433863031158071233e-02,-2.382476080937469542e-01,7.428400399540052712e-02,1.943386303115807179e-01,-1.652807855269688431e-01,5.401811070197147790e-01,6.903712749481201172e-01,1.960054636001586914e-01,1.025104228750836484e+02,0.000000000000000000e+00
1.101266000000000078e+00,-8.153216555795464449e-02,3.328643248462295756e-02,9.262496232986450195e-01,-2.775266725812422074e-03,-1.145819831588390514e-02,-2.477431841167243576e-02,-1.359242927848113847e-01,1.086587347871347115e-01,-7.601415365934371948e-02,-1.563446167948615295e-01,-1.473762433625267210e-01,3.146488110321377096e-02,2.579709747014725663e-01,-2.276826069190585888e-01,4.145160552212331928e-02,1.579709747014725885e-01,-1.276826069190585833e-01,1.102248192240049829e-01,5.396956870776962178e-01,6.762604713439941406e-01,4.283653497695922852e-01,6.155611000787777698e+01,0.000000000000000000e+00
1.124673000000000034e+00,-8.573569246904397256e-02,3.660028378505722491e-02,9.246771931648254395e-01,-6.466400887357982852e-03,-1.521058511973949479e-02,-2.189071541895626360e-02,-1.516201762296791877e-01,1.058509644904661040e-01,-5.619790405035018921e-02,-1.102005200043872785e-01,-1.398272099092696119e-01,8.237667550421896856e-02,2.671513271396480649e-01,-2.825119078077995560e-01,1.253707842979022713e-01,1.671513271396480316e-01,-1.825119078077995227e-01,1.861740511726530656e-01,5.387769200039239648e-01,6.896502971649169922e-01,2.537275552749633789e-01,8.401612158395418817e+01,0.000000000000000000e+00
1.155254000000000003e+00,-9.007311510182298975e-02,3.990673881103404264e-02,9.233844280242919922e-01,-6.475764426582884641e-03,-1.891070474512579480e-02,-1.958903166367220727e-02,-1.376129718076163078e-01,1.076647947133385907e-01,-5.646547302603721619e-02,6.183879929699939715e-02,-1.072029807159955855e-01,2.735651523990760559e-02,2.397766477607368718e-01,-3.062815475185102776e-01,8.504374849331461372e-02,1.397766477607368663e-01,-2.062815475185102720e-01,1.393380456240859433e-01,5.394308061787738140e-01,7.136082649230957031e-01,2.061196565628051758e-01,6.999983574665766639e+01,0.000000000000000000e+00
1.177218000000000098e+00,-9.147836842029587190e-02,4.100004437635076243e-02,9.229851365089416504e-01,-5.361730185620379625e-03,-1.923215530854260891e-02,-1.946271061123772128e-02,-1.532555024243213992e-01,1.075091333954922984e-01,-5.224369466304779053e-02,1.585621809478630628e-01,-6.243534282964949278e-02,-1.225575621440096359e-02,1.718590363230781126e-01,-2.453901869125227897e-01,-2.200606577891478510e-02,7.185903632307810707e-02,-1.453901869125227841e-01,3.181917483912888311e-02,5.385923323726236056e-01,6.745634078979492188e-01,-5.203737020492553711e-01,6.927252134534155559e+00,0.000000000000000000e+00
1.199713999999999947e+00,-9.423020547384590440e-02,4.310090998613017033e-02,9.221946001052856445e-01,-2.449850064747031032e-03,-1.811006961203665000e-02,-2.014628454161759841e-02,-1.432533338769583775e-01,9.922142902880952409e-02,-6.330025196075439453e-02,1.569745645011080826e-01,1.072198942840779934e-01,-4.199670659693179042e-02,3.141990673055765626e-01,1.181390192269528017e-01,-1.627730865379868885e-01,2.141990673055765848e-01,2.181390192269528072e-01,-1.071305145083480959e-01,5.407459028011142310e-01,7.410755157470703125e-01,2.185839414596557617e-01,9.025786946640282338e+01,0.000000000000000000e+00
1.224939000000000000e+00,-9.806449458201234315e-02,4.646088929735651962e-02,9.210283756256103516e-01,4.371361359727275568e-03,-1.262346336101316524e-02,-2.150088799001204087e-02,-1.330038023897946731e-01,1.042900642892429924e-01,-5.392301827669143677e-02,2.678068254521625002e-01,2.159570021601209533e-01,1.605119258691331194e-02,3.018392166180028924e-01,1.205441215817916745e-01,-2.313653572877213682e-01,2.267987078212273244e-01,2.205441215817916800e-01,-1.722456820699493074e-01,5.405432832406116272e-01,7.554874420166015625e-01,8.342683315277099609e-02,9.675273732930297399e+01,0.000000000000000000e+00
1.249297000000000102e+00,-1.019306105322122791e-01,4.987958553871231493e-02,9.199116826057434082e-01,1.204727702053342425e-02,-4.206469638112775300e-03,-2.205308252998050556e-02,-1.458631626950258053e-01,1.089170316476282541e-01,-5.541681125760078430e-02,3.027328080653403641e-01,2.805074311818435695e-01,-2.274041962245523449e-02,2.587741948027237893e-01,1.222524372088937827e-01,4.107203930858932539e-02,2.288399400558923658e-01,2.222524372088937883e-01,1.015408937216705776e-01,5.408799480287815875e-01,7.558102607727050781e-01,4.374989271163940430e-01,1.067842634840573766e+02,0.000000000000000000e+00
1.275138000000000105e+00,-1.059855454501737321e-01,5.323765858039156834e-02,9.189553856849670410e-01,2.103040466934686867e-02,1.446942387779648342e-03,-2.037677913016189279e-02,-1.420788358498473181e-01,1.003688706526806862e-01,-4.261834919452667236e-02,3.325700602750873980e-01,1.054601185968136734e-01,3.039747225882961923e-02,-2.382808102783781079e-01,1.293592166510487418e-01,9.986168562804828563e-02,-2.054410875222576205e-01,2.293592166510487473e-01,1.555754654716237917e-01,5.399417382969259327e-01,7.445609569549560547e-01,4.964421987533569336e-01,6.995332898859903992e+01,0.000000000000000000e+00
1.298462999999999923e+00,-1.087328429841756539e-01,5.518614877611217884e-02,9.184642434120178223e-01,2.798364024490437169e-02,2.711594132729366891e-03,-1.887423645551900009e-02,-1.453322782239130639e-01,9.479122438426622332e-02,-4.211887717247009277e-02,3.151517305692292381e-01,3.687686486159304916e-02,6.606267425586735687e-02,-2.983640162513417349e-01,1.296669285195412857e-01,1.295112074189822271e-01,-2.189780280334863161e-01,2.296669285195412913e-01,1.808021730729597321e-01,5.400085747099526712e-01,7.417638301849365234e-01,2.122315168380737305e-01,8.549713199225556082e+01,0.000000000000000000e+00
1.323434999999999917e+00,-1.127251495169308976e-01,5.762791593047735667e-02,9.178577065467834473e-01,3.797002547508292886e-02,1.860727454549460091e-03,-1.874800499896611683e-02,-1.527971778479143006e-01,8.959614090183798396e-02,-4.587129130959510803e-02,2.560845334361874226e-01,-8.839046020219179511e-02,1.494448736339612982e-03,-3.167390854249611531e-01,5.460402360212590622e-02,1.376372503006559611e-01,-2.167390854249611476e-01,1.546040236021259118e-01,1.880667162583599394e-01,5.401233580143837143e-01,7.239030599594116211e-01,-1.104546785354614258e-01,1.063137590728918838e+02,0.000000000000000000e+00
1.350579999999999892e+00,-1.167418803549545997e-01,6.014917657861913042e-02,9.171473979949951172e-01,4.144463672260692566e-02,-1.184615749176831656e-04,-1.997705939869076630e-02,-1.441818075259699294e-01,9.833234931473651408e-02,-4.771589487791061401e-02,1.566768105072640152e-02,-6.451582286368945374e-02,-4.444319554221871221e-02,-2.559330999438298448e-01,-2.563334978109125251e-01,-1.433440789925308212e-01,-1.559330999438298393e-01,-1.563334978109124918e-01,-8.976919821995311966e-02,5.400646483285522770e-01,7.039334774017333984e-01,3.767656087875366211e-01,6.799184209294395487e+01,0.000000000000000000e+00
1.373542999999999958e+00,-1.194031441510519792e-01,6.188936309983385925e-02,9.165930747985839844e-01,3.946229358438159418e-02,-1.694521918341962419e-03,-2.112720399547463046e-02,-1.468187780899820605e-01,9.835128978678937817e-02,-5.640995129942893982e-02,-1.805597792864540863e-01,-9.473340398550054997e-02,-6.804502831643874372e-02,-1.278539998830974245e-01,-1.895650401541799090e-01,-2.410340749909233304e-01,-2.785399988309741198e-02,-8.956504015417991738e-02,-1.843513023938904705e-01,5.401006224208996231e-01,6.619489192962646484e-01,2.032691240310668945e-01,9.142111898394770719e+01,0.000000000000000000e+00
1.401995000000000102e+00,-1.235222930347792680e-01,6.490783684358353289e-02,9.155622124671936035e-01,3.233990667727777713e-02,-3.716632273250697338e-03,-2.155815339204214531e-02,-1.416368635629094985e-01,9.980929853793818474e-02,-5.427114665508270264e-02,-2.863213893181593139e-01,4.417843448727483413e-03,4.353552591601782262e-02,-1.795069883238050168e-01,5.505755930312453139e-02,-1.527863381784140273e-01,-8.312295056185271813e-02,1.550575593031245369e-01,-9.473989493322619582e-02,5.403049568476611109e-01,6.706523895263671875e-01,3.235892057418823242e-01,1.064915352366089678e+02,0.000000000000000000e+00
1.426296000000000008e+00,-1.263484853415690057e-01,6.693783293741041585e-02,9.148436188697814941e-01,2.612293745353667235e-02,-3.409990396926021461e-03,-2.054552966422340532e-02,-1.360844466084720761e-01,9.749717108827209155e-02,-5.343162268400192261e-02,-3.293659405851602218e-01,3.712068733450236968e-02,4.091196102313413713e-02,-1.247042709953483097e-01,9.495417421429758198e-02,-1.445965373968378098e-01,-6.862372021434566538e-02,1.949541742142975875e-01,-8.906660452838500996e-02,5.403947656631905572e-01,6.692851781845092773e-01,1.895748376846313477e-01,9.192650517120445386e+01,0.000000000000000000e+00
1.449179999999999913e+00,-1.304673483131749689e-01,6.984219620386500349e-02,9.138902425765991211e-01,1.828805648613764795e-02,-4.952600365786263836e-04,-1.799680125958458277e-02,-1.468513096411267760e-01,7.994357310149213802e-02,-4.772388562560081482e-02,-2.665461025607676060e-01,8.822161780679640963e-02,6.729719448726990960e-02,-4.133715032949228374e-02,1.124498770177558282e-01,-1.160661024433246175e-01,-2.542282087871638660e-02,2.124498770177558338e-01,-6.719309615167264049e-02,5.402281974922511498e-01,6.715874671936035156e-01,2.881444692611694336e-01,1.057821654497897867e+02,0.000000000000000000e+00
1.476261000000000045e+00,-1.332309592413938870e-01,7.169859380011800454e-02,9.134871959686279297e-01,1.464919414853560649e-02,1.155705110671201297e-03,-1.617447084828915749e-02,-1.371829745098587794e-01,8.783841968193581429e-02,-3.987283259630203247e-02,-1.587605120074500886e-01,1.021058516544104122e-01,8.926468203682608182e-02,-1.607319526556857392e-01,1.213364898812354375e-01,-1.701419695337530735e-01,-1.791255904462830950e-01,2.213364898812354431e-01,-1.261623889945851784e-01,5.407717535556276767e-01,7.249462604522705078e-01,2.218604087829589844e-03,9.249311034399202924e+01,0.000000000000000000e+00
1.498359999999999914e+00,-1.360461359619922483e-01,7.346907156648846415e-02,9.131531715393066406e-01,1.154522714017629584e-02,1.334433191689354814e-03,-1.478351492143992196e-02,-1.350803943425053777e-01,8.162955620350276220e-02,-2.904116921126842499e-02,-1.450489723093343064e-01,-6.378346565808841462e-02,4.676731742531228114e-02,1.097945916398326283e-01,-7.970102578504847934e-03,-2.050279999066024206e-01,7.513584310734848504e-02,9.202989742149515762e-02,-1.648018573997031000e-01,5.401053585779731492e-01,7.235635519027709961e-01,2.630985975265502930e-01,9.490497991351776363e+01,0.000000000000000000e+00
1.525811000000000028e+00,-1.404886263566366977e-01,7.648074006475941156e-02,9.127735495567321777e-01,7.936713090490880168e-03,-5.025295521465800164e-05,-1.231191688256072503e-02,-1.555153909170395587e-01,7.851999213800843480e-02,-2.673974819481372833e-02,-1.247850948993120407e-01,-6.252829760192492314e-02,7.865849324486864913e-02,1.218987604532632829e-01,-2.236417688993380670e-03,-1.538373636525365851e-01,6.275351344815566224e-02,9.776358231100662488e-02,-1.205461656004679777e-01,5.394428445102934511e-01,6.868485212326049805e-01,-9.367668628692626953e-02,9.639472613376759114e+01,0.000000000000000000e+00
1.553566000000000003e+00,-1.450508667823700304e-01,7.951175984564946841e-02,9.125145673751831055e-01,4.951962476947736370e-03,-3.166973697615871330e-03,-9.065706738730083813e-03,-1.458026874866380218e-01,8.745065729603124227e-02,-2.381442673504352570e-02,-1.142998004583462429e-01,-9.052472401242499245e-02,9.386296553261472275e-02,2.034520169017892954e-01,-1.568215085738404735e-01,-1.066793250396911030e-01,1.145192276939474008e-01,-5.682150857384048181e-02,-8.247566630444155833e-02,5.393854611168766855e-01,6.887420415878295898e-01,2.529394626617431641e-02,1.055345984131335086e+02,0.000000000000000000e+00
1.577679000000000054e+00,-1.480434751847993224e-01,8.148372157076701205e-02,9.123496413230895996e-01,4.507215473178307480e-03,-4.973869775608541488e-03,-6.681682035825531329e-03,-1.486745958301027015e-01,8.466581117456070671e-02,-1.990261301398277283e-02,2.481708722689572946e-02,-9.039517525480647575e-02,1.578868979119882054e-01,2.065682074230790755e-01,-2.616332902825750373e-01,-1.510987877176782901e-01,1.159766904190463327e-01,-1.616332902825750317e-01,-1.336257861284515791e-01,5.392444079969678228e-01,6.898250579833984375e-01,1.280537843704223633e-01,8.966996776378314848e+01,0.000000000000000000e+00
1.600862999999999925e+00,-1.510260304881683724e-01,8.342817970047880505e-02,9.123038053512573242e-01,5.274581536226450804e-03,-5.930261787433055432e-03,-5.073500636580074996e-03,-1.491590881591570161e-01,7.604982089333184314e-02,-1.163538917899131775e-02,5.175437968746517819e-02,-5.092124088280250427e-02,3.420042075825242139e-02,1.456367533973839667e-01,-2.784012716857420799e-01,-6.153415072672983183e-02,6.414827250900156930e-02,-1.784012716857420744e-01,-4.861493864747899046e-02,5.385669677051748705e-01,6.797072887420654297e-01,-4.759776592254638672e-02,5.479642546557248295e+01,0.000000000000000000e+00
1.624360999999999944e+00,-1.541317744552375968e-01,8.510460787323362308e-02,9.122136235237121582e-01,6.974645910130364106e-03,-5.914746185393449096e-03,-3.037388333089641179e-03,-1.395524397618093382e-01,8.567195764455476370e-02,-2.077382430434226990e-02,9.591702126381315696e-02,5.210701407425676057e-02,1.282419343809921286e-01,9.127304211176273663e-03,1.038375455714326545e-01,-2.125003556601360588e-01,-7.162541525883377169e-02,2.038375455714326601e-01,-2.054306951547208160e-01,5.401093125798651640e-01,7.233557701110839844e-01,-4.051653146743774414e-01,2.579467726851130038e+01,0.000000000000000000e+00
1.651496000000000075e+00,-1.587366765656186562e-01,8.763392958457438819e-02,9.120771884918212891e-01,1.132700412382954547e-02,-2.939893384831027134e-03,-1.892933587082090696e-04,-1.409516839498005103e-01,8.129470176950129301e-02,-1.653383113443851471e-02,2.143419592784335526e-01,1.583674827787228123e-01,1.008289064371791638e-01,2.038863979877464094e-01,1.212428208286526199e-01,-2.036586555515251251e-01,1.535320946759693717e-01,2.212428208286526254e-01,-2.046917547764453005e-01,5.403448105578689820e-01,7.469786405563354492e-01,1.318064928054809570e-01,9.335821527407667020e+01,0.000000000000000000e+00
1.679831999999999992e+00,-1.631743220936835714e-01,9.014799289214664446e-02,9.119467139244079590e-01,1.585625369129751300e-02,2.578893587463548798e-03,2.176559456120275016e-03,-1.350688871573602345e-01,8.006240779671727759e-02,-1.981806196272373199e-02,1.473819767820152837e-01,1.964269426115516914e-01,5.308934303055817816e-02,2.148547996138671645e-01,1.215559585162085676e-01,-1.967286970448467454e-01,1.919001954632043039e-01,2.215559585162085732e-01,-2.043483815385746527e-01,5.406636492483882783e-01,7.458434104919433594e-01,3.006492853164672852e-01,9.398144954527282380e+01,0.000000000000000000e+00
1.702379000000000087e+00,-1.661496358642176596e-01,9.183054602678866751e-02,9.119076728820800781e-01,1.881481729354874538e-02,5.541354593692204844e-03,4.709684429494709335e-03,-1.362504316888780986e-01,7.866923950309975822e-02,-1.209697872400283813e-02,1.375711978002986668e-01,1.223565491149063295e-01,1.378918575419093850e-01,-1.915202900553450716e-01,1.177221674043237298e-01,-2.135064505915522659e-01,-1.965857093421218005e-01,2.177221674043237354e-01,-2.282313252066169307e-01,5.401487803864774007e-01,7.420592308044433594e-01,1.040385961532592773e-01,9.519930642523195274e+01,0.000000000000000000e+00
1.725176999999999961e+00,-1.705116248367057052e-01,9.393085166627296312e-02,9.120960831642150879e-01,2.431131893008230127e-02,6.650923343842096713e-03,8.642555599658097165e-03,-1.506978639749173843e-01,7.435561682143995710e-02,-1.252037007361650467e-02,1.894343599098382847e-01,1.972652575046869236e-02,1.522084384400080315e-01,-2.581987330750252219e-01,1.133284122869655797e-01,-1.446917844422659361e-01,-2.270288937726656631e-01,2.133284122869655852e-01,-1.707050404620867878e-01,5.404190367088138602e-01,7.497284412384033203e-01,2.748032808303833008e-01,-4.242031393480613843e+01,0.000000000000000000e+00
1.749298999999999937e+00,-1.749390459298514333e-01,9.589643647699086504e-02,9.124708175659179688e-01,3.039206485684531334e-02,4.593825183827560110e-03,1.289283532172813551e-02,-1.432261044883851864e-01,6.525002400272969516e-02,-8.176518604159355164e-03,1.633823211027601863e-01,-9.019122096843672221e-02,1.830364106160411175e-01,-2.827504397754446175e-01,-1.834179833223801015e-01,-1.156870665295914868e-01,-2.082258861231316427e-01,-8.341798332238009595e-02,-1.539193492927176110e-01,5.392343607946545880e-01,6.984374523162841797e-01,4.874289035797119141e-02,1.812301493992323174e+02,0.000000000000000000e+00
1.773827000000000043e+00,-1.778688208360575396e-01,9.722533176252665110e-02,9.127504825592041016e-01,3.209451596255091799e-02,3.136788836562320881e-03,1.559208295208414086e-02,-1.466284640217463686e-01,7.198341951096606794e-02,6.915908306837081909e-04,2.997151871448301350e-02,-5.038341480791402177e-02,7.959711743752952151e-02,-2.369005729949833772e-01,-3.042066254459715458e-01,-1.143305588198099965e-01,-1.599648458264504858e-01,-2.042066254459715124e-01,-1.604284736567389291e-01,5.385283662512242442e-01,6.899505853652954102e-01,2.388056516647338867e-01,9.520723627485833163e+01,0.000000000000000000e+00
1.799973000000000045e+00,-1.821975586743666553e-01,9.930606845267370142e-02,9.130390286445617676e-01,2.939726349252008361e-02,1.189449559314326166e-03,1.939144063371300852e-02,-1.350166905804850714e-01,7.372651722418410714e-02,-1.145171839743852615e-02,-1.887958959855607077e-01,-6.724318573461687820e-02,9.244696639997163068e-02,-1.119515007390512323e-01,-1.497095743011104541e-01,-5.602645323524808874e-02,-5.500293712603206847e-02,-4.970957430111045544e-02,-1.127119261998803107e-01,5.385454458286207391e-01,6.396665573120117188e-01,1.271494626998901367e-01,9.942695446484889032e+01,0.000000000000000000e+00
1.824076000000000031e+00,-1.850746620743757009e-01,1.009650566003916783e-01,9.131311774253845215e-01,2.508588185911050233e-02,1.868658895345820525e-03,2.189986008695532504e-02,-1.416885075482873790e-01,7.918938928540739108e-02,-1.672864332795143127e-02,-2.020906411631113453e-01,8.098334366976839283e-02,1.420762036705359999e-01,-7.843288892032238002e-02,1.114269431214693351e-01,6.082480700501834842e-02,-5.552622525438472012e-02,2.114269431214693407e-01,-2.760284626106728097e-03,5.388241947907644880e-01,6.281576156616210938e-01,4.607058763504028320e-01,8.920119139047766055e+01,0.000000000000000000e+00
1.849226000000000036e+00,-1.892123569644492131e-01,1.033805589748763021e-01,9.132200479507446289e-01,1.693174892921887192e-02,5.641141378226688374e-03,2.476449822730231176e-02,-1.235802582237284647e-01,7.940585546999330557e-02,-1.671793684363365173e-02,-2.637204213927747398e-01,1.717500798027755959e-01,3.392508465912018323e-02,-1.395901478725968814e-01,1.178799199375916151e-01,-2.263303203814036324e-02,-1.715556465249015727e-01,2.178799199375916207e-01,-9.354968256031113982e-02,5.405804622821985816e-01,7.220063209533691406e-01,2.605277299880981445e-01,9.327015364510769757e+01,0.000000000000000000e+00
1.874976999999999894e+00,-1.918558552204385759e-01,1.048882088999655571e-01,9.133914113044738770e-01,1.247978937553571518e-02,8.789639736881849075e-03,2.620212386444409347e-02,-1.273333008607105965e-01,7.035611814519897311e-02,-1.918745972216129303e-02,-2.497384943182240358e-01,1.458822461798431336e-01,9.749462441831284465e-02,-1.451791844431967460e-01,1.169968336972693201e-01,-2.895314022585435132e-02,-2.010122724529017635e-01,2.169968336972693257e-01,-1.035810255692656556e-01,5.411004489539026352e-01,7.360619306564331055e-01,1.962629556655883789e-01,9.108197960108905988e+01,0.000000000000000000e+00
1.897820999999999980e+00,-1.944700973176221037e-01,1.062952656049875738e-01,9.137123227119445801e-01,9.771380103749021176e-03,1.051201616700492281e-02,2.688415208453487359e-02,-1.248434672410538293e-01,6.687401467202307159e-02,-3.322837641462683678e-03,-7.268837497871984132e-02,4.520587060876864183e-02,1.858264327408622879e-02,-1.292594990340356631e-01,1.179833988946463186e-01,-2.079938710736560503e-02,-2.033597181724290104e-01,2.179833988946463241e-01,-9.716576643787470935e-02,5.400709327800782278e-01,7.381916046142578125e-01,-1.889585256576538086e-01,1.878999384067764922e+01,0.000000000000000000e+00
1.923521999999999954e+00,-1.985668061500074910e-01,1.085880483295141169e-01,9.142877459526062012e-01,6.211496095693694666e-03,1.010393974461654132e-02,2.843293694115756054e-02,-1.276609540756395156e-01,6.691696144479598873e-02,-2.951599657535552979e-03,-1.150655943675242404e-01,-7.449965672271291472e-02,3.295504658147107441e-02,2.090280017387096678e-01,3.932228931865239252e-02,1.626902861949867107e-01,1.090280017387096761e-01,1.393222893186523981e-01,8.205544872088965658e-02,5.397444723851839710e-01,7.185680866241455078e-01,1.666891574859619141e-02,9.713738626260141018e+01,0.000000000000000000e+00
1.949689999999999923e+00,-2.013539648994460141e-01,1.101776562944701138e-01,9.147418737411499023e-01,3.620603953020837609e-03,8.598152012096571539e-03,2.974396515464161617e-02,-1.281589774748659039e-01,6.646959859170423202e-02,-8.177452720701694489e-03,-1.142089753682238029e-01,-1.144983092547978420e-01,6.663484724730621422e-02,2.058691890207235420e-01,-1.647916263759910405e-01,2.169263723166021396e-01,1.058691890207235364e-01,-6.479162637599104879e-02,1.326502448264320899e-01,5.396843009944828351e-01,6.913557052612304688e-01,-1.171914339065551758e-01,1.023610193171787870e+02,0.000000000000000000e+00
1.974271000000000109e+00,-2.054406436992000928e-01,1.126707607087435031e-01,9.153718352317810059e-01,-1.543510503005981593e-04,5.133798610094997272e-03,3.077139281990071140e-02,-1.195079480680874828e-01,7.601248903731686046e-02,1.822332153096795082e-03,-6.203691157693710934e-02,-1.042082379478437154e-01,6.978876580457252753e-03,1.924298743424047164e-01,-2.558837223500590730e-01,2.211766107234171275e-01,9.242987434240471090e-02,-1.558837223500590952e-01,1.340191757808926465e-01,5.390120892218344117e-01,6.916134357452392578e-01,4.571300745010375977e-01,9.724037185490686852e+01,0.000000000000000000e+00
1.999374999999999902e+00,-2.080949634311853313e-01,1.142473965069704944e-01,9.158124327659606934e-01,-8.599319734883249756e-04,2.436203115477875158e-03,3.016199526503382522e-02,-1.076228637951289063e-01,6.681965606689821424e-02,-2.732657303567975760e-04,-2.101777388726702722e-02,-1.631853226200157270e-01,-2.811556927867949265e-02,1.682205554851776141e-01,-2.719427411702143860e-01,2.347745681745260771e-01,6.822055548517762247e-02,-1.719427411702143804e-01,1.493474811515582146e-01,5.393737697930824915e-01,7.019243240356445312e-01,2.220021486282348633e-01,1.000422657166078295e+02,0.000000000000000000e+00
2.026950999999999947e+00,-2.120273421411961179e-01,1.168199361221013283e-01,9.165720343589782715e-01,1.953108838742931069e-03,1.760113408857622019e-03,2.817481971814816966e-02,-1.144575789917640640e-01,6.694617125832137694e-02,2.136709634214639664e-03,1.542721234269373298e-01,4.630070116454162998e-02,-6.025527628630359539e-02,1.404156044583216301e-01,1.170405066326360988e-01,1.232501437809736811e-01,4.041560445832161064e-02,2.170405066326361043e-01,4.314733319565203229e-02,5.391726164414738509e-01,6.978664398193359375e-01,3.820873498916625977e-01,1.100577272664343695e+02,0.000000000000000000e+00
2.050783000000000023e+00,-2.146146784122165141e-01,1.185730545909183808e-01,9.170154929161071777e-01,4.973573401656814809e-03,3.725032818353790631e-03,2.611517987477252056e-02,-1.008889472960166761e-01,6.025617527749663888e-02,1.906802994199097157e-03,1.367128894250156934e-01,1.212250837931905939e-01,-1.292760308353511911e-01,2.694550103117417938e-01,1.221979674525507376e-01,2.000711759572566251e-01,1.694550103117418161e-01,2.221979674525507431e-01,1.257293907187848891e-01,5.390462202835090144e-01,6.888144016265869141e-01,2.495566606521606445e-01,9.653999742722459132e+01,0.000000000000000000e+00
2.073577999999999921e+00,-2.181923599967187655e-01,1.212487967072524292e-01,9.175152778625488281e-01,1.020722954356168173e-02,9.444865704516747229e-03,2.361658311059500193e-02,-9.744515083483241968e-02,7.244906010632193305e-02,-3.685195231810212135e-03,1.424358929057691070e-01,2.342507849514821050e-01,-5.236460642714145519e-02,3.018032249592330074e-01,1.287717551249952241e-01,1.188211987158830918e-01,2.122323570699035655e-01,2.287717551249952297e-01,5.139634388295972328e-02,5.404788014169101817e-01,7.429175376892089844e-01,2.032197713851928711e-01,8.703735331047177226e+01,0.000000000000000000e+00
2.102797999999999945e+00,-2.217882172051788003e-01,1.239542579072272221e-01,9.179673790931701660e-01,1.602345671603469870e-02,1.300235053326015411e-02,2.128737459810348120e-02,-9.295272594692707835e-02,6.965057026650819938e-02,-3.027464030310511589e-03,2.190056303030306628e-01,4.999523322162304634e-02,-6.483374972990801899e-02,3.174329920489032952e-02,1.209053545394955242e-01,1.998481232863861534e-01,-1.806594569798511060e-02,2.209053545394955298e-01,1.389192361027908607e-01,5.401869290906780030e-01,7.269032001495361328e-01,6.361234188079833984e-02,9.254463046090144474e+01,0.000000000000000000e+00
2.126812000000000147e+00,-2.243865113255413268e-01,1.255998655051837609e-01,9.183251261711120605e-01,2.040394721043987600e-02,1.276349383110408908e-02,1.967534986711716449e-02,-1.030897954027783642e-01,6.818686899083852004e-02,8.732106070965528488e-04,2.140450829714811709e-01,-4.261244102694906888e-02,-8.495598361940606691e-02,-1.679565689287265684e-01,1.116444865765397754e-01,1.882781695644977771e-01,-1.901372694127384522e-01,2.116444865765397809e-01,1.315862359821513561e-01,5.399921425896224703e-01,7.275670766830444336e-01,2.491656541824340820e-01,9.056023511077012245e+01,0.000000000000000000e+00
2.148069000000000006e+00,-2.271472781325207524e-01,1.271054854509036380e-01,9.186794757843017578e-01,2.571908121111779813e-02,1.126497604701848232e-02,1.829681604862964939e-02,-1.086341489055402953e-01,6.321457221061604903e-02,3.960171306971460581e-04,3.025831561899161026e-01,-8.625419838271955464e-02,-6.062488959752052736e-02,-2.221973324465355559e-01,1.030238691727726474e-01,1.983012149427759163e-01,-2.074619140449816268e-01,2.030238691727726530e-01,1.451222409428637450e-01,5.398447167455270312e-01,7.143460512161254883e-01,-3.684517145156860352e-01,1.223733028305868942e+02,0.000000000000000000e+00
2.174144000000000077e+00,-2.312085292844638651e-01,1.292773803799142640e-01,9.191896915435791016e-01,3.222163435224734834e-02,8.031822486336492872e-03,1.499803774202246309e-02,-1.015576523996435249e-01,6.021868231498562346e-02,-1.357781700789928436e-03,1.716000419908190744e-01,-6.145936625614771553e-02,-1.578334009796727444e-01,-2.659050035702635317e-01,1.038658625627430776e-01,2.244657751843068538e-01,-2.083601158219152427e-01,2.038658625627430832e-01,1.800362654413220354e-01,5.398045942711244827e-01,7.033900022506713867e-01,-3.778183460235595703e-02,7.336443474313013269e+01,0.000000000000000000e+00
2.198936999999999919e+00,-2.337905933794247881e-01,1.307201831619525245e-01,9.193591475486755371e-01,3.378355416503402153e-02,5.890200337627105043e-03,1.298771601279247179e-02,-9.555986235822550023e-02,6.671968052556925821e-02,-9.038207121193408966e-03,2.586264659047898123e-02,-9.008407465878570664e-02,-8.465888714556925321e-02,-1.086359172698190684e-01,-1.546710841263528036e-01,-5.582935637928428119e-02,-4.715102645100951312e-02,-5.467108412635280495e-02,-9.490419887233449148e-02,5.404996840163349692e-01,7.075468301773071289e-01,1.663390398025512695e-01,8.224614636243708787e+01,0.000000000000000000e+00
2.227965999999999891e+00,-2.375838191053948889e-01,1.330787525904452429e-01,9.193372726440429688e-01,3.183529982581678741e-02,3.515071639871747422e-03,9.336478838504413957e-03,-9.738407460338703581e-02,6.793499125852073273e-02,-1.336713694036006927e-02,-9.666175316508412996e-02,-7.102267550065506641e-02,-1.629229946832548848e-01,-1.535647247931242743e-01,-1.267810703936431693e-01,-1.421407388140210615e-01,-1.059171626619261064e-01,-2.678107039364317765e-02,-1.711724489549785178e-01,5.404216231341628651e-01,6.805539131164550781e-01,2.958651781082153320e-01,8.868924139142852425e+01,0.000000000000000000e+00
2.251691000000000109e+00,-2.400903635796295954e-01,1.346703861866433705e-01,9.191950559616088867e-01,2.774562702887577170e-02,1.493338331788107709e-03,7.472958613420566110e-03,-9.806556072649953715e-02,7.001850299123217602e-02,-1.884385757148265839e-02,-2.571874669547771775e-01,-6.900433107721744286e-02,-2.707149378094940440e-02,-5.619620155557245034e-02,-1.067248196170224595e-01,-1.566742144233412848e-01,-3.757013102932128812e-02,-6.724819617022452165e-03,-1.804799284855087560e-01,5.400089304250957900e-01,6.299202442169189453e-01,2.313019037246704102e-01,8.931590441758802967e+01,0.000000000000000000e+00
2.275459000000000120e+00,-2.438291701052008320e-01,1.370288665670749140e-01,9.188908934593200684e-01,2.111203271892905450e-02,2.301422275376996396e-04,6.941464402180574922e-03,-1.012627004304609835e-01,7.602804693416424786e-02,-2.053293772041797638e-02,-1.880342283006454507e-01,-6.439023249499884610e-03,2.139254428630931598e-02,9.765584552671703611e-02,7.531508942899575731e-02,-1.523941174045876645e-01,6.694076708220737804e-02,1.753150894289957629e-01,-1.745398346443113591e-01,5.404928825680171967e-01,6.427361965179443359e-01,-3.376535177230834961e-01,2.852094727572189115e+01,0.000000000000000000e+00
2.298043999999999976e+00,-2.462738133725393963e-01,1.385541909876057132e-01,9.187054634094238281e-01,1.662378925060166782e-02,5.040709889434502600e-04,7.320058900991410766e-03,-1.017389869727566981e-01,5.799594984524274188e-02,-9.969670325517654419e-03,-2.251163992937411651e-01,1.000390228255801026e-02,1.590780210381478529e-02,1.119416068125860253e-01,9.109971571682232150e-02,-1.479951762071627930e-01,6.476814138354212991e-02,1.910997157168223270e-01,-1.708371608675251507e-01,5.400804283768564362e-01,6.568121910095214844e-01,3.924764394760131836e-01,8.496426112377866957e+01,0.000000000000000000e+00
2.324079999999999924e+00,-2.498013310770604567e-01,1.408411324226887529e-01,9.185752868652343750e-01,1.205855632423088325e-02,2.300927674903530118e-03,8.856017091916523754e-03,-8.578488788272736754e-02,5.972578492761216468e-02,-1.082500535994768143e-02,-1.544613133157166085e-01,4.412273065989603255e-02,5.975643972417638006e-02,9.888143870538061708e-02,1.166816772397961388e-01,-1.397226779397247598e-01,1.592347533957975611e-02,2.166816772397961444e-01,-1.664852283965878588e-01,5.405941274553116571e-01,6.775422096252441406e-01,9.878337383270263672e-02,9.527443850610210063e+01,0.000000000000000000e+00
2.350743000000000027e+00,-2.532032885124502197e-01,1.430983692827432208e-01,9.187701940536499023e-01,1.148532564266595626e-02,2.623043603412478220e-03,1.060291924563316890e-02,-1.083724763751779119e-01,4.647784229170599107e-02,1.776479533873498440e-03,1.695648469399265584e-02,-4.875551271108090334e-02,5.697681879140200495e-02,1.608455732296026897e-01,-2.828420387277852388e-01,-1.285721052110150864e-01,8.166557052128195493e-02,-1.828420387277852610e-01,-1.602858802187244747e-01,5.401273992010181546e-01,6.959118843078613281e-01,-3.601981401443481445e-01,9.996553537147191548e+01,0.000000000000000000e+00
2.374947000000000141e+00,-2.554879574895263517e-01,1.445078552128390703e-01,9.190759658813476562e-01,1.253338121881250947e-02,1.915795709816814352e-03,1.218091784630637164e-02,-9.826991941116342000e-02,5.531498244814751775e-02,5.853747017681598663e-03,8.691130633261137661e-02,1.357675868568140702e-02,8.131285793117203065e-02,-3.301733239549554944e-02,9.922455732114077165e-02,-1.282546842947095422e-01,-1.159759974132978377e-01,1.992245573211407772e-01,-1.645105001550135615e-01,5.396441445971963402e-01,6.829588413238525391e-01,-1.867824792861938477e-01,6.849517239326053186e+01,0.000000000000000000e+00
2.400087000000000081e+00,-2.589239310182008813e-01,1.465430449753550024e-01,9.196408987045288086e-01,1.521075790358306611e-02,-1.510113741591823100e-04,1.420207393538119867e-02,-9.786860716279956185e-02,5.890754561426427005e-02,1.593745313584804535e-02,1.477833197104450602e-01,-5.402625198785619004e-02,5.569805838481516058e-02,1.105702538742175944e-03,-1.907221106325798221e-01,-1.117909615087900599e-01,-6.871075645771329565e-02,-9.072211063257980268e-02,-1.540526293441184802e-01,5.389283903009933763e-01,6.812373399734497070e-01,2.087739706039428711e-01,1.271940913279169081e+02,0.000000000000000000e+00
2.424627000000000088e+00,-2.611059867852435490e-01,1.478922660261056954e-01,9.200416207313537598e-01,1.648066335266933774e-02,-2.612879442163151822e-04,1.560889388972430680e-02,-1.031737935363077341e-01,4.525283867587288206e-02,1.048470754176378250e-02,3.257265007847601201e-02,-1.183280075430749416e-03,8.505916322277586039e-02,1.111010832516780844e-01,-2.142595838282979059e-02,-1.545850915887276300e-01,5.893613256786236348e-02,7.857404161717021496e-02,-2.008304381262683846e-01,5.388022762598840831e-01,6.506699323654174805e-01,-2.002390623092651367e-01,1.324980610675119692e+02,0.000000000000000000e+00
