timestamp,x,y,z,roll,pitch,yaw,vx,vy,vz,p,q,r,psp,qsp,rsp,pres,qres,rres,thrust_sp, thrust_res
0.000000000000000000e+00,1.102163488798991661e-02,-1.643011961096922657e-02,1.001548171043395996e+00,7.594870783394391985e-03,-1.374296073411152008e-02,-7.962487565551290558e-03,5.594388223214400574e-03,-1.921991614359316869e-02,8.161944337189197540e-03,-3.359601328675807094e-04,-5.078260272712768059e-02,-1.950835636165615741e-02,-7.937998168492162165e-02,-7.648012456774154477e-02,-2.224572819800513246e-02,0.000000000000000000e+00,0.000000000000000000e+00,0.000000000000000000e+00,5.112273369922084587e-01,0.000000000000000000e+00
1.689299999999999830e-02,1.148506165547019155e-02,-1.740780154577989056e-02,1.001652836799621582e+00,7.185356282885939014e-03,-1.365575312780853423e-02,-7.666151705810086980e-03,-5.780198970620214691e-03,-1.951060489662900105e-02,1.862324960529804230e-02,1.348066521494469504e-02,6.453795598220174803e-03,4.366817677719771196e-03,-7.073891393531342442e-02,-8.946180367823844404e-02,-2.139786513380564914e-02,0.000000000000000000e+00,0.000000000000000000e+00,0.000000000000000000e+00,5.104274564660150615e-01,0.000000000000000000e+00
4.217499999999999721e-02,1.193542537666227379e-02,-1.888289037969647158e-02,1.001816391944885254e+00,6.591153362645403059e-03,-1.372797618144971921e-02,-7.378489050657632831e-03,7.488724805812811865e-03,-3.936939478689407100e-03,8.153539383783936501e-04,-8.306216555266750711e-04,2.341181051581142473e-03,-1.642749138325317335e-03,-5.147894755826169788e-02,-7.182943017564404065e-02,-2.057817981402421115e-02,0.000000000000000000e+00,0.000000000000000000e+00,0.000000000000000000e+00,5.117449483403111454e-01,0.000000000000000000e+00
6.678399999999999614e-02,1.200336878978486635e-02,-1.991034880124685144e-02,1.001839160919189453e+00,5.892165954535040842e-03,-1.387308122752539674e-02,-6.878855053418231336e-03,-9.859558008325209483e-03,-1.609035878765066943e-02,2.426955383270978928e-03,-2.100586912998727782e-02,-3.901785468077171443e-02,5.235011132167836923e-02,-6.605187827527904398e-02,-9.539557842197247950e-02,-1.922734356658156729e-02,0.000000000000000000e+00,0.000000000000000000e+00,0.000000000000000000e+00,5.116229074001045207e-01,0.000000000000000000e+00
9.276800000000000324e-02,1.210547531484041685e-02,-2.137868581530914108e-02,1.001820683479309082e+00,5.440372741519021275e-03,-1.352437413021290169e-02,-6.588372623486771218e-03,1.668767946703996613e-02,-8.002562027999647262e-03,-1.187304779887199402e-02,-8.264597336721388882e-03,6.500487876220591155e-02,2.568337513376680106e-04,-5.104014182326806204e-02,-5.940082323022366495e-02,-1.840844948660769198e-02,0.000000000000000000e+00,0.000000000000000000e+00,0.000000000000000000e+00,5.126965686515222442e-01,0.000000000000000000e+00
1.163440000000000030e-01,1.218963340507583232e-02,-2.229304322229560750e-02,1.001618742942810059e+00,4.882998026751328956e-03,-1.288601881489048750e-02,-6.340345547077852473e-03,5.039935768352664207e-03,-1.962662283800527957e-02,-1.284991111606359482e-02,-4.813983047812373656e-02,-5.851399142141957242e-03,2.003334964737513157e-02,-6.308771838351161232e-02,-7.682812027447212533e-02,-1.775191631179540153e-02,0.000000000000000000e+00,0.000000000000000000e+00,0.000000000000000000e+00,5.127885933917967209e-01,0.000000000000000000e+00
1.417819999999999914e-01,1.244375604901474738e-02,-2.337420888829861571e-02,1.000979781150817871e+00,3.633892418364768288e-03,-1.058303937103222125e-02,-5.779461389934015259e-03,1.359250502836299723e-02,-5.501486185971726610e-03,-2.537069469690322876e-02,-4.682262869534835337e-02,1.227871249950363841e-01,2.878638362372281257e-03,-3.683184585461959926e-02,-4.873395728245948771e-02,-1.616557262193374367e-02,0.000000000000000000e+00,0.000000000000000000e+00,0.000000000000000000e+00,5.137766333259827789e-01,0.000000000000000000e+00
1.672760000000000080e-01,1.266468783918646424e-02,-2.376785343429510880e-02,1.000300407409667969e+00,2.700142875970583389e-03,-9.297646491507549626e-03,-5.216859076859314825e-03,1.303281640002042566e-02,-1.454558932956553224e-02,-3.597397357225418091e-02,-3.713804121582753304e-02,1.186950586822982032e-02,2.313127647294034930e-02,-4.547498620581633122e-02,-4.388997259933266615e-02,-1.462225972412262154e-02,0.000000000000000000e+00,0.000000000000000000e+00,0.000000000000000000e+00,5.146315031068925405e-01,0.000000000000000000e+00
1.926519999999999899e-01,1.305874372356136820e-02,-2.431354379224249032e-02,9.989520907402038574e-01,1.217293338606642659e-03,-7.097884442561097629e-03,-4.483535870317911787e-03,7.591378746304308471e-03,-9.799244236447202886e-04,-4.907470569014549255e-02,-5.104849069862855970e-02,1.105085780704786053e-01,1.302711576703858773e-02,-1.905665389225365269e-02,-3.477366522432775997e-02,-1.255759979264131632e-02,0.000000000000000000e+00,0.000000000000000000e+00,0.000000000000000000e+00,5.157207779803506531e-01,0.000000000000000000e+00
2.180300000000000016e-01,1.328808152961975450e-02,-2.462879006796099210e-02,9.978510737419128418e-01,6.983683707031902504e-04,-6.345310339512799658e-03,-3.947897685597334672e-03,1.753131269362940767e-02,-1.423103537471688898e-02,-5.331123620271682739e-02,-7.618883116299405775e-03,-2.051227933473713516e-02,2.384987398285748003e-02,-3.431323817745147303e-02,-1.756057585865818463e-02,-1.106877541237372142e-02,0.000000000000000000e+00,0.000000000000000000e+00,0.000000000000000000e+00,5.161423622855828564e-01,0.000000000000000000e+00
2.433440000000000047e-01,1.383601556206867644e-02,-2.496154964305579219e-02,9.958614110946655273e-01,2.492375241182445992e-05,-4.332329208848184621e-03,-3.271506617356312319e-03,1.091603945400796728e-02,2.603062226500292217e-03,-7.833970338106155396e-02,-5.604613814455290666e-02,9.783102855563693967e-02,3.394828837656144876e-02,-8.229517081972264475e-03,-1.459864391365827720e-02,-9.164025639939177292e-03,0.000000000000000000e+00,0.000000000000000000e+00,0.000000000000000000e+00,5.181701157404301483e-01,0.000000000000000000e+00
2.669549999999999979e-01,1.429837787368525882e-02,-2.501510578343778962e-02,9.943470954895019531e-01,-2.946232014782671090e-04,-3.490151129438512356e-03,-2.934121335028461175e-03,1.790636010438260636e-02,-9.326093914721327038e-03,-8.117253333330154419e-02,-4.178189849294278169e-02,1.732628878765381589e-02,8.391540357387610241e-03,-2.434251324751443568e-02,6.836310460442933520e-04,-8.214886752070493792e-03,0.000000000000000000e+00,0.000000000000000000e+00,0.000000000000000000e+00,5.185277938642003370e-01,0.000000000000000000e+00
2.921949999999999825e-01,1.504796167769944897e-02,-2.500279766220260547e-02,9.917023181915283203e-01,-1.218734467972887401e-03,-2.345413845360910798e-03,-1.828127778668031667e-03,1.140420540026778826e-02,7.171645748654434382e-03,-9.625342488288879395e-02,-4.096131943793767521e-02,2.895151340445458951e-02,4.243115188764456230e-02,2.602418813742552080e-03,-5.798204486340370264e-04,-5.119001004462608861e-03,0.000000000000000000e+00,0.000000000000000000e+00,0.000000000000000000e+00,5.198719584296010998e-01,0.000000000000000000e+00
3.165470000000000228e-01,1.554870505469588618e-02,-2.496303897874370403e-02,9.898177981376647949e-01,-1.439174580096376195e-03,-2.219350830624522430e-03,-1.431349121808977998e-03,1.709861630710823172e-02,2.540908434344642535e-04,-9.993100911378860474e-02,-3.513208457439830068e-02,-8.477534244809068961e-03,-6.521192752836597190e-03,-8.841732224203804544e-03,8.642798123338058663e-03,-3.999874261021052479e-03,0.000000000000000000e+00,0.000000000000000000e+00,0.000000000000000000e+00,5.203255203754655334e-01,0.000000000000000000e+00
3.447850000000000081e-01,1.635852568462606640e-02,-2.483145238834037413e-02,9.867897033691406250e-01,-1.643133957506101063e-03,-2.290480640813274960e-03,-5.587708373955280194e-04,2.186153877094574108e-02,1.146909272464245733e-02,-1.050745025277137756e-01,-1.117824653294934023e-02,-7.970462364159627139e-03,3.218465859243752059e-02,6.292062373703820669e-03,1.139898410192453568e-02,-1.558854442911705718e-03,0.000000000000000000e+00,0.000000000000000000e+00,0.000000000000000000e+00,5.209710057887833035e-01,0.000000000000000000e+00
3.670350000000000001e-01,1.719403518568503320e-02,-2.488265516903252067e-02,9.846861958503723145e-01,-1.176626709642159116e-03,-2.363979241416513943e-03,-1.920951395515402282e-04,2.042084066934584871e-02,7.368982089275175409e-03,-1.149169057607650757e-01,3.695184032966190163e-02,-1.029310156613170123e-02,4.822539721896142184e-04,-4.902873355513738540e-03,8.265995930178864429e-03,-5.323310841308104280e-04,0.000000000000000000e+00,0.000000000000000000e+00,0.000000000000000000e+00,5.218986419559519252e-01,0.000000000000000000e+00
3.929279999999999995e-01,1.854086223474429168e-02,-2.482490761361914183e-02,9.812608957290649414e-01,-7.856337813237201234e-04,-2.285771609309872332e-03,5.502346865720042501e-04,3.149533665967223922e-02,1.066728451696498381e-02,-1.253652721643447876e-01,-1.027280311708158970e-02,-2.878956379183302168e-03,3.415592225607699123e-02,-2.659549753987852823e-03,2.113475348805147688e-02,1.549649311074152713e-03,0.000000000000000000e+00,0.000000000000000000e+00,0.000000000000000000e+00,5.229742541768644948e-01,0.000000000000000000e+00
4.179399999999999782e-01,1.942951504797253010e-02,-2.472124781423684636e-02,9.788439273834228516e-01,-3.630042330897705169e-04,-2.318754642172349278e-03,1.055771170609398624e-03,2.876106664923519171e-02,1.408497496069611825e-02,-1.276616007089614868e-01,3.186230690502233481e-02,-1.971055469134007018e-02,7.340453569255860587e-03,-3.130509202726922124e-03,1.481788821174813593e-02,2.959982631993929303e-03,0.000000000000000000e+00,0.000000000000000000e+00,0.000000000000000000e+00,5.233735336479043987e-01,0.000000000000000000e+00
4.428989999999999871e-01,2.083136620247230328e-02,-2.446772744836680016e-02,9.751126766204833984e-01,-7.701593860572681271e-05,-3.008032846963937246e-03,1.911283470132252305e-03,2.902587882682603621e-02,1.072433578211559775e-02,-1.341867148876190186e-01,6.711376626625689505e-04,-3.914071109206790355e-02,1.757291920202400451e-02,-9.420138886941976236e-03,1.240902818874962781e-02,5.355816917017697243e-03,0.000000000000000000e+00,0.000000000000000000e+00,0.000000000000000000e+00,5.241853889862336802e-01,0.000000000000000000e+00
4.675039999999999751e-01,2.163651484107732489e-02,-2.426297561914696546e-02,9.725562334060668945e-01,4.397789956178567569e-04,-3.579901171182342523e-03,2.473037553292645185e-03,3.934178930173884425e-02,1.998097152645803357e-02,-1.399389654397964478e-01,6.167912204964861450e-02,-9.742051507676674840e-03,1.711491637682252369e-03,-2.312256761771027715e-03,1.934959539846926868e-02,6.922172618000488331e-03,0.000000000000000000e+00,0.000000000000000000e+00,0.000000000000000000e+00,5.248586848510867764e-01,0.000000000000000000e+00
4.919470000000000232e-01,2.293133139088451150e-02,-2.387955415491237882e-02,9.686437845230102539e-01,1.458604440048729724e-03,-4.566938608460802129e-03,3.022949987420142648e-03,2.859771708352178143e-02,1.138402943050210135e-02,-1.347275227308273315e-01,3.108023316427424923e-02,-3.931807214273373707e-02,9.049091084117017597e-03,-2.051662844332118388e-02,-5.381302518408652728e-04,8.464148019662331990e-03,0.000000000000000000e+00,0.000000000000000000e+00,0.000000000000000000e+00,5.248212905692269947e-01,0.000000000000000000e+00
5.171120000000000161e-01,2.381181013736804325e-02,-2.355904081109507983e-02,9.659575223922729492e-01,2.314311670350617783e-03,-4.621888394869877459e-03,3.293940891044844221e-03,4.895711602527832995e-02,2.361268316440810408e-02,-1.484797596931457520e-01,6.419608970723568453e-02,2.868351216120013786e-02,3.818072067342229928e-03,-1.080007117665562726e-02,2.357061195193309658e-02,9.207658464916723684e-03,0.000000000000000000e+00,0.000000000000000000e+00,0.000000000000000000e+00,5.260990650449410833e-01,0.000000000000000000e+00
5.436170000000000169e-01,2.519960603735929561e-02,-2.300199209259371630e-02,9.618392586708068848e-01,3.223118306258898093e-03,-4.743705710447132518e-03,3.688434014028851848e-03,2.653138988764421058e-02,1.501721323735226259e-02,-1.559844613075256348e-01,1.049495254147217449e-02,-4.833148191570932513e-03,1.112988472445296771e-02,-2.910513376372651090e-02,-5.749545050562658230e-03,1.032996692945625794e-02,0.000000000000000000e+00,0.000000000000000000e+00,0.000000000000000000e+00,5.270107461012033534e-01,0.000000000000000000e+00
5.678180000000000449e-01,2.610899745533012961e-02,-2.221750754255056096e-02,9.590204954147338867e-01,3.485683806613315040e-03,-4.562751627746441940e-03,4.135400014334988938e-03,4.440293255891631513e-02,2.686344294142905403e-02,-1.561254709959030151e-01,1.055927010896390988e-02,4.241088866657385242e-02,2.353087091571027904e-03,-1.573800460013135075e-02,2.157860638472939435e-02,1.155762131644055835e-02,0.000000000000000000e+00,0.000000000000000000e+00,0.000000000000000000e+00,5.273070217380848579e-01,0.000000000000000000e+00
5.925690000000000124e-01,2.748129427126758118e-02,-2.097332216081464890e-02,9.546871185302734375e-01,3.456984711323149440e-03,-4.897460381475315927e-03,4.710216316115234392e-03,3.427776526273578622e-02,2.830784348128950745e-02,-1.641854792833328247e-01,-8.609777379609058479e-03,-2.801860028396546687e-02,2.138674773952346439e-02,-1.752716698263599021e-02,3.953064908583965933e-03,1.318482133648912757e-02,0.000000000000000000e+00,0.000000000000000000e+00,0.000000000000000000e+00,5.282821432362305725e-01,0.000000000000000000e+00
6.172149999999999581e-01,2.843013280242767324e-02,-2.011148294189422231e-02,9.517090916633605957e-01,3.198095866309686071e-03,-5.178175098261350584e-03,5.202725819371201155e-03,3.994446879497016295e-02,3.219893615900003281e-02,-1.679796278476715088e-01,-5.647763328538979444e-02,1.631375650279454428e-02,2.542913551468232655e-02,-1.207272558208707415e-02,1.184548513419271185e-02,1.455571188185328380e-02,0.000000000000000000e+00,0.000000000000000000e+00,0.000000000000000000e+00,5.288580059600965777e-01,0.000000000000000000e+00
6.433659999999999934e-01,2.984645079866689310e-02,-1.879531075802282070e-02,9.473375082015991211e-01,3.436833521713138218e-03,-5.994152897026872040e-03,5.569117574412141281e-03,4.069252258362018176e-02,2.887299994667932163e-02,-1.628401130437850952e-01,9.692164743055354734e-03,-3.959991455163266311e-02,-1.421061713985554212e-02,-1.746468192020592114e-02,6.218771910633215209e-03,1.558755242668480312e-02,0.000000000000000000e+00,0.000000000000000000e+00,0.000000000000000000e+00,5.288806125609745168e-01,0.000000000000000000e+00
6.668610000000000371e-01,3.080372118498947778e-02,-1.793955846449167557e-02,9.443778991699218750e-01,3.618827495503602800e-03,-6.357872314014745285e-03,5.994784754069781840e-03,4.195953411655817256e-02,3.370892428021893955e-02,-1.633935123682022095e-01,3.822230928100251845e-03,-1.145757164280029362e-02,4.530647458707623421e-02,-1.225143920903452865e-02,5.494728893537113162e-03,1.677865942077455541e-02,0.000000000000000000e+00,0.000000000000000000e+00,0.000000000000000000e+00,5.292174761331399635e-01,0.000000000000000000e+00
6.921720000000000095e-01,3.217760269558434666e-02,-1.660722535950646603e-02,9.399279952049255371e-01,3.950852313114666496e-03,-6.518017827109590101e-03,6.300455592549658590e-03,5.023380381015222357e-02,3.243368921230579960e-02,-1.642879843711853027e-01,1.393606752952054363e-02,1.000955301741860391e-02,7.553478720582789373e-03,-1.660159083322067242e-02,1.296033537186327793e-02,1.762573336673628477e-02,0.000000000000000000e+00,0.000000000000000000e+00,0.000000000000000000e+00,5.296916156775747231e-01,0.000000000000000000e+00
7.174800000000000066e-01,3.312555896492140606e-02,-1.566313792182429457e-02,9.368968009948730469e-01,3.679847442044509916e-03,-6.657808690053279577e-03,6.473596762723632381e-03,4.647658695514604588e-02,3.036997375138398084e-02,-1.660598367452621460e-01,-2.505795519255791734e-02,-2.305763246108122333e-02,2.074508726069757003e-02,-1.581718913872161639e-02,6.094704687739766445e-03,1.811910231214591827e-02,0.000000000000000000e+00,0.000000000000000000e+00,0.000000000000000000e+00,5.301219572739165331e-01,0.000000000000000000e+00
7.445580000000000531e-01,3.454948585801616290e-02,-1.424238832238947441e-02,9.325215220451354980e-01,3.301805853841300285e-03,-7.006700823995348770e-03,6.969667395226197826e-03,5.444970247460618334e-02,4.220205636513002512e-02,-1.715801954269409180e-01,6.820231559215309859e-03,-1.377470563878295355e-02,9.827978961140243150e-03,-3.388338524894316667e-04,1.382230498907295081e-02,1.949485012430385300e-02,0.000000000000000000e+00,0.000000000000000000e+00,0.000000000000000000e+00,5.309339151136619472e-01,0.000000000000000000e+00
7.666399999999999881e-01,3.559023792069070796e-02,-1.346817093405043748e-02,9.295523166656494141e-01,3.102051929442941648e-03,-7.534459152695127671e-03,7.117793715911036045e-03,4.376047837603990603e-02,2.928616565241553421e-02,-1.713150590658187866e-01,-1.724377611138921398e-03,-8.615819448303280170e-02,1.714656194973737408e-03,-1.520092254270099738e-02,-2.193419270615786128e-03,1.993113917935751545e-02,0.000000000000000000e+00,0.000000000000000000e+00,0.000000000000000000e+00,5.312112594431239732e-01,0.000000000000000000e+00
7.920960000000000223e-01,3.736137988246545499e-02,-1.261190700352282645e-02,9.251669049263000488e-01,3.232423395697544069e-03,-7.691727055957997550e-03,7.298501106091315194e-03,6.269950061037943279e-02,4.378149006545042909e-02,-1.717059910297393799e-01,-2.585083691693224051e-02,1.751834124121505812e-02,5.634154883793462618e-03,2.924122900900134360e-03,2.013706149425810096e-02,2.040474774438694183e-02,0.000000000000000000e+00,0.000000000000000000e+00,0.000000000000000000e+00,5.316608306397022643e-01,0.000000000000000000e+00
8.172930000000000472e-01,3.856640868325779403e-02,-1.200131767111261259e-02,9.222519397735595703e-01,3.736784148877640190e-03,-7.886714618091650308e-03,7.450715694567788816e-03,4.715596121619820835e-02,4.188352288958355207e-02,-1.659156084060668945e-01,3.315259668376235175e-02,-3.382048981551021710e-02,-1.040841589853259454e-02,-6.714015538078098831e-03,-1.992621777192055913e-03,2.086425178406664527e-02,0.000000000000000000e+00,0.000000000000000000e+00,0.000000000000000000e+00,5.315299844252919792e-01,0.000000000000000000e+00
8.419520000000000337e-01,3.980437140318011935e-02,-1.135326343904572918e-02,9.192900061607360840e-01,3.673765952905241536e-03,-7.675379706272522640e-03,7.674504510502222487e-03,4.445868936852112596e-02,3.909525942083295902e-02,-1.672479361295700073e-01,6.899788361242002038e-03,1.852265248169502818e-02,2.020274722434609385e-02,-7.980488280680722579e-03,2.942634568295176070e-03,2.148409532796613508e-02,0.000000000000000000e+00,0.000000000000000000e+00,0.000000000000000000e+00,5.319329375118685421e-01,0.000000000000000000e+00
8.669850000000000056e-01,4.154142568736655244e-02,-9.785850075914226745e-03,9.148460030555725098e-01,3.765381640965934345e-03,-7.914915345445416861e-03,7.783932268937698851e-03,5.805119089907663510e-02,4.737465918537889231e-02,-1.723232269287109375e-01,-1.742236770507942997e-02,6.585612076426967422e-03,2.438530702270732728e-04,1.249138924567784643e-03,1.658837315267528562e-02,2.176638418053217228e-02,0.000000000000000000e+00,0.000000000000000000e+00,0.000000000000000000e+00,5.327253742575990270e-01,0.000000000000000000e+00
8.917519999999999891e-01,4.316940723508423672e-02,-7.137888234412347391e-03,9.105455875396728516e-01,3.717365637923564486e-03,-8.519660414115337588e-03,8.189838124334603009e-03,4.909327678130333272e-02,4.389455925232627759e-02,-1.619514077901840210e-01,2.686414588474217782e-02,-3.278482075924732397e-02,-3.875713990563823055e-03,-2.992776884731505882e-03,3.978495824037204436e-04,2.293022680210682340e-02,0.000000000000000000e+00,0.000000000000000000e+00,0.000000000000000000e+00,5.323701714462153456e-01,0.000000000000000000e+00
9.168100000000000138e-01,4.426051174488852824e-02,-5.424544624746027374e-03,9.077672958374023438e-01,3.776872421733157639e-03,-8.907356971816993152e-03,8.176670012006059807e-03,6.173003238723338143e-02,5.149633794061824615e-02,-1.671217978000640869e-01,1.045309098526610823e-02,-6.146536698958792941e-03,3.292585489941964277e-04,6.106598945127503578e-03,1.394525666443449489e-02,2.286799673065453842e-02,0.000000000000000000e+00,0.000000000000000000e+00,0.000000000000000000e+00,5.330503392457188738e-01,0.000000000000000000e+00
9.421150000000000357e-01,4.590772095257184687e-02,-2.794910001896994990e-03,9.037472009658813477e-01,4.186203510960684673e-03,-9.029559952309584858e-03,8.055700074750316020e-03,4.849488258819976277e-02,4.891410188257429986e-02,-1.636219471693038940e-01,1.655891384632604199e-02,-2.175343273590527038e-02,-1.128205922228119051e-02,3.209281014090407252e-05,-2.970335147708978024e-03,2.256068354642393192e-02,0.000000000000000000e+00,0.000000000000000000e+00,0.000000000000000000e+00,5.331733748855833621e-01,-0.000000000000000000e+00
9.677959999999999896e-01,4.704244503431056351e-02,-1.042278709398953640e-03,9.011325240135192871e-01,4.473495057442679161e-03,-8.853853760485863589e-03,8.201298484872721062e-03,5.867052227275062343e-02,5.811192197331106063e-02,-1.597937941551208496e-01,-9.760962943847715026e-03,2.643959791067432633e-02,4.535098440033011324e-03,8.962042606149762253e-03,1.348044921655800789e-02,2.293263349745705559e-02,0.000000000000000000e+00,0.000000000000000000e+00,0.000000000000000000e+00,5.331903153482352442e-01,0.000000000000000000e+00
9.929850000000000065e-01,4.859121910712084491e-02,2.174042914179869987e-03,8.973759412765502930e-01,4.710694766503904264e-03,-8.706573828969776940e-03,8.280140790752454905e-03,5.203546747308188114e-02,5.462517783470987459e-02,-1.552956998348236084e-01,4.222018900852758660e-02,6.199858025352332144e-03,-1.502499763801661524e-02,2.893577811004371773e-03,5.519407413932203230e-03,2.317190002007019078e-02,0.000000000000000000e+00,0.000000000000000000e+00,0.000000000000000000e+00,5.332243289641425132e-01,-0.000000000000000000e+00
1.017708999999999975e+00,4.964883641919859425e-02,4.321435782069181324e-03,8.949064016342163086e-01,4.690999707481440135e-03,-8.846477762952886792e-03,8.289757188507218544e-03,5.798088677047710804e-02,5.325309566549595724e-02,-1.506991088390350342e-01,5.100205950782773709e-03,6.622875158686643976e-03,3.527888097684319258e-03,4.193503134381579116e-03,1.344457099105757572e-02,2.318121028625852453e-02,0.000000000000000000e+00,0.000000000000000000e+00,0.000000000000000000e+00,5.331685034983844051e-01,0.000000000000000000e+00
1.041868999999999934e+00,5.124159354080200235e-02,7.499703756343951803e-03,8.913035392761230469e-01,5.084095387073263479e-03,-9.030833159269446853e-03,8.396504530832737956e-03,5.734615502093481226e-02,6.345653688750721444e-02,-1.575633883476257324e-01,3.363695153139270588e-02,-1.009436212450522466e-02,3.690236242487178724e-03,1.383923966077725727e-02,1.057868745636544525e-02,2.348138947511979602e-02,0.000000000000000000e+00,0.000000000000000000e+00,0.000000000000000000e+00,5.340252610933809985e-01,0.000000000000000000e+00
1.067526999999999893e+00,5.232439863710709044e-02,9.595784435762927042e-03,8.889403939247131348e-01,5.302413187574508621e-03,-8.967045604357570809e-03,8.240339800835716488e-03,5.728288324362006828e-02,5.608959852158157400e-02,-1.533744931221008301e-01,-1.944915506577546969e-04,-7.835719230992427980e-03,-6.038906728443978016e-03,3.124650609194885159e-03,1.187935399445000026e-02,2.304361263641591107e-02,0.000000000000000000e+00,0.000000000000000000e+00,0.000000000000000000e+00,5.339866594181883475e-01,-0.000000000000000000e+00
1.093298000000000103e+00,5.393529880841131663e-02,1.363787391678973789e-02,8.855279684066772461e-01,5.777317309186472127e-03,-8.833380405589341677e-03,8.091361622121429065e-03,6.865988720684172708e-02,7.187318653017826797e-02,-1.511989086866378784e-01,-2.253039965596109750e-02,-9.327043110344756041e-03,4.443637442308823529e-03,2.020893148595884550e-02,2.494459325002240657e-02,2.257596616390783462e-02,0.000000000000000000e+00,0.000000000000000000e+00,0.000000000000000000e+00,5.341878323920237204e-01,0.000000000000000000e+00
1.117170999999999914e+00,5.499275698220960212e-02,1.631123694927028370e-02,8.833009600639343262e-01,6.285064644030659460e-03,-8.945135573361628900e-03,8.139161068181799408e-03,5.171870001901429648e-02,6.854154747487077592e-02,-1.449316143989562988e-01,5.146309838868267511e-02,-5.527247189884217787e-02,-1.447747698066836376e-02,1.009159949785849719e-02,4.723087396478625917e-03,2.277486059612099378e-02,0.000000000000000000e+00,0.000000000000000000e+00,0.000000000000000000e+00,5.339764161067883652e-01,-0.000000000000000000e+00
1.144144000000000050e+00,5.659275726400785772e-02,2.025730109111775062e-02,8.801192641258239746e-01,6.428976597127360887e-03,-9.350553555015350682e-03,8.188495803794548777e-03,6.713177889048096980e-02,7.035551180799709536e-02,-1.430798619985580444e-01,1.305109091658275371e-02,-2.247189914768603358e-02,-1.149392435097242211e-02,1.432213171719295269e-02,2.390606262241801866e-02,2.284905176931317783e-02,0.000000000000000000e+00,0.000000000000000000e+00,0.000000000000000000e+00,5.341832756855577902e-01,-0.000000000000000000e+00
1.166514999999999969e+00,5.767652956345692417e-02,2.285812827980477496e-02,8.780351877212524414e-01,6.843829486405232122e-03,-9.665212331008588009e-03,8.121477835574930637e-03,5.849383955180571804e-02,7.321446869930567369e-02,-1.433463841676712036e-01,4.290026800594753248e-02,-8.076042396207667659e-03,-1.783766595733748614e-02,1.545665565288569659e-02,8.978651216356709278e-03,2.270854503096675359e-02,0.000000000000000000e+00,0.000000000000000000e+00,0.000000000000000000e+00,5.344430426627316821e-01,-0.000000000000000000e+00
1.193149999999999933e+00,5.957504182717948682e-02,2.696368607399816583e-02,8.750455379486083984e-01,7.431064916302680678e-03,-9.722626332483219613e-03,8.063573926549105764e-03,5.929984985080927890e-02,7.111080778044093220e-02,-1.375967413187026978e-01,1.090183577783737298e-02,2.228758730782697678e-02,-6.381033468216983778e-03,1.116391106731532377e-02,1.365888944804731324e-02,2.252852517442793800e-02,0.000000000000000000e+00,0.000000000000000000e+00,0.000000000000000000e+00,5.343417880243821472e-01,0.000000000000000000e+00
1.221100000000000074e+00,6.090245228197509880e-02,2.973803267352058063e-02,8.732203841209411621e-01,7.865334072942667398e-03,-9.592447231071998814e-03,7.989025037138830498e-03,6.760170635366505310e-02,7.584345736034280028e-02,-1.406768709421157837e-01,7.487088251967017813e-03,5.142065975278540396e-02,2.907318362841271450e-04,1.526736546636874720e-02,2.311475265551981087e-02,2.227837932837894996e-02,0.000000000000000000e+00,0.000000000000000000e+00,0.000000000000000000e+00,5.348022608532407851e-01,0.000000000000000000e+00
1.246879000000000071e+00,6.288447375000455475e-02,3.388347272745563521e-02,8.705418705940246582e-01,8.476510048478951356e-03,-9.373958261958303950e-03,8.007144853702019560e-03,5.332052301256356985e-02,7.398462716498113712e-02,-1.324937045574188232e-01,3.019913293577530106e-02,-1.680645254002549605e-02,-3.719859975868559845e-03,1.061418177857567299e-02,9.314410345114192830e-03,2.238248080884291946e-02,0.000000000000000000e+00,0.000000000000000000e+00,0.000000000000000000e+00,5.344898795008703463e-01,-0.000000000000000000e+00
1.270798000000000094e+00,6.421253076098276669e-02,3.657552980357967054e-02,8.689329028129577637e-01,8.562433612622597986e-03,-9.333033932747536454e-03,8.328477901261788219e-03,6.007294267242113683e-02,8.399844092342370616e-02,-1.348204314708709717e-01,2.107489616152202414e-02,1.520423760412999191e-03,2.058023082942054757e-02,2.190014325123734382e-02,2.196259720440661353e-02,2.322236750653411397e-02,0.000000000000000000e+00,0.000000000000000000e+00,0.000000000000000000e+00,5.348850586676532348e-01,0.000000000000000000e+00
1.296234000000000108e+00,6.535714323564785488e-02,3.936598420458356506e-02,8.672748208045959473e-01,8.731377643946281950e-03,-9.684095967238848246e-03,8.428828007205346751e-03,5.904108955292704936e-02,7.916000024751518316e-02,-1.369768381118774414e-01,3.310175443628791264e-02,-4.569428016819566951e-02,-6.363354624441466302e-03,1.442532465787211768e-02,1.708336750200299334e-02,2.352780580572871871e-02,0.000000000000000000e+00,0.000000000000000000e+00,0.000000000000000000e+00,5.352525637513679824e-01,0.000000000000000000e+00
1.317830999999999975e+00,6.691913093523278733e-02,4.363952066069129443e-02,8.652600646018981934e-01,8.940657362007472034e-03,-9.950403614340963543e-03,8.461595742440319867e-03,5.633381826238453849e-02,7.771969579814637374e-02,-1.213921830058097839e-01,-3.969714084500649588e-03,7.085070849615311868e-03,-2.155842999722541124e-03,1.620951777627750029e-02,1.441439478254487316e-02,2.362886549792275748e-02,0.000000000000000000e+00,0.000000000000000000e+00,0.000000000000000000e+00,5.343671269519232325e-01,0.000000000000000000e+00
1.343469999999999942e+00,6.851416620850059314e-02,4.774921534782702176e-02,8.633686304092407227e-01,9.465638735172062293e-03,-9.926036023599982272e-03,8.528574351521100994e-03,6.547060383041099219e-02,8.400969830518718873e-02,-1.224877685308456421e-01,1.632812348897627608e-02,3.045492022859150327e-02,1.112466659727534037e-02,2.179662283810337997e-02,2.542049299128159440e-02,2.375745350470398476e-02,0.000000000000000000e+00,0.000000000000000000e+00,0.000000000000000000e+00,5.346900595347586771e-01,0.000000000000000000e+00
1.367299000000000042e+00,6.958360135644937883e-02,5.044950101065162618e-02,8.622426390647888184e-01,9.749273529982442621e-03,-9.731514788635209356e-03,8.458752179392847736e-03,6.014100497779638343e-02,7.118817349030669150e-02,-1.168795004487037659e-01,1.794027062990392885e-02,-8.857822364939829662e-03,-8.516749817403281020e-04,7.298330341073360969e-03,1.917782565549768295e-02,2.359876825324858096e-02,0.000000000000000000e+00,0.000000000000000000e+00,0.000000000000000000e+00,5.344456272304058952e-01,-0.000000000000000000e+00
1.393812000000000051e+00,7.108407990847558089e-02,5.464565222485563006e-02,8.605981469154357910e-01,9.992088865122242605e-03,-9.506373440908211236e-03,8.645672800560832982e-03,6.704373771025685935e-02,8.684532984283666046e-02,-1.206442564725875854e-01,-9.082942075561436330e-04,1.069373457573514347e-02,1.145084753464721029e-02,2.767371332745711607e-02,3.023170269081493222e-02,2.404974941776089059e-02,0.000000000000000000e+00,0.000000000000000000e+00,0.000000000000000000e+00,5.349518587173294204e-01,0.000000000000000000e+00
1.418523999999999896e+00,7.200846639671718008e-02,5.744444408533125324e-02,8.595722317695617676e-01,1.011847389265130466e-02,-9.633918990984868813e-03,8.918770180588619922e-03,5.885572753809632102e-02,8.231244640184748329e-02,-1.161247268319129944e-01,3.835571023667710966e-02,-4.305837006889170343e-02,-3.069085624510995043e-03,1.901752081766520594e-02,1.987554810856058396e-02,2.487331373624940278e-02,0.000000000000000000e+00,0.000000000000000000e+00,0.000000000000000000e+00,5.347803598698918082e-01,0.000000000000000000e+00
1.442650999999999906e+00,7.343514272175194479e-02,6.158994820850653695e-02,8.579747676849365234e-01,1.029014634553081751e-02,-9.808512961684501263e-03,9.086738116285353328e-03,5.959799871544217698e-02,8.397665197852317853e-02,-1.093212291598320007e-01,-1.212894358656071590e-03,7.162609568942258226e-03,8.906276541554975640e-03,2.372240309569090960e-02,2.341971442791193278e-02,2.532055393165882906e-02,0.000000000000000000e+00,0.000000000000000000e+00,0.000000000000000000e+00,5.345029900241280441e-01,0.000000000000000000e+00
1.467122999999999955e+00,7.443539583837223417e-02,6.426591132742401347e-02,8.570178747177124023e-01,1.067268862067316526e-02,-9.873127357773237023e-03,9.120158776190878669e-03,6.194935370597754593e-02,9.102655667254275218e-02,-1.122394725680351257e-01,1.791359303978360545e-02,-4.109121354215310162e-03,-1.751811459021833037e-02,2.910556976710043653e-02,2.574709947393889406e-02,2.539335620557287010e-02,0.000000000000000000e+00,0.000000000000000000e+00,0.000000000000000000e+00,5.348834078526996105e-01,-0.000000000000000000e+00
1.493543000000000065e+00,7.611608357594649987e-02,6.787085878225525282e-02,8.555486798286437988e-01,1.077211704152608758e-02,-9.714428298017718788e-03,9.550771735496788040e-03,5.868461524816279834e-02,8.037703768669811344e-02,-1.025762036442756653e-01,-1.137797366680316086e-02,3.135240606329886548e-02,3.642569546970155642e-02,1.821771255214602384e-02,2.408625552507680581e-02,2.661569521831025353e-02,0.000000000000000000e+00,0.000000000000000000e+00,0.000000000000000000e+00,5.343716406598992830e-01,0.000000000000000000e+00
1.517149000000000081e+00,7.754079912752068204e-02,6.978210879333714145e-02,8.546875715255737305e-01,1.102135176563373738e-02,-9.655153199984889412e-03,9.724433569642254582e-03,6.069946324705646074e-02,8.998190408683036379e-02,-1.042279750108718872e-01,-1.314209582397599455e-02,2.378951712709857433e-02,-8.537148570375418383e-03,3.073735797697044192e-02,2.861550238375824493e-02,2.706366160479350969e-02,0.000000000000000000e+00,0.000000000000000000e+00,0.000000000000000000e+00,5.346576251778781819e-01,0.000000000000000000e+00
1.543063999999999991e+00,7.895408771504906775e-02,7.162767750607811068e-02,8.537462353706359863e-01,1.123002075519829307e-02,-1.006921531142213055e-02,1.018457778777270839e-02,5.566479552558048494e-02,8.454429021284992629e-02,-9.709821641445159912e-02,5.849225506165373067e-03,-3.213713799898768042e-02,2.342103034838251968e-02,2.222353222572411025e-02,2.147302931889900207e-02,2.839734294000240133e-02,0.000000000000000000e+00,0.000000000000000000e+00,0.000000000000000000e+00,5.342900195226123472e-01,0.000000000000000000e+00
1.567099000000000020e+00,8.105584559909484454e-02,7.436661081208446877e-02,8.524011373519897461e-01,1.145996122601179550e-02,-1.032011485212103175e-02,1.074148513346684375e-02,5.923225025214694239e-02,8.308834827768926679e-02,-9.512326121330261230e-02,3.546347234554367289e-02,2.267010107346541931e-02,1.241576457995925524e-02,2.290476031201281112e-02,2.650280673433751122e-02,2.992513902082377664e-02,0.000000000000000000e+00,0.000000000000000000e+00,0.000000000000000000e+00,5.343391940780189975e-01,0.000000000000000000e+00
1.593169000000000057e+00,8.323822019151028151e-02,7.734757633881855776e-02,8.510614633560180664e-01,1.244832598966328502e-02,-1.124225843710813244e-02,1.107708632355808298e-02,6.026308531121604001e-02,8.078491569022762386e-02,-9.494177997112274170e-02,6.430792064283714915e-02,-7.470338935456465046e-02,-3.522970773951134352e-03,1.662413099645929787e-02,2.174986576449256317e-02,3.088719038175685716e-02,0.000000000000000000e+00,0.000000000000000000e+00,0.000000000000000000e+00,5.345124420599293158e-01,0.000000000000000000e+00
1.616983000000000059e+00,8.475633974162877227e-02,7.970529904466526483e-02,8.502175807952880859e-01,1.293708736309798386e-02,-1.108748308258156179e-02,1.131654395980752348e-02,5.844067781377518950e-02,7.595990069815160284e-02,-9.268423169851303101e-02,3.038886018154331875e-02,-5.673684180280751284e-03,9.301094673647874664e-03,1.118194398115490706e-02,2.174309454558278829e-02,3.155704952173304934e-02,0.000000000000000000e+00,0.000000000000000000e+00,0.000000000000000000e+00,5.344957877376018685e-01,0.000000000000000000e+00
1.643189999999999928e+00,8.624954579376849229e-02,8.206912992934110862e-02,8.493784070014953613e-01,1.347753607537696685e-02,-1.109237618357905575e-02,1.164020606728422003e-02,7.088711024149167705e-02,7.998523043936783816e-02,-9.290380030870437622e-02,3.451438977818672201e-03,4.279734978809795684e-03,7.461841734952226989e-03,1.461044089462503262e-02,3.546996045535519976e-02,3.236881556370224677e-02,0.000000000000000000e+00,0.000000000000000000e+00,0.000000000000000000e+00,5.346773867176507489e-01,0.000000000000000000e+00
1.667052999999999896e+00,8.850415611432028984e-02,8.548401771473818078e-02,8.479720950126647949e-01,1.409231062799358621e-02,-1.130571387442191877e-02,1.225073358147943381e-02,5.711949429965314934e-02,8.332335274808248815e-02,-8.839349448680877686e-02,3.759478788125144438e-02,-6.625948880100645567e-03,2.313269261123677978e-02,1.481093614536652808e-02,1.820641678346270401e-02,3.418353984435607007e-02,0.000000000000000000e+00,0.000000000000000000e+00,0.000000000000000000e+00,5.345312288018140290e-01,0.000000000000000000e+00
1.692512999999999934e+00,8.999937195153757952e-02,8.775370326565014312e-02,8.469496965408325195e-01,1.393775805629776307e-02,-1.160814467298432184e-02,1.251256765846964214e-02,5.562078767167057819e-02,7.517475741405779677e-02,-8.645375072956085205e-02,1.113079927477071684e-02,-5.456488221102474834e-02,1.430208095531381070e-02,8.290835248323812773e-03,2.055958673717031907e-02,3.490622438738050226e-02,0.000000000000000000e+00,0.000000000000000000e+00,0.000000000000000000e+00,5.345489107434712173e-01,0.000000000000000000e+00
1.717004999999999892e+00,9.195060859289558297e-02,9.144148383166454674e-02,8.454156517982482910e-01,1.353701213475259381e-02,-1.208500469602102889e-02,1.325181024787069894e-02,6.298037652760701821e-02,9.220659873258796324e-02,-1.033030748367309570e-01,-3.135708831806033325e-02,-6.627215169894539078e-03,4.104788937789358161e-02,3.185086656222221868e-02,2.627359267374297647e-02,3.692492478842379633e-02,0.000000000000000000e+00,0.000000000000000000e+00,0.000000000000000000e+00,5.359945658149893877e-01,0.000000000000000000e+00
1.743373000000000062e+00,9.323713545821575577e-02,9.383230016219948344e-02,8.444316387176513672e-01,1.371710612242910306e-02,-1.249641577893956246e-02,1.337843546107686521e-02,5.759602566952557595e-02,8.048436429059190045e-02,-9.690981358289718628e-02,-2.729361898608238454e-02,-3.283413950581896834e-02,-9.858215315531226181e-03,1.536956433917024099e-02,1.680520542264756292e-02,3.735208630983949396e-02,0.000000000000000000e+00,0.000000000000000000e+00,0.000000000000000000e+00,5.356765241437438929e-01,0.000000000000000000e+00
1.767139999999999933e+00,9.519570699744972497e-02,9.731184582245520909e-02,8.428903222084045410e-01,1.429594338548611891e-02,-1.276524421487890137e-02,1.369220609099430774e-02,6.495251988690932399e-02,8.050374777275516591e-02,-8.622963726520538330e-02,9.801343519633047650e-04,-1.080552780715595372e-02,1.646571547112799308e-02,1.796388059924092229e-02,2.562079301407783893e-02,3.816503759193945466e-02,0.000000000000000000e+00,0.000000000000000000e+00,0.000000000000000000e+00,5.351198781225188217e-01,0.000000000000000000e+00
1.793641000000000041e+00,9.715793632986594042e-02,1.006230689983966947e-01,8.413033485412597656e-01,1.506675098923035590e-02,-1.296264646355083094e-02,1.394212563842778252e-02,5.853409532119416975e-02,7.903818689749099458e-02,-8.517054468393325806e-02,5.841150501528213218e-02,2.825560189227552428e-03,-7.097175192295684205e-04,1.373219810720262800e-02,1.700763216651804410e-02,3.892060596109997439e-02,0.000000000000000000e+00,0.000000000000000000e+00,0.000000000000000000e+00,5.352408740828341616e-01,0.000000000000000000e+00
1.817261000000000015e+00,9.846108196682810954e-02,1.031748662092607377e-01,8.401618599891662598e-01,1.510063042744350104e-02,-1.317205299592116852e-02,1.411007908783412645e-02,6.115909797316344820e-02,7.041967774243827749e-02,-8.666206151247024536e-02,4.273653799238663620e-03,-9.560167394508529634e-03,1.982685638546633280e-02,7.288633114817583483e-03,2.121908457879145837e-02,3.936483545676666695e-02,0.000000000000000000e+00,0.000000000000000000e+00,0.000000000000000000e+00,5.355193742754142949e-01,0.000000000000000000e+00
1.843032999999999921e+00,1.003782001062847595e-01,1.068290532448398777e-01,8.384464979171752930e-01,1.503323741863910393e-02,-1.365592693732442520e-02,1.448525871893591166e-02,6.443332532963071124e-02,8.576184436038733483e-02,-9.509842842817306519e-02,-2.159046806073623009e-02,5.843323806520316771e-03,2.867993431724673997e-02,2.742883000280775530e-02,2.166068239641703516e-02,4.039979052329084608e-02,0.000000000000000000e+00,0.000000000000000000e+00,0.000000000000000000e+00,5.363657433242086103e-01,0.000000000000000000e+00
1.867707000000000006e+00,1.015889972284145376e-01,1.092295415556036875e-01,8.372666835784912109e-01,1.515025618299179096e-02,-1.433445401184574308e-02,1.460577450626399099e-02,5.954685797168603190e-02,7.087179539021580543e-02,-9.122639149427413940e-02,-2.114657319619510020e-02,-6.607678944749263705e-02,7.225242753474478766e-03,8.850410318322496361e-03,1.221262961143126068e-02,4.081295994638750591e-02,0.000000000000000000e+00,0.000000000000000000e+00,0.000000000000000000e+00,5.362424694154410698e-01,0.000000000000000000e+00
1.893329000000000040e+00,1.034395130786314315e-01,1.126879110236685133e-01,8.355421423912048340e-01,1.553533679257953527e-02,-1.494473989654343526e-02,1.487832107604458720e-02,5.943080556298236533e-02,8.005317559560148899e-02,-8.657412230968475342e-02,2.615038240572533854e-02,1.480834750103457095e-02,1.183560550888359056e-02,2.249796389531719815e-02,1.137182250465155857e-02,4.157593415807242510e-02,0.000000000000000000e+00,0.000000000000000000e+00,0.000000000000000000e+00,5.361402943583890579e-01,0.000000000000000000e+00
1.918228000000000044e+00,1.046783140318459232e-01,1.148088457997667733e-01,8.343507051467895508e-01,1.601690247486209709e-02,-1.561749381595523012e-02,1.470457773427624737e-02,6.608707852020710705e-02,7.618282903161011088e-02,-8.900847285985946655e-02,5.763367701224604567e-02,-6.671225442839895381e-02,-2.256980637987417507e-02,1.379957624092044421e-02,1.418133140781138897e-02,4.106849836891857120e-02,0.000000000000000000e+00,0.000000000000000000e+00,0.000000000000000000e+00,5.364947580647135839e-01,0.000000000000000000e+00
1.943141000000000007e+00,1.064935208074078848e-01,1.179485890702192674e-01,8.325150012969970703e-01,1.675540269869082999e-02,-1.573920790982263895e-02,1.487163788231482542e-02,4.777818446525599477e-02,7.095993996797250736e-02,-8.360598236322402954e-02,8.168638815171703343e-03,-1.269893873735628009e-02,3.114600075553755273e-02,7.665745496006058993e-03,-5.097358428088664961e-03,4.168062038847203388e-02,0.000000000000000000e+00,0.000000000000000000e+00,0.000000000000000000e+00,5.363114962047876855e-01,0.000000000000000000e+00
1.967546999999999935e+00,1.076743812237323794e-01,1.199508330847069149e-01,8.313634991645812988e-01,1.719961787139811030e-02,-1.563251911252638848e-02,1.478011608772944463e-02,6.061452028557787197e-02,7.734270496730580313e-02,-8.458298444747924805e-02,1.142412806344601447e-02,-1.284429940692801038e-02,-3.985619912814184623e-02,1.380631678618151302e-02,1.510805674639410963e-02,4.126627703576585260e-02,0.000000000000000000e+00,0.000000000000000000e+00,0.000000000000000000e+00,5.365822642341354642e-01,0.000000000000000000e+00
1.992647999999999975e+00,1.088748962425918482e-01,1.219354652857341098e-01,8.301966190338134766e-01,1.721291862048984073e-02,-1.578101413526900032e-02,1.501478274291345727e-02,5.545332754490283483e-02,7.741472839121706084e-02,-8.435355126857757568e-02,1.305210787589640258e-02,-5.359152855377902246e-04,2.142029155021068013e-02,1.304140414983757761e-02,5.695402311343177384e-03,4.199839957361040099e-02,0.000000000000000000e+00,0.000000000000000000e+00,0.000000000000000000e+00,5.367333488060057611e-01,0.000000000000000000e+00
2.017106000000000066e+00,1.107772727586837647e-01,1.250849497652284648e-01,8.283860087394714355e-01,1.740194503219608807e-02,-1.631383175156386756e-02,1.525140757093312871e-02,4.492537292637579366e-02,7.354407234040598318e-02,-7.392755150794982910e-02,4.157027609648867444e-02,4.668899254945394449e-03,3.572083697454525759e-03,1.042735816315680172e-02,-4.590073730225807842e-03,4.274228287460152265e-02,0.000000000000000000e+00,0.000000000000000000e+00,0.000000000000000000e+00,5.361944849184515638e-01,0.000000000000000000e+00
2.044278999999999957e+00,1.120835206146438973e-01,1.271755322480343509e-01,8.273246884346008301e-01,1.748208198227748505e-02,-1.689934619059751952e-02,1.522576134263631253e-02,5.562476773353942916e-02,7.344264091931865246e-02,-8.155919611454010010e-02,2.883743869177721793e-03,-3.587763963248750271e-02,1.187238839722836413e-02,1.216919984032589254e-02,6.245051992418797909e-03,4.258356793585355016e-02,0.000000000000000000e+00,0.000000000000000000e+00,0.000000000000000000e+00,5.369277577134676793e-01,0.000000000000000000e+00
2.067158000000000051e+00,1.140163682718473154e-01,1.301946982714844436e-01,8.257095217704772949e-01,1.831978418351551743e-02,-1.690807306691954892e-02,1.512087593167232846e-02,4.608741832016122197e-02,6.879987310667186329e-02,-8.129585534334182739e-02,4.228834966498830339e-02,2.126680829292365224e-02,-1.509509097394410269e-02,4.426628994817665905e-03,-5.336277272539725544e-03,4.238352265482686621e-02,0.000000000000000000e+00,0.000000000000000000e+00,0.000000000000000000e+00,5.371048316727852212e-01,-0.000000000000000000e+00
2.092009000000000007e+00,1.152949371139955215e-01,1.321231630212689467e-01,8.245378732681274414e-01,1.819574941426930006e-02,-1.698277337261377973e-02,1.509760248223135370e-02,5.290630390264235150e-02,6.623339814508311107e-02,-8.075536787509918213e-02,-3.996816748714260986e-02,3.465471312579458674e-02,2.163071360557585268e-02,5.574198451453538442e-03,4.880750447483436262e-03,4.223514090301372370e-02,0.000000000000000000e+00,0.000000000000000000e+00,0.000000000000000000e+00,5.372527724960638462e-01,0.000000000000000000e+00
2.117307999999999968e+00,1.172359548465069928e-01,1.348826907800317887e-01,8.228986859321594238e-01,1.816693353529236915e-02,-1.685355441530922427e-02,1.498833943855548689e-02,5.432597653440641300e-02,6.856925907041924728e-02,-7.283280789852142334e-02,7.085985348853223592e-03,-1.079276062928245794e-02,8.527390666669965036e-03,1.089520244743481803e-02,6.271052941368724341e-03,4.191744454997753389e-02,0.000000000000000000e+00,0.000000000000000000e+00,0.000000000000000000e+00,5.368967712269091530e-01,0.000000000000000000e+00
2.144184000000000090e+00,1.192029450720110129e-01,1.373803251176391738e-01,8.211055397987365723e-01,1.754307768963874956e-02,-1.678196267245724016e-02,1.485043859050971804e-02,4.349672572342522942e-02,6.455449263694580664e-02,-7.127588987350463867e-02,2.239101428302151843e-03,-1.769404012969546906e-03,-2.223131534358376016e-02,1.212688086977024328e-02,-2.843684755366292487e-03,4.160593828213482448e-02,0.000000000000000000e+00,0.000000000000000000e+00,0.000000000000000000e+00,5.369927168225845371e-01,0.000000000000000000e+00
2.167479999999999851e+00,1.204705936410303685e-01,1.390028358240817663e-01,8.199492692947387695e-01,1.725675952068357610e-02,-1.707373391481481484e-02,1.489534753013255219e-02,4.974506263391362260e-02,6.404139286156265709e-02,-6.989936530590057373e-02,-8.914919129148504706e-03,-1.014699782649903896e-02,3.578766937359659228e-03,1.591876622673651931e-02,5.902727100019843076e-03,4.166103517340091766e-02,0.000000000000000000e+00,0.000000000000000000e+00,0.000000000000000000e+00,5.370788991682581281e-01,0.000000000000000000e+00
2.191683999999999966e+00,1.217450156941937561e-01,1.405324797984220386e-01,8.188045620918273926e-01,1.736552313652847679e-02,-1.771011685209900044e-02,1.467965882085331408e-02,5.574015652360355538e-02,6.218030572322626875e-02,-6.628688424825668335e-02,3.730019767218171328e-02,-7.351434647350775509e-02,-3.320440854528462077e-02,1.475829159496831050e-02,6.341360112395786133e-03,4.105299620288110907e-02,0.000000000000000000e+00,0.000000000000000000e+00,0.000000000000000000e+00,5.369947537649156777e-01,0.000000000000000000e+00
2.217524000000000051e+00,1.236672773979162060e-01,1.425569021948328297e-01,8.171461820602416992e-01,1.750819520984640484e-02,-1.802403670409469250e-02,1.439462439042182851e-02,3.853439280099770631e-02,5.752548473704195003e-02,-6.744947284460067749e-02,-4.607606165816015981e-02,-1.471659151370845187e-02,1.748596019860601883e-02,1.158160509723501347e-02,-1.301701950633782010e-02,4.041027146968306782e-02,0.000000000000000000e+00,0.000000000000000000e+00,0.000000000000000000e+00,5.372701064543579097e-01,0.000000000000000000e+00
2.243136999999999937e+00,1.250825668121311740e-01,1.436026336551457228e-01,8.161208629608154297e-01,1.796764784437407045e-02,-1.785273905440387665e-02,1.420660813913432463e-02,4.734334732100083792e-02,6.236236223974667148e-02,-6.404749304056167603e-02,-5.148913518785177765e-03,4.866057987693163389e-02,-3.838974865665620295e-02,1.556724277528514881e-02,3.539365577151887092e-03,3.975051357875603042e-02,0.000000000000000000e+00,0.000000000000000000e+00,0.000000000000000000e+00,5.372100704298574669e-01,-0.000000000000000000e+00
2.268206000000000166e+00,1.271718623755448418e-01,1.450947535314537074e-01,8.144958615303039551e-01,1.798358073467815413e-02,-1.797783350256199064e-02,1.399711802294190122e-02,4.891417554268941148e-02,5.303608893141695257e-02,-5.605991557240486145e-02,-5.332933319814657167e-03,-3.297691332255642260e-02,-9.032853620460747426e-03,6.184545573658151857e-03,2.665282585617461796e-03,3.917111356228591967e-02,0.000000000000000000e+00,0.000000000000000000e+00,0.000000000000000000e+00,5.368297812796661850e-01,0.000000000000000000e+00
2.293911000000000033e+00,1.285144694521888897e-01,1.460676793156783504e-01,8.134256601333618164e-01,1.757200123545445136e-02,-1.791208117356379859e-02,1.392571682525756138e-02,3.373350836974762373e-02,5.332086576890805035e-02,-5.874533578753471375e-02,1.299502778156472714e-02,2.968017170679482578e-03,3.063351302177222662e-03,1.318922159105132171e-02,-1.105225210645467866e-02,3.908265036003127912e-02,0.000000000000000000e+00,0.000000000000000000e+00,0.000000000000000000e+00,5.371803431894091041e-01,0.000000000000000000e+00
2.321617999999999959e+00,1.303760972303934229e-01,1.476735232912463613e-01,8.118908405303955078e-01,1.731360682416210883e-02,-1.857914894095658020e-02,1.369415025773923489e-02,5.766132505279174258e-02,5.255574323526103486e-02,-6.051098927855491638e-02,-1.199829959083978381e-02,-6.115116826474595313e-02,-2.949267688073966068e-02,1.480449262549550331e-02,1.384733888547257097e-02,3.823244821943250216e-02,0.000000000000000000e+00,0.000000000000000000e+00,0.000000000000000000e+00,5.375360624293435974e-01,0.000000000000000000e+00
2.342042000000000179e+00,1.314557154426851671e-01,1.490547056230308309e-01,8.108777403831481934e-01,1.734461338891760129e-02,-1.857599073571125636e-02,1.353442249821745769e-02,3.805906191882865025e-02,4.615187483823713493e-02,-5.873251706361770630e-02,1.329775902042812895e-02,6.314321764024541893e-03,-1.159684093083159298e-02,1.010538613793785130e-02,-1.225025656299334742e-02,3.799337807045205517e-02,0.000000000000000000e+00,0.000000000000000000e+00,0.000000000000000000e+00,5.375402334806446136e-01,-0.000000000000000000e+00
2.368097999999999814e+00,1.330695492239965805e-01,1.509721447907358405e-01,8.094354271888732910e-01,1.759944958943809173e-02,-1.877717627680985935e-02,1.297665506631595633e-02,3.880925888281649278e-02,4.591236092040312800e-02,-4.911733791232109070e-02,5.642686589948704527e-03,2.594689378787509715e-02,-2.992497802616418678e-02,1.193523205989943659e-02,-4.839955452942014576e-03,3.637403745843564851e-02,0.000000000000000000e+00,0.000000000000000000e+00,0.000000000000000000e+00,5.370504267295833634e-01,-0.000000000000000000e+00
2.394042999999999921e+00,1.345983073320389800e-01,1.527896817144291930e-01,8.080263137817382812e-01,1.761254365904024732e-02,-1.873008564891964767e-02,1.262065078943153118e-02,4.410056063232297568e-02,4.687018961408538631e-02,-4.258327558636665344e-02,-1.159198189016800995e-02,-3.005116926935221325e-02,-1.644913296292615026e-02,1.425950516381235475e-02,1.476708006623287175e-03,3.532628894764755501e-02,0.000000000000000000e+00,0.000000000000000000e+00,0.000000000000000000e+00,5.367747175611552457e-01,0.000000000000000000e+00
2.418003000000000124e+00,1.355639111362219873e-01,1.539600462094459499e-01,8.071288466453552246e-01,1.763294181871661800e-02,-1.848547988010795784e-02,1.210529349800926191e-02,3.293360277114230211e-02,4.064440185935980221e-02,-4.942622780799865723e-02,1.553004775103505701e-02,-2.011847847750838480e-03,-2.925125896989765398e-02,8.731300954473825496e-03,-8.969462199392331733e-03,3.396660638249293651e-02,0.000000000000000000e+00,0.000000000000000000e+00,0.000000000000000000e+00,5.374023901615370136e-01,0.000000000000000000e+00
2.443678999999999935e+00,1.365910293681636689e-01,1.549569727814590625e-01,8.062720298767089844e-01,1.744245902410690788e-02,-1.833234212633061411e-02,1.196538837253413590e-02,3.613835798250143727e-02,4.578089655747823866e-02,-4.867918789386749268e-02,-6.182242852709676426e-03,3.929695363851076068e-02,2.859615917238418712e-03,1.775388079235101779e-02,-2.519231917254281024e-04,3.350604727977118946e-02,0.000000000000000000e+00,0.000000000000000000e+00,0.000000000000000000e+00,5.375131909620732840e-01,0.000000000000000000e+00
2.467935999999999908e+00,1.380134521655231039e-01,1.563743906193108268e-01,8.050686717033386230e-01,1.747272952610741392e-02,-1.862481593616416298e-02,1.120780850057356837e-02,3.053834720102477709e-02,3.700600574183806474e-02,-4.274602606892585754e-02,2.889848468889212596e-02,1.958608142609979518e-03,-2.920141992144195675e-02,8.728621301705029659e-03,-7.637281283488119368e-03,3.144225183693344361e-02,0.000000000000000000e+00,0.000000000000000000e+00,0.000000000000000000e+00,5.372445765121662831e-01,0.000000000000000000e+00
2.493047999999999931e+00,1.389544739020422415e-01,1.572600908795111774e-01,8.042627573013305664e-01,1.755878084697903851e-02,-1.851757581816326770e-02,1.059513170192705189e-02,3.605443027062859435e-02,3.294024636776522741e-02,-3.842852264642715454e-02,-2.145474725743262701e-02,-1.574759972877919426e-02,-3.121620927954827859e-02,8.111648591995578375e-03,1.009084110207725477e-03,2.965847083344796964e-02,0.000000000000000000e+00,0.000000000000000000e+00,0.000000000000000000e+00,5.370840782727930307e-01,0.000000000000000000e+00
2.517107999999999901e+00,1.402840789529747334e-01,1.584679719336837267e-01,8.030806183815002441e-01,1.777053396603461496e-02,-1.834891458486143101e-02,9.807087919445178770e-03,4.149567061613954055e-02,3.837864989548301492e-02,-4.036326706409454346e-02,-3.593111685187569404e-02,2.857261425885701880e-02,-1.504484083165939963e-02,1.423333397874044538e-02,6.288664715050109634e-03,2.740890125880923733e-02,0.000000000000000000e+00,0.000000000000000000e+00,0.000000000000000000e+00,5.374060175011411422e-01,0.000000000000000000e+00
2.542168999999999901e+00,1.412621207815686619e-01,1.591353452173690231e-01,8.022612929344177246e-01,1.788352164262016486e-02,-1.839761493753555577e-02,9.448337154379649050e-03,3.473788065358500432e-02,2.864562972033843705e-02,-3.215175122022628784e-02,-3.823257045182741273e-03,-3.416997118328728850e-02,-3.077891888374030202e-02,3.237111160604648485e-03,-1.509175640210702130e-03,2.646725110388181701e-02,0.000000000000000000e+00,0.000000000000000000e+00,0.000000000000000000e+00,5.369394023476936617e-01,0.000000000000000000e+00
2.568092000000000041e+00,1.427157005763847186e-01,1.600158637214702806e-01,8.009948730468750000e-01,1.783052184133899695e-02,-1.841712092056302374e-02,8.742909332984272197e-03,3.029264418883760926e-02,3.110184079568626553e-02,-2.702907659113407135e-02,-7.274798484325015061e-05,2.418180380994605291e-02,-2.604385611448525872e-02,1.018625653810847215e-02,-2.474278648996054708e-03,2.450051166114880496e-02,0.000000000000000000e+00,0.000000000000000000e+00,0.000000000000000000e+00,5.367493630053422615e-01,-0.000000000000000000e+00
2.592576000000000214e+00,1.436194212263912362e-01,1.605312664966485892e-01,8.001272082328796387e-01,1.804893994297913917e-02,-1.870089674129871149e-02,8.077132964049438257e-03,4.233345427752199103e-02,2.728994825701472338e-02,-3.376599028706550598e-02,2.782329646051853039e-02,-4.346268992495849054e-02,-4.229212483579353199e-02,4.582855571934911151e-03,9.153446105172982281e-03,2.254280238720113294e-02,0.000000000000000000e+00,0.000000000000000000e+00,0.000000000000000000e+00,5.373904826628597142e-01,0.000000000000000000e+00
2.617429000000000006e+00,1.449193053243783558e-01,1.612858477401470647e-01,7.987628579139709473e-01,1.818996174632608528e-02,-1.894951746476580823e-02,7.295289699770002301e-03,2.339027298964145574e-02,2.098212540682379418e-02,-2.452954836189746857e-02,-4.816957995579164431e-03,-4.648277881038820336e-02,-1.510682271905035463e-02,1.453556438657521710e-05,-1.365671341816835672e-02,2.053435891854404893e-02,0.000000000000000000e+00,0.000000000000000000e+00,0.000000000000000000e+00,5.368814027286877844e-01,0.000000000000000000e+00
2.642650999999999861e+00,1.456291099710412540e-01,1.618455950995289216e-01,7.978367805480957031e-01,1.839845595809182915e-02,-1.880768804072374678e-02,6.782731464231916974e-03,2.471949054210311608e-02,2.822628297081472559e-02,-2.689159102737903595e-02,1.388833860050962821e-02,9.528137287650010473e-03,-5.376963541201446040e-02,8.215588442534520544e-03,-4.460836115648617560e-03,1.902871202531336570e-02,0.000000000000000000e+00,0.000000000000000000e+00,0.000000000000000000e+00,5.372180853807050349e-01,0.000000000000000000e+00
2.667537999999999965e+00,1.466137990590459517e-01,1.626119067129730422e-01,7.964707016944885254e-01,1.800519038164010918e-02,-1.919592305273454258e-02,5.959983833520920982e-03,3.005670035627294040e-02,2.180071037067849576e-02,-2.664479240775108337e-02,-3.248962498704357355e-02,-9.728739632882002150e-03,-1.961506317978231259e-02,2.852186231799646796e-03,-1.734280209847816360e-03,1.670142145553593638e-02,0.000000000000000000e+00,0.000000000000000000e+00,0.000000000000000000e+00,5.373789766219493336e-01,0.000000000000000000e+00
2.692238999999999827e+00,1.472391696702539665e-01,1.630899126143280087e-01,7.956188917160034180e-01,1.791751814422529523e-02,-1.915490618944004630e-02,5.276226063416267209e-03,1.518346301102272561e-02,1.858043667339059554e-02,-2.407192438840866089e-02,-9.300258383319985611e-03,4.569345685991001854e-02,-2.518924387704313608e-02,3.225110865091640466e-03,-1.699448488860826056e-02,1.490690774171010702e-02,0.000000000000000000e+00,0.000000000000000000e+00,0.000000000000000000e+00,5.373230149803661648e-01,-0.000000000000000000e+00
2.717532999999999976e+00,1.481483716213628787e-01,1.636969070721316921e-01,7.941929101943969727e-01,1.777723485538142828e-02,-1.928640167732176280e-02,4.250168310926172310e-03,3.425638703543170543e-02,1.917574722861483186e-02,-2.533621527254581451e-02,-1.250697574862481669e-02,-1.587608441707270140e-02,-5.661172027595846867e-02,6.324848408646496084e-03,6.003746862014702583e-03,1.185286311160821393e-02,0.000000000000000000e+00,0.000000000000000000e+00,0.000000000000000000e+00,5.376253664082291106e-01,0.000000000000000000e+00
2.742844999999999978e+00,1.485295860883714680e-01,1.643231443930298352e-01,7.933278679847717285e-01,1.755007519521111295e-02,-1.908252634948692794e-02,3.741416414108078570e-03,2.166903958549428258e-02,1.155953826047654426e-02,-1.507927477359771729e-02,-1.361893650865574935e-02,-1.103857916948857917e-02,-3.274211991348735529e-02,1.247440592676235180e-03,-1.064198298825879720e-02,1.055692665986895928e-02,0.000000000000000000e+00,0.000000000000000000e+00,0.000000000000000000e+00,5.370056602747339536e-01,0.000000000000000000e+00
2.768470000000000208e+00,1.487630294177074985e-01,1.656265317756677735e-01,7.918708920478820801e-01,1.707547880294778969e-02,-1.904319228130146868e-02,2.988341324317467240e-03,1.629571473659860784e-02,1.765762778819783552e-02,-1.648892275989055634e-02,-2.807223495526509419e-02,2.331021532505554023e-02,-4.204857371221147611e-02,1.375307716325087359e-02,-1.102850698340042054e-02,8.453728542890170949e-03,0.000000000000000000e+00,0.000000000000000000e+00,0.000000000000000000e+00,5.373017643892269435e-01,0.000000000000000000e+00
2.792183000000000082e+00,1.489055049003160935e-01,1.664014426377009859e-01,7.909901738166809082e-01,1.699304816989489000e-02,-1.951581062793428245e-02,2.466056325299170737e-03,1.766603126736810900e-02,1.743181515046664937e-02,-1.086842268705368042e-02,-7.335259393664173531e-03,-1.490524733309764142e-02,-2.673552508585898616e-02,1.282535133222509685e-02,-1.063240855296093863e-02,6.987403489949861601e-03,0.000000000000000000e+00,0.000000000000000000e+00,0.000000000000000000e+00,5.370419647085323822e-01,0.000000000000000000e+00
