timestamp,x,y,z,roll,pitch,yaw,vx,vy,vz,p,q,r,psp,qsp,rsp,pres,qres,rres,thrust_sp, thrust_res
0.000000000000000000e+00,6.655823408854455447e-03,-6.708793549110165545e-03,1.006977677345275879e+00,8.708626110855289051e-03,-5.678465956318490271e-03,3.015310812145783129e-03,2.150619957194718334e-03,-8.404236906340114763e-03,-8.748377673327922821e-03,2.588489470297736239e-02,-3.287320333278384576e-02,2.304066792116610946e-02,-8.019257057274191414e-02,-6.780639468281632332e-02,-1.842732345626624246e-01,-1.251343488693237339e-02,-3.684178590774535994e-02,-1.927627801895141491e-01,5.152729857978691763e-01,1.703228950500488281e-01,1.016260385513305664e-01,-4.417593551378246275e+01,1.654106855392455944e-01
2.327500000000000055e-02,6.573637347480784827e-03,-6.975735829645391718e-03,1.006934881210327148e+00,8.832357506041750919e-03,-5.286810243479322935e-03,2.866116499169815007e-03,-1.279452286700448038e-03,-1.168779097775882181e-02,-7.558028213679790497e-03,-1.597677575027482352e-02,1.316809545476014393e-02,-1.456136221787529030e-02,-2.748171469450491067e-01,9.682269932773041043e-02,9.887562340174263498e-02,-2.046959280967712291e-01,1.283614754676818681e-01,9.080382585525512140e-02,5.061966994391873254e-01,-3.080511093139648438e-01,-1.448544263839721680e-01,7.555423437217123706e+01,1.654106855392455944e-01
5.289499999999999758e-02,6.411215629695802935e-03,-7.316947827635686408e-03,1.006850242614746094e+00,8.340124228361806002e-03,-5.156749103700342118e-03,3.140078677051259815e-03,-5.523156884957630165e-03,-4.708620743111747650e-03,-2.125738747417926788e-02,-6.898038003217772662e-02,3.921756560258107815e-02,3.957957858209389806e-02,-2.183997172084523597e-01,1.044882099739326276e-01,1.191571851248128672e-01,-1.573628962039947399e-01,1.381861567497253418e-01,1.103120863437652560e-01,5.111458909530203210e-01,-1.007100343704223633e-01,3.645265102386474609e-02,1.218228442249972261e+02,1.654106855392455944e-01
7.568900000000000627e-02,6.431347142290621578e-03,-7.706465594419468525e-03,1.006787776947021484e+00,8.205748673067189344e-03,-5.396194420851152529e-03,2.892694179762856418e-03,2.643472528883704202e-03,-1.058983475669516248e-02,-7.294845301657915115e-03,-2.091927230770916635e-02,-7.817815036031166426e-03,-3.898309232502293609e-02,-2.763645788850119245e-01,-1.722988054200438324e-01,-1.103392916320066058e-01,-2.100805699825286921e-01,-1.442872524261474554e-01,-1.184762835502624484e-01,5.041697094606054641e-01,-4.152812957763671875e-01,-5.487594604492187500e-01,8.515987774160784340e+01,1.654106855392455944e-01
9.792700000000000016e-02,6.550652430084821613e-03,-8.231902132520731510e-03,1.006615281105041504e+00,7.059954961637042795e-03,-5.183897817841121025e-03,2.329532488804023777e-03,1.591260026037286416e-03,-2.379797214314867404e-03,-2.282767556607723236e-02,-9.124334967172716138e-02,2.557734155771866635e-02,-2.165190845437087522e-02,-2.182275192423154542e-01,7.607133144793245400e-03,-9.268958480988905013e-02,-1.665472805500030351e-01,3.619721531867980957e-02,-9.925024509429931918e-02,5.065366789090135491e-01,-3.531942367553710938e-01,2.115544080734252930e-01,5.031122465273269739e+01,1.654106855392455944e-01
1.266359999999999986e-01,6.700838005450254591e-03,-8.882667576591365272e-03,1.005970120429992676e+00,2.843740627961653146e-03,-6.325552166818626532e-03,1.232269355638294017e-03,-4.218308214416957753e-03,4.021297876841625416e-03,-3.352719172835350037e-02,-1.628298788337105563e-01,-9.269052729259526224e-02,-1.403003421805228655e-02,-9.787410847829705607e-02,-2.161861375311341926e-01,-2.074988736186575700e-01,-7.713782787322998047e-02,-1.757492780685424860e-01,-2.109709739685058649e-01,5.026606408606650866e-01,-6.036686897277832031e-01,3.813811540603637695e-01,8.666495090635517329e+01,1.654106855392455944e-01
1.509890000000000121e-01,6.781121840443017461e-03,-9.138514279532635246e-03,1.005208134651184082e+00,-1.687697647306430401e-03,-6.503066061893658656e-03,1.699601789550709771e-03,-1.241926138289596929e-02,4.212781428145298372e-03,-5.468989536166191101e-02,-2.474085519570360936e-01,1.845033922654771858e-04,4.317443334265525651e-02,-1.178270567514151136e-02,-1.056672067991691888e-01,-1.868112957458630263e-01,-1.955950856208801131e-02,-5.839340686798095287e-02,-1.915479898452758789e-01,5.110689285769884904e-01,-2.480372190475463867e-01,2.117432355880737305e-01,1.089023461268133559e+02,1.654106855392455944e-01
1.736149999999999916e-01,6.861148439169033678e-03,-9.299593287723801477e-03,1.004176974296569824e+00,-7.074396847667953347e-03,-6.354615086918480316e-03,2.568249212546648563e-03,1.746127069699117992e-04,1.365411785495184750e-02,-6.286443769931793213e-02,-2.825173333981686463e-01,4.736850713087600168e-02,2.032153805175567277e-02,1.785579509033340673e-01,1.190945133891028740e-01,-1.990107057783789546e-01,1.283810734748840332e-01,1.541085541248321533e-01,-2.061532974243164007e-01,5.098306465492672412e-01,-3.531891107559204102e-01,2.443325519561767578e-02,-2.478869968679514102e+01,1.654106855392455944e-01
1.974990000000000079e-01,6.645993194665715184e-03,-9.164774041109444505e-03,1.002909421920776367e+00,-1.223676210574755306e-02,-6.180864021802179309e-03,4.105450431782690403e-03,3.434817613530968816e-03,1.155051276680215712e-02,-7.449766248464584351e-02,-2.203891029015689063e-01,-2.647363453947417303e-02,1.255552592980846149e-01,2.572584021262214193e-01,6.636189904948593121e-02,-2.087887069601867263e-01,1.765069484710693193e-01,9.965046644210814875e-02,-2.201975226402282659e-01,5.076959633398284710e-01,-5.209547281265258789e-01,-1.033335924148559570e-01,9.454627203868703589e+01,1.654106855392455944e-01
2.262119999999999964e-01,6.370972217211899429e-03,-8.869949198745600075e-03,1.000611782073974609e+00,-1.842487925427827716e-02,-4.125299828420914139e-03,6.834794518121438921e-03,-5.873245625923696582e-03,1.831294240882219357e-02,-8.652172237634658813e-02,-1.667162349685805955e-01,1.164231609839164183e-01,7.545442934772508825e-02,3.045453310012817272e-01,1.849401874086207542e-01,-1.881148389541301424e-01,2.045453310012817216e-01,2.129652321338653398e-01,-2.071474313735961748e-01,5.088131410487253259e-01,-5.226088762283325195e-01,2.201985120773315430e-01,9.987306827048827529e+01,1.654106855392455944e-01
2.487270000000000036e-01,6.184514010148626194e-03,-8.620492094302973848e-03,9.988672137260437012e-01,-2.074228636817247728e-02,-2.354485942980488744e-03,9.180873605383357144e-03,9.503394787710467027e-04,1.932620237225774612e-02,-1.032783091068267822e-01,-1.093610519562583094e-01,9.586911468665518243e-02,1.673006521513514255e-01,2.980958700180053600e-01,1.967960231909373359e-01,-1.553552301354386433e-01,1.980958700180053544e-01,2.067596554756164495e-01,-1.810191392898559404e-01,5.131882204911195622e-01,-3.680603504180908203e-01,7.792818546295166016e-02,7.507151075258059336e+01,1.654106855392455944e-01
2.724010000000000042e-01,5.957200023331478411e-03,-8.321278003778714849e-03,9.970719814300537109e-01,-2.036953432429261870e-02,-2.074299633715970259e-03,1.138167688448654159e-02,-9.497366528156497845e-03,1.431470589144582216e-02,-9.172947704792022705e-02,4.623815647950408475e-02,-3.506722008604024055e-02,9.417027705280903160e-02,8.706472516059876599e-02,-1.620073038016884848e-01,-1.371679433764320943e-01,-1.293527483940124477e-02,-1.444147109985351451e-01,-1.689610004425048662e-01,5.258271150809126215e-01,3.470836877822875977e-01,-2.279412746429443359e-02,1.040209397005994703e+02,1.654106855392455944e-01
3.003959999999999964e-01,5.792214920835600869e-03,-8.379828998735681586e-03,9.941335916519165039e-01,-1.660483645923932841e-02,-3.077231318433071294e-03,1.555508668684371827e-02,-5.328082565765735086e-03,1.823039086768649120e-02,-1.090950071811676025e-01,1.572232081171473783e-01,-2.621780508597399903e-02,1.284476818520602637e-01,3.304954171180725375e-02,-9.173365949489507842e-02,-1.133479957495809598e-01,-6.695045828819275180e-02,-7.233256101608276367e-02,-1.568368434906005915e-01,5.262006496821598489e-01,2.814619541168212891e-01,2.861343622207641602e-01,5.830140875515080978e+01,1.654106855392455944e-01
3.235060000000000158e-01,5.705516015703087154e-03,-8.537735487057591596e-03,9.919399619102478027e-01,-1.174789340741989527e-02,-5.498195094141955508e-03,1.820066900607494875e-02,-1.185780429914058166e-02,2.169554186912201615e-02,-1.125636100769042969e-01,2.860770183109396791e-01,-1.675446805924598048e-01,1.423108724066365349e-01,2.264837801018705632e-01,-1.718205033684049865e-01,-1.398751005518249213e-01,1.410743951797485407e-01,-1.309963703155517523e-01,-1.907454371452331487e-01,5.243747717183336876e-01,1.537733078002929688e-01,-6.310408115386962891e-01,1.456400553702901846e+01,1.654106855392455944e-01
3.464349999999999929e-01,5.611117262573213707e-03,-8.680936397882872690e-03,9.896405935287475586e-01,-6.120903305381693478e-03,-8.087745009468072510e-03,2.040446253024716036e-02,-1.109405234754056759e-02,2.059986227427718433e-02,-1.252232342958450317e-01,2.469568463260660984e-01,-1.161981230330076387e-01,8.395820360500719226e-02,1.705808227299707158e-01,-1.900665036591572266e-01,-1.358454679336948412e-01,1.232784032821655218e-01,-1.339965462684631348e-01,-1.929176330566406139e-01,5.246927373390081195e-01,1.051834821701049805e-01,-3.235232830047607422e-02,1.002262300317129586e+02,1.654106855392455944e-01
3.758619999999999739e-01,5.516381149048172131e-03,-8.668629574555311926e-03,9.857383370399475098e-01,6.765024637605563740e-04,-1.000486250473819894e-02,2.381327332303115676e-02,-3.059534399888647407e-03,3.199233033139729093e-02,-1.419394910335540771e-01,1.664649714909923195e-01,6.983159872551466911e-03,1.543960282359511660e-01,-1.697164862326506485e-01,-1.513603073869943527e-01,-1.832493290197141633e-02,-1.816949129104614147e-01,-8.932163715362548273e-02,-8.504455089569092074e-02,5.277810775931780496e-01,1.840430498123168945e-01,-5.898153781890869141e-02,1.028075292737900241e+02,1.654106855392455944e-01
3.995119999999999783e-01,5.516149830260834615e-03,-8.479437901527298385e-03,9.828812479972839355e-01,3.646314271534812322e-03,-9.306175227402624373e-03,2.573817926885796012e-02,-8.542128632208118716e-03,2.749943470513318763e-02,-1.416055411100387573e-01,1.312710460675607094e-01,2.920194068312199562e-02,6.185049917238095996e-02,-2.101940790065040532e-01,-9.463925262890890422e-02,3.691165651437370437e-02,-1.980344474315643144e-01,-3.176500797271728654e-02,-3.522834777832031111e-02,5.253742774660123960e-01,3.505480289459228516e-02,-7.824933528900146484e-02,1.027682693464407890e+02,1.654106855392455944e-01
4.226840000000000042e-01,5.583666356129852321e-03,-7.841583652175325089e-03,9.798616766929626465e-01,5.983150935190287636e-03,-7.424606310576509216e-03,2.805908243801137625e-02,-5.722879322596481806e-03,3.566984687885830368e-02,-1.465557515621185303e-01,1.551306142077881201e-01,1.058089130952291207e-01,1.163577894877446811e-01,-2.221819787143591851e-01,-1.173948419328810500e-01,2.053671350420935571e-01,-2.022397220134735107e-01,-7.004495859146117609e-02,1.267110228538513017e-01,5.256597644072845688e-01,1.071906089782714844e-02,-1.833323240280151367e-01,9.736770707160340521e+01,1.654106855392455944e-01
4.518780000000000019e-01,5.719140769403607827e-03,-6.938659554538250188e-03,9.754655361175537109e-01,1.059335851265618723e-02,-3.624683645669479759e-03,3.085454706369836902e-02,6.778707251727110646e-03,3.503821753143673834e-02,-1.549718677997589111e-01,1.749195607989972867e-01,1.241807267970658490e-01,7.589960152789580750e-02,-2.545964007696455700e-01,-3.449006323236816773e-02,2.524720694924825759e-01,-2.035339057445526012e-01,-2.145867347717285087e-02,1.660420238971710150e-01,5.254134840205452184e-01,-6.227254867553710938e-02,7.690632343292236328e-02,7.291307535220818181e+01,1.654106855392455944e-01
4.747149999999999981e-01,5.858273866273096438e-03,-6.300584353914572694e-03,9.724037051200866699e-01,1.245552235272619386e-02,1.969448502916471000e-04,3.219701483622403743e-02,-6.383105400639636946e-03,3.066631170794116915e-02,-1.645841896533966064e-01,4.532985296454938862e-02,1.918313280528949616e-01,7.956306109152856687e-02,-2.735278199830922241e-01,1.213827280230942163e-01,2.929587149599051643e-01,-2.079486787319183294e-01,1.213639318943023626e-01,2.028072953224182018e-01,5.255689533936939162e-01,-1.134485602378845215e-01,-9.594357013702392578e-02,6.925984622178930294e+01,1.654106855392455944e-01
4.992750000000000243e-01,6.057140846107222400e-03,-5.581129923396898652e-03,9.692589044570922852e-01,1.256281215044813444e-02,3.832768289082189028e-03,3.300919694040074098e-02,4.664558489507325371e-03,3.640276000854184707e-02,-1.646932959556579590e-01,-6.175532055935319120e-02,2.179736968670781816e-01,1.514266309772552971e-02,-2.618157549663134853e-01,2.227122622696409981e-01,2.883236842806274902e-01,-2.009813904762267900e-01,1.883892059326171819e-01,1.960144579410552923e-01,5.231085940314631477e-01,-2.697215080261230469e-01,-1.961826086044311523e-01,8.765424233592898418e+01,1.654106855392455944e-01
5.231949999999999656e-01,6.067482366579600786e-03,-4.522335066533672392e-03,9.659782648086547852e-01,1.066948058893149413e-02,7.105155473945412581e-03,3.305405888921510160e-02,1.845338554755709265e-02,4.950506964713500407e-02,-1.720640063285827637e-01,-1.020447919365957412e-01,1.162956527749626906e-01,-3.894429424646331933e-02,-1.887856110614427596e-01,2.619624513952715228e-01,2.051249913658857449e-01,-1.501452505588531383e-01,1.971061170101165716e-01,1.127884268760681041e-01,5.240780982577507574e-01,-2.696805000305175781e-01,1.899539232254028320e-01,-7.996253408514584748e+01,1.654106855392455944e-01
5.521949999999999914e-01,5.763397257488618065e-03,-2.656387612484376222e-03,9.608042836189270020e-01,4.971837572375055990e-03,1.088079310851930437e-02,3.140053954660392693e-02,8.323526528581842721e-03,4.064380906900130763e-02,-1.724147200584411621e-01,-2.001915059883517811e-01,9.150277079367075128e-02,-7.863431319443109357e-02,-6.438153090752755936e-02,2.729212523534623736e-01,5.357115444362427897e-02,-5.576509237289428711e-02,1.938640236854553278e-01,-3.420331478118896623e-02,5.267212587404939139e-01,-1.581997275352478027e-01,-4.017547369003295898e-01,1.010550803176831778e+02,1.654106855392455944e-01
5.742699999999999472e-01,5.617632075376589526e-03,-1.375002443262517571e-03,9.572485089302062988e-01,4.710117216736480535e-04,1.251670193969500744e-02,2.954711062184172191e-02,1.613074025297747682e-02,5.164707806672051010e-02,-1.796683222055435181e-01,-2.156539191043117809e-01,3.487937916125814775e-02,-8.832869061203327266e-02,1.031733061877736779e-01,2.787454397161573949e-01,-3.131709236138649488e-02,7.215574979782103660e-02,1.817080736160278376e-01,-1.139291167259216253e-01,5.286211268400177188e-01,-1.085202693939208984e-01,-2.943938970565795898e-01,9.678899880360657448e+01,1.654106855392455944e-01
5.979659999999999975e-01,5.583561389519722806e-03,2.511623087525486338e-06,9.536401629447937012e-01,-4.642533040515175319e-03,1.283763078054001028e-02,2.719868498623696437e-02,1.938949098579316119e-02,5.999551320234377400e-02,-1.954415738582611084e-01,-2.621281138678253075e-01,-2.237857865943623445e-02,-9.202290156689840739e-02,2.186775794283717655e-01,2.650047421455383190e-01,-9.917778412698155521e-02,1.487800598144531083e-01,1.650047421455383134e-01,-1.753015279769897516e-01,5.314993237568186313e-01,-3.966754674911499023e-02,-4.842253923416137695e-01,8.836650812295626167e+01,1.654106855392455944e-01
6.269529999999999825e-01,5.280570350556226464e-03,2.435722684816628292e-03,9.481152296066284180e-01,-1.262985810371550395e-02,9.842125746582608414e-03,2.349034883497878520e-02,6.148315255311468698e-03,6.321876626729400206e-02,-1.907326728105545044e-01,-2.284621458379908487e-01,-2.106439160515129472e-01,-9.923880338826682190e-02,2.134999990463256891e-01,-4.054231999480573112e-02,-1.267314784433974106e-01,1.134999990463256836e-01,-1.104942798614501898e-01,-1.925944805145263505e-01,5.267311749154550693e-01,-3.157538771629333496e-01,-2.189091444015502930e-01,8.491192138416886337e+01,1.654106855392455944e-01
6.496830000000000105e-01,4.819340141566752327e-03,4.326657879760430550e-03,9.444113969802856445e-01,-1.792360381504748065e-02,5.788366075441420122e-03,2.174395249491145599e-02,-1.425612625414864412e-04,6.275388482947127922e-02,-1.975876390933990479e-01,-2.831987125670802352e-01,-1.887546130332806993e-01,-5.244353621281523659e-02,2.800580143928527721e-01,-4.541244892488052048e-02,-1.559442348574732184e-01,1.800580143928527665e-01,-8.563195466995239535e-02,-2.169234752655029297e-01,5.240408180783996395e-01,-5.164287686347961426e-01,4.388321638107299805e-01,9.276712387311459906e+01,1.654106855392455944e-01
6.722219999999999862e-01,4.314651683934096933e-03,6.313065049698400426e-03,9.406623840332031250e-01,-2.196787972163867855e-02,2.075656427737992971e-04,2.068280576901150233e-02,1.050827144089989083e-02,7.301358468407899427e-02,-1.897393316030502319e-01,-1.542889952692039768e-01,-3.107386294996993259e-01,-4.269697045147030634e-02,3.053610801696777233e-01,-1.740918423342243948e-01,-1.638701565115871783e-01,2.053610801696777177e-01,-1.867471218109130748e-01,-2.218177556991577093e-01,5.207455603866524285e-01,-6.913194656372070312e-01,-2.205842733383178711e-01,9.701311097065303102e+01,1.654106855392455944e-01
7.008330000000000393e-01,3.496800817943000652e-03,9.389910659882929125e-03,9.351812601089477539e-01,-2.491275109619766823e-02,-8.714791789689479984e-03,2.049947264778954545e-02,1.760640107816388144e-03,7.209979681485147174e-02,-1.873433440923690796e-01,-4.425457980727784402e-02,-2.921869256081156552e-01,5.823288893345922659e-03,3.064043521881103516e-01,-2.583899330928490778e-01,-1.609367827210760327e-01,2.064043521881103460e-01,-2.043991327285766546e-01,-2.181355834007263073e-01,5.242323267213117033e-01,-5.272848010063171387e-01,-1.631337404251098633e-01,1.145005467554742324e+02,1.654106855392455944e-01
7.237729999999999997e-01,2.908916105916305780e-03,1.148512635860369710e-02,9.317428469657897949e-01,-2.416443627810553954e-02,-1.520155933571154527e-02,2.140092127155467788e-02,-1.016590514301541313e-02,7.966362910472729597e-02,-1.798990368843078613e-01,1.004683237108997262e-01,-3.231491652061612152e-01,7.281862292021121230e-02,2.981770873069763406e-01,-3.002298712730407937e-01,-1.388563297557871279e-01,1.981770873069763073e-01,-2.002298712730407604e-01,-1.984378337860107366e-01,5.301260169977696224e-01,-2.027008533477783203e-01,-1.517220735549926758e-01,1.003181575477521648e+02,1.654106855392455944e-01
7.465100000000000069e-01,2.220071152178823039e-03,1.320339885010344237e-02,9.283128976821899414e-01,-2.206178682934747601e-02,-2.059917002075906112e-02,2.235478381930711828e-02,-2.802041498410954125e-05,7.925022615442661733e-02,-1.794185042381286621e-01,1.312158130557394276e-01,-2.299803655024214299e-01,2.524024846710643671e-02,3.155646324157714844e-01,-2.753814220428466575e-01,-1.121784115811480520e-01,2.155646324157714788e-01,-1.753814220428466797e-01,-1.744032382965087780e-01,5.322987605087937668e-01,-1.077235937118530273e-01,-1.415383815765380859e-02,1.110961345863297538e+02,2.238535642623901423e-01
7.749350000000000405e-01,1.191156533915477874e-03,1.593242797862901711e-02,9.232715368270874023e-01,-1.658649214195720423e-02,-2.501959054630509272e-02,2.441894648518918784e-02,-5.323108643602011969e-03,8.811941726168096012e-02,-1.861133873462677002e-01,2.094277705154288516e-01,-6.016953162486896045e-02,1.201465924356189402e-01,2.807049989700317605e-01,-2.415939569473266602e-01,-9.173920898144868885e-02,1.807049989700317272e-01,-1.415939569473266546e-01,-1.598878026008605790e-01,5.353100427192587496e-01,-1.668751239776611328e-03,-8.921396732330322266e-02,9.529561892271830459e+01,2.238535642623901423e-01
7.974980000000000402e-01,5.454006043702755348e-04,1.783255572386518994e-02,9.199582934379577637e-01,-1.114705500593307815e-02,-2.542008046591415216e-02,2.556135543851465602e-02,-1.085521404841241315e-02,8.598666969105325797e-02,-1.758107841014862061e-01,3.252223321631246278e-01,-3.174510335306406084e-02,4.738336181228989391e-02,2.810705661773681419e-01,-5.214288234710694192e-02,-7.877669618773294746e-02,1.810705661773681641e-01,4.785711765289306363e-02,-1.503094553947448564e-01,5.313343194591111374e-01,-2.055673003196716309e-01,-2.496243715286254883e-01,1.050395326417126398e+02,2.238535642623901423e-01
8.263449999999999962e-01,-3.570353988471054209e-04,2.067885143248122948e-02,9.150048494338989258e-01,-2.297682677391732226e-03,-2.218066428052889449e-02,2.785731146179859508e-02,5.229139241063298499e-03,9.154364821772058292e-02,-1.851847022771835327e-01,2.905716779029859365e-01,1.812316398539019213e-01,8.778765102051847014e-02,-8.025188492067020229e-02,-1.239948987960815541e-01,2.419440960817150488e-01,-1.670340478420257457e-01,-2.399489879608154158e-02,1.636843800544738603e-01,5.357805315135593105e-01,-3.114986419677734375e-02,-2.109042406082153320e-01,1.038218738372394512e+02,2.238535642623901423e-01
8.490379999999999594e-01,-5.230568169356653160e-04,2.252336671715265276e-02,9.116857051849365234e-01,4.073421143727528823e-03,-1.812570351949549519e-02,2.924510806872220384e-02,-1.265154256512492081e-02,8.782847501841395399e-02,-1.811824589967727661e-01,3.554390180605986327e-01,1.666332164406597316e-01,6.986977069862276846e-02,-1.203624743743293424e-01,-1.327823877334594616e-01,2.324152534412710913e-01,-1.640740513801574596e-01,-3.278238773345946988e-02,1.501229166984558161e-01,5.371674866901701151e-01,3.478968143463134766e-02,-2.342678308486938477e-01,7.659327177701754863e+00,2.238535642623901423e-01
8.721569999999999601e-01,-2.941643575708885049e-04,2.423967261749948240e-02,9.084295034408569336e-01,1.051908176466956855e-02,-1.258741982501287993e-02,3.055954506517773173e-02,-1.660674337673017590e-03,9.708223298763518638e-02,-1.900223046541213989e-01,2.661773049759894039e-01,3.573476700107010573e-01,4.844274271315126418e-02,-1.666121780907751648e-01,-6.644710894986471938e-02,2.729795539416851602e-01,-1.769814670085906871e-01,1.220464110374450649e-02,1.870242476463317705e-01,5.373359386744934740e-01,-1.801985502243041992e-02,4.914796352386474609e-02,7.905938500138422853e+01,2.238535642623901423e-01
9.009540000000000326e-01,-1.178800637286895276e-06,2.676170468323104540e-02,9.036944508552551270e-01,2.068532950655658023e-02,-4.374940557335893487e-03,3.248229431870555683e-02,-7.665875900911817316e-03,9.209320815150191797e-02,-1.926499307155609131e-01,3.311235078851201274e-01,2.725243715639710240e-01,8.168302611822048087e-02,-2.440206678537414353e-01,-5.282406983298423842e-02,2.733759626271481946e-01,-1.854920804500579667e-01,-2.224066257476806432e-02,1.822049617767333984e-01,5.380051834882253470e-01,-2.438670396804809570e-02,-4.063578844070434570e-01,1.108362732091674445e+02,2.238535642623901423e-01
9.256079999999999863e-01,1.934324224628805155e-04,2.841619770413676346e-02,9.006677269935607910e-01,2.784593227165894219e-02,1.011175050617207916e-03,3.349953400658806785e-02,-1.673082780530806349e-02,8.401276980640130787e-02,-1.783918589353561401e-01,3.681592752651308698e-01,2.358092359894095880e-01,4.811811408092872555e-02,-2.935170531272888184e-01,-2.248923994005418148e-02,2.826470409865264877e-01,-1.935170531272888128e-01,-2.133160829544067383e-02,1.888304293155670111e-01,5.351493103949921393e-01,-1.516780257225036621e-01,-2.912956476211547852e-01,1.731528223282885790e+02,2.238535642623901423e-01
9.464799999999999880e-01,4.122191267687331704e-04,2.994511483181112876e-02,8.976893424987792969e-01,3.414363489693849479e-02,5.444944769852799737e-03,3.336623051257148892e-02,8.869403215147972017e-03,8.673943643595440067e-02,-1.903132349252700806e-01,2.357021920175888519e-01,2.672385192055835024e-01,-1.839237530120518133e-02,-3.008668422698974609e-01,1.421324323201216266e-01,2.940248292214774350e-01,-2.008668422698974554e-01,9.360462427139282227e-02,2.010689914226531927e-01,5.366425386978439516e-01,-1.428325176239013672e-01,-2.636021375656127930e-01,1.037561264362889091e+02,2.238535642623901423e-01
9.728719999999999590e-01,7.131266665321023951e-05,3.307147744912421888e-02,8.932238221168518066e-01,3.924841736119275004e-02,1.058092952857148106e-02,3.122491512079070622e-02,1.220522957106903641e-03,8.733180327541074928e-02,-1.751120537519454956e-01,1.182014352381492023e-01,1.292369544322685693e-01,-9.246129886472286008e-02,-3.168656468391418679e-01,2.332605836511791597e-01,3.034901851086234670e-01,-2.168656468391418346e-01,1.606662511825561468e-01,2.168537020683288519e-01,5.291068010060412385e-01,-5.289303660392761230e-01,-2.633148431777954102e-01,1.050168290929115216e+02,2.238535642623901423e-01
9.968409999999999771e-01,-1.156565366120738730e-04,3.510046961208043020e-02,8.903057575225830078e-01,3.922769017438638289e-02,1.381668736916030760e-02,2.914161914901697986e-02,9.987833395502273073e-03,8.648203790046260497e-02,-1.927256584167480469e-01,-8.628920987048076252e-02,1.961727329992664359e-01,-7.647033288178170518e-02,-3.068917810916900746e-01,3.083428740501403809e-01,2.906435381367478143e-01,-2.068917810916900690e-01,2.083428740501403753e-01,2.101549029350280595e-01,5.342155659362237685e-01,-3.447854518890380859e-01,-2.799307107925415039e-01,1.007346488229611907e+02,2.238535642623901423e-01
1.024439000000000100e+00,-2.297645519441936148e-04,3.801677544184378643e-02,8.858286142349243164e-01,3.670815418735227931e-02,1.718916909828127615e-02,2.510751121583275694e-02,1.106892759508825395e-02,8.383345060003674631e-02,-1.802685111761093140e-01,-7.804562818593362150e-02,4.837131029034599100e-02,-1.627577161252782845e-01,-3.035557210445404275e-01,2.941082835197448841e-01,2.411721462933222593e-01,-2.035557210445403942e-01,1.941082835197448786e-01,1.721483409404754583e-01,5.328673794919153162e-01,-4.021964073181152344e-01,-4.157661199569702148e-01,2.170343152171409784e+01,2.238535642623901423e-01
1.050823000000000063e+00,-1.686283913650008849e-04,3.990091687852845292e-02,8.830404877662658691e-01,3.286779324278409770e-02,1.935316523106189734e-02,2.228830261160412093e-02,1.542878169745714664e-02,8.381152515706770390e-02,-1.899131387472152710e-01,-2.311000394745562070e-01,1.095389513858692626e-01,-9.377288892138892218e-02,-2.741726398468017356e-01,2.767670869827270619e-01,1.999905743385804457e-01,-1.741726398468017578e-01,1.767670869827270563e-01,1.389314174652099554e-01,5.391886114465258562e-01,-1.175500154495239258e-01,6.201366186141967773e-01,6.945616634910298615e+01,2.238535642623901423e-01
1.077816000000000107e+00,-3.330291371080412689e-04,4.193181380654804891e-02,8.802414536476135254e-01,2.835609721124002572e-02,2.055905041047534354e-02,1.909268719645477314e-02,1.682263746649237737e-02,7.863928750566223647e-02,-1.804249733686447144e-01,-2.447094328781081740e-01,5.201128359188850192e-02,-1.559663469737438690e-01,-2.976952195167541504e-01,2.229492783546447865e-01,1.802510116397725293e-01,-1.976952195167541448e-01,1.229492783546447671e-01,1.280639648437499889e-01,5.405613869815567574e-01,-2.980279922485351562e-02,-9.835374355316162109e-02,7.111489827960808441e+01,2.238535642623901423e-01
1.099018999999999968e+00,-3.812855355135202256e-04,4.293725824642594113e-02,8.788092136383056641e-01,2.566941554858816546e-02,2.065720539233351083e-02,1.750285482616948524e-02,2.427635027922597777e-02,8.259890838520460299e-02,-1.780962198972702026e-01,-2.206652131380372195e-01,-4.240128413945592339e-02,-1.638173353814832978e-01,-2.887102981985539274e-01,1.139988601207733154e-01,1.975536321612912094e-01,-2.055166840553283580e-01,1.399886012077331508e-02,1.498040199279785101e-01,5.389147232237251339e-01,-1.328795552253723145e-01,-3.167349100112915039e-01,-1.422215286152258784e+01,2.238535642623901423e-01
1.124290000000000012e+00,-4.889287844157218493e-04,4.585153336635039434e-02,8.749424815177917480e-01,1.646890493869258495e-02,1.873195237344615904e-02,1.223166577350468312e-02,1.485823160975141902e-02,7.877582628534451903e-02,-1.826577782630920410e-01,-3.260269263289277686e-01,-1.137048962405796254e-01,-1.792640762406046417e-01,-2.029516058490821173e-01,1.246643245220184354e-01,1.765794918417461778e-01,-1.780264019966125433e-01,2.466432452201843331e-02,1.431490302085876298e-01,5.403468094813569378e-01,-1.019393205642700195e-01,-3.642410039901733398e-01,-4.793170285911615025e+01,2.238535642623901423e-01
1.153561000000000059e+00,-5.319487656660940814e-04,4.861939899455247627e-02,8.711934089660644531e-01,7.005680029072086125e-03,1.283542175200058644e-02,7.025389908710438433e-03,1.854361171473341632e-02,7.583549004060656518e-02,-1.707175672054290771e-01,-3.209125939512592618e-01,-2.148486038176840585e-01,-1.336219237590301201e-01,-7.382202628067618955e-02,1.116970144069500959e-01,-8.654693866647707179e-02,-1.106340050697326577e-01,1.555548906326293876e-02,-1.058117508888244546e-01,5.363519097453118833e-01,-3.060117363929748535e-01,-1.743382215499877930e-01,9.657610180717728099e+01,2.238535642623901423e-01
1.172733999999999943e+00,-4.024418863678057767e-04,5.024710337024763246e-02,8.688438534736633301e-01,5.735138189760459384e-04,7.539790184857064759e-03,3.414625547208723771e-03,2.667019621719763159e-02,7.693504980319991471e-02,-1.748267710208892822e-01,-3.423527734792551902e-01,-2.459973823366953805e-01,-2.031094764474346559e-01,1.936468630971441840e-01,9.096079784405179669e-02,-1.766367545626506830e-01,1.127154350280761691e-01,2.389855384826660226e-02,-1.860016822814941351e-01,5.363781589394515104e-01,-3.455052375793457031e-01,-2.585846185684204102e-01,1.032250519075637385e+02,2.238535642623901423e-01
1.200509000000000048e+00,-1.302752280481509168e-06,5.249241772543909029e-02,8.652344346046447754e-01,-9.121383060618146188e-03,-9.464482791825545860e-04,-1.024710883058077256e-03,2.277803462530206963e-02,8.769631342072731206e-02,-1.722570359706878662e-01,-3.776213590749450399e-01,-2.737017455435537538e-01,-1.275589086086716117e-01,3.079295992851257546e-01,-1.224748415030985083e-01,-2.249935707334254076e-01,2.079295992851257213e-01,-1.304162621498107799e-01,-2.221151590347290039e-01,5.307212347907617200e-01,-6.766740083694458008e-01,-2.343877553939819336e-01,1.002587895434864151e+02,2.238535642623901423e-01
1.224475999999999898e+00,2.637201495914490395e-04,5.405075617937310506e-02,8.628566265106201172e-01,-1.548763169607595552e-02,-7.155284003324435815e-03,-3.868642075116993616e-03,2.808411307349948857e-02,8.470443624891955958e-02,-1.570290774106979370e-01,-3.113316182530657117e-01,-2.959545088694852666e-01,-1.419961628997862546e-01,3.164877414703369252e-01,-2.232653205059123569e-01,-2.348323660587136041e-01,2.164877414703369196e-01,-1.954297542572021318e-01,-2.239923477172851562e-01,5.296272897290799087e-01,-7.004777193069458008e-01,7.403615713119506836e-01,-1.665137964927661685e+01,2.238535642623901423e-01
1.246709000000000067e+00,7.176587070764361715e-04,5.658177999398368574e-02,8.594426512718200684e-01,-2.491824904396639298e-02,-1.501666031858728267e-02,-8.084419596415412523e-03,2.641862887327521212e-02,1.001428176876329734e-01,-1.622131615877151489e-01,-3.324471247103683025e-01,-2.190959342372200691e-01,-1.224101445256850496e-01,3.222688674926758035e-01,-2.734878384024617137e-01,-2.489508217791748523e-01,2.222688674926757701e-01,-1.927224040031433050e-01,-2.261650800704955999e-01,5.307474848849718096e-01,-6.888291835784912109e-01,-1.214011907577514648e-01,9.651523799148328919e+01,2.238535642623901423e-01
1.274159000000000042e+00,1.107578590202868253e-03,5.952501165924938692e-02,8.562619686126708984e-01,-3.277598574939073750e-02,-2.102254890494825723e-02,-1.233544706910429979e-02,2.207960160474188582e-02,1.068124307784330679e-01,-1.456699818372726440e-01,-2.060323599625916713e-01,-2.125986709247809081e-01,-1.244286308758173476e-01,3.241340398788452037e-01,-3.095445394515990989e-01,-2.618029468724156761e-01,2.241340398788451982e-01,-2.095445394515991211e-01,-2.268534421920776201e-01,5.297050061972718993e-01,-7.078520655632019043e-01,-5.484592914581298828e-02,1.293104664233803760e+02,2.238535642623901423e-01
1.300194000000000072e+00,1.188287608288292893e-03,6.307075756527648347e-02,8.534860014915466309e-01,-3.793294183506482758e-02,-2.578002192940331838e-02,-1.377850807050048053e-02,1.281650286605790119e-02,1.204539245223945204e-01,-1.204607561230659485e-01,-6.638987707092117163e-02,-1.762430560230659748e-01,4.939605058779373420e-03,3.252798795700073131e-01,-3.157779932022094505e-01,-2.667348163350737877e-01,2.252798795700073076e-01,-2.157779932022094727e-01,-2.275090813636779785e-01,5.282362210597535412e-01,-7.134978771209716797e-01,8.801265954971313477e-01,1.011870122516911437e+02,2.238535642623901423e-01
1.323455000000000048e+00,1.082805712515285974e-03,6.556337075799757719e-02,8.519291281700134277e-01,-3.872366158944397924e-02,-2.861665121309742155e-02,-1.362900254818642451e-02,1.014373504667924648e-02,1.204393753444170934e-01,-1.252592206001281738e-01,-1.376306412134555880e-02,-1.358086984242892203e-01,1.196775501430224348e-02,3.251753091812134011e-01,-3.164431095123291238e-01,-2.659109524108254075e-01,2.251753091812133678e-01,-2.164431095123290905e-01,-2.269953846931457297e-01,5.301969247237453553e-01,-6.450386047363281250e-01,-2.810159921646118164e-01,1.129575113993199693e+02,2.238535642623901423e-01
1.347512999999999961e+00,9.142214339798265766e-04,6.813862589587266205e-02,8.504959940910339355e-01,-3.697477047318455112e-02,-3.053309026786754643e-02,-1.262290704024900817e-02,-1.665779155664455085e-05,1.308124955737365314e-01,-1.120496094226837158e-01,1.455347532588818216e-01,-9.797972575186834898e-02,6.205543833652005931e-02,3.238338470458984597e-01,-2.721863031387329324e-01,-2.570070759159805984e-01,2.238338470458984264e-01,-1.721863031387328991e-01,-2.209641695022583063e-01,5.302894080204095806e-01,-6.070987582206726074e-01,1.181137561798095703e-02,1.119409470243902831e+02,2.238535642623901423e-01
1.374754000000000032e+00,7.108251758284032679e-04,7.187324871081736399e-02,8.487327694892883301e-01,-3.083864148286315221e-02,-3.041657410330200761e-02,-1.087260774570079393e-02,-1.340376014878998968e-03,1.401881318932746423e-01,-9.329491108655929565e-02,3.047858079238646711e-01,1.242663165396978332e-02,6.414434332680764295e-02,3.235023260116577370e-01,5.276650190353393555e-02,-1.809895829167631476e-01,2.235023260116577037e-01,1.527665019035339411e-01,-1.501673340797424205e-01,5.271205404864790500e-01,-7.259217500686645508e-01,1.867932081222534180e-01,1.129876052128030466e+02,2.238535642623901423e-01
1.395833000000000101e+00,8.129151917138113760e-04,7.404419183833854667e-02,8.476363420486450195e-01,-2.540244115186333571e-02,-2.733092297675376869e-02,-9.470648315288496613e-03,-2.675719690714358119e-03,1.424692045494312664e-01,-1.024066805839538574e-01,2.419299425492184019e-01,2.320319034474834508e-01,8.196580829573857363e-02,2.925875425338745339e-01,9.228312969207763672e-02,1.760787196406047861e-01,1.925875425338745006e-01,1.922831296920776423e-01,2.027195692062377930e-01,5.284112147396857750e-01,-7.086889147758483887e-01,4.123145341873168945e-01,1.156970934452229045e+02,2.238535642623901423e-01
1.425591999999999970e+00,8.593723166256685662e-04,7.749736766574651103e-02,8.462427258491516113e-01,-1.517336775769314791e-02,-1.987896303529157471e-02,-7.007594179291898838e-03,-1.374084858666921143e-02,1.401781816355278376e-01,-9.912861138582229614e-02,3.586329591487389390e-01,2.924823388294965354e-01,1.130218871527288033e-01,2.832556724548339622e-01,1.032971382141113226e-01,1.840021622426120385e-01,1.832556724548339844e-01,2.032971382141113281e-01,2.034140467643737737e-01,5.286799214114193957e-01,-6.992681622505187988e-01,1.014220714569091797e-02,1.201580812374549936e+02,2.238535642623901423e-01
1.447335000000000038e+00,9.001773904478407775e-04,7.993719855563231891e-02,8.453061580657958984e-01,-7.994759776297894610e-03,-1.377338021984364502e-02,-5.030180121971967663e-03,-1.848096459566026320e-03,1.544866219095144266e-01,-8.345989137887954712e-02,3.921341284967895247e-01,3.071624663575361902e-01,1.086238100949594998e-01,2.842120409011840709e-01,1.142054230400783021e-01,1.875309461403799061e-01,1.842120409011840654e-01,2.020053327083587702e-01,2.013083875179290660e-01,5.280471992784725455e-01,-6.884429454803466797e-01,8.209121227264404297e-02,1.742563213509741900e+02,2.238535642623901423e-01
1.474974999999999925e+00,8.483615824847400792e-04,8.370622680552186612e-02,8.440282940864562988e-01,2.933470233386522869e-03,-3.876063780319460861e-03,-1.514664481417347594e-03,-1.139405833927436586e-02,1.449049928595630976e-01,-7.903361320495605469e-02,4.000183037183654422e-01,3.304997522607577287e-01,1.067466743821194608e-01,2.559168815612792858e-01,1.615250019510458268e-01,1.930226543032463049e-01,1.559168815612792802e-01,1.933748960494995062e-01,1.970840513706207109e-01,5.283748836016138872e-01,-6.694409847259521484e-01,-1.207393407821655273e-01,1.052750512246730210e+02,2.238535642623901423e-01
1.498563000000000089e+00,7.812309302201453235e-04,8.622744928588260693e-02,8.431478738784790039e-01,1.014136980375769832e-02,2.670630625664527358e-03,8.006457370666296295e-04,-7.679737064939756545e-03,1.503725288603444399e-01,-9.944827109575271606e-02,3.139548919766759760e-01,3.591226476901769882e-01,1.216363345430475362e-01,2.051779223433597144e-01,1.634058670538838520e-01,1.952013083604117460e-01,1.125100135803222545e-01,1.484142422676086315e-01,1.930705547332763616e-01,5.313708482727121929e-01,-6.028638482093811035e-01,2.555438280105590820e-01,4.776555509246099973e+01,2.238535642623901423e-01
1.522782000000000080e+00,6.937855762738358734e-04,8.874452568689517040e-02,8.423729538917541504e-01,1.824225181638860008e-02,7.640801619134052203e-03,2.885552650912477559e-03,4.333291478439973803e-03,1.473060363869550804e-01,-7.429794222116470337e-02,4.442612018915756966e-01,1.924862810667739565e-01,1.034854619957829708e-01,1.883139300834195673e-01,2.726318470284044282e-01,2.217925220401933961e-01,1.483670711517333929e-01,2.166661441326141191e-01,2.142248153686523438e-01,5.299078629500111326e-01,-5.983306765556335449e-01,-2.789734601974487305e-01,9.907903828890678710e+01,2.238535642623901423e-01
1.552904999999999980e+00,6.260070696167582523e-04,9.242656055900673462e-02,8.412067890167236328e-01,2.953148818847548679e-02,1.152370541743819032e-02,3.081447536672306167e-03,-6.795513078710985200e-03,1.377162843812517745e-01,-7.098242640495300293e-02,3.797995477975222856e-01,4.594115957988976345e-02,-6.936726442196430864e-02,1.231850211457869437e-01,2.940684976004740991e-01,2.276972840799193210e-01,1.604050397872924805e-01,2.227384686470031683e-01,2.198861360549926591e-01,5.313467850968832673e-01,-5.221954584121704102e-01,-3.077896833419799805e-01,7.155878544357804572e+01,2.238535642623901423e-01
1.575639999999999930e+00,5.568012734892509915e-04,9.477783357454216961e-02,8.402079343795776367e-01,3.639401387627415330e-02,1.206801834694082309e-02,1.926069633491430625e-03,-1.605842985569729030e-03,1.364504172227429535e-01,-8.199860900640487671e-02,3.654671604936735596e-01,-1.792388973238903671e-02,-7.251461405076438382e-02,1.116291397590388340e-01,3.026754828378294682e-01,2.147337144434478262e-01,1.914874792098998912e-01,2.226741850376129095e-01,2.103815317153930609e-01,5.326650741038889691e-01,-5.095062851905822754e-01,-6.232392787933349609e-02,9.712987988470356981e+01,2.238535642623901423e-01
1.602325999999999917e+00,-2.952683386293374133e-04,9.872310404927038541e-02,8.385994434356689453e-01,4.541188542669496314e-02,1.027357723610422546e-02,-6.841966169315868507e-04,-5.188048706362841274e-03,1.263091161312286104e-01,-7.748627662658691406e-02,2.757943624756946099e-01,-6.959587308218244395e-02,-1.154441185701141764e-01,-1.513442039489746038e-01,2.777407436241918770e-01,2.153364354185626495e-01,-5.134420394897460521e-02,2.137138903141021784e-01,2.182025134563445878e-01,5.316780239583530632e-01,-5.638939142227172852e-01,2.965816259384155273e-01,1.056346606844741984e+02,2.238535642623901423e-01
1.625016999999999934e+00,-5.620574987071925424e-04,1.000126237280362512e-01,8.379890918731689453e-01,4.827319269946733077e-02,9.185269051678934815e-03,-1.489764192868293794e-03,7.414227383317973513e-03,1.286392440402923665e-01,-8.315661549568176270e-02,2.951961502265436077e-01,-1.295028619968403016e-01,-9.429637173046141740e-02,8.072130680084227405e-02,2.671070546837986948e-01,1.929286409748413311e-01,1.807213068008422796e-01,2.006639778614044134e-01,1.981374979019165095e-01,5.311709808771579722e-01,-6.291035413742065430e-01,5.186012983322143555e-01,-3.674515073457756387e+01,2.238535642623901423e-01
1.654640000000000111e+00,-1.576687626083610747e-03,1.046794003967550790e-01,8.354192972183227539e-01,5.894244543218293830e-02,3.301727327426728920e-03,-5.797402753694920821e-03,-4.647021337484779149e-03,1.077504524500270261e-01,-8.273360878229141235e-02,3.043831785673774548e-01,-2.071923590560767470e-01,-1.289700295212115877e-01,-3.068559110164642556e-01,7.127905209335543002e-02,2.037874628355008932e-01,-2.068559110164642223e-01,5.509802699089050293e-02,2.203093528747558649e-01,5.301133224379718234e-01,-7.070523500442504883e-01,3.057134151458740234e-02,1.030795757084316335e+02,2.238535642623901423e-01
1.681605999999999934e+00,-2.045367028735229666e-03,1.067676022844307182e-01,8.341426253318786621e-01,6.362325057617811142e-02,-4.198992349890851017e-05,-8.352810342426512935e-03,-4.977214556464267664e-03,1.007087751560928335e-01,-8.992474526166915894e-02,1.965086167641221515e-01,-1.421236179524116572e-01,-8.450115691651799432e-02,-3.147673547267914040e-01,-6.606481711241043997e-02,2.004915560632925253e-01,-2.147673547267913707e-01,-6.106653213500976007e-02,2.237967789173126165e-01,5.306520556981191294e-01,-7.237293720245361328e-01,-2.659189701080322266e-02,8.164914001765377805e+01,2.238535642623901423e-01
1.699264000000000108e+00,-2.470826976064167176e-03,1.088388665470817196e-01,8.328034281730651855e-01,6.811153200066207003e-02,-4.696122803706126447e-03,-1.146116927597498961e-02,-6.166288511925479025e-04,8.453368640454481109e-02,-8.589319139719009399e-02,2.140872934873250810e-01,-2.534383721366478825e-01,-1.768830346649458707e-01,-3.162516355514526367e-01,-1.961180061774024652e-01,1.887126690725061395e-01,-2.162516355514526312e-01,-1.632584810256957897e-01,2.201880276203155573e-01,5.310984633414290723e-01,-7.006923556327819824e-01,-3.026739358901977539e-01,1.120421840882682147e+02,2.238535642623901423e-01
1.723308999999999980e+00,-3.196937991850287188e-03,1.117717229506380860e-01,8.306500315666198730e-01,7.250357795628090130e-02,-1.213497715690881051e-02,-1.554170691193314767e-02,-9.226417397134718118e-03,7.509168821381535797e-02,-9.955515712499618530e-02,8.200883400513765686e-02,-2.362979155677041032e-01,-1.146060178841358385e-01,-3.165467858314514049e-01,-2.533359620010106061e-01,1.561520431775125506e-01,-2.165467858314513994e-01,-1.639308214187621959e-01,1.979000329971313532e-01,5.337475466937210422e-01,-6.308919787406921387e-01,2.312518358230590820e-01,7.622168045786489188e+01,2.238535642623901423e-01
1.748571000000000097e+00,-3.709409617467259064e-03,1.135215183553771739e-01,8.291303515434265137e-01,7.485155736971051132e-02,-1.798528205289451343e-02,-1.867589010502763297e-02,-1.067378952656223255e-02,6.490687168752383440e-02,-8.538175374269485474e-02,5.983707712250817268e-02,-2.650099014830416544e-01,-1.714608457189653046e-01,-3.168011128902435414e-01,-2.988415956497192383e-01,1.078843187795316128e-01,-2.168011128902435358e-01,-1.988415956497192327e-01,1.575864315032959040e-01,5.325610725618237229e-01,-6.587205529212951660e-01,7.063281536102294922e-02,8.919798120156775667e+01,2.238535642623901423e-01
1.773039000000000032e+00,-4.607939208912839417e-03,1.157627216177976870e-01,8.266248703002929688e-01,7.563872009626065873e-02,-2.676333007220299542e-02,-2.316302055384031680e-02,-1.562501804162603342e-02,5.684819841773581378e-02,-1.000922024250030518e-01,-3.858005766499671748e-03,-2.620275980673575922e-01,-1.369308369157742067e-01,-3.170890212059020996e-01,-3.010162591934203991e-01,-1.710499452183278091e-01,-2.170890212059020941e-01,-2.010162591934203935e-01,-1.100527882575988714e-01,5.337537011130301101e-01,-6.746404170989990234e-01,1.427471637725830078e-02,9.208379076741151437e+01,2.238535642623901423e-01
1.797606999999999955e+00,-5.146210476462469326e-03,1.171255579105736494e-01,8.249458074569702148e-01,7.568685748001395541e-02,-3.238721756089812942e-02,-2.633148147963152927e-02,-2.143779343469023532e-02,4.069056634565836050e-02,-9.792517125606536865e-02,-2.993661553303214942e-02,-2.789444301392511316e-01,-1.616986044702821146e-01,-3.172528684139251931e-01,-3.086324095726012962e-01,-2.126543236944805904e-01,-2.172528684139251598e-01,-2.086324095726013184e-01,-1.435531139373779352e-01,5.335160472483801986e-01,-6.989490985870361328e-01,-7.140743732452392578e-02,9.718282751114951168e+01,2.238535642623901423e-01
1.825209000000000081e+00,-5.967827389741772910e-03,1.197094960340445297e-01,8.210464715957641602e-01,6.936242701680658818e-02,-3.735444864172121626e-02,-3.235195434052925284e-02,-2.417212423587782044e-02,2.934108451023423672e-02,-1.179672852158546448e-01,-2.740242462576072957e-01,-2.257287391199782928e-04,-1.542595997822427678e-01,-3.112121045589447133e-01,-2.754047036170959584e-01,-2.633875160750751704e-02,-2.112121045589447077e-01,-1.754047036170959528e-01,5.932352542877197127e-02,5.348971254339770498e-01,-7.320592403411865234e-01,3.890935182571411133e-01,-6.466463838217730142e+01,2.238535642623901423e-01
1.850141000000000036e+00,-6.382567248768697063e-03,1.208097296015659683e-01,8.188614249229431152e-01,6.361943858825731823e-02,-3.692288083483918903e-02,-3.483237333128100244e-02,-2.181444686447712653e-02,2.870332489128309822e-02,-1.128628551959991455e-01,-2.831493886133281679e-01,4.900310970589637216e-02,-1.457993252711377308e-01,-3.120399057865143044e-01,-2.419893860816955677e-01,-7.145233585751617489e-02,-2.120399057865142711e-01,-1.419893860816955622e-01,2.154094576835632185e-02,5.350300255496511781e-01,-7.279936075210571289e-01,1.107066869735717773e-01,1.006862774232591704e+02,2.238535642623901423e-01
1.876562000000000063e+00,-6.886928517766933988e-03,1.217428647183340651e-01,8.166593909263610840e-01,5.669840479132440270e-02,-3.431970821304064501e-02,-3.721871307236875731e-02,-2.369678060012413850e-02,1.939196591374274178e-02,-1.320355832576751709e-01,-3.797285900345085952e-01,1.857688941933968718e-01,-1.065163553301663873e-01,-3.189743995666504128e-01,-1.608439803123474232e-01,5.816809535026548628e-02,-2.189743995666503795e-01,-6.084398031234741072e-02,1.581680953502654918e-01,5.378222442318948415e-01,-6.735810041427612305e-01,-1.014543771743774414e-01,9.880216291052198585e+01,2.238535642623901423e-01
1.902652999999999928e+00,-7.311455529472825517e-03,1.230869018229271555e-01,8.133609294891357422e-01,4.653969684554794262e-02,-2.812334495493429287e-02,-3.980784499625569101e-02,-3.395279608200396648e-02,1.153661808797822562e-02,-1.097140759229660034e-01,-2.821745104357517575e-01,2.175545368404221414e-01,-5.038610646786671754e-02,-3.185113430023193137e-01,-2.079497218132019265e-01,4.616079330444333717e-02,-2.185113430023193359e-01,-1.079497218132019071e-01,1.461607933044433427e-01,5.378388197145071992e-01,-6.122644543647766113e-01,-2.817784547805786133e-01,1.019013407558477553e+02,1.760253190994262584e-01
1.924420999999999937e+00,-7.574656550476769126e-03,1.238667271526153885e-01,8.111438155174255371e-01,3.940072503333817699e-02,-2.226301475479508518e-02,-4.006737413486682886e-02,-3.631808790595132674e-02,1.800090878000065947e-03,-1.206422075629234314e-01,-3.561922858760744326e-01,3.239132008177282307e-01,5.999669825365217695e-05,-3.163346767425537220e-01,-2.210359334945678766e-01,8.726679086685179554e-02,-2.163346767425537165e-01,-1.210359334945678711e-01,1.872667908668518011e-01,5.410930716796318318e-01,-4.987626075744628906e-01,-9.616386890411376953e-02,9.633289243121146228e+01,1.760253190994262584e-01
1.948059999999999903e+00,-7.895521611671016751e-03,1.245790316674267456e-01,8.090214729309082031e-01,3.295066187311018746e-02,-1.564812985000929579e-02,-3.918398511895363617e-02,-3.340043728107828375e-02,2.192951462241635435e-03,-1.115068495273590088e-01,-2.896235717951244903e-01,3.243702735794340430e-01,5.204815083025159800e-02,-3.143660783767699973e-01,-2.143009424209594838e-01,1.041328251361846868e-01,-2.143660783767700195e-01,-1.143009424209594643e-01,2.041328251361846924e-01,5.432444288333811988e-01,-3.663696646690368652e-01,1.649831533432006836e-01,1.377982878634418569e+02,1.760253190994262584e-01
1.976000999999999896e+00,-8.668943170796462178e-03,1.256644937929085881e-01,8.048503994941711426e-01,1.941609694194432190e-02,-2.089474656230994043e-03,-3.862224318454039046e-02,-4.264182604672760862e-02,-3.802614132642184296e-03,-1.107597574591636658e-01,-2.885246624246075031e-01,3.018806701568012008e-01,1.445762678721563763e-02,-2.475864100827997183e-01,6.213612764097626445e-02,9.381181001663199681e-03,-2.160573363304138239e-01,1.108302712440490667e-01,1.093811810016632052e-01,5.392370797199922405e-01,-6.181715130805969238e-01,8.491432666778564453e-02,-1.221019257544839434e+02,1.760253190994262584e-01
1.999681999999999960e+00,-8.998423595199079444e-03,1.257288956070773678e-01,8.028333783149719238e-01,1.248204837310938273e-02,3.988344747702488036e-03,-3.866709558971830052e-02,-3.656743825749045329e-02,-1.065972520921364131e-02,-1.011000648140907288e-01,-3.514225523923708017e-01,3.418980765543362943e-01,-1.319428651777539846e-02,-1.936874718274341212e-01,1.993786230318954633e-01,-1.612346887588501088e-01,-2.033682346343994030e-01,2.028492271900176891e-01,-6.123468875885009627e-02,5.378607517242869340e-01,-6.789685487747192383e-01,-1.415568590164184570e-01,9.799066130504358796e+01,1.760253190994262584e-01
2.021838999999999942e+00,-9.237090226767719070e-03,1.254463314675297314e-01,8.008640408515930176e-01,6.042701022866477090e-03,9.458380315777281666e-03,-3.923657851901251464e-02,-3.214333040879665399e-02,-3.111444490633562092e-03,-9.919096529483795166e-02,-2.910542536389861823e-01,2.354634223933628756e-01,-3.550684486257131567e-02,-6.369299470371769800e-02,2.445224516755698518e-01,-2.601516962051391713e-01,-1.214731335639953613e-01,2.101984441280364824e-01,-1.601516962051391657e-01,5.377418193153884474e-01,-7.009750008583068848e-01,3.871034383773803711e-01,1.150368600392928045e+02,1.760253190994262584e-01
2.051288000000000000e+00,-9.506240871745128343e-03,1.250078072294789344e-01,7.980861663818359375e-01,-3.926437950191570027e-03,1.656011713171978705e-02,-4.068831019666450943e-02,-3.028949347079671478e-02,-4.207043669520279215e-03,-9.364586323499679565e-02,-2.881693145347048457e-01,1.938855925154467086e-01,-5.991024919350552980e-02,2.845862627029419056e-01,2.995954520562768564e-01,-3.139210820198058971e-01,1.845862627029419001e-01,2.181371748447418213e-01,-2.139210820198058915e-01,5.388036310761411540e-01,-6.458968520164489746e-01,2.666038274765014648e-01,1.320056454094890626e+02,1.760253190994262584e-01
2.074411000000000005e+00,-9.579708257713176467e-03,1.247714925977089356e-01,7.962527275085449219e-01,-1.109031220669353703e-02,2.150336429842525376e-02,-4.212307014008487283e-02,-3.684032014756943862e-02,-1.592741976063788336e-03,-9.898318350315093994e-02,-3.653414341680432109e-01,2.811050043309736290e-01,-4.877560031007061730e-02,3.088919401168823131e-01,3.217162072658538707e-01,-3.160055160522460826e-01,2.088919401168823076e-01,2.217162072658538652e-01,-2.160055160522460771e-01,5.389058909578754442e-01,-6.838472485542297363e-01,3.027163743972778320e-01,1.241028433322175175e+02,1.760253190994262584e-01
2.098339999999999872e+00,-9.544214457737407523e-03,1.246420815000344740e-01,7.944544553756713867e-01,-1.837869536944557874e-02,2.588557006959302242e-02,-4.365381161054791154e-02,-1.469033700965519107e-02,5.181927055065137580e-03,-9.142896533012390137e-02,-3.731587499812965003e-01,2.676703548739521876e-01,-7.681090435076851075e-02,3.181905508041381614e-01,3.243772447109222190e-01,-3.204373121261596680e-01,2.181905508041381836e-01,2.243772447109222412e-01,-2.204373121261596624e-01,5.383602607929265371e-01,-7.062884569168090820e-01,3.120101690292358398e-01,1.474075034218143969e+02,1.760253190994262584e-01
2.125836000000000059e+00,-1.000824348715396300e-02,1.233606088851926796e-01,7.911188602447509766e-01,-3.163163249712991343e-02,3.167616532047223821e-02,-4.513808720225020998e-02,-1.704196611820650575e-02,1.660437492558636957e-02,-6.340570747852325439e-02,-2.369470533436389970e-01,4.659998283366646038e-02,7.606578460224584261e-03,3.246364355087280051e-01,3.259940624237060436e-01,-3.252528429031371626e-01,2.246364355087280273e-01,2.259940624237060380e-01,-2.252528429031371848e-01,5.377570710413376309e-01,-6.562035679817199707e-01,2.551013231277465820e-01,1.039966105667758853e+02,1.760253190994262584e-01
2.148029000000000188e+00,-1.020816377296917231e-02,1.229275089327232923e-01,7.896338105201721191e-01,-3.691517704929836441e-02,3.191593648549861939e-02,-4.444126925451716975e-02,-1.475596095128747960e-02,2.106497879546871677e-02,-6.013838574290275574e-02,-2.858181953431708777e-01,-4.744275608728404543e-03,7.434023511930154537e-02,3.259230375289916548e-01,3.259923458099365234e-01,-3.264313697814941184e-01,2.259230375289916770e-01,2.259923458099365179e-01,-2.264313697814941406e-01,5.378307275460448844e-01,-6.586964130401611328e-01,2.075880765914916992e-01,1.015079560106008643e+02,1.760253190994262584e-01
2.178062999999999860e+00,-1.046814386643394289e-02,1.225649424341629795e-01,7.877589464187622070e-01,-4.155099089202771157e-02,2.810419916973039278e-02,-4.160281861564263384e-02,-1.243927563778220169e-02,2.899342639254527329e-02,-3.873339667916297913e-02,-1.360792695077192582e-01,-1.457641761484656240e-01,1.118798956819030410e-01,3.255862236022949441e-01,9.208426475524902899e-02,-3.271032810211181863e-01,2.255862236022949108e-01,-7.915735244750976562e-03,-2.271032810211181530e-01,5.361593464632028461e-01,-6.868511438369750977e-01,-5.642449855804443359e-02,1.294580121698309938e+02,1.760253190994262584e-01
2.201022000000000034e+00,-1.052856364499310873e-02,1.225296037993578169e-01,7.872120141983032227e-01,-4.187902734952868300e-02,2.580760636088430537e-02,-4.020623596079562351e-02,-1.325530764989854907e-02,3.348822193432757222e-02,-2.476158179342746735e-02,-4.762933019489217629e-02,-2.042578933118717466e-01,1.248123093463596872e-01,3.169429302215576172e-01,-8.645687103271482155e-02,-3.253218650817870650e-01,2.169429302215576116e-01,-1.864568710327148271e-01,-2.253218650817870872e-01,5.354878691396628421e-01,-6.829445958137512207e-01,2.538398504257202148e-01,9.653579003069586406e+01,1.760253190994262584e-01
2.224574000000000051e+00,-1.144176009499638276e-02,1.226110754610324344e-01,7.860617041587829590e-01,-3.952552009654711207e-02,1.671497238394326068e-02,-3.562872921569248952e-02,-1.156904354383980239e-02,4.291770310244576864e-02,-1.156489364802837372e-02,1.601096855242733208e-01,-3.405307199094794735e-01,1.117425002996016159e-01,3.164903879165649192e-01,-5.058290170629894944e-02,-3.130506541390944975e-01,2.164903879165649414e-01,-1.434605240821838212e-01,-2.137013912200927679e-01,5.355803389779508761e-01,-6.419311165809631348e-01,2.824052572250366211e-01,7.129851425506554108e+01,1.760253190994262584e-01
2.246996999999999911e+00,-1.197043606612482360e-02,1.227943978891650051e-01,7.855885624885559082e-01,-3.590921488839234760e-02,9.748616400842236018e-03,-3.215922728347949539e-02,-1.517719337727398837e-02,3.931921145507949467e-02,4.621270927600562572e-04,1.830256301456739676e-01,-3.131538985944515852e-01,1.772316273964600619e-01,3.178503751754760964e-01,-1.069863475568085948e-01,-3.029938200816622018e-01,2.178503751754760631e-01,-1.513826966285705400e-01,-2.131172776222229059e-01,5.346614789284001024e-01,-6.575187444686889648e-01,1.298812627792358398e-01,1.685409693176692656e+02,1.760253190994262584e-01
2.275403999999999982e+00,-1.298726124281277504e-02,1.236355718135762199e-01,7.853279709815979004e-01,-2.442296933661579350e-02,-5.247826987673454013e-03,-2.508295398753982233e-02,-1.243124656206595104e-02,5.243901685115853750e-02,2.969703450798988342e-02,2.983234799391850656e-01,-4.030612244790124921e-01,1.432059847778971995e-01,3.234088420867919922e-01,-1.853994389120738606e-01,-2.857025749963512107e-01,2.234088420867919866e-01,-1.337602615356445201e-01,-2.154360294342040905e-01,5.316878867256707997e-01,-7.165749073028564453e-01,2.176758050918579102e-01,-7.527459276717257808e+01,1.760253190994262584e-01
2.299509000000000025e+00,-1.326012165216458767e-02,1.242058433277273971e-01,7.852369546890258789e-01,-1.829016031118134086e-02,-1.180542754837721198e-02,-2.119457330696610312e-02,-7.803235641002006194e-03,6.160314249221610083e-02,1.873909309506416321e-02,2.710327431551325938e-01,-2.738313350443823957e-01,2.082308244278058829e-01,3.223922133445739635e-01,-1.586001671911346500e-01,-2.751272138945310974e-01,2.223922133445739580e-01,-6.718969345092773438e-02,-2.158554911613464189e-01,5.329505523248461163e-01,-7.009980082511901855e-01,-2.628098726272583008e-01,8.933163434324656293e+01,1.760253190994262584e-01
2.323233999999999799e+00,-1.335946942448387915e-02,1.248543735303019875e-01,7.852910161018371582e-01,-1.149723927175848662e-02,-1.813229704603180892e-02,-1.742567575243235412e-02,2.821718598680422047e-03,7.277063028534523637e-02,2.806550078094005585e-02,3.790728442095988027e-01,-3.164654748245154803e-01,2.059145254386497426e-01,3.231930494308471458e-01,-1.752054572105407604e-01,-2.642363653974885151e-01,2.231930494308471680e-01,-7.520545721054076871e-02,-2.157610416412353571e-01,5.325137230480890826e-01,-6.978071928024291992e-01,7.054976224899291992e-01,8.567507891070189885e+01,1.760253190994262584e-01
2.349765000000000104e+00,-1.346082083874840934e-02,1.260706799387187604e-01,7.853138446807861328e-01,-2.418229020045874721e-03,-2.340039109308889032e-02,-1.166267185342186041e-02,-1.144929048490515508e-02,6.710017787280610213e-02,3.451823070645332336e-02,3.125743430338588924e-01,-1.000743664172687730e-01,1.615381681031412275e-01,3.150074481964111328e-01,-2.019074201583862527e-01,-2.303151035905844080e-01,2.150074481964111273e-01,-1.019074201583862332e-01,-1.984028577804565485e-01,5.334035080695628261e-01,-6.320791840553283691e-01,2.375730276107788086e-01,9.011564443731565177e+01,1.760253190994262584e-01
2.372504999999999864e+00,-1.354120021418987740e-02,1.269542340294162186e-01,7.853577733039855957e-01,3.265658119633241523e-03,-2.453818861576961829e-02,-7.582104601473335648e-03,4.254368935957627933e-03,7.533733176940271559e-02,1.337728276848793030e-02,2.531945717987268418e-01,2.398787517296753144e-02,2.435272074779106510e-01,2.794507980346679910e-01,-1.481935739517211970e-01,8.637898137655407316e-02,1.794507980346679576e-01,-4.819357395172119141e-02,1.066517651081085177e-01,5.415275275795884413e-01,-2.762358188629150391e-01,2.606189250946044922e-02,9.216088994276260848e+01,1.760253190994262584e-01
2.398327999999999793e+00,-1.365524419719792854e-02,1.283152608041041587e-01,7.852431535720825195e-01,1.319932747797618842e-02,-2.433612801371931589e-02,-1.828490121423952163e-03,-1.263149262514302006e-02,6.902671984661898352e-02,3.240752220153808594e-02,3.673398821043387108e-01,-7.274297805137589293e-03,2.016341160333143812e-01,2.609967446907872635e-01,-1.899645090103149470e-01,2.059603484372192136e-02,1.961976885795593262e-01,-8.996450901031494141e-02,2.432667016983032157e-02,5.353473131321763168e-01,-5.530151128768920898e-01,6.248389482498168945e-01,-1.030406367999733988e+02,1.760253190994262584e-01
2.422292999999999807e+00,-1.338898842597274069e-02,1.299538883995501048e-01,7.851839065551757812e-01,2.005905638044292588e-02,-2.252824193179847612e-02,1.986371718506776442e-03,-1.968158114893127093e-04,6.253603877342375772e-02,4.032394289970397949e-02,3.295349612719870591e-01,1.376761244241470061e-01,1.921605486322979228e-01,1.664326744152583998e-02,-7.031667232513430510e-03,1.728334643152786565e-01,-1.302605867385864171e-03,9.296833276748657504e-02,1.658504962921142634e-01,5.416023832760492596e-01,-1.837255358695983887e-01,-6.500899791717529297e-02,-4.819518423653855876e+01,1.760253190994262584e-01
