timestamp,x,y,z,roll,pitch,yaw,vx,vy,vz,p,q,r,psp,qsp,rsp,pres,qres,rres,thrust_sp, thrust_res
0.000000000000000000e+00,3.565691032719121205e-04,1.820614476182269570e-02,9.784415364265441895e-01,1.489572905581681983e-02,-8.686759574995317479e-03,-9.498845539799398441e-04,6.056184806550062028e-03,-4.006415881931152281e-04,8.103960193693637848e-03,-9.238491550752205711e-03,2.363207337979761347e-02,3.478927255543841357e-02,-2.855178901201991248e-01,1.626171236242769380e-01,-1.408417474065674913e-01,-1.998262882232665905e-01,2.139903008937835693e-01,-1.383658289909362737e-01,5.267858392259526790e-01,7.456352710723876953e-01,-9.570535421371459961e-01,1.284365573794555928e+02,0.000000000000000000e+00
4.192900000000000099e-02,7.756248338735344987e-04,1.820462593180612043e-02,9.782811999320983887e-01,1.445197501731722463e-02,-8.004973896915679177e-03,-9.172654712277917123e-04,1.640528433350514365e-03,-2.491208536181614263e-04,1.548368949443101883e-02,7.447925258678517180e-03,3.292808356744073017e-02,-1.216852779451592023e-02,-2.789597255334851922e-01,1.613228028845690720e-01,-1.352934332021952235e-01,-1.964085638523101751e-01,2.124333858489990123e-01,-1.329034566879272461e-01,5.262469812425457638e-01,7.444913387298583984e-01,-9.739507436752319336e-01,1.091735592783762172e+02,0.000000000000000000e+00
8.740799999999999959e-02,1.074218216312577273e-03,1.794384570120125325e-02,9.783614277839660645e-01,1.456498312430309049e-02,-8.201082375485890807e-03,-8.017577232579314655e-04,3.982866938580305219e-05,-4.907018242636723183e-03,1.592095941305160522e-02,6.135581182338841616e-02,-4.185747351049409759e-02,-8.371094785278105493e-03,-2.840794196295431950e-01,1.590243825229171182e-01,-1.333144026658001080e-01,-1.968990862369537354e-01,2.118532776832580400e-01,-1.312483191490173284e-01,5.261935796954481104e-01,7.433574199676513672e-01,-3.015004396438598633e-01,1.071658251718509689e+02,0.000000000000000000e+00
1.316360000000000030e-01,1.405727878900025520e-03,1.744716087768271098e-02,9.786089062690734863e-01,1.526223048234596168e-02,-8.118152862042649076e-03,-8.273497674558008509e-04,9.529809453065066563e-03,-2.024998441403562215e-03,1.232120022177696228e-02,1.404394269518359842e-02,1.460432066484552115e-02,2.873205514710575146e-03,-2.922769430768408228e-01,1.707937277739764448e-01,-1.445165432231701463e-01,-2.033125519752502497e-01,2.149626731872558427e-01,-1.423601388931274303e-01,5.265009113403529284e-01,7.463736534118652344e-01,-1.049503445625305176e+00,9.986524087369944880e+01,0.000000000000000000e+00
1.708989999999999954e-01,2.134480169112181521e-03,1.635353219600184024e-02,9.788797497749328613e-01,1.527341561390151321e-02,-7.474097894826892130e-03,-7.817373424689220496e-04,-5.212288912161577858e-03,-1.342762377239155661e-02,1.029663998633623123e-02,-1.812017653890648020e-02,-1.431642800486144021e-02,3.817179248750057069e-02,-2.958446993936567626e-01,1.586287481399580868e-01,-1.313199133208949876e-01,-1.965170323848724199e-01,2.114252150058746338e-01,-1.293046474456787109e-01,5.265190475043298735e-01,7.399269342422485352e-01,-1.058781504631042480e+00,1.213091866786555926e+02,0.000000000000000000e+00
2.103649999999999964e-01,2.456575645708313545e-03,1.573601575154734422e-02,9.791486263275146484e-01,1.485014510496321903e-02,-8.190872360229306537e-03,-1.505949964170139369e-04,4.999215530500093069e-03,2.071994585296004117e-03,1.010470557957887650e-02,-3.031983056408620036e-02,-1.762446537837758509e-02,4.400107448672577887e-02,-2.827298485862446698e-01,1.669971287296342088e-01,-1.361461759043717801e-01,-1.999782264232635443e-01,2.138253450393676758e-01,-1.358956575393676647e-01,5.266307426295004923e-01,7.457337379455566406e-01,-7.244151830673217773e-01,1.046534835196343494e+02,0.000000000000000000e+00
2.490930000000000089e-01,2.582731749181397477e-03,1.428034051738931963e-02,9.798619747161865234e-01,7.796558689292558235e-03,-1.194440726998924340e-02,2.837800913950397266e-03,-1.188239564279346128e-02,3.863908669313117182e-03,6.138076074421405792e-03,-2.835565416109407932e-01,-6.339306042698843180e-02,1.054362935573857490e-01,-2.004559747799102565e-01,1.185522994233850352e-01,-9.764274884956460065e-02,-1.618311345577239935e-01,2.047538280487060380e-01,-1.057677626609802163e-01,5.267915008353066808e-01,7.409448623657226562e-01,-8.009134531021118164e-01,3.695676365544289865e+01,0.000000000000000000e+00
2.874050000000000216e-01,2.482221602039405475e-03,1.361468017048646922e-02,9.803683757781982422e-01,7.438573972299180432e-05,-1.585971455952450704e-02,5.317706309183532244e-03,-9.957238173564891826e-03,8.696917851271605479e-03,1.671350188553333282e-02,-2.648359974081734292e-01,-1.436191104948034702e-01,1.053258526511954979e-01,-1.251533539848080356e-01,1.007777571678161455e-01,-8.622454090483000488e-02,-1.399755299091338945e-01,2.007777571678161510e-01,-1.011704206466674805e-01,5.259378926652450437e-01,7.380764484405517578e-01,-9.755219221115112305e-01,9.532832869865349323e+01,0.000000000000000000e+00
3.314219999999999944e-01,2.268520366022787598e-03,1.302414899748900387e-02,9.811988472938537598e-01,-1.248904583190189009e-02,-2.254923068890257731e-02,8.940719067659388258e-03,-2.030340394018341835e-02,1.790120263243632701e-02,1.866895519196987152e-02,-3.095678901686113038e-01,-1.562867512203523213e-01,1.063514911470277435e-01,6.284112334251404364e-02,9.719673991203306440e-02,-6.793543355316987442e-02,-3.715887665748596191e-02,1.971967399120330700e-01,-9.265322685241698941e-02,5.255103225385108212e-01,7.257268428802490234e-01,-8.659447431564331055e-01,9.070254210212733881e+01,0.000000000000000000e+00
3.926649999999999863e-01,1.997425121121267251e-03,1.312607646851595908e-02,9.829516410827636719e-01,-3.111774412733514517e-02,-3.343497654255411788e-02,1.450998082893978532e-02,-3.450298230921432924e-02,3.717138923152428498e-02,3.187100589275360107e-02,-3.088203869055060613e-01,-1.928545638181707322e-01,7.809619642291235064e-02,2.919920206069946400e-01,-1.040590047836303794e-01,2.527234336956567518e-01,1.919920206069946345e-01,-4.059004783630371267e-03,2.134284496307372880e-01,5.233100391432186083e-01,6.658017635345458984e-01,-7.949765920639038086e-01,8.086141430067620206e+01,0.000000000000000000e+00
4.504650000000000043e-01,1.244129619037297619e-03,1.416865361119902175e-02,9.848210215568542480e-01,-4.648647649412322030e-02,-4.194147902450828802e-02,1.958509058304000461e-02,-4.086728307468929372e-02,5.848999283444553804e-02,4.244830086827278137e-02,-2.648532822943229781e-01,-1.828393764332605642e-01,1.421461356034388890e-01,3.197456598281860352e-01,-3.142832159996032937e-01,2.783109428778841044e-01,2.197456598281860296e-01,-2.142832159996032604e-01,2.259817779064178245e-01,5.225512131715962516e-01,6.748909950256347656e-01,-8.474234342575073242e-01,-9.389078561423008296e+01,0.000000000000000000e+00
4.953040000000000220e-01,3.106251614449530296e-04,1.584150308895838216e-02,9.877237081527709961e-01,-5.731016009186480631e-02,-5.005923854239480164e-02,2.404829834963290169e-02,-5.876866610976743538e-02,8.432025160970725575e-02,5.387051030993461609e-02,-9.130446959560907516e-02,-1.479140120216178023e-01,2.915401097234267269e-02,3.218754053115844838e-01,-3.161891222000122181e-01,2.902838355977044871e-01,2.218754053115844782e-01,-2.161891222000122126e-01,2.266492545604705811e-01,5.198598317275917591e-01,5.873954296112060547e-01,-3.100789785385131836e-01,-8.899685945126756792e+01,0.000000000000000000e+00
5.303010000000000224e-01,-7.504531006816469313e-04,1.749767333674111594e-02,9.894753694534301758e-01,-5.909475587580626660e-02,-5.326735621156619693e-02,2.630243360746338868e-02,-8.074234529527102300e-02,9.454805080324860111e-02,5.798720195889472961e-02,-5.263493960565575336e-02,-1.114791114931118765e-01,5.679321153833579577e-02,3.220983505249023215e-01,-3.173799514770507812e-01,2.966445302894509251e-01,2.220983505249023438e-01,-2.173799514770507757e-01,2.271476626396179144e-01,5.185108276898612312e-01,5.397388935089111328e-01,-8.994027376174926758e-01,7.769365452589433119e+01,0.000000000000000000e+00
5.662949999999999928e-01,-2.367376469775809428e-03,1.890599044411162694e-02,9.921138286590576172e-01,-5.740337334067910358e-02,-5.711728457591358499e-02,2.710115899398274700e-02,-8.518411369040460035e-02,1.144372047403527937e-01,6.474222242832183838e-02,1.042608369544796992e-01,-1.134218510399714747e-01,-5.311084357248695847e-02,3.224530458450317605e-01,-3.192541360855102317e-01,2.991318477989556857e-01,2.224530458450317272e-01,-2.192541360855102539e-01,2.272820234298705833e-01,5.158732080678121168e-01,4.373735189437866211e-01,-6.906343698501586914e-01,8.877706396377655551e+01,0.000000000000000000e+00
5.929560000000000386e-01,-4.521758339689790906e-03,2.111644580494656531e-02,9.949065446853637695e-01,-4.923935615253561410e-02,-5.714624692256764504e-02,2.347726049056422098e-02,-9.368291913138243610e-02,1.270034301575428681e-01,6.341607123613357544e-02,2.407745512396048670e-01,9.440878777929605226e-02,-1.185152992902757940e-01,3.206593275070190319e-01,-3.205712080001831277e-01,2.891511876958796079e-01,2.206593275070190263e-01,-2.205712080001830944e-01,2.266036927700042503e-01,5.162728927874572493e-01,4.669291973114013672e-01,-1.173629641532897949e+00,8.974772263729457222e+01,0.000000000000000000e+00
6.266540000000000443e-01,-6.312177372628648836e-03,2.323143032014354098e-02,9.971300959587097168e-01,-3.940283666807610496e-02,-5.323506536312905268e-02,1.940024294754193190e-02,-9.553343657480327378e-02,1.420955003451467025e-01,6.327358633279800415e-02,3.328531084225599956e-01,1.863834400667216395e-01,-1.004932603354386916e-01,3.170333743095398171e-01,-3.177450180053710826e-01,2.763736367988861575e-01,2.170333743095397838e-01,-2.177450180053710771e-01,2.240066885948181208e-01,5.172236108466929938e-01,5.285980701446533203e-01,-9.515320062637329102e-01,9.778696457342630310e+01,0.000000000000000000e+00
6.594179999999999486e-01,-8.230300929930647533e-03,2.548861109871905506e-02,9.991980195045471191e-01,-2.868029617348642063e-02,-4.537735848737534106e-02,1.443494842070941822e-02,-1.103912764627195259e-01,1.496931969706916665e-01,5.414107441902160645e-02,3.769143961503861884e-01,3.049974179856865808e-01,-1.721140129455757117e-01,3.105623483657836692e-01,-3.105215787887573020e-01,2.560824636726021231e-01,2.105623483657836914e-01,-2.105215787887573242e-01,2.164858818054199163e-01,5.191434640027496883e-01,6.059335470199584961e-01,-9.025217294692993164e-01,9.014899625103282688e+01,0.000000000000000000e+00
6.913979999999999571e-01,-1.039213764994935570e-02,2.813702482579665681e-02,1.001094102859497070e+00,-1.811983268591884841e-02,-3.612628637182546676e-02,9.487827022528112081e-03,-1.075103705834658391e-01,1.580675881444220388e-01,4.572568833827972412e-02,3.177597162430020328e-01,3.254383520164992327e-01,-1.272811125236570085e-01,2.976162910461425670e-01,-2.782930135726928711e-01,1.809674961344153177e-01,1.976162910461425615e-01,-1.782930135726928655e-01,1.542830049991607555e-01,5.204358859550838323e-01,6.519067287445068359e-01,-1.519531130790710449e+00,-2.049331324608459681e+01,0.000000000000000000e+00
7.233519999999999950e-01,-1.280713844078680552e-02,3.113845844801569826e-02,1.002896189689636230e+00,-6.709745143595442426e-03,-2.579897987098322965e-02,3.916197512235179354e-03,-1.143001886698546410e-01,1.641172793554444842e-01,4.197284579277038574e-02,4.094289919460538107e-01,3.591571641742232757e-01,-2.008398150710024865e-01,2.780920267105102539e-01,-2.111735582351684792e-01,7.369341423117356515e-02,1.780920267105102484e-01,-1.111735582351684598e-01,6.194761991500854353e-02,5.208526511376629919e-01,6.683278083801269531e-01,-1.094411730766296387e+00,9.664023728348369957e+01,0.000000000000000000e+00
7.582250000000000378e-01,-1.640990837619634921e-02,3.629067375818178370e-02,1.005006551742553711e+00,8.680290756006575278e-03,-1.184298844020714725e-02,-3.536831500473226059e-03,-1.196017534412799482e-01,1.583026156969412623e-01,4.152878373861312866e-02,4.056652481240207164e-01,3.517263533916882845e-01,-2.040480668183521917e-01,2.230161275502147156e-01,-4.155219793319703259e-02,-4.586520086234469398e-03,1.456565380096435380e-01,5.844780206680297296e-02,4.232132434844970356e-03,5.208954804839488473e-01,6.794089078903198242e-01,-9.247072935104370117e-01,9.587019492626728834e+01,0.000000000000000000e+00
7.957480000000000109e-01,-1.918799626724134941e-02,4.023878938220569468e-02,1.006449103355407715e+00,1.958529384899955830e-02,-7.876319142445797894e-04,-8.977140765036851350e-03,-1.110143454542853736e-01,1.659621613728432810e-01,2.322054095566272736e-02,3.251683121499966411e-01,3.894315103955244828e-01,-1.496461528352473758e-01,7.918235560527242534e-02,1.105228540645687152e-01,-2.403189285426572327e-02,6.327978372573851706e-02,2.057424187660217285e-01,2.538084983825683485e-04,5.228306597421128465e-01,7.185983657836914062e-01,-9.162751436233520508e-01,7.958391620888453133e+01,0.000000000000000000e+00
8.290499999999999536e-01,-2.284346099109558353e-02,4.555255272107662512e-02,1.008003711700439453e+00,3.375262063916901339e-02,1.316656226706403032e-02,-1.580926379872020157e-02,-1.084001130558780446e-01,1.536998556952515194e-01,2.142091467976570129e-02,3.939800090697249124e-01,2.910690102623225695e-01,-1.496005785211412531e-01,-2.589068223385023737e-01,2.124730935111021346e-01,-9.480853235539413171e-02,-1.748896300792694147e-01,2.201354205608367920e-01,-5.062505006790161272e-02,5.231862486919639510e-01,7.387069463729858398e-01,-7.570816278457641602e-01,-9.438724474424162736e+01,0.000000000000000000e+00
8.597089999999999455e-01,-2.618138439814213930e-02,4.912724249331971993e-02,1.008986473083496094e+00,4.392774644262770201e-02,2.331370925041831299e-02,-2.028248066028101593e-02,-1.089114919490173777e-01,1.426287461399714518e-01,1.594507694244384766e-02,3.246371987679468885e-01,3.564796345302575498e-01,-1.582100118339158645e-01,-3.034061789512634277e-01,2.777720769146624358e-01,-1.210991790192127021e-01,-2.034061789512634222e-01,2.237236797809600830e-01,-6.355290412902832309e-02,5.235277454918888518e-01,7.408312559127807617e-01,-9.866474866867065430e-01,9.926735343451321114e+01,0.000000000000000000e+00
8.916779999999999706e-01,-2.929422363995532949e-02,5.247085486840771112e-02,1.009687662124633789e+00,5.445663678397232726e-02,3.254305265385393220e-02,-2.361118056042272109e-02,-8.747809882909204915e-02,1.393227285365427059e-01,1.618362404406070709e-02,3.342876330648991701e-01,3.145038863184654865e-01,-1.364113495770029882e-01,-3.114825069904327282e-01,3.258632957935333474e-01,-1.896593345790040797e-01,-2.114825069904327226e-01,2.258632957935333141e-01,-1.214687705039977916e-01,5.235249922861578975e-01,7.461302280426025391e-01,-1.258142113685607910e+00,-5.794799427692684191e+01,0.000000000000000000e+00
9.234040000000000026e-01,-3.306010587075590423e-02,5.641884951738722342e-02,1.010670423507690430e+00,6.806185100251925524e-02,4.315529535263395999e-02,-2.640708322902736438e-02,-8.455648774417920399e-02,1.110630883660731899e-01,1.620421186089515686e-02,3.048659993979569993e-01,1.983209614041551438e-01,-8.533225758488115209e-02,-3.185199439525604470e-01,3.271493792533874401e-01,-2.650121310036249178e-01,-2.185199439525604137e-01,2.271493792533874345e-01,-1.875175237655639648e-01,5.235064013234389524e-01,7.513071298599243164e-01,-6.549845933914184570e-01,8.512166966339079011e+01,0.000000000000000000e+00
9.558769999999999767e-01,-3.634016042907053240e-02,5.886685707079294949e-02,1.011454105377197266e+00,7.634532393963421038e-02,4.767627281699837738e-02,-2.730896673559635515e-02,-7.181598103439829073e-02,1.035350380718670221e-01,7.551387418061494827e-03,1.837030414949145651e-01,1.333107450803737715e-01,1.122587148219949095e-03,-3.113780975341796653e-01,3.268555343151092751e-01,-2.782146958100546463e-01,-2.113780975341796875e-01,2.268555343151092418e-01,-1.971149682998657171e-01,5.238078703157983407e-01,7.377672195434570312e-01,-7.185379266738891602e-01,-6.893216448126335827e+00,0.000000000000000000e+00
9.868170000000000552e-01,-3.931558570765952138e-02,6.099406075114409409e-02,1.012282133102416992e+00,8.163259006478969237e-02,4.836725341315006865e-02,-2.794421270931283716e-02,-6.434037747498065618e-02,8.986678945787977824e-02,1.566417142748832703e-02,1.293435109504594560e-01,-1.899675890903880851e-02,3.648682759904789148e-03,-3.119411289691925160e-01,3.265900135040282759e-01,-2.830999183221636351e-01,-2.119411289691925104e-01,2.265900135040282981e-01,-1.998941659927368220e-01,5.227267267907602655e-01,7.162954807281494141e-01,-5.733367204666137695e-01,1.166624997032691908e+02,0.000000000000000000e+00
1.019702000000000108e+00,-4.198041355502843408e-02,6.281031133805074773e-02,1.013054609298706055e+00,8.110080823551107931e-02,4.594362642318494672e-02,-2.805886523515853034e-02,-6.425727733777153450e-02,7.036323028285713932e-02,1.784568279981613159e-02,-3.920391459824628527e-02,-1.527812465407861475e-01,-1.218742936412866608e-02,-3.149262666702270508e-01,3.263616502285003884e-01,-2.832118691556552159e-01,-2.149262666702270452e-01,2.263616502285003551e-01,-2.001930713653564398e-01,5.221523457581005445e-01,6.988209486007690430e-01,-1.142459511756896973e+00,-1.575169688651878097e+01,0.000000000000000000e+00
1.052108999999999961e+00,-4.492450820603705042e-02,6.469995825173027737e-02,1.013842582702636719e+00,7.530070019798783265e-02,4.036744294025651492e-02,-2.737563589638562084e-02,-4.214059194615055876e-02,6.285155499809556845e-02,2.040984667837619781e-02,-2.650616777084621734e-01,-2.082478242976336102e-01,1.224362867612974713e-02,-3.125273704528808705e-01,3.263493120670318826e-01,-2.838964169711041263e-01,-2.125273704528808649e-01,2.263493120670318492e-01,-2.034522056579589899e-01,5.218054946437072905e-01,6.955149173736572266e-01,-1.009353756904602051e+00,9.953170224596021853e+01,0.000000000000000000e+00
1.082503999999999911e+00,-4.790453607258975122e-02,6.642942364950631118e-02,1.014714241027832031e+00,6.648675808168846846e-02,3.170010675396017774e-02,-2.550727056796917719e-02,-4.840404380598821443e-02,4.488130574040540000e-02,2.499477751553058624e-02,-3.388350235635674834e-01,-3.312060285754764299e-01,7.427541115550864714e-02,-3.214415311813354492e-01,3.260315239429473766e-01,-2.693487946920758436e-01,-2.214415311813354437e-01,2.260315239429473710e-01,-1.957104206085205078e-01,5.221518314730051458e-01,7.379345893859863281e-01,-7.385765314102172852e-01,1.026801462457692935e+02,0.000000000000000000e+00
1.115364999999999940e+00,-5.155990558179324168e-02,6.816091561166866264e-02,1.016001224517822266e+00,5.256186438862876092e-02,1.740876260404067288e-02,-2.127475662720250404e-02,-4.431665477671200420e-02,2.669131319190969076e-02,3.108785115182399750e-02,-3.550942000226522954e-01,-3.410673477489218341e-01,9.225994072378575217e-02,-3.222569048404693715e-01,2.623305571050286722e-01,-1.894127101242461253e-01,-2.222569048404693659e-01,2.219049453735351396e-01,-1.292893409729003740e-01,5.215540812818028060e-01,7.374844551086425781e-01,-9.093495607376098633e-01,9.247656762582225554e+01,0.000000000000000000e+00
1.149648000000000003e+00,-5.399702365579251567e-02,6.906251474051394723e-02,1.017247200012207031e+00,4.220379996448590104e-02,6.061415565944860973e-03,-1.754893710737370771e-02,-3.826067667109647741e-02,1.532857011023480535e-02,3.989745303988456726e-02,-3.038614956728915573e-01,-3.811737403927482060e-01,8.951836284283709588e-02,-3.174211680889129639e-01,1.809837439685603455e-01,-1.467226735226752066e-01,-2.174211680889129583e-01,2.112049877643585039e-01,-9.792269468307494840e-02,5.206016621621238905e-01,7.288229465484619141e-01,-9.119378328323364258e-01,9.450076248824723280e+01,0.000000000000000000e+00
1.183896999999999977e+00,-5.613522722157146538e-02,6.978786137604146844e-02,1.018651366233825684e+00,3.143939088926714365e-02,-4.839455769678924213e-03,-1.342213125563800763e-02,-2.836673456787886655e-02,1.464585405828399724e-02,3.228465095162391663e-02,-4.097326277486750823e-01,-3.513421858811387466e-01,9.882806411890313059e-02,-2.935554802417755238e-01,7.971177524783359947e-02,-1.021505812886530085e-01,-1.935554802417755182e-01,1.745336830615997203e-01,-6.541872024536132812e-02,5.208779978050858128e-01,7.218676805496215820e-01,-7.631112337112426758e-01,7.317984205062136027e+01,0.000000000000000000e+00
1.218838000000000088e+00,-5.897964417567923279e-02,7.057836205383290207e-02,1.020671367645263672e+00,1.702406573858301908e-02,-1.935850265841110307e-02,-6.841979068567308718e-03,-5.255292391623927334e-02,-1.220941944279481991e-03,4.618592187762260437e-02,-3.376767923992549658e-01,-3.963013638602351230e-01,1.030313088822348011e-01,-8.579609458409137579e-02,-2.620893239974975697e-01,-2.277933055367580353e-02,-3.022223711013793945e-02,-1.620893239974975641e-01,-4.787814617156982248e-03,5.180582580754390376e-01,6.356856822967529297e-01,-7.966312170028686523e-01,-1.763041554981165859e+01,0.000000000000000000e+00
1.263749000000000011e+00,-6.111538365365618702e-02,7.106075957475621596e-02,1.022372841835021973e+00,5.844559654879824886e-03,-3.020743230298683635e-02,-1.518119162433124742e-03,-2.952216840238006818e-02,1.263457300760495970e-02,4.033462330698966980e-02,-3.890698732151826600e-01,-3.503197959400166095e-01,1.700020551260015833e-01,1.067598209931635844e-01,-3.000776290893554799e-01,8.005750274502329566e-02,7.510088682174682895e-02,-2.000776290893554743e-01,8.337589502334594171e-02,5.184883641191663228e-01,6.458511352539062500e-01,-6.231728792190551758e-01,-6.236661440573733728e+01,0.000000000000000000e+00
1.313986000000000098e+00,-6.454684631477618229e-02,7.185899486366836841e-02,1.025179862976074219e+00,-1.204549318040982336e-02,-4.715832346291781718e-02,6.117421300995106934e-03,-3.793689266056579634e-02,2.442231316710459163e-02,4.251619800925254822e-02,-3.411629603976981673e-01,-3.029114717867761875e-01,1.018765472183682380e-01,2.406468152999877985e-01,-3.180322647094726562e-01,2.140971348980328370e-01,1.406468152999877930e-01,-2.180322647094726507e-01,1.969722390174865612e-01,5.169276007024664610e-01,5.843908786773681641e-01,-7.182086706161499023e-01,7.046307283654626019e+01,0.000000000000000000e+00
1.353374000000000077e+00,-6.815907880007780750e-02,7.315840661843787951e-02,1.027683734893798828e+00,-3.081706693221801519e-02,-5.870493306956170443e-02,1.220238225058252989e-02,-7.156467696193788419e-02,3.656131351054178052e-02,3.160981088876724243e-02,-3.690807055422842820e-01,-1.523130461482210263e-01,9.287801940126858002e-02,3.081279397010803223e-01,-3.244468569755554199e-01,2.532484664868712709e-01,2.081279397010803167e-01,-2.244468569755554144e-01,2.209171056747436523e-01,5.171779248976344778e-01,5.661888122558593750e-01,-1.293230652809143066e+00,1.326759738350124564e+02,0.000000000000000000e+00
1.392370000000000108e+00,-7.029615265695647597e-02,7.440594092512865798e-02,1.029449462890625000e+00,-4.421752557775433801e-02,-6.320838164836239947e-02,1.567568907264116004e-02,-8.619735130317944527e-02,4.632765339823339407e-02,3.944162651896476746e-02,-2.542158308297822744e-01,-7.214041474186891345e-02,6.162379057805192351e-02,3.182917952537536732e-01,-3.260497093200683816e-01,2.664791849340242824e-01,2.182917952537536677e-01,-2.260497093200683483e-01,2.259604990482330100e-01,5.152080094084834361e-01,5.011787414550781250e-01,-9.115699529647827148e-01,9.126467350100855924e+01,0.000000000000000000e+00
1.440717000000000025e+00,-7.277474468403455354e-02,7.619454648780778216e-02,1.031201958656311035e+00,-5.138487415482972248e-02,-5.867360400105603446e-02,1.678165059509401438e-02,-8.003178220272891275e-02,6.310515257503766795e-02,3.361271321773529053e-02,-8.170627710606817584e-02,1.901365988350729175e-01,3.327500558598685265e-02,3.212280273437500000e-01,-3.238934993743896595e-01,2.697615609479693255e-01,2.212280273437499944e-01,-2.238934993743896540e-01,2.264596402645110973e-01,5.163916090006553938e-01,5.514271259307861328e-01,-8.031524419784545898e-01,1.053282857190640982e+02,0.000000000000000000e+00
1.473629999999999995e+00,-7.507220946992029798e-02,7.819407993758516195e-02,1.032971143722534180e+00,-5.039087857397127335e-02,-4.759366248480789707e-02,1.540722583842520435e-02,-9.799365389157074779e-02,8.029709226809800260e-02,3.574423864483833313e-02,1.000095756027341021e-01,3.276233248485916905e-01,-6.966949027679150697e-02,3.212353944778442161e-01,-3.177067518234252819e-01,2.654472570723870328e-01,2.212353944778442383e-01,-2.177067518234252763e-01,2.252919673919677734e-01,5.171751751364888072e-01,6.108193397521972656e-01,-6.114367246627807617e-01,-1.540195021987910806e+01,0.000000000000000000e+00
1.504564000000000012e+00,-7.763717733168151724e-02,8.078842833692409520e-02,1.034714460372924805e+00,-4.368186567462604281e-02,-3.497643981142495306e-02,1.185577507826838205e-02,-1.090584997527705297e-01,9.200717606406792759e-02,2.661917358636856079e-02,2.397974410987509797e-01,3.214989578993219244e-01,-1.204794365186835914e-01,3.178644299507141224e-01,-3.050656080245971458e-01,2.541534366382395826e-01,2.178644299507141169e-01,-2.050656080245971680e-01,2.227995693683624268e-01,5.182339055933472549e-01,6.406965255737304688e-01,-6.670790910720825195e-01,1.030341481202618752e+02,0.000000000000000000e+00
1.537184000000000106e+00,-7.977536157311719556e-02,8.315215517320684313e-02,1.035859584808349609e+00,-3.585777136010449145e-02,-2.508469342033947669e-02,8.290784409945519198e-03,-1.123439272991104548e-01,9.839466345322399332e-02,2.058245427906513214e-02,2.537488968714141646e-01,3.634803740875464095e-01,-9.549084772767220397e-02,3.141215682029724343e-01,-2.855266451835632435e-01,2.402535165417282459e-01,2.141215682029724010e-01,-1.855266451835632380e-01,2.180032074451446478e-01,5.186708926023049226e-01,6.472346782684326172e-01,-7.774223089218139648e-01,-1.523622046080116661e+02,0.000000000000000000e+00
1.568634000000000084e+00,-8.196354398243548001e-02,8.564187171359602391e-02,1.036936521530151367e+00,-2.561135303188770765e-02,-1.482114971635395406e-02,4.168119300174010292e-03,-1.020680625789305851e-01,1.132216624331957994e-01,1.580447331070899963e-02,3.571000551283749491e-01,3.362814148369341893e-01,-1.305156584712462431e-01,3.044125795364379661e-01,-2.006701707839965709e-01,1.944924011453990353e-01,2.044125795364379883e-01,-1.006701707839965793e-01,1.829419255256652665e-01,5.191533028486957635e-01,6.608266830444335938e-01,-3.831006288528442383e-01,-9.425521718758528777e+01,0.000000000000000000e+00
1.599768999999999997e+00,-8.412543661473030621e-02,8.824415346082201128e-02,1.037769317626953125e+00,-1.525439375253862494e-02,-3.969491113813061745e-03,-3.351614804735218072e-04,-1.054794020736434940e-01,1.206480717070487901e-01,1.133147161453962326e-02,3.539919820736059375e-01,3.459304100153527406e-01,-1.531550892374293482e-01,2.760777235031127708e-01,-9.942289590835572122e-02,6.126481005724462164e-02,1.760777235031127930e-01,5.771040916442870443e-04,6.188664436340331892e-02,5.194497797875841094e-01,6.641294956207275391e-01,-9.542192220687866211e-01,1.020876409956490249e+02,0.000000000000000000e+00
1.634150999999999909e+00,-8.629432545390483544e-02,9.115560727406045449e-02,1.038446426391601562e+00,-4.884208572118792571e-03,7.302945173349506547e-03,-4.938989639116557820e-03,-1.044640383650943666e-01,1.192107107804598887e-01,1.505854597780853510e-04,3.362303151197852946e-01,3.399198467075658092e-01,-1.326034876827645037e-01,2.316049814224243053e-01,8.223924199756062203e-02,-1.263161646585144772e-02,1.316049814224242998e-01,1.754979908466338945e-01,8.112430572509765408e-04,5.205331869797241717e-01,6.829729080200195312e-01,-7.824596166610717773e-01,1.275135665961550870e+02,0.000000000000000000e+00
1.665308999999999928e+00,-8.958811818301441743e-02,9.515616627033403330e-02,1.038911223411560059e+00,8.831459679321286560e-03,2.129092922056985415e-02,-1.066114896266237913e-02,-8.960652041356420572e-02,1.280866634546136973e-01,-5.602120421826839447e-03,3.570471925205698782e-01,3.377896116350967426e-01,-1.342276293523400332e-01,1.724661350250244196e-01,2.165621305505012195e-01,-8.898958861395375730e-02,7.246613502502441406e-02,2.104741573333740179e-01,-5.909249782562255721e-02,5.215895984683228681e-01,7.206354141235351562e-01,-9.555248022079467773e-01,9.661764301770929819e+01,0.000000000000000000e+00
1.697937000000000030e+00,-9.224094769712067043e-02,9.803910698301013249e-02,1.039041519165039062e+00,1.939485271380310405e-02,3.108885188306076408e-02,-1.528513104091725090e-02,-8.143145603675670807e-02,1.204792680812764305e-01,-3.288143081590533257e-03,3.860064861795624025e-01,3.051220434716117036e-01,-1.929942400546142411e-01,3.539800384844445091e-02,2.924455546688419227e-01,-1.792010636786034172e-01,1.002502441406250043e-03,2.214564979076385498e-01,-1.357252836227416937e-01,5.215196602253373559e-01,7.287396192550659180e-01,-1.187742829322814941e+00,5.756891877799113644e+01,0.000000000000000000e+00
1.729808999999999930e+00,-9.459808407017868126e-02,1.009166596042200270e-01,1.039015889167785645e+00,2.990620946354767204e-02,4.084052356878076218e-02,-1.939343632754273253e-02,-7.552912840515826898e-02,1.151740784769193782e-01,-1.956129260361194611e-02,3.094676310514754558e-01,3.319372829235547884e-01,-1.167854834361335831e-01,-5.278597077064669379e-02,3.252295792102813943e-01,-2.294102570090894022e-01,-1.686969995498657088e-02,2.252295792102813610e-01,-1.735183596611022949e-01,5.224859335084373058e-01,7.177658081054687500e-01,-1.658720612525939941e+00,1.161593333274926891e+02,0.000000000000000000e+00
1.761581000000000063e+00,-9.683305590885711578e-02,1.038369302011525469e-01,1.038884758949279785e+00,4.063860485353376628e-02,4.933942531723145564e-02,-2.238137500065394414e-02,-5.256683505086232056e-02,1.142761106044453134e-01,-1.535280700773000717e-02,3.683494088233880137e-01,2.731686077490039777e-01,-1.030567230263683409e-01,-1.182240188121795738e-01,3.253118693828582764e-01,-2.516869805415438144e-01,-1.822401881217956474e-02,2.253118693828582708e-01,-1.861109733581542969e-01,5.213735278717378518e-01,6.754536628723144531e-01,-1.599599480628967285e+00,8.272652722714241236e+01,0.000000000000000000e+00
1.794696000000000069e+00,-9.924758561000032731e-02,1.067493562184917560e-01,1.038732767105102539e+00,5.044315705910557002e-02,5.508208360417343741e-02,-2.401996601642985077e-02,-5.329366166041207831e-02,1.060807118065171945e-01,-1.113187894225120544e-02,3.188257448851060105e-01,1.446483374779143904e-01,-5.811880661207385196e-02,-2.266957521438598688e-01,3.256854474544524924e-01,-2.666612890192701091e-01,-1.266957521438598633e-01,2.256854474544525146e-01,-1.956011652946472168e-01,5.209334443313194951e-01,6.690924167633056641e-01,-1.205570816993713379e+00,9.953467337824916683e+01,0.000000000000000000e+00
1.826610000000000067e+00,-1.019500797314392138e-01,1.102449694694297017e-01,1.038106560707092285e+00,6.231760876001032901e-02,5.674826737164329060e-02,-2.439028818664955647e-02,-3.223556156683060614e-02,9.192960521795486006e-02,-4.603545647114515305e-03,2.969303751659946311e-01,-2.503228113616703249e-02,-2.941071555428721382e-02,-2.527829349040985329e-01,3.264061391353607067e-01,-2.856170693695992968e-01,-1.527829349040984996e-01,2.264061391353607011e-01,-2.125002622604370006e-01,5.196882385998387033e-01,6.280251741409301758e-01,-7.513843774795532227e-01,7.583500295838295813e+01,0.000000000000000000e+00
1.857833000000000068e+00,-1.037720397169820119e-01,1.126394078499473733e-01,1.037725210189819336e+00,6.976326572874375076e-02,5.304934869448274526e-02,-2.357745217392828718e-02,-3.182005969917856697e-02,6.791454269612928751e-02,3.654622472822666168e-03,2.417466293394158472e-01,-2.146010239494488825e-01,-1.005986277212049529e-02,-2.743330717086792103e-01,3.263233304023742676e-01,-2.840019839004267466e-01,-1.743330717086792048e-01,2.263233304023742620e-01,-2.134297370910644420e-01,5.179576992718516459e-01,5.687315464019775391e-01,-1.832739114761352539e-01,8.213903533587294703e+01,0.000000000000000000e+00
1.893043999999999949e+00,-1.055637330567563564e-01,1.150344933909283884e-01,1.037385463714599609e+00,7.393836120096823616e-02,4.677348804918124436e-02,-2.145862660602531127e-02,-9.069394318019384851e-03,6.071608000882087325e-02,-6.461095530539751053e-03,6.941595915467077549e-02,-2.191702834208854589e-01,5.809071481521745073e-02,-2.824591457843780296e-01,3.261742711067199263e-01,-2.766600752585401946e-01,-1.824591457843780518e-01,2.261742711067199485e-01,-2.122805714607238770e-01,5.166692186387272789e-01,4.604567289352416992e-01,-1.113314986228942871e+00,9.297405811439847412e+01,0.000000000000000000e+00
1.935735999999999901e+00,-1.069508797724842003e-01,1.170544349647092836e-01,1.037025570869445801e+00,7.481193513210657176e-02,3.844837497597386466e-02,-1.861427901703746265e-02,-5.679944727343710573e-03,5.089765131965829498e-02,-3.020274452865123749e-03,-5.616562701839512839e-02,-2.845853715370055825e-01,1.176129997744212591e-01,-2.983680784702301136e-01,3.255042731761932373e-01,-2.591743649426656582e-01,-1.983680784702301081e-01,2.255042731761932318e-01,-2.038857936859130859e-01,5.172017807170666837e-01,5.031328201293945312e-01,-1.035213112831115723e+00,3.999934655330594779e+01,0.000000000000000000e+00
1.971166999999999891e+00,-1.086675294351976129e-01,1.198110007507822150e-01,1.036386966705322266e+00,6.896819444571924973e-02,2.119680430991510711e-02,-1.251933099449272814e-02,7.107515072496759477e-03,3.272478701829020092e-02,-3.906773345079272985e-04,-2.137448891613231150e-01,-3.429011663265408849e-01,1.035719705876089608e-01,-3.096988201141357422e-01,2.750065788430116065e-01,-2.265456817064466777e-01,-2.096988201141357366e-01,2.228652119636535534e-01,-1.904997110366821178e-01,5.194598674233419366e-01,6.351983547210693359e-01,-7.088764905929565430e-01,1.065804096580891809e+02,0.000000000000000000e+00
2.002637000000000000e+00,-1.094200716059531703e-01,1.215157826460595142e-01,1.035972714424133301e+00,6.194933987862254188e-02,9.770506770204079316e-03,-8.246895307851106333e-03,5.043474507894204172e-03,7.130671418274270139e-03,6.379704922437667847e-03,-2.219464251951216160e-01,-4.165194765568357993e-01,1.344423365763679767e-01,-3.157370626926422341e-01,1.898908097191163158e-01,-1.835618076375899743e-01,-2.157370626926422008e-01,2.155716061592101995e-01,-1.608986020088195856e-01,5.200562365395872133e-01,6.952018737792968750e-01,-9.782313108444213867e-01,1.182265310609320750e+02,0.000000000000000000e+00
2.034921000000000202e+00,-1.102086214135515746e-01,1.231711915043769562e-01,1.035388588905334473e+00,5.045704412291949353e-02,-5.099737452467500987e-03,-2.023059248087329554e-03,1.900118479144023015e-02,3.204521710737096019e-03,1.133010373450815678e-03,-2.909248660542578802e-01,-3.352139349497803567e-01,1.286938242184087200e-01,-3.190676689147949330e-01,1.107204377651214433e-01,-1.366046725756789593e-01,-2.190676689147949274e-01,2.107204377651214489e-01,-1.325290918350219560e-01,5.208729303064204563e-01,7.183669805526733398e-01,-7.333961725234985352e-01,1.371351038157903020e+02,0.000000000000000000e+00
2.084461000000000119e+00,-1.104383564935073475e-01,1.247207418975841420e-01,1.034853577613830566e+00,3.821160008226529015e-02,-1.952361631506538409e-02,4.577721760370220654e-03,7.695804521397299133e-03,-3.157333587992791190e-03,1.024415483698248863e-03,-2.861299013861919871e-01,-3.279709577592831993e-01,1.533831328137242322e-01,-2.907296657562256081e-01,-2.324330687522888073e-01,-6.356901369870784912e-02,-1.907296657562255748e-01,-1.324330687522888017e-01,-7.889964580535888117e-02,5.207434617144417466e-01,7.103620767593383789e-01,-8.190244436264038086e-01,4.711333691352189845e+01,0.000000000000000000e+00
2.114533000000000218e+00,-1.104558363623585893e-01,1.263317033802909828e-01,1.034179329872131348e+00,2.459400537997337780e-02,-3.402646320876923092e-02,1.169488891845927962e-02,-4.795486440130694757e-03,-5.739818480978066233e-03,-6.161752622574567795e-03,-2.940385191091893224e-01,-3.820217586947720623e-01,1.557707336914176954e-01,-1.407057644206467228e-01,-3.149161458015442006e-01,1.080784967982796746e-01,-8.561722040176390769e-02,-2.149161458015441950e-01,7.255257368087768277e-02,5.196482397255004493e-01,6.212639808654785156e-01,-8.586238622665405273e-01,8.902976047249951819e+01,0.000000000000000000e+00
2.156547000000000214e+00,-1.106730831664397979e-01,1.273434456355899691e-01,1.033610343933105469e+00,1.381648132371993305e-02,-4.479193531312630761e-02,1.654110011165845287e-02,-4.944993328910698115e-03,-1.629616216757590400e-02,-5.497382022440433502e-03,-3.528711132745945833e-01,-3.576548811828607621e-01,9.370523006945130629e-02,-3.751942351272204157e-02,-3.232505559921264870e-01,2.114429970076426579e-01,-4.514769315719604353e-02,-2.232505559921264537e-01,1.627387762069702204e-01,5.190410697703977672e-01,5.906696319580078125e-01,-3.496478796005249023e-01,3.066624822232036607e+01,0.000000000000000000e+00
2.187559999999999949e+00,-1.110941541899865825e-01,1.298904121644526011e-01,1.032588243484497070e+00,-8.505369061622730827e-04,-5.679358512786780722e-02,2.273349997373821929e-02,-1.701284298729119002e-02,-1.034031426520418649e-02,-1.285379193723201752e-02,-3.429385507507254904e-01,-2.960924494803649498e-01,9.208302330401001157e-02,2.542938947677612083e-01,-3.250181674957275391e-01,2.683556531060084516e-01,1.542938947677612305e-01,-2.250181674957275335e-01,2.031426429748535156e-01,5.197906314466821387e-01,5.981751680374145508e-01,-1.183332324028015137e+00,9.910016406400963263e+01,0.000000000000000000e+00
2.221976999999999869e+00,-1.116594881012669266e-01,1.321139035473954393e-01,1.031705856323242188e+00,-1.182708022458194529e-02,-6.272083431175445867e-02,2.678100501720096990e-02,-2.770874629620089999e-02,-8.519230512342146604e-04,-1.808685995638370514e-02,-3.871814534335169533e-01,-1.752215813520288101e-01,1.008805193461614486e-01,2.841356873512267955e-01,-3.260656595230102539e-01,2.894450474224733449e-01,1.841356873512267900e-01,-2.260656595230102484e-01,2.138365566730499323e-01,5.201898207825056408e-01,5.954916477203369141e-01,-1.298436999320983887e+00,1.011560851551293183e+02,0.000000000000000000e+00
2.262096999999999802e+00,-1.125985746026030299e-01,1.344852157659034153e-01,1.030647873878479004e+00,-2.303537361872033326e-02,-6.576374907965010230e-02,3.029901133993670795e-02,-4.905809683339551475e-02,1.395436874929647381e-02,-2.564994059503078461e-02,-3.745134585090649226e-01,-5.067751759902927589e-02,9.306453145126100668e-02,3.022133827209472767e-01,-3.269477844238281028e-01,3.060770176802373177e-01,2.022133827209472712e-01,-2.269477844238281250e-01,2.216941773891449030e-01,5.210674378651387606e-01,6.075994968414306641e-01,-9.814134836196899414e-01,9.371516096010154229e+01,0.000000000000000000e+00
2.296539000000000108e+00,-1.139539814740856277e-01,1.379532412076552583e-01,1.028976559638977051e+00,-3.670519906414448918e-02,-6.217657363911621715e-02,3.178163210353220774e-02,-3.754721516700362111e-02,2.823918695479769522e-02,-3.032486699521541595e-02,-2.729470351194601130e-01,1.381335886140483415e-01,-6.391089778326173448e-03,3.128269553184509499e-01,-3.260427713394165039e-01,3.119512660038337160e-01,2.128269553184509166e-01,-2.260427713394164984e-01,2.247258067131042425e-01,5.215744296729630802e-01,6.097879409790039062e-01,-1.337304949760437012e+00,1.372580062397155132e+02,0.000000000000000000e+00
2.330738000000000198e+00,-1.155918900546405309e-01,1.417460174208380885e-01,1.027288556098937988e+00,-4.434140099618320841e-02,-5.210294006704785374e-02,2.964555832613833403e-02,-6.458357953468438217e-02,3.525091904412205185e-02,-2.316387183964252472e-02,-1.156045422655322952e-01,2.787055167111698872e-01,-8.613373111255603898e-02,3.190089464187622070e-01,-3.217628955841064231e-01,3.057992198498046266e-01,2.190089464187622015e-01,-2.217628955841064453e-01,2.250994384288787786e-01,5.214785720885570797e-01,6.246403455734252930e-01,-8.295255899429321289e-01,1.017475522164957482e+02,0.000000000000000000e+00
2.362276000000000042e+00,-1.170917532713648956e-01,1.447965206506957314e-01,1.026075601577758789e+00,-4.428818557059265720e-02,-4.261472198248417165e-02,2.608282221544079224e-02,-5.921485757581184534e-02,4.758252923219142422e-02,-2.799204736948013306e-02,7.193715452322788084e-02,3.402892214677767369e-01,-1.490522497873425778e-01,3.180469274520874023e-01,-3.107274293899536244e-01,2.944909463232105451e-01,2.180469274520873968e-01,-2.107274293899536188e-01,2.232738912105560192e-01,5.222007796445775618e-01,6.394367218017578125e-01,-6.946183443069458008e-01,7.953648054509879728e+01,0.000000000000000000e+00
2.395455999999999808e+00,-1.186966541712060202e-01,1.475621544282915143e-01,1.025034189224243164e+00,-3.969102661260762860e-02,-3.263864876442945651e-02,2.213641797312638354e-02,-7.894039063360329400e-02,6.276243254728951226e-02,-2.957346290349960327e-02,2.157084545877505088e-01,3.376204784053593033e-01,-8.953742175078224785e-02,3.173761606216430886e-01,-2.924949169158935769e-01,2.821775677379135816e-01,2.173761606216430553e-01,-1.924949169158935436e-01,2.212803304195403997e-01,5.229470133406111110e-01,6.672565937042236328e-01,-9.380823373794555664e-01,5.860123356914686354e+01,0.000000000000000000e+00
2.431338999999999917e+00,-1.209978917672836080e-01,1.513763657848524735e-01,1.023541331291198730e+00,-2.929477720665718543e-02,-1.902371776223876765e-02,1.584963569825939209e-02,-7.260296965452141260e-02,7.841090283213456025e-02,-3.445888310670852661e-02,2.988982301953042042e-01,3.484956203792944907e-01,-1.737695836175417174e-01,3.116391658782958762e-01,-1.787648558616638239e-01,2.477229113498223556e-01,2.116391658782958984e-01,-7.876485586166381836e-02,2.034135818481445368e-01,5.236061077099594119e-01,6.766412258148193359e-01,-6.003206968307495117e-01,9.602901048484842761e+01,0.000000000000000000e+00
2.464106999999999825e+00,-1.228625137681064738e-01,1.545405746924466972e-01,1.022402882575988770e+00,-1.979152223558827348e-02,-8.686168487238132840e-03,1.053571845972671971e-02,-7.831105251104118758e-02,8.149449966869799777e-02,-3.112029656767845154e-02,3.096757436634945959e-01,3.217116724729965349e-01,-1.923589853363910918e-01,2.971947193145751953e-01,-4.940497279167176126e-02,1.458290450905052049e-01,1.971947193145751898e-01,5.059502720832824429e-02,1.159237504005432018e-01,5.235730840768622052e-01,6.823899745941162109e-01,-1.009800076484680176e+00,1.010264276741149700e+02,0.000000000000000000e+00
2.506355999999999806e+00,-1.257453093085566520e-01,1.589772873868430525e-01,1.020854949951171875e+00,-6.119460989675664514e-03,5.718438119531876751e-03,3.207857182218509101e-03,-7.850220032834155648e-02,9.174791543081661782e-02,-3.897476196289062500e-02,3.491559854131072727e-01,3.872595364473935264e-01,-1.878749056837066833e-01,2.315774083137512318e-01,9.416877627372741144e-02,-1.750761776262357156e-02,1.315774083137512263e-01,1.941687762737274170e-01,-2.712485790252685408e-02,5.248607718280506873e-01,7.132364511489868164e-01,-4.666701555252075195e-01,8.971990327680511257e+01,0.000000000000000000e+00
2.558866999999999781e+00,-1.285399225307654325e-01,1.635500814603430275e-01,1.019210219383239746e+00,7.504661097975392700e-03,2.006803003156520937e-02,-4.228843908711176977e-03,-5.497163699128451708e-02,9.991000171830244359e-02,-4.798670113086700439e-02,2.722532773577002740e-01,3.473139750121314040e-01,-1.511653549912411743e-01,2.104834437370300404e-01,2.004976378356927991e-01,-1.147567231244474711e-01,1.104834437370300210e-01,2.132504403591155839e-01,-1.030221462249755887e-01,5.261421222503362971e-01,7.397305965423583984e-01,-1.168763041496276855e+00,1.053544999850986130e+02,0.000000000000000000e+00
2.603285000000000071e+00,-1.317537522926547633e-01,1.694926249407767982e-01,1.016983389854431152e+00,2.407318975324597432e-02,3.650840797706655927e-02,-1.292251506648418868e-02,-5.415216391198107021e-02,9.748259984395128697e-02,-4.484740272164344788e-02,3.176070154459622596e-01,2.809696621666506466e-01,-1.382691520535128948e-01,4.735045093221103285e-02,3.106388603363186007e-01,-2.133742261455446598e-01,-8.973777294158935547e-04,2.238677680492401068e-01,-1.761457443237304521e-01,5.255497466321377154e-01,7.092413902282714844e-01,-1.073095679283142090e+00,5.315674976285171027e+01,0.000000000000000000e+00
2.635013999999999967e+00,-1.340752699607452303e-01,1.741546049108914085e-01,1.015145182609558105e+00,3.788040541185889315e-02,4.634991863130544232e-02,-1.912841224196775922e-02,-3.469226272520496701e-02,9.185115061296283967e-02,-4.923264309763908386e-02,3.138395343114306346e-01,2.278842503785609430e-01,-1.258867462567550000e-01,-2.836657495072800531e-02,3.248536229133606179e-01,-2.462662833409154095e-01,1.481734514236450126e-02,2.248536229133605846e-01,-1.902656078338622880e-01,5.247705707576368894e-01,6.414394378662109375e-01,-1.171235203742980957e+00,1.012019157244601075e+02,0.000000000000000000e+00
2.665205999999999964e+00,-1.357736771642410467e-01,1.783559841110332889e-01,1.013495087623596191e+00,5.198014829232183026e-02,5.163816550063415889e-02,-2.344309696651635661e-02,-2.447303923377484522e-02,7.742043346470767196e-02,-3.997953981161117554e-02,3.187650655300465208e-01,6.780611330237643064e-02,-6.364226906050091115e-02,-1.661867797374725342e-01,3.255096375942230225e-01,-2.778557150804265019e-01,-6.618677973747252863e-02,2.255096375942230169e-01,-2.086668491363525280e-01,5.229708545393858543e-01,5.732986927032470703e-01,-1.152995944023132324e+00,9.109052416774073890e+01,0.000000000000000000e+00
2.698218999999999923e+00,-1.364540318615561632e-01,1.803522673378494257e-01,1.012734413146972656e+00,5.846727108236087628e-02,5.254922045982546308e-02,-2.452197191708976182e-02,-2.531913315562483308e-02,7.332304896953262263e-02,-2.480174228549003601e-02,3.551176350178984475e-01,3.581662299303189217e-02,-7.213629175931715598e-02,-2.194154143333434948e-01,3.257753372192382368e-01,-2.856855510711431290e-01,-1.194154143333435031e-01,2.257753372192382590e-01,-2.131507515907287431e-01,5.217683691243560906e-01,5.642462968826293945e-01,-1.113541722297668457e+00,-9.138990501944074651e+01,0.000000000000000000e+00
2.730888999999999900e+00,-1.374618751958689156e-01,1.839755805922108634e-01,1.011379957199096680e+00,6.919012217272890730e-02,5.050021672559901198e-02,-2.524635039197904718e-02,7.180017259378108799e-05,5.722588406994304211e-02,-2.107826247811317444e-02,2.721300098964402614e-01,-1.053831180816257457e-01,-9.342760385816111998e-03,-2.590301215648651012e-01,3.262469410896301492e-01,-2.948012048412808062e-01,-1.590301215648650957e-01,2.262469410896301159e-01,-2.197043895721435547e-01,5.188589461034088801e-01,4.178563356399536133e-01,-6.211341619491577148e-01,9.446196018357240121e+01,0.000000000000000000e+00
2.762996999999999925e+00,-1.378395133085947855e-01,1.861191280093888456e-01,1.010645031929016113e+00,7.585210164946952494e-02,4.516864264206343904e-02,-2.463115083591880042e-02,8.026554576156797599e-03,4.504359756788972602e-02,-1.919984817504882812e-02,2.309170779858687461e-01,-2.308076329444485042e-01,5.476116664217735991e-03,-2.788206756114959828e-01,3.262507498264312633e-01,-2.930286174825945666e-01,-1.788206756114959772e-01,2.262507498264312578e-01,-2.201221704483032060e-01,5.179215628439158836e-01,3.720076084136962891e-01,-1.535649061203002930e+00,1.349570247913649439e+02,0.000000000000000000e+00
2.801820999999999895e+00,-1.382288221688540431e-01,1.876704712060097424e-01,1.010059595108032227e+00,8.035882945730600524e-02,3.739292567730112538e-02,-2.282537850479684008e-02,1.464048960290862018e-02,1.942343790380074778e-02,-1.916904235258698463e-03,1.114928255911697141e-01,-2.854778769782920778e-01,3.868408958696990807e-02,-2.984668195247650035e-01,3.254949390888214333e-01,-2.801839555601971510e-01,-1.984668195247649980e-01,2.254949390888214000e-01,-2.133317828178405706e-01,5.134559413227487434e-01,2.004159688949584961e-01,-8.027669191360473633e-01,5.630919625351441482e+01,0.000000000000000000e+00
2.839449000000000112e+00,-1.391471015380950083e-01,1.888119455939109570e-01,1.009225964546203613e+00,8.110381422417942132e-02,2.149981321640681564e-02,-1.844380285541086240e-02,1.556041985063700249e-02,-8.360456356796091421e-03,-9.180996567010879517e-03,-6.851331740821479943e-02,-3.312903571702013883e-01,1.103607008461942318e-01,-3.148666322231292725e-01,2.469893546490507796e-01,-2.408219001072135212e-01,-2.148666322231292669e-01,2.223736166954040361e-01,-1.886087894439697210e-01,5.185694194941086188e-01,4.437716007232666016e-01,-8.605910539627075195e-01,1.235591329535278220e+02,0.000000000000000000e+00
2.872773000000000021e+00,-1.393658688391172795e-01,1.888758903276066270e-01,1.008836627006530762e+00,7.710406411014505967e-02,1.137781502267998235e-02,-1.487341055151266897e-02,5.002742257723002961e-02,-1.007912413903563550e-02,-7.494021672755479813e-03,-1.602419852668962030e-01,-3.376126320757747989e-01,1.533202071015156431e-01,-3.158422589302062877e-01,2.069145678410770350e-01,-2.326153860318546929e-01,-2.158422589302062822e-01,2.198463499546050859e-01,-1.912332415580749456e-01,5.202759007165940197e-01,5.418314933776855469e-01,-1.072296500205993652e+00,8.022279844346918765e+01,0.000000000000000000e+00
2.906063000000000063e+00,-1.391856546429071084e-01,1.891128088731514334e-01,1.008596777915954590e+00,7.007852232505425161e-02,6.490532223668576961e-04,-1.106599321971521617e-02,2.423735886898163716e-02,-2.327306053489634069e-02,2.632563700899481773e-04,-2.245622995245638298e-01,-3.537516905912102549e-01,1.365314382681788175e-01,-3.166528403759002464e-01,1.089747309684753196e-01,-1.913423893338201676e-01,-2.166528403759002686e-01,2.089747309684753251e-01,-1.625001668930053655e-01,5.222162391087368238e-01,6.763808727264404297e-01,-1.205619931221008301e+00,4.005113304759298387e+01,0.000000000000000000e+00
2.944657999999999998e+00,-1.388002062577203821e-01,1.891031621426604026e-01,1.008370995521545410e+00,5.814008150096090788e-02,-1.479664803016089714e-02,-4.892838436526195448e-03,2.528525272779075933e-02,-4.163320515198068450e-02,-3.280728124082088470e-03,-2.755562286121983617e-01,-4.011401157036723619e-01,1.789045532687598139e-01,-3.202277779579162376e-01,9.318451285362241987e-02,-1.868818457482833151e-01,-2.202277779579162598e-01,1.931845128536224254e-01,-1.766080141067504772e-01,5.229092595591861015e-01,7.002047300338745117e-01,-1.231885552406311035e+00,8.425857280892212486e+01,0.000000000000000000e+00
2.992106999999999850e+00,-1.385437318288189890e-01,1.883828459803526534e-01,1.008202791213989258e+00,4.447654628420725370e-02,-3.053277184878711026e-02,1.549275561091943221e-03,2.543678778388130945e-02,-5.941292834136317758e-02,-8.731517009437084198e-03,-3.402256611355335969e-01,-3.524433549162710455e-01,1.885960182577681721e-01,-3.119352638721465953e-01,-3.050055980682372936e-01,-1.333472997656617032e-01,-2.119352638721465898e-01,-2.050055980682372880e-01,-1.418203353881835882e-01,5.227812259492436997e-01,6.716637611389160156e-01,-8.783916234970092773e-01,9.806982319752404464e+01,0.000000000000000000e+00
3.024036999999999864e+00,-1.381482608684315161e-01,1.872112079093383175e-01,1.007915377616882324e+00,3.053562624569091527e-02,-4.468354814244523965e-02,7.779036394507934590e-03,8.693811771396961138e-03,-6.387848194729524309e-02,-7.026688195765018463e-03,-3.723034812176294617e-01,-2.847997234438482406e-01,1.661398811268256226e-01,-2.268235080100310108e-01,-3.215456008911132812e-01,1.641002562540955223e-01,-1.493066310882568415e-01,-2.215456008911132757e-01,1.379970610141754150e-01,5.209588256640179660e-01,5.781373977661132812e-01,-1.148607134819030762e+00,6.463851973879117452e+01,0.000000000000000000e+00
3.055873000000000062e+00,-1.381718726726496593e-01,1.857476613451700398e-01,1.007547378540039062e+00,1.604153861194118277e-02,-5.571049459553290006e-02,1.399978562177345461e-02,-1.558121952171263262e-03,-6.487089851421361242e-02,-1.679509133100509644e-02,-3.789891288585984785e-01,-2.325935696120015606e-01,1.543526548324756498e-01,1.038358843245485719e-01,-3.250747442245482954e-01,2.414672653889247678e-01,8.808324337005614402e-02,-2.250747442245483176e-01,1.986651420593261719e-01,5.216199971323463025e-01,5.730978250503540039e-01,-1.247338652610778809e+00,9.486839742032317702e+01,0.000000000000000000e+00
3.089138999999999857e+00,-1.385073944068255514e-01,1.845841960305031337e-01,1.007165074348449707e+00,4.714918136491517107e-03,-6.164304177021850961e-02,1.856476686653080882e-02,-6.488167187540985759e-03,-6.134756458940390095e-02,-1.623920351266860962e-02,-3.645890084309514889e-01,-1.866037510098158270e-01,1.214646467401106766e-01,2.638982603584479891e-01,-3.258929967880248579e-01,2.663126514554704505e-01,1.719543099403381403e-01,-2.258929967880248801e-01,2.116654336452483964e-01,5.215930460111064537e-01,5.715680122375488281e-01,-7.410591840744018555e-01,-7.725206913567467382e+01,0.000000000000000000e+00
3.123089999999999922e+00,-1.384365693685859211e-01,1.842781311685323664e-01,1.006730675697326660e+00,-7.219200631818856184e-03,-6.618510581194758657e-02,2.335699771561701790e-02,-3.498082454573196720e-02,-5.785397088952947547e-02,-1.301272865384817123e-02,-3.690095279000099593e-01,-1.770536795863605350e-01,1.353930193811048177e-01,2.916211605072021595e-01,-3.267645001411437766e-01,2.851875691675072599e-01,1.916211605072021540e-01,-2.267645001411437988e-01,2.183021306991577148e-01,5.216914279134170496e-01,5.861322879791259766e-01,-1.086511969566345215e+00,9.607596803539226471e+01,0.000000000000000000e+00
3.158167999999999864e+00,-1.390064872739547597e-01,1.840138146627574578e-01,1.006142854690551758e+00,-2.273980734118413727e-02,-6.876866622469313128e-02,2.916445482074180723e-02,-3.726323665974543009e-02,-4.355643544254607369e-02,-2.077887207269668579e-02,-3.665504641457547064e-01,2.613753041236986999e-02,1.019806944625460676e-01,3.066387414932251199e-01,-3.272665023803710826e-01,3.047374178307737380e-01,2.066387414932250866e-01,-2.272665023803710771e-01,2.233323633670806774e-01,5.226967564076170358e-01,6.062999963760375977e-01,-9.503451585769653320e-01,8.444803542630911863e+01,0.000000000000000000e+00
3.191425999999999874e+00,-1.396656111950652923e-01,1.840127080531131776e-01,1.005663514137268066e+00,-3.356264109195432332e-02,-6.456676425986040968e-02,3.016786694791761397e-02,-5.239542388463150346e-02,-4.085726656241230048e-02,-1.928046531975269318e-02,-3.388816327893456881e-01,2.262478141623796291e-01,-4.038682344982788552e-02,3.153992652893066184e-01,-3.268653512001037376e-01,3.083876783619079465e-01,2.153992652893066406e-01,-2.268653512001037598e-01,2.255107104778289739e-01,5.227032948407844826e-01,6.091179847717285156e-01,-1.096591353416442871e+00,9.348501773601796572e+01,0.000000000000000000e+00
3.223810999999999982e+00,-1.403827950118077261e-01,1.836702192148679247e-01,1.005324959754943848e+00,-4.035323619852796556e-02,-5.675587225679024073e-02,2.857580619514280343e-02,-4.061762144781210643e-02,-2.867576115869028761e-02,-1.661893352866172791e-02,-1.593004344382456805e-01,2.854389998995789379e-01,-5.642636206511552482e-02,3.178805232048034779e-01,-3.243196845054626687e-01,3.030937447650599026e-01,2.178805232048034723e-01,-2.243196845054626354e-01,2.250970244407653753e-01,5.225543878984483248e-01,6.097838878631591797e-01,-1.132350564002990723e+00,1.021362377915936577e+02,0.000000000000000000e+00
3.255044999999999966e+00,-1.417846337806371038e-01,1.833912809128243893e-01,1.005079984664916992e+00,-3.994643157314816534e-02,-4.349774780103210503e-02,2.413845209539497785e-02,-6.807495948652304840e-02,-1.824173386350692178e-02,-1.671367138624191284e-02,1.444454553464818714e-01,3.481986402249099832e-01,-1.110487282428831574e-01,3.180110931396484264e-01,-3.148729085922241100e-01,2.889307570084238552e-01,2.180110931396484208e-01,-2.148729085922241044e-01,2.229687631130218561e-01,5.228334552334777952e-01,6.207785606384277344e-01,-8.125809431076049805e-01,9.631725812820130272e+01,0.000000000000000000e+00
3.288832000000000200e+00,-1.426984636891123759e-01,1.833591634949625071e-01,1.005030870437622070e+00,-3.661190297645576519e-02,-3.684534695091001844e-02,2.181565302234997686e-02,-6.761731929660531881e-02,-1.128152088736012262e-02,-2.016908861696720123e-02,1.515866868298549608e-01,3.567547978449570611e-01,-1.013116540860649201e-01,3.158421516418457031e-01,-3.049979448318481667e-01,2.809423715385366283e-01,2.158421516418456976e-01,-2.049979448318481334e-01,2.209584295749664196e-01,5.235059225677589634e-01,6.425628662109375000e-01,-8.860017061233520508e-01,9.672784128977828288e+01,0.000000000000000000e+00
3.319856999999999836e+00,-1.447969172476838151e-01,1.828533663153003863e-01,1.004829764366149902e+00,-2.611336897333643020e-02,-2.317213358395231459e-02,1.601310205044801510e-02,-7.567529614096796253e-02,-8.807470862269402767e-04,-1.725926995277404785e-02,2.816195350842152223e-01,3.403075336849974430e-01,-1.184390811911975039e-01,3.131886243820190541e-01,-2.564644098281860241e-01,2.457132718180508046e-01,2.131886243820190485e-01,-1.564644098281860185e-01,2.009208798408508301e-01,5.239229251952634003e-01,6.740875244140625000e-01,-1.348316550254821777e+00,8.226103617482770858e+01,0.000000000000000000e+00
3.352936000000000138e+00,-1.464359429598186824e-01,1.825922340348598016e-01,1.004578828811645508e+00,-1.664882020181984029e-02,-1.277958738855744514e-02,1.126819620728502711e-02,-8.449391535185314661e-02,6.989325509340238614e-03,-1.831354387104511261e-02,3.668281686887440163e-01,3.677619105025763391e-01,-1.583653858309886364e-01,3.008615136146545188e-01,-1.564314961433410645e-01,1.413107916862534341e-01,2.008615136146545410e-01,-5.643149614334105890e-02,1.091906547546386691e-01,5.242080570253787597e-01,6.827430725097656250e-01,-9.292696714401245117e-01,8.647964787417272703e+01,0.000000000000000000e+00
3.383853999999999917e+00,-1.481226155607594797e-01,1.824940396262647313e-01,1.004316926002502441e+00,-6.373019679679177256e-03,-2.053776286537800644e-03,6.013067462445752243e-03,-6.778184217570271120e-02,7.558685013357123450e-03,-1.676676236093044281e-02,3.230936077134044515e-01,3.885879754805980912e-01,-1.847028483311313474e-01,2.493155360221862848e-01,-1.213955879211428557e-03,1.405642242314663476e-03,1.493155360221862793e-01,9.878604412078857699e-02,-1.625121831893920968e-02,5.242656040529128925e-01,6.913225650787353516e-01,-9.663156270980834961e-01,9.524534190023783253e+01,0.000000000000000000e+00
3.415722000000000147e+00,-1.504116984627463516e-01,1.817559166438964258e-01,1.004048109054565430e+00,4.613850458607760344e-03,9.001466647643674435e-03,8.324668195351480997e-04,-6.411759885338381981e-02,1.610069458596623607e-02,-1.597885601222515106e-02,3.734693294052395252e-01,3.582449726760376651e-01,-1.449943823377427554e-01,1.737216949462890847e-01,9.515810012817382812e-02,-4.334055986880536865e-02,7.372169494628906528e-02,1.951581001281738337e-01,-4.650800228118896068e-02,5.248638992763607902e-01,7.246315479278564453e-01,-1.112270474433898926e+00,1.632577906739077207e+02,0.000000000000000000e+00
3.446883000000000141e+00,-1.536477676729384734e-01,1.803700333033596004e-01,1.003633379936218262e+00,1.863813168553753521e-02,2.400632482459341688e-02,-5.946230762216516731e-03,-6.185208234805195104e-02,1.734480038376117611e-02,-2.020527981221675873e-02,3.986463531174047614e-01,3.528722470573818493e-01,-1.871892158459556033e-01,4.095142284763335361e-02,1.886833179126660709e-01,-1.463549882557378667e-01,-1.427312493324279716e-02,2.148955643177032360e-01,-1.299652218818664606e-01,5.252623206543813872e-01,7.270596027374267578e-01,-1.082905888557434082e+00,9.336110444409558795e+01,0.000000000000000000e+00
3.478104000000000084e+00,-1.557253137762632522e-01,1.793364522731832056e-01,1.003089070320129395e+00,2.852762552014388026e-02,3.400068793607058382e-02,-1.092375311996946104e-02,-5.268868836331661726e-02,3.088131902519068196e-03,-1.969551295042037964e-02,3.147106398022688212e-01,3.164693626112570768e-01,-1.799631272733130394e-01,-3.024500625691534106e-02,2.667356727302108710e-01,-2.084464632034456477e-01,-8.495825529098510048e-03,2.238446116447448675e-01,-1.773647189140319658e-01,5.245895616535926065e-01,6.907451152801513672e-01,-6.010359525680541992e-01,-9.697328413760268973e+01,0.000000000000000000e+00
