timestamp,x,y,z,roll,pitch,yaw,vx,vy,vz,p,q,r,psp,qsp,rsp,pres,qres,rres,thrust_sp, thrust_res
0.000000000000000000e+00,-1.302095543447932303e-02,-2.943389447263342062e-03,9.923461079597473145e-01,2.158277634039787798e-02,-3.060289259123605277e-03,1.983316903191760256e-03,1.939080107080397297e-02,-8.207869984465666555e-03,-4.210569430142641068e-03,4.474601054243562042e-04,1.071590086694641612e-02,-1.233611409617196147e-02,-1.000000000000000056e-01,-1.235074324227247028e-02,5.607132722465602015e-03,0.000000000000000000e+00,0.000000000000000000e+00,0.000000000000000000e+00,5.128425434405650130e-01,-0.000000000000000000e+00,-9.282628297805786133e-01,1.851481508128267137e+02,2.721655368804931641e-02
2.894299999999999998e-02,-1.306396832070381465e-02,-3.024245051265603366e-03,9.923815727233886719e-01,2.172674442670103137e-02,-3.260774429485913117e-03,1.826745440678142259e-03,1.552023187219196774e-03,-1.842769830682677509e-02,-5.589701700955629349e-03,3.419677234741203345e-04,3.830808558364813261e-04,8.914571305029171666e-03,-1.000000000000000056e-01,-3.093848368187154807e-02,5.243539413679387806e-03,0.000000000000000000e+00,0.000000000000000000e+00,0.000000000000000000e+00,5.129551825642679752e-01,-0.000000000000000000e+00,-8.149110078811645508e-01,5.953076767367223709e+01,2.721655368804931641e-02
5.263299999999999923e-02,-1.311364453602831097e-02,-3.111339875049893948e-03,9.922993779182434082e-01,2.209411855258937296e-02,-3.524523413304780917e-03,1.800536294815279111e-03,1.234755198383820363e-02,-6.355771581383340418e-03,-3.792142262682318687e-03,4.332103614342057429e-02,-2.719915474774486919e-02,-1.983182932280901783e-02,-1.000000000000000056e-01,-2.136053474134871205e-02,5.139889992283541709e-03,0.000000000000000000e+00,0.000000000000000000e+00,0.000000000000000000e+00,5.128377604860933081e-01,-0.000000000000000000e+00,-1.011706590652465820e-01,1.018312220338284106e+02,2.721655368804931641e-02
7.599499999999999311e-02,-1.313273303212099397e-02,-3.186026439634500902e-03,9.922594428062438965e-01,2.214892056224762942e-02,-3.799707021201914614e-03,1.815751749675248959e-03,1.123237094100222253e-02,-8.874847319786726557e-03,-1.680955523625016212e-03,-6.378811186251369218e-03,2.711247775588586373e-02,1.270565451504918238e-02,-1.000000000000000056e-01,-2.565572813696498020e-02,5.199266457576678935e-03,0.000000000000000000e+00,0.000000000000000000e+00,0.000000000000000000e+00,5.126934694569531548e-01,-0.000000000000000000e+00,-1.220053791999816895e+00,1.068159009202928758e+02,2.721655368804931641e-02
1.014160000000000061e-01,-1.325584984035812867e-02,-3.130815907758037041e-03,9.923239350318908691e-01,2.227300812380202111e-02,-3.910825000089213077e-03,1.450450084436976554e-03,1.539223662613838951e-03,-2.062791492661698867e-02,3.309949068352580070e-03,-4.849723431630057618e-02,-1.053626321118626523e-02,-2.230493824426568392e-02,-1.000000000000000056e-01,-3.416544071436115881e-02,4.205179355183163992e-03,0.000000000000000000e+00,0.000000000000000000e+00,0.000000000000000000e+00,5.123244540833329363e-01,-0.000000000000000000e+00,-1.121142268180847168e+00,9.828371740157216152e+01,2.721655368804931641e-02
1.278610000000000024e-01,-1.340883819602925291e-02,-2.934340156350219789e-03,9.922915697097778320e-01,2.127386581502354809e-02,-3.468108159969451876e-03,1.498608392931986876e-03,-2.085470848000874674e-03,-1.007534254134201217e-02,-2.004407579079270363e-03,-2.567739862763340677e-03,-1.445159696318403441e-03,-8.234653159522403731e-03,-1.000000000000000056e-01,-3.290885607011412306e-02,4.338932916990112520e-03,0.000000000000000000e+00,0.000000000000000000e+00,0.000000000000000000e+00,5.127285763227455995e-01,-0.000000000000000000e+00,-1.041577696800231934e+00,9.642477896611563892e+01,2.721655368804931641e-02
1.539250000000000063e-01,-1.352295985684618188e-02,-2.739706707563898704e-03,9.921911954879760742e-01,1.932082865697002869e-02,-2.745661610113137030e-03,1.417304840299561360e-03,1.573858069897444284e-02,-7.334432526123560621e-03,-5.507804453372955322e-03,-1.005333042954221767e-01,4.692311566001816647e-02,2.494667893510895545e-02,-1.000000000000000056e-01,-1.339927591443040508e-02,4.021277711401538557e-03,0.000000000000000000e+00,0.000000000000000000e+00,0.000000000000000000e+00,5.130073675560665736e-01,-0.000000000000000000e+00,-1.191482424736022949e+00,1.215632287346450369e+02,2.721655368804931641e-02
1.740349999999999953e-01,-1.361594853402884817e-02,-2.597109085645882103e-03,9.921501874923706055e-01,1.774508392283729100e-02,-2.403765633369969734e-03,1.142305497182468949e-03,2.307042834432152748e-03,-1.045281652042364187e-02,-5.009875167161226273e-03,-1.272977381808706177e-01,1.210727642134805599e-03,-5.030366680415091114e-03,-1.000000000000000056e-01,-2.470909960334393557e-02,3.285185648647770407e-03,0.000000000000000000e+00,0.000000000000000000e+00,0.000000000000000000e+00,5.129860306067496323e-01,-0.000000000000000000e+00,-7.037142515182495117e-01,-5.272178965612695833e+01,2.721655368804931641e-02
1.986070000000000058e-01,-1.362604331531284789e-02,-2.295098816601367879e-03,9.922226667404174805e-01,1.603083121517026241e-02,-1.828003375653253215e-03,1.112215473667331001e-03,8.956909309898121799e-03,-9.742920065396029269e-03,2.369846915826201439e-03,-1.868927777619786706e-02,-5.253688197997680165e-03,-1.169787521990509407e-02,-1.000000000000000056e-01,-1.366953404262098368e-02,3.157654020377154147e-03,0.000000000000000000e+00,0.000000000000000000e+00,0.000000000000000000e+00,5.124390607637424599e-01,-0.000000000000000000e+00,-8.562022447586059570e-01,1.011761180999649667e+02,2.721655368804931641e-02
2.263370000000000104e-01,-1.348619420239135017e-02,-1.595486438212544503e-03,9.920945763587951660e-01,1.359434556833614104e-02,-9.828599749712729761e-04,1.035826745244165532e-03,1.319962794446994866e-02,-2.382610298966403946e-04,-1.081991847604513168e-02,-1.065793291194585823e-01,7.211630503987000174e-02,9.405637266280504269e-03,-8.858572317134674745e-02,-5.647492304284833925e-03,2.916799233741607100e-03,0.000000000000000000e+00,0.000000000000000000e+00,0.000000000000000000e+00,5.134418319059490532e-01,-0.000000000000000000e+00,-6.326953172683715820e-01,8.282342712089739223e+01,2.721655368804931641e-02
2.497969999999999913e-01,-1.329357950195175775e-02,-8.481610108959791597e-04,9.917899966239929199e-01,1.134256978924564653e-02,-2.241194352501363340e-04,1.007370081512032420e-03,9.682238848619160315e-03,-1.912066255546344311e-03,-9.643806144595146179e-03,-9.079081404237759889e-02,1.798164043886658556e-02,-1.728500587819112658e-02,-7.622911931866951929e-02,-4.060468242973917265e-03,2.830209864525534691e-03,0.000000000000000000e+00,0.000000000000000000e+00,0.000000000000000000e+00,5.133941467475759968e-01,-0.000000000000000000e+00,-4.500685930252075195e-01,-3.915073311497229724e+01,2.721655368804931641e-02
2.779409999999999936e-01,-1.309051762412022368e-02,-7.665776037823129408e-05,9.915093779563903809e-01,9.156770915566143573e-03,3.254062364783649741e-04,1.087203412444524625e-03,1.389862561330949993e-02,3.400286092999219630e-03,-9.510262869298458099e-03,-4.214805038880963667e-02,-1.203626470527689062e-04,6.972283530512748441e-03,-5.701687967431746246e-02,3.549370750931131555e-03,3.036873387596783491e-03,0.000000000000000000e+00,0.000000000000000000e+00,0.000000000000000000e+00,5.134218528790058800e-01,-0.000000000000000000e+00,-1.323712706565856934e+00,1.119140087583037513e+02,2.721655368804931641e-02
3.031260000000000066e-01,-1.278416746376843591e-02,8.370579143454787716e-04,9.913246631622314453e-01,6.368361822742442217e-03,1.128801272767709918e-03,1.072279713129395797e-03,1.817282805150559344e-02,1.097374690409856808e-02,-1.471376884728670120e-02,-1.221178699817643265e-01,3.350760407709960781e-02,1.434395765907013620e-02,-3.298616127713113050e-02,1.179475961027611104e-02,2.982923477005960944e-03,0.000000000000000000e+00,0.000000000000000000e+00,0.000000000000000000e+00,5.138423677849094373e-01,-0.000000000000000000e+00,-1.079722046852111816e+00,1.025930818244191300e+02,2.721655368804931641e-02
3.260819999999999830e-01,-1.253789687152127331e-02,1.534555957186755802e-03,9.912298321723937988e-01,5.067483720215385824e-03,1.276437111158434945e-03,9.913107408874596935e-04,9.699337361238784261e-03,3.818839188588744535e-03,-1.166239287704229355e-02,-8.922936614690266111e-02,-1.983826071222330803e-02,-2.076612426418136120e-02,-3.092025758344175285e-02,5.464606935937027857e-03,2.769339856428854052e-03,0.000000000000000000e+00,0.000000000000000000e+00,0.000000000000000000e+00,5.136426595436089926e-01,-0.000000000000000000e+00,-1.053756356239318848e+00,9.809831191655216287e+01,2.721655368804931641e-02
3.490349999999999842e-01,-1.210691292445782372e-02,2.662119329379176395e-03,9.910293221473693848e-01,3.256528038918677596e-03,1.024229035221813078e-03,1.259093524967694290e-03,2.353995343882551994e-02,2.299481388169107368e-02,-1.028104685246944427e-02,-2.982784695910019324e-02,-3.250957596339844324e-02,2.939955750049808025e-02,-1.915515176112704944e-03,1.651094010054724587e-02,3.503359567021191445e-03,0.000000000000000000e+00,0.000000000000000000e+00,0.000000000000000000e+00,5.135751698949098110e-01,-0.000000000000000000e+00,-1.368449091911315918e+00,1.157407246936409564e+02,2.721655368804931641e-02
3.759190000000000031e-01,-1.163145091010860457e-02,3.861579716763358268e-03,9.908347129821777344e-01,2.045697880884168960e-03,1.083340216352590701e-03,1.095283399953156161e-03,3.179767423899840240e-02,2.335285723611556230e-02,-2.006581798195838928e-02,-6.226135022586112150e-02,1.884138649359901746e-02,9.888004669772666733e-03,4.233221658232725823e-03,2.182827028467583530e-02,3.044497452753147648e-03,0.000000000000000000e+00,0.000000000000000000e+00,0.000000000000000000e+00,5.143400728741636119e-01,-0.000000000000000000e+00,-9.924701452255249023e-01,1.038553349339833431e+02,2.721655368804931641e-02
4.004320000000000102e-01,-1.130657093360295726e-02,5.330779734426280975e-03,9.906824827194213867e-01,1.550416014434862584e-03,7.768362931594996468e-04,1.037251966225257675e-03,1.490684449652039667e-02,2.254021445229780971e-02,-4.047730937600135803e-03,-2.425929853978867762e-02,-5.168480916011009701e-03,-4.980081978879478261e-02,7.838548408145446997e-03,5.311807980237633238e-03,2.899386944998472160e-03,0.000000000000000000e+00,0.000000000000000000e+00,0.000000000000000000e+00,5.131791608759881385e-01,-0.000000000000000000e+00,2.102752923965454102e-01,1.963373052394390683e+01,4.205505847930908481e-02
4.241480000000000250e-01,-1.112648752285094397e-02,6.412156146945547329e-03,9.906130433082580566e-01,1.573200012872120546e-03,3.717479945624102555e-04,1.347108225611788656e-03,2.686895987106465572e-02,3.357084002529767131e-02,-4.361342173069715500e-03,4.106439545911060029e-02,-4.505896538673164614e-02,1.432120484091313657e-02,1.748195557059041907e-02,1.496260379212028223e-02,3.753112771680222615e-03,0.000000000000000000e+00,0.000000000000000000e+00,0.000000000000000000e+00,5.132227383595467929e-01,-0.000000000000000000e+00,-7.072550058364868164e-01,-1.974682138112639507e+01,4.205505847930908481e-02
4.520159999999999734e-01,-1.074448835079148956e-02,8.106679946019842639e-03,9.903862476348876953e-01,1.868084389397149615e-03,-2.337841783781602345e-04,1.257840614412383904e-03,3.027417655223655149e-02,4.220292135575382658e-02,-1.991185173392295837e-02,-2.075521069436243871e-02,2.164066859698480366e-02,2.026801872381067682e-02,2.200106555237932304e-02,1.227492953511411661e-02,3.503153439268547054e-03,0.000000000000000000e+00,0.000000000000000000e+00,0.000000000000000000e+00,5.144180213801374801e-01,-0.000000000000000000e+00,-9.674464464187622070e-01,9.526030001452016904e+01,4.205505847930908481e-02
4.756310000000000260e-01,-1.039928742278935052e-02,9.898020228170649470e-03,9.901324510574340820e-01,2.360725333734828117e-03,-1.018541372468595441e-03,1.048906539086752075e-03,2.626361375642977461e-02,3.664717778654831559e-02,-7.874986156821250916e-03,-1.908586312356259571e-02,-2.093023699263721685e-02,-4.096524969133861355e-02,1.444909550500748062e-02,3.755643145349822805e-03,2.931341169279011449e-03,0.000000000000000000e+00,0.000000000000000000e+00,0.000000000000000000e+00,5.135626311596663829e-01,-0.000000000000000000e+00,-6.581047773361206055e-01,9.433138062702009563e+01,4.205505847930908481e-02
4.999120000000000230e-01,-1.000451697226060511e-02,1.211637059348551551e-02,9.898767471313476562e-01,2.852801590235684841e-03,-1.529727298681171632e-03,1.227587783105209187e-03,1.244990991214954545e-02,4.001887233666474170e-02,-3.370641032233834267e-03,6.002019525892449830e-02,-4.155615902772703818e-02,8.879974156302808050e-03,1.638441900078156654e-02,-9.804399476011698908e-03,3.454656464121352855e-03,0.000000000000000000e+00,0.000000000000000000e+00,0.000000000000000000e+00,5.132619694329383364e-01,-0.000000000000000000e+00,-8.618680238723754883e-01,1.230329625006267236e+02,4.205505847930908481e-02
5.243100000000000538e-01,-9.673760554418394872e-03,1.397512442234863199e-02,9.897828102111816406e-01,3.376492704572889216e-03,-1.818424837346066525e-03,1.093600836868806585e-03,2.793460528385062133e-02,5.304675984535078825e-02,-1.100153289735317230e-02,8.775500520432154934e-04,3.794603208117452997e-02,4.908142513819395772e-04,2.426500421443838693e-02,3.048592430990629612e-03,3.055248155355794193e-03,0.000000000000000000e+00,0.000000000000000000e+00,0.000000000000000000e+00,5.138573961225798570e-01,-0.000000000000000000e+00,-1.436238050460815430e+00,8.626819887784746754e+01,4.205505847930908481e-02
5.485950000000000548e-01,-9.182452492416934287e-03,1.676879129735179760e-02,9.896982312202453613e-01,4.371166167206828358e-03,-2.386813442321278345e-03,7.199519083534972703e-04,2.170083263201099885e-02,4.959362336177133845e-02,-8.892921032384037971e-04,-6.124018972436505621e-03,-2.095201874365276370e-02,-3.400567122041114193e-02,1.520516094931333856e-02,-7.561503985537967876e-03,2.033950428766306828e-03,0.000000000000000000e+00,0.000000000000000000e+00,0.000000000000000000e+00,5.131248977186478877e-01,-0.000000000000000000e+00,-9.827646017074584961e-01,1.080403762535577528e+02,4.205505847930908481e-02
5.751509999999999678e-01,-8.644611071553218173e-03,1.964231291148484104e-02,9.894562959671020508e-01,5.120492942319431612e-03,-2.292220602258199236e-03,8.391107844355129731e-04,2.289201864011287946e-02,5.873845986142958719e-02,-5.742902401834726334e-03,7.468568058077448835e-02,-2.836307198455305378e-02,2.065890259815967092e-02,2.020746822452196625e-02,-4.683318767099266602e-03,2.363040064300436782e-03,0.000000000000000000e+00,0.000000000000000000e+00,0.000000000000000000e+00,5.135209272868396235e-01,-0.000000000000000000e+00,-9.665874242782592773e-01,9.590248806066310294e+01,4.205505847930908481e-02
5.981899999999999995e-01,-8.193706008625905798e-03,2.271414429797798465e-02,9.890780448913574219e-01,5.592592574842663450e-03,-2.226648927671437406e-03,5.767532962888806359e-04,2.900502235273234169e-02,6.599109051482038302e-02,-1.084157917648553848e-02,2.083916075640107959e-02,2.765134642691679037e-02,-8.571569749690690840e-03,2.378242368074499902e-02,8.078550800067511254e-04,1.612378869052133457e-03,0.000000000000000000e+00,0.000000000000000000e+00,0.000000000000000000e+00,5.139495781342047209e-01,-0.000000000000000000e+00,-6.886593103408813477e-01,9.536779353167783313e+01,4.205505847930908481e-02
6.245279999999999720e-01,-7.671023181526369361e-03,2.609590682105844203e-02,9.888169169425964355e-01,6.707162765781770480e-03,-2.196063164698003334e-03,3.617629262267435335e-04,2.761981872049531009e-02,7.417444913843730669e-02,-4.572132602334022522e-03,4.008379829289509394e-02,4.504594031683395276e-03,-3.398377913054331789e-02,2.459948662623106727e-02,-5.913459465469407192e-04,1.015171509093526492e-03,0.000000000000000000e+00,0.000000000000000000e+00,0.000000000000000000e+00,5.135241024673868893e-01,-0.000000000000000000e+00,-9.907203912734985352e-01,1.212581241844205664e+02,4.205505847930908481e-02
6.510049999999999448e-01,-7.181629682819472109e-03,2.946476312224919833e-02,9.885088801383972168e-01,7.622686302753339804e-03,-2.240640365207768880e-03,2.046282133832835564e-04,2.780866299433153860e-02,7.239995752820858887e-02,-9.557710029184818268e-03,3.454603671141099480e-02,4.328689276058661321e-03,2.514450092432386416e-02,1.840988013130078274e-02,-1.715171287395302578e-04,5.736530180924792610e-04,0.000000000000000000e+00,0.000000000000000000e+00,0.000000000000000000e+00,5.139350247430631846e-01,-0.000000000000000000e+00,-1.053937792778015137e+00,6.433469926413066275e+01,4.205505847930908481e-02
6.729749999999999899e-01,-6.814056376705004622e-03,3.174533127653672571e-02,9.882515072822570801e-01,8.004227300402729645e-03,-2.400963020455781916e-03,1.704935098544806449e-05,3.416164732071264726e-02,7.888490364963174351e-02,-1.038027741014957428e-02,2.113683176258220747e-02,1.697100955092804495e-02,-1.837832925003271209e-02,2.319091445449685679e-02,4.167329584837157867e-03,3.016873074151993350e-05,0.000000000000000000e+00,0.000000000000000000e+00,0.000000000000000000e+00,5.140403213694497708e-01,-0.000000000000000000e+00,-9.485262632369995117e-01,1.140297827971202622e+02,4.205505847930908481e-02
6.991600000000000037e-01,-6.252878019009587215e-03,3.514342258875546854e-02,9.878468513488769531e-01,9.018247740116430017e-03,-2.552013033427114053e-03,-2.024787514270585107e-04,2.646701180168546663e-02,8.382411599189196205e-02,-8.855103515088558197e-03,6.621926668888752920e-02,-1.806469977072559146e-03,-3.794903349716165913e-02,2.217406556913725096e-02,-3.504831274586008797e-03,-5.507863237576016147e-04,0.000000000000000000e+00,0.000000000000000000e+00,0.000000000000000000e+00,5.139797327464937782e-01,-0.000000000000000000e+00,-1.015131831169128418e+00,9.825365773903493505e+01,4.205505847930908481e-02
7.267719999999999736e-01,-5.764506392319850188e-03,3.921250790953208221e-02,9.874674081802368164e-01,9.919914484673072672e-03,-3.037973234939261857e-03,-3.860004344266088397e-04,2.403168210009416772e-02,8.783351718724305424e-02,-8.249810896813869476e-03,2.407834107543500857e-02,-1.849259581104156433e-02,2.662753983297836205e-02,2.179916766931006347e-02,-7.133432998479629153e-03,-1.045246585907433357e-03,0.000000000000000000e+00,0.000000000000000000e+00,0.000000000000000000e+00,5.139860359576029492e-01,-0.000000000000000000e+00,-1.090880990028381348e+00,8.286651195418183136e+01,4.205505847930908481e-02
7.490639999999999521e-01,-5.396882506401612031e-03,4.194448813173340396e-02,9.872416257858276367e-01,1.055808593868879861e-02,-2.942490812997800020e-03,-6.292000983260068485e-04,3.708051113736848814e-02,8.831627841039782489e-02,-8.504059165716171265e-03,3.893335532129098536e-03,2.998734076828533240e-02,-1.091439342625705883e-02,1.961520713811790162e-02,4.630190829739671242e-03,-1.785964478382973120e-03,0.000000000000000000e+00,0.000000000000000000e+00,0.000000000000000000e+00,5.140443293015041215e-01,-0.000000000000000000e+00,-1.361095309257507324e+00,-2.675652841309458907e+01,4.205505847930908481e-02
7.769380000000000175e-01,-4.580129052557439795e-03,4.735966683558177903e-02,9.867929220199584961e-01,1.173513169032378012e-02,-3.213376144880486507e-03,-8.160043739109390515e-04,3.042983985490781834e-02,9.858477774216627132e-02,-1.024827919900417328e-02,3.660638900665433987e-02,2.595987791516766660e-02,-2.019676995232614486e-02,2.396916211014464559e-02,-3.804889385046241086e-03,-2.262789584693281064e-03,0.000000000000000000e+00,0.000000000000000000e+00,0.000000000000000000e+00,5.142360812932303959e-01,-0.000000000000000000e+00,-1.182850956916809082e+00,7.777986517359823893e+01,4.205505847930908481e-02
7.991110000000000158e-01,-4.173082136080356885e-03,5.005306992617415685e-02,9.865229725837707520e-01,1.224131648132593952e-02,-3.609496855986771280e-03,-8.527927215005472444e-04,2.764889298220679983e-02,1.009021274003729790e-01,-1.683691143989562988e-02,2.443920381520271051e-02,-1.790832868816319770e-02,2.288514544747378282e-02,2.308735797598310269e-02,-7.326433247525296517e-03,-2.343838496359718082e-03,0.000000000000000000e+00,0.000000000000000000e+00,0.000000000000000000e+00,5.147726059021248135e-01,-0.000000000000000000e+00,-1.219982028007507324e+00,9.777585868583585693e+01,4.205505847930908481e-02
8.262979999999999769e-01,-3.856922554440657923e-03,5.421967886343879300e-02,9.860870242118835449e-01,1.340281578339397144e-02,-3.578520726236655847e-03,-1.275045187435645822e-03,4.466198538737318341e-02,1.020926347258248462e-01,-1.585841923952102661e-02,4.912685134469576415e-02,-1.234887659526682883e-02,-1.661063691026072944e-02,1.932578010392647580e-02,7.194358233024768408e-03,-3.616675654639467385e-03,0.000000000000000000e+00,0.000000000000000000e+00,0.000000000000000000e+00,5.147661193791743806e-01,-0.000000000000000000e+00,-1.134019732475280762e+00,9.184803995801934207e+01,4.205505847930908481e-02
8.483439999999999870e-01,-3.610810475044819775e-03,5.698666939754017807e-02,9.858093261718750000e-01,1.385854398734688402e-02,-3.624690593841961572e-03,-1.468029744529947278e-03,2.184246321268017502e-02,9.210144504079009753e-02,-8.557835593819618225e-03,5.212796814364405867e-02,-1.869219162180513205e-02,-3.537629787480236349e-02,1.058285393882431660e-02,-1.363040611802142019e-02,-4.024790725388860402e-03,0.000000000000000000e+00,0.000000000000000000e+00,0.000000000000000000e+00,5.142608850129024578e-01,-0.000000000000000000e+00,-1.078108906745910645e+00,1.028265786713851924e+02,4.205505847930908481e-02
8.750419999999999865e-01,-3.124284215153950821e-03,6.241141773862352721e-02,9.852589368820190430e-01,1.473732100033104883e-02,-3.541432271956468369e-03,-1.569259353658118564e-03,2.099362083736049447e-02,1.040618934621963532e-01,-1.554095093160867691e-02,-9.323726571298441776e-03,2.254247835859637256e-02,1.612917849089237285e-02,1.969036054413842232e-02,-1.011357500350553232e-02,-4.323748415174855086e-03,0.000000000000000000e+00,0.000000000000000000e+00,0.000000000000000000e+00,5.148582386566279423e-01,-0.000000000000000000e+00,-1.074241995811462402e+00,9.450433467718315228e+01,4.205505847930908481e-02
9.008220000000000116e-01,-2.807424690707641460e-03,6.517414796245245279e-02,9.849243164062500000e-01,1.529397585792347143e-02,-3.810418834814477407e-03,-1.783102575271016971e-03,4.000301726605164088e-02,1.119906059659912662e-01,-1.531710196286439896e-02,2.130221269821144445e-02,-4.018285550819481952e-03,-7.568962109394470304e-03,2.302840468310469318e-02,3.763665122100325316e-03,-5.021122288523582888e-03,0.000000000000000000e+00,0.000000000000000000e+00,0.000000000000000000e+00,5.149038661466683875e-01,-0.000000000000000000e+00,-1.051955103874206543e+00,6.363625777998350230e+01,4.205505847930908481e-02
9.246799999999999464e-01,-2.408760676907127380e-03,6.919129594134514061e-02,9.843926429748535156e-01,1.566610794936350998e-02,-3.988247798758948193e-03,-2.001128153297646733e-03,3.978588631976021778e-02,1.174134722920940066e-01,-1.512756943702697754e-02,-1.971532207486501043e-02,3.241167690351035111e-03,-2.086679228032713510e-02,2.693290547048406494e-02,9.797970994013683460e-07,-5.604119413689101492e-03,0.000000000000000000e+00,0.000000000000000000e+00,0.000000000000000000e+00,5.149635115423661924e-01,-0.000000000000000000e+00,-1.138085246086120605e+00,9.253134574296576886e+01,4.205505847930908481e-02
9.507700000000000040e-01,-1.994553602579382696e-03,7.322650120880024038e-02,9.837864041328430176e-01,1.612535286429015932e-02,-3.821975008094780080e-03,-2.168179566312847858e-03,1.788688942519334885e-02,1.062112076503790581e-01,-1.069855224341154099e-02,-1.504956490766138320e-02,7.320623796295618047e-03,-6.999597875408521477e-03,1.741628841837785518e-02,-1.608771105708765164e-02,-5.950854660213167335e-03,0.000000000000000000e+00,0.000000000000000000e+00,0.000000000000000000e+00,5.146977248037291064e-01,-0.000000000000000000e+00,-1.109915375709533691e+00,8.025982489895982042e+01,4.205505847930908481e-02
9.732039999999999580e-01,-1.694978726399672163e-03,7.581895839840503692e-02,9.834567904472351074e-01,1.649072528379169969e-02,-4.064346204379232219e-03,-2.321014390957101912e-03,4.091377653854080809e-02,1.127404666091028074e-01,-5.403136368840932846e-03,1.985507960255023310e-02,-1.646280686270833876e-02,-3.449771234234456918e-02,2.436681486968995600e-02,4.292922899744418958e-03,-6.533955976434857593e-03,0.000000000000000000e+00,0.000000000000000000e+00,0.000000000000000000e+00,5.143643021251641523e-01,-0.000000000000000000e+00,-9.222069978713989258e-01,7.722142207686881932e+01,4.205505847930908481e-02
1.000035000000000007e+00,-1.211128669935068909e-03,7.959832737312604045e-02,9.829094409942626953e-01,1.715733969658659111e-02,-4.156150441852579647e-03,-2.348692155157001710e-03,3.767940439796940016e-02,1.207966844722816596e-01,-1.315123215317726135e-02,8.959343634298363654e-03,1.843586984017041297e-02,6.033993162164917427e-03,2.832167099294873730e-02,-1.899634528895134374e-03,-6.561849919176299117e-03,0.000000000000000000e+00,0.000000000000000000e+00,0.000000000000000000e+00,5.150125549425675908e-01,-0.000000000000000000e+00,-1.134997248649597168e+00,9.108133073311790895e+01,4.205505847930908481e-02
1.028663000000000105e+00,-9.610770483313551540e-04,8.355727999118052474e-02,9.822385311126708984e-01,1.798132806424874996e-02,-4.105981338907271905e-03,-2.538989746538872563e-03,2.718247473704785144e-02,1.109563584947727694e-01,-1.594574004411697388e-02,8.841032884287025953e-03,-1.797987690130542840e-02,-9.889598165367068441e-03,1.694981706579101050e-02,-9.275001718478809165e-03,-7.033505713162968576e-03,0.000000000000000000e+00,0.000000000000000000e+00,0.000000000000000000e+00,5.152919000003106653e-01,-0.000000000000000000e+00,-8.214677572250366211e-01,8.006334084710606191e+01,4.205505847930908481e-02
1.050596000000000085e+00,-8.578681155164220775e-04,8.629360551255334244e-02,9.817991256713867188e-01,1.836846749852346153e-02,-4.107136336815697675e-03,-2.633198788669747787e-03,4.033874787629833369e-02,1.178627962758351244e-01,-1.071472838521003723e-02,1.938659456795869054e-02,6.877879502191387370e-03,-4.035688219312257019e-02,2.397760801870757810e-02,2.963812354388003448e-03,-7.400350817856948815e-03,0.000000000000000000e+00,0.000000000000000000e+00,0.000000000000000000e+00,5.149781040514361807e-01,-0.000000000000000000e+00,-9.492374658584594727e-01,-8.720351815259984107e+01,4.205505847930908481e-02
1.077949000000000046e+00,-6.350410471632709358e-04,9.023696719758941831e-02,9.812109470367431641e-01,1.903978551313223813e-02,-4.162489953974279899e-03,-2.450075225184561445e-03,3.529215588780909574e-02,1.223232756576701080e-01,-4.106061067432165146e-03,2.594172300315935112e-02,1.865987382090382452e-02,1.135064910349567815e-02,2.555302455194411598e-02,-3.045361076621505916e-03,-6.834276982988662930e-03,0.000000000000000000e+00,0.000000000000000000e+00,0.000000000000000000e+00,5.145607388142722227e-01,-0.000000000000000000e+00,-8.234549760818481445e-01,9.706563512537043437e+01,4.205505847930908481e-02
1.100252000000000008e+00,-4.601221589916372760e-04,9.296921293083625082e-02,9.806828498840332031e-01,1.977074230519458922e-02,-4.491387533672730470e-03,-2.453835878004200725e-03,2.941719294211316352e-02,1.169923418413088279e-01,-1.865872368216514587e-02,2.127175908736547369e-02,-1.267408825754242144e-02,5.373159022620557085e-02,1.781972338772431705e-02,-9.002183219096635339e-03,-6.790357208040720405e-03,0.000000000000000000e+00,0.000000000000000000e+00,0.000000000000000000e+00,5.157046395356170709e-01,-0.000000000000000000e+00,-8.626891374588012695e-01,8.424985065735202738e+01,4.205505847930908481e-02
1.126589000000000063e+00,-7.901348569377253774e-05,9.682830632525966930e-02,9.798685908317565918e-01,2.087275937639405596e-02,-4.440713163545328968e-03,-2.745706935907022989e-03,4.063293619659676115e-02,1.162969657158819115e-01,-1.489211432635784149e-02,4.619419148038002992e-02,-2.430815347922287635e-05,-4.092289321811868469e-02,1.413801033315843086e-02,1.480047207187313273e-03,-7.703855351157529174e-03,0.000000000000000000e+00,0.000000000000000000e+00,0.000000000000000000e+00,5.155257604360010681e-01,-0.000000000000000000e+00,-1.062552571296691895e+00,9.455724132249407887e+01,4.205505847930908481e-02
1.149950000000000028e+00,2.970301002487054352e-04,9.938304855151580686e-02,9.793952703475952148e-01,2.115855696421304125e-02,-4.468287565539297290e-03,-2.659612410847492312e-03,2.134039222590709481e-02,1.219100624834720953e-01,-1.022507995367050171e-02,4.339178962688486352e-02,-3.123444479303931834e-02,-2.525460361282767449e-02,1.932936156123505819e-02,-1.541563105963997607e-02,-7.298541813287151570e-03,0.000000000000000000e+00,0.000000000000000000e+00,0.000000000000000000e+00,5.152508706223996038e-01,-0.000000000000000000e+00,-6.516674757003784180e-01,3.958432718386304572e+01,4.205505847930908481e-02
1.175621000000000027e+00,9.117525964590664309e-04,1.030411153793209522e-01,9.787086248397827148e-01,2.183304392221411053e-02,-4.537189152316267737e-03,-2.318249507813085510e-03,2.985796075238350555e-02,1.224816270167312371e-01,-2.022930793464183807e-02,1.207204779462287512e-02,-8.001680622121986469e-03,6.369310158221926088e-02,1.727148828764694249e-02,-5.763065457076887131e-03,-6.435397840111212187e-03,0.000000000000000000e+00,0.000000000000000000e+00,0.000000000000000000e+00,5.160821132974160452e-01,-0.000000000000000000e+00,-1.033176064491271973e+00,1.007789972412420951e+02,-5.557465553283691580e-03
1.201564999999999994e+00,1.592315185891918358e-03,1.066860813931167773e-01,9.779181480407714844e-01,2.241227162204166221e-02,-4.634276339081644380e-03,-2.586286275577279886e-03,4.024403945740507443e-02,1.160802878990464942e-01,-1.236080005764961243e-02,2.080095380726844009e-02,6.862830074481148131e-03,-3.461248405056752825e-02,1.162179109739418584e-02,1.223696463879047833e-03,-7.255855527517451886e-03,0.000000000000000000e+00,0.000000000000000000e+00,0.000000000000000000e+00,5.155919057054535459e-01,-0.000000000000000000e+00,-9.262832403182983398e-01,8.999744801372858660e+01,-5.557465553283691580e-03
1.224846000000000101e+00,2.038918201434368558e-03,1.091246609876359019e-01,9.773555397987365723e-01,2.271165825432097315e-02,-4.701503143184737610e-03,-2.630745419387693282e-03,2.575438306093410720e-02,1.212611404112694941e-01,-1.533931680023670197e-02,5.665305328802908158e-02,-2.070097651476785969e-02,-2.424559251705556140e-02,1.690322764681049736e-02,-1.195447098788145375e-02,-7.244632172446141549e-03,0.000000000000000000e+00,0.000000000000000000e+00,0.000000000000000000e+00,5.158950110232437547e-01,-0.000000000000000000e+00,-9.928492307662963867e-01,4.384713703732721513e+01,-5.557465553283691580e-03
1.248744999999999994e+00,2.516491226028073902e-03,1.130561628998052459e-01,9.766463637351989746e-01,2.263734729434193835e-02,-4.595887340950843836e-03,-2.320082519365118841e-03,3.437113274825726733e-02,1.272893799423326922e-01,-1.476802397519350052e-02,-3.915869463130943612e-02,5.630210893416166644e-03,4.390888198519145302e-02,2.471078024342470911e-02,-1.823717983557386884e-03,-6.479016061237519164e-03,0.000000000000000000e+00,0.000000000000000000e+00,0.000000000000000000e+00,5.159521855778407273e-01,-0.000000000000000000e+00,-3.157762289047241211e-01,-3.801042961794408592e-01,-5.557465553283691580e-03
1.277131999999999934e+00,3.145123571407071501e-03,1.185103881378986451e-01,9.758136272430419922e-01,2.321119375090860068e-02,-5.196388124983908341e-03,-2.543504145064343601e-03,3.875204305913063779e-02,1.243698211264414044e-01,-9.434525854885578156e-03,8.469225010405654133e-03,-3.153521531283493690e-02,-1.840316253621430975e-02,2.218383113989104774e-02,-2.959849458877525461e-03,-7.092334949350687090e-03,0.000000000000000000e+00,0.000000000000000000e+00,0.000000000000000000e+00,5.156540903130721887e-01,-0.000000000000000000e+00,-1.133136868476867676e+00,2.507787282078055568e+01,-5.557465553283691580e-03
1.300531000000000104e+00,3.634547671579289700e-03,1.224200133603942642e-01,9.752275347709655762e-01,2.377308224103169554e-02,-5.301278392598085532e-03,-2.466077364383167849e-03,3.645003917514232084e-02,1.226242237230654036e-01,-6.506995297968387604e-03,6.781354655968498991e-03,3.503814706152963421e-02,1.608734347831681372e-02,2.092629872234538432e-02,-5.649255459723316435e-03,-6.845547419031983161e-03,0.000000000000000000e+00,0.000000000000000000e+00,0.000000000000000000e+00,5.155134590201665423e-01,-0.000000000000000000e+00,-4.113765954971313477e-01,8.430676662370574093e+01,-6.971812248229980816e-03
1.324122999999999939e+00,4.086389603632371685e-03,1.267327434824550292e-01,9.746762514114379883e-01,2.371539041301032671e-02,-5.549593354828852299e-03,-2.438537736982965710e-03,2.408609110377143286e-02,1.115254056170182501e-01,-1.561809564009308815e-03,-2.897195834997517983e-02,-2.070647961096230491e-02,-9.831887925525955446e-03,1.635247289872139229e-02,-1.638386451551050033e-02,-6.653831251360764476e-03,0.000000000000000000e+00,0.000000000000000000e+00,0.000000000000000000e+00,5.152059916454099220e-01,-0.000000000000000000e+00,-9.465478658676147461e-01,7.090252037755571735e+01,-6.971812248229980816e-03
1.347865000000000091e+00,4.349948019313929111e-03,1.313752056757162834e-01,9.743190407752990723e-01,2.412647166516589461e-02,-5.873295351223939420e-03,-2.316185318477840573e-03,3.206982162522387797e-02,1.240040114062401361e-01,7.719588465988636017e-03,5.234694075896215160e-02,-4.342398755689357709e-02,1.241217261727821028e-02,2.942570106776729727e-02,-9.961011307261799855e-03,-6.374468157943846691e-03,0.000000000000000000e+00,0.000000000000000000e+00,0.000000000000000000e+00,5.145877971939956108e-01,-0.000000000000000000e+00,-1.040783286094665527e+00,1.026808634156321460e+02,-6.971812248229980816e-03
1.373277999999999999e+00,4.718740354522403535e-03,1.358858424862544045e-01,9.738889336585998535e-01,2.425030238181767259e-02,-6.086421978702238889e-03,-2.436895649842728360e-03,4.285837683839865270e-02,1.273667308411056687e-01,-1.288333442062139511e-02,8.143681186316399645e-03,9.565061239559944500e-03,3.058851853761330661e-02,3.233780169009291272e-02,-3.676568942233707574e-03,-6.783540977901514335e-03,0.000000000000000000e+00,0.000000000000000000e+00,0.000000000000000000e+00,5.161830191866465523e-01,-0.000000000000000000e+00,-9.677942991256713867e-01,1.023940842629508126e+02,-6.971812248229980816e-03
1.401227000000000000e+00,5.137296322779065158e-03,1.405308432544678243e-01,9.734581112861633301e-01,2.428277722083476559e-02,-5.918383941100557877e-03,-2.503948627003658393e-03,2.483452945692008265e-02,1.241434924276515750e-01,4.855863749980926514e-03,-6.818885923430070698e-04,2.832985663590487785e-02,-5.962352850246425973e-02,3.357426822119693316e-02,-1.808541092418554375e-02,-6.804469685342096064e-03,0.000000000000000000e+00,0.000000000000000000e+00,0.000000000000000000e+00,5.149256591724604704e-01,-0.000000000000000000e+00,-1.467315435409545898e+00,7.731767993284181273e+01,-6.971812248229980816e-03
1.423002000000000100e+00,5.348199404488300154e-03,1.433134776299574142e-01,9.731467366218566895e-01,2.440075066226709763e-02,-6.050954986059453589e-03,-2.380343743948196492e-03,2.490560373495877278e-02,1.215069182527657998e-01,8.130469359457492828e-03,4.998084981967942236e-02,-3.964944279586726794e-02,4.161934309097147996e-03,3.395715038169636046e-02,-1.598182463589309377e-02,-6.481594842450144611e-03,0.000000000000000000e+00,0.000000000000000000e+00,0.000000000000000000e+00,5.147266537052719304e-01,-0.000000000000000000e+00,5.272805690765380859e-02,1.598141185774140069e+02,1.054561138153076172e-02
1.448801999999999923e+00,5.679800271808567447e-03,1.475859090630151915e-01,9.728781580924987793e-01,2.454869139444828055e-02,-6.210839677014634574e-03,-2.411600617748893127e-03,4.639285709167304678e-02,1.261158577412422876e-01,1.241616788320243359e-03,9.086064041245674877e-03,2.057924244604095523e-02,4.336886975272927908e-02,4.039292826127047209e-02,4.707654002865579654e-04,-6.760868512307394163e-03,0.000000000000000000e+00,0.000000000000000000e+00,0.000000000000000000e+00,5.152949292684445570e-01,-0.000000000000000000e+00,-1.271705031394958496e+00,1.433293477325615015e+02,1.054561138153076172e-02
1.475591000000000097e+00,6.116709578642619619e-03,1.516217217990532828e-01,9.726353883743286133e-01,2.490725881621780671e-02,-6.254053033264428407e-03,-2.693488086680109229e-03,2.919764577736089217e-02,1.254112971803666987e-01,9.084670804440975189e-03,-1.038251641511157841e-02,1.970195034732966435e-02,-6.436437565333927302e-02,4.062266098777832929e-02,-1.630401170134522862e-02,-7.348112695579944731e-03,0.000000000000000000e+00,0.000000000000000000e+00,0.000000000000000000e+00,5.147508898786987697e-01,-0.000000000000000000e+00,4.166162014007568359e-02,7.234019323557335213e+01,1.054561138153076172e-02
1.497729000000000088e+00,6.472898761540790864e-03,1.556094119692475741e-01,9.724297523498535156e-01,2.521632131175096173e-02,-6.051017390476864932e-03,-2.541723047658623214e-03,2.120209184562240473e-02,1.143039330984479129e-01,1.340274419635534286e-02,1.457614202349243396e-02,1.149382518170583706e-02,3.937695269901850259e-02,3.342737965677601564e-02,-1.849162680134565709e-02,-6.898410993811832093e-03,0.000000000000000000e+00,0.000000000000000000e+00,0.000000000000000000e+00,5.144516533143876913e-01,-0.000000000000000000e+00,-1.168100237846374512e+00,5.200970828420727798e+01,5.607812404632568637e-02
1.524334000000000078e+00,6.753248788438814994e-03,1.582363147328408048e-01,9.723451733589172363e-01,2.556495740676695619e-02,-5.895036741395909274e-03,-2.423769249360605178e-03,3.575517265717622489e-02,1.282418473883955579e-01,6.587192881852388382e-03,-3.661064608867962457e-03,2.394975361239931252e-02,5.597261807363140829e-02,4.627432330535534433e-02,-4.386041551685726861e-03,-6.734693098233546227e-03,0.000000000000000000e+00,0.000000000000000000e+00,0.000000000000000000e+00,5.150080252860180785e-01,-0.000000000000000000e+00,-1.502203583717346191e+00,1.047545976401072210e+02,5.607812404632568637e-02
1.548205999999999971e+00,7.267575319895819112e-03,1.627728026308296883e-01,9.723209142684936523e-01,2.596411055232928505e-02,-5.831768311531870808e-03,-2.588566783518863983e-03,3.688516710452680730e-02,1.221247570299741347e-01,1.510727033019065857e-02,-1.652932004501451307e-02,5.641560221504536392e-03,-5.720912548776190681e-02,4.097385344952788472e-02,-4.684575696426127554e-03,-7.192566503591291127e-03,0.000000000000000000e+00,0.000000000000000000e+00,0.000000000000000000e+00,5.143877368662546079e-01,-0.000000000000000000e+00,-7.053226232528686523e-01,-5.812787413890829669e+01,5.607812404632568637e-02
1.574486999999999970e+00,7.836194662435297040e-03,1.673107358568630965e-01,9.723163247108459473e-01,2.663695061023160435e-02,-5.536281974327872391e-03,-2.628613523579527954e-03,1.697094431696458475e-02,1.112803534024004448e-01,1.722850091755390167e-02,3.307123764247824060e-02,1.359497169495762700e-02,1.947854887699499229e-02,3.268251033077741036e-02,-1.843511184945413953e-02,-7.131952285199083530e-03,0.000000000000000000e+00,0.000000000000000000e+00,0.000000000000000000e+00,5.142315880996092270e-01,-0.000000000000000000e+00,-5.997121334075927734e-02,8.373143246915888938e+01,5.607812404632568637e-02
1.599807999999999897e+00,8.371527188493876892e-03,1.715692459083122678e-01,9.723051190376281738e-01,2.795827116334829304e-02,-5.183199048873987635e-03,-2.933348853027410112e-03,2.612563437639698824e-02,1.126026547205993406e-01,2.259805053472518921e-02,4.647399215785148058e-02,-3.951347576269434100e-03,-1.451565656766968561e-02,3.067454805450984048e-02,-5.477958552359280496e-03,-8.145839941187449362e-03,0.000000000000000000e+00,0.000000000000000000e+00,0.000000000000000000e+00,5.138530409904129570e-01,-0.000000000000000000e+00,-1.177242398262023926e+00,-1.474199890076171755e+02,5.607812404632568637e-02
1.627688000000000024e+00,8.898130288203236204e-03,1.760211041126525655e-01,9.723439216613769531e-01,2.864520689747104831e-02,-4.872943490714876091e-03,-2.912675867801178559e-03,4.183420183850874996e-02,1.233512143914638759e-01,2.520511485636234283e-02,5.434479058143375230e-02,-3.467063773085599706e-03,7.917567403106917992e-03,3.862442286340748293e-02,8.308766101011430538e-03,-8.273050438814266716e-03,0.000000000000000000e+00,0.000000000000000000e+00,0.000000000000000000e+00,5.136841675906006488e-01,-0.000000000000000000e+00,-7.576428651809692383e-01,9.161807431885418396e+01,5.607812404632568637e-02
1.650195000000000078e+00,9.309456361145598477e-03,1.792941958575395844e-01,9.724647402763366699e-01,2.869737950219020117e-02,-4.690971962238332793e-03,-3.030237904573761677e-03,2.149183053292292450e-02,1.139369999319807814e-01,2.316894195973873138e-02,-1.293469520445402442e-02,7.730291759951093619e-03,1.462580279527496592e-02,3.210490640851736827e-02,-8.796657230684883783e-03,-8.370963986274682078e-03,0.000000000000000000e+00,0.000000000000000000e+00,0.000000000000000000e+00,5.138146851297668016e-01,-0.000000000000000000e+00,-1.318453192710876465e+00,7.196189125556115229e+00,5.607812404632568637e-02
1.673896999999999968e+00,9.849864349253084628e-03,1.840240375196249556e-01,9.725589752197265625e-01,2.894910447870665399e-02,-4.719354532514374867e-03,-3.416853858845050711e-03,1.931366916141754805e-02,1.116358387869881147e-01,2.595891244709491730e-02,4.235344334479788225e-02,-2.206097228636481888e-02,-3.579075474837387777e-02,3.415196238712141924e-02,-7.383019065889400920e-03,-9.471885990564254953e-03,0.000000000000000000e+00,0.000000000000000000e+00,0.000000000000000000e+00,5.136094314770556224e-01,-0.000000000000000000e+00,-1.097546219825744629e+00,2.976413391221800708e+01,5.607812404632568637e-02
1.699800999999999895e+00,1.038459920079065797e-02,1.886096761408408984e-01,9.726867079734802246e-01,2.951660123588549511e-02,-4.295665136748727519e-03,-3.507266742980326337e-03,3.279096864275861389e-02,1.209423046099040305e-01,2.900268882513046265e-02,4.268116963390502366e-02,4.170907547810128596e-03,1.134996113373370336e-02,4.242189759309370617e-02,6.970459723873475080e-03,-9.924542613468478880e-03,0.000000000000000000e+00,0.000000000000000000e+00,0.000000000000000000e+00,5.133973252353809524e-01,-0.000000000000000000e+00,-4.910246133804321289e-01,9.743399405749838138e+01,5.607812404632568637e-02
1.726898999999999962e+00,1.098523233771172072e-02,1.932237430351705643e-01,9.728989005088806152e-01,2.979173673217704044e-02,-4.024824544144767202e-03,-3.834990354095830709e-03,4.054615156763477501e-02,1.237770326031205348e-01,2.063739672303199768e-02,-4.818026044167986882e-02,4.256286378057266839e-02,8.168332924172875750e-03,4.513310408179690980e-02,1.338171683344853251e-02,-1.093624179573116084e-02,0.000000000000000000e+00,0.000000000000000000e+00,0.000000000000000000e+00,5.140161407598651255e-01,-0.000000000000000000e+00,-9.018024206161499023e-01,9.122006553553920583e+01,5.607812404632568637e-02
1.749154000000000098e+00,1.131691249649725492e-02,1.960977032734786685e-01,9.729510545730590820e-01,3.007165372229528635e-02,-4.310204229107439389e-03,-4.032397456007044689e-03,1.911787944716749135e-02,1.061130543458639608e-01,2.934224158525466919e-02,6.247249575058321652e-02,-4.957845776075213429e-02,-4.489662477958351189e-02,3.199958849634883251e-02,-6.445161272620829156e-03,-1.120677610314096961e-02,0.000000000000000000e+00,0.000000000000000000e+00,0.000000000000000000e+00,5.133412187071226818e-01,-0.000000000000000000e+00,-1.369845986366271973e+00,1.074189383221133056e+02,5.607812404632568637e-02
1.773306999999999967e+00,1.182954315600293765e-02,2.006953581907787165e-01,9.730320572853088379e-01,3.076295948630716759e-02,-4.358177163427789935e-03,-4.180579289495317714e-03,3.526388496140628326e-02,1.207618379882819948e-01,2.184701524674892426e-02,8.074627028090469727e-02,-1.062684791519983782e-02,3.415636340913611683e-03,4.551490134073846172e-02,9.692491004458448495e-03,-1.185621025094363290e-02,0.000000000000000000e+00,0.000000000000000000e+00,0.000000000000000000e+00,5.139317807693210005e-01,-0.000000000000000000e+00,-1.561499834060668945e-01,8.204905442374719371e+01,5.607812404632568637e-02
1.799177000000000026e+00,1.235683186273584325e-02,2.049447115966032962e-01,9.732292294502258301e-01,3.170261743357097317e-02,-4.485620989203242814e-03,-4.602475095464201617e-03,3.674778668400993653e-02,1.224768446087839413e-01,2.576010487973690033e-02,-7.555346027199766855e-03,3.395652826038157018e-02,7.855575019474600809e-03,4.268346347409010533e-02,8.112952335115388228e-03,-1.301776564748752252e-02,0.000000000000000000e+00,0.000000000000000000e+00,0.000000000000000000e+00,5.136348729410383784e-01,-0.000000000000000000e+00,-1.125275731086730957e+00,1.260719458887971740e+02,5.607812404632568637e-02
1.825412999999999952e+00,1.295405017851920977e-02,2.090190361112937434e-01,9.734907150268554688e-01,3.247842090889463407e-02,-4.447230562735882131e-03,-4.878311936552786471e-03,3.149787785384750016e-02,1.181538750902204754e-01,2.694895677268505096e-02,6.035155395335408887e-03,-3.027378585566526531e-03,-4.154590327108168002e-02,3.769572197962931664e-02,4.401988861574288384e-03,-1.373554654725783752e-02,0.000000000000000000e+00,0.000000000000000000e+00,0.000000000000000000e+00,5.135261658489965741e-01,-0.000000000000000000e+00,-8.683918714523315430e-01,-2.608799974241749808e+01,5.607812404632568637e-02
1.850880999999999998e+00,1.388164108193922115e-02,2.131330327280187287e-01,9.737096428871154785e-01,3.321725586177225881e-02,-4.587470870438759007e-03,-5.217810038399804846e-03,1.310125379769247304e-02,1.067731224279490632e-01,2.635974250733852386e-02,1.264761727830230123e-02,1.172924124152014552e-02,1.551334839296834964e-04,2.802986201602208904e-02,-9.908854483614427944e-03,-1.446850880391320482e-02,0.000000000000000000e+00,0.000000000000000000e+00,0.000000000000000000e+00,5.135412573130466729e-01,-0.000000000000000000e+00,-8.657006025314331055e-01,9.388073840596099728e+01,5.607812404632568637e-02
1.872290999999999928e+00,1.444761682114087745e-02,2.155440400614176133e-01,9.737780094146728516e-01,3.381974667262758333e-02,-4.597698231778579725e-03,-5.475986689833018360e-03,3.778415076347216295e-02,1.142372297203694265e-01,2.466027997434139252e-02,8.017394864318768202e-03,1.882914236769391361e-02,-1.897358384219548569e-02,3.445000435942381645e-02,1.296141726650911277e-02,-1.554717828312407457e-02,0.000000000000000000e+00,0.000000000000000000e+00,0.000000000000000000e+00,5.136893160919063783e-01,-0.000000000000000000e+00,-8.606067895889282227e-01,1.164963621818978083e+02,5.607812404632568637e-02
1.899710000000000010e+00,1.535780141463914499e-02,2.193761016075352344e-01,9.739365577697753906e-01,3.476553004083805104e-02,-4.875657483794926250e-03,-5.733604106648909973e-03,3.162965791126608195e-02,1.115513732032523686e-01,3.185470029711723328e-02,3.677692710134403825e-02,7.087829575181197293e-03,-1.891961319717386583e-02,2.901384533521005754e-02,3.318773214403399237e-03,-1.611850423977945201e-02,0.000000000000000000e+00,0.000000000000000000e+00,0.000000000000000000e+00,5.131387487428382688e-01,-0.000000000000000000e+00,-6.370779275894165039e-01,1.057837500536772382e+02,5.607812404632568637e-02
1.924004999999999965e+00,1.622226466164619976e-02,2.229318358999849981e-01,9.739470481872558594e-01,3.529161686111817464e-02,-5.201768282013574662e-03,-5.925200119419658448e-03,1.793030636355462740e-02,1.028174551096228823e-01,1.862312108278274536e-02,-5.900369261208418536e-03,-6.409569145577376920e-03,9.208151359459446073e-03,2.156551939848226282e-02,-8.362482172722056351e-03,-1.646915199006915298e-02,0.000000000000000000e+00,0.000000000000000000e+00,0.000000000000000000e+00,5.141134872055667104e-01,-0.000000000000000000e+00,-7.791410684585571289e-01,1.520967014945949529e+02,5.607812404632568637e-02
1.949883999999999951e+00,1.729228414001407477e-02,2.264083038166655182e-01,9.738713502883911133e-01,3.644955575013113236e-02,-5.812201414180817594e-03,-6.234709090892140773e-03,1.386552962372260625e-02,9.280642551259685180e-02,3.828529641032218933e-02,8.257798252800933880e-02,-6.211819908817275276e-02,-4.466424258667124614e-02,1.168871743863023061e-02,-1.276142225480888029e-02,-1.726413615665761681e-02,0.000000000000000000e+00,0.000000000000000000e+00,0.000000000000000000e+00,5.126478969658737617e-01,-0.000000000000000000e+00,-7.302988767623901367e-01,1.059109828175362367e+02,5.607812404632568637e-02
1.974668000000000090e+00,1.816897231618861894e-02,2.286967478020495714e-01,9.739466309547424316e-01,3.691544764034369180e-02,-5.899264862576636403e-03,-6.262585326879136806e-03,3.037970403621785900e-02,1.097059913114964008e-01,3.075479529798030853e-02,3.356714349190099284e-02,2.742495252201822969e-02,-1.497825327497928280e-02,2.599074360558596003e-02,1.128736166983346396e-03,-1.756787920313579443e-02,0.000000000000000000e+00,0.000000000000000000e+00,0.000000000000000000e+00,5.132342919114227797e-01,-0.000000000000000000e+00,-6.207948923110961914e-01,1.045611393620557834e+02,5.607812404632568637e-02
1.997481000000000062e+00,1.944066374725711768e-02,2.319644111451375501e-01,9.737466573715209961e-01,3.717655264080782507e-02,-5.803082591930852630e-03,-6.470152019077680255e-03,2.808869958642519482e-02,9.923386273633408305e-02,1.633652858436107635e-02,-4.209787030959253468e-02,1.591799172547815611e-02,1.400756363248360781e-02,1.575832101956656239e-02,-1.685283294651705906e-03,-1.810207086521414821e-02,0.000000000000000000e+00,0.000000000000000000e+00,0.000000000000000000e+00,5.143062748156302932e-01,-0.000000000000000000e+00,-7.882827520370483398e-01,1.029183832440193385e+02,5.607812404632568637e-02
2.025215999999999905e+00,2.067548629294571963e-02,2.352064894036874354e-01,9.735652208328247070e-01,3.737950666290224683e-02,-5.772905238742520595e-03,-6.766034833051040240e-03,1.548721550822587320e-02,9.026387525826673475e-02,2.779330685734748840e-02,1.284805563622984630e-03,-3.423352230055556195e-02,-5.442817702446279410e-02,1.255793121668092802e-02,-1.034909051026625983e-02,-1.878800425169019350e-02,0.000000000000000000e+00,0.000000000000000000e+00,0.000000000000000000e+00,5.134651531703663396e-01,-0.000000000000000000e+00,-6.431394815444946289e-01,8.989326030812921431e+01,5.607812404632568637e-02
2.048236000000000168e+00,2.190276392696450039e-02,2.380742730599931523e-01,9.734779000282287598e-01,3.756233596441280187e-02,-5.884284453462784725e-03,-6.472866564166094780e-03,2.898379196077552344e-02,8.964342285180895709e-02,2.461524307727813721e-02,5.692935277346633516e-02,-2.495203253556172243e-02,4.387580490658062743e-02,1.499988570747999052e-02,2.589135969152109914e-03,-1.818089017491747450e-02,0.000000000000000000e+00,0.000000000000000000e+00,0.000000000000000000e+00,5.137195549529018912e-01,-0.000000000000000000e+00,-5.218712091445922852e-01,7.851870039649685395e+01,5.607812404632568637e-02
2.077097999999999889e+00,2.319520782511446527e-02,2.407415523429607962e-01,9.734314084053039551e-01,3.793418686342808765e-02,-5.807834882355589201e-03,-6.870233342757059609e-03,4.385407277772663398e-02,8.818883950958020246e-02,1.605203375220298767e-02,-9.504497366061884570e-03,1.061632723574732623e-02,-3.663428318330760880e-03,1.389361347374499719e-02,1.387376060847074835e-02,-1.948431550587759187e-02,0.000000000000000000e+00,0.000000000000000000e+00,0.000000000000000000e+00,5.143726019362701019e-01,-0.000000000000000000e+00,-5.193892717361450195e-01,9.089241453086452793e+01,5.607812404632568637e-02
2.098580999999999808e+00,2.406407383152791776e-02,2.425146560325853462e-01,9.733809828758239746e-01,3.821122063984332823e-02,-5.689225760923566355e-03,-7.125680171319126975e-03,2.098308327430250045e-02,7.718718362014857781e-02,2.211815118789672852e-02,1.680914636208819327e-02,-3.058060269533772330e-02,-4.957398226572967692e-02,5.967497269317331016e-03,-5.143068524501153219e-03,-1.988104238874405238e-02,0.000000000000000000e+00,0.000000000000000000e+00,0.000000000000000000e+00,5.139131623871603383e-01,-0.000000000000000000e+00,-4.790784120559692383e-01,1.146068040083921176e+02,5.607812404632568637e-02
2.125599999999999934e+00,2.527007994600175347e-02,2.449382442527825443e-01,9.733678102493286133e-01,3.851335116866435454e-02,-5.468962150047218529e-03,-6.828854421037613281e-03,2.115200803498493154e-02,7.711987500973126186e-02,2.606762014329433441e-02,4.163615287899133377e-02,-1.095328275109578968e-02,3.497071991693765508e-02,8.439615485776416626e-03,7.724832892540349190e-04,-1.914844548956329273e-02,0.000000000000000000e+00,0.000000000000000000e+00,0.000000000000000000e+00,5.136327067774684174e-01,-0.000000000000000000e+00,-4.700132608413696289e-01,7.962398892874499268e+01,5.607812404632568637e-02
2.148521999999999821e+00,2.640146018007705209e-02,2.474175452638403272e-01,9.734229445457458496e-01,3.838439889135102090e-02,-5.556617428707388839e-03,-6.832319140297952835e-03,3.379869168151272002e-02,7.492795323959762499e-02,1.684520952403545380e-02,2.095878165825837067e-02,6.467366728291981844e-03,9.870482349980934725e-03,9.730354997274436729e-03,1.114990146721919241e-02,-1.933297686434076734e-02,0.000000000000000000e+00,0.000000000000000000e+00,0.000000000000000000e+00,5.143242235664372553e-01,-0.000000000000000000e+00,-5.761712789535522461e-01,7.671943049362955946e+01,5.607812404632568637e-02
2.175005000000000077e+00,2.748534623966245385e-02,2.500591788771617252e-01,9.734638929367065430e-01,3.864577196065706322e-02,-5.687045140551516553e-03,-6.759425503377108554e-03,3.566922619190740495e-02,7.950463981993040330e-02,1.992367208003997803e-02,2.358082268167810414e-02,1.300892128937972993e-02,-4.906466701061854355e-03,1.499702442319340336e-02,1.086348165009365895e-02,-1.912768111161294859e-02,0.000000000000000000e+00,0.000000000000000000e+00,0.000000000000000000e+00,5.141144260997195792e-01,-0.000000000000000000e+00,-6.005626916885375977e-01,7.398955414653720197e+01,-6.096243858337402344e-03
2.203552999999999873e+00,2.863131016625653294e-02,2.522761737207909194e-01,9.738013744354248047e-01,3.839285101447351134e-02,-5.680917669120155722e-03,-6.655444009681837740e-03,2.912180793386988029e-02,6.274400534587035172e-02,2.017874643206596375e-02,-6.173264814442139085e-03,2.570109338537024044e-02,7.528588411721236218e-03,5.031158563236936242e-03,6.395535148585634183e-03,-1.875586509688892400e-02,0.000000000000000000e+00,0.000000000000000000e+00,0.000000000000000000e+00,5.140508558623592128e-01,-0.000000000000000000e+00,-4.615701436996459961e-01,9.359914336685970682e+01,-6.096243858337402344e-03
2.223390000000000200e+00,2.901405861779481413e-02,2.529452689001045473e-01,9.739010334014892578e-01,3.821678494256953301e-02,-5.612818733795377213e-03,-6.646702170719371791e-03,4.101113270444720071e-02,6.897815747589067237e-02,2.032148465514183044e-02,-5.320737877796476167e-02,4.611307163439953838e-02,-2.638329236043047976e-02,1.523419741436865538e-02,1.777776654047183783e-02,-1.892681018617670130e-02,0.000000000000000000e+00,0.000000000000000000e+00,0.000000000000000000e+00,5.140610214774473663e-01,-0.000000000000000000e+00,-7.750638723373413086e-01,8.646930013758016287e+01,-6.096243858337402344e-03
2.253090999999999955e+00,3.059850813812389769e-02,2.557250568018129555e-01,9.743709564208984375e-01,3.781157409041755596e-02,-5.893630307085562237e-03,-6.169277485041191160e-03,4.078537764305612684e-02,6.555962331980047519e-02,2.267708443105220795e-02,-1.338087598432568560e-02,1.030592081693232701e-02,4.199127654941568755e-02,1.721286547058601887e-02,1.543920004376467432e-02,-1.754751266855097969e-02,0.000000000000000000e+00,0.000000000000000000e+00,0.000000000000000000e+00,5.138532554664557717e-01,-0.000000000000000000e+00,-1.101581454277038574e+00,9.972321392009820329e+01,-6.096243858337402344e-03
2.276581000000000188e+00,3.185479337235683217e-02,2.576422156857420265e-01,9.748076200485229492e-01,3.786381701639892489e-02,-6.293922925983297390e-03,-6.002622331574032112e-03,3.744086235323237227e-02,5.619806724464997127e-02,2.109560742974281311e-02,-1.338873664365706302e-03,1.940602377593796113e-02,-7.331263142184270623e-03,1.208264234334889553e-02,1.127093474072833959e-02,-1.700821068542734960e-02,0.000000000000000000e+00,0.000000000000000000e+00,0.000000000000000000e+00,5.139312790964356559e-01,-0.000000000000000000e+00,-5.582374334335327148e-01,8.683431910720398150e+01,-6.096243858337402344e-03
2.299907999999999841e+00,3.268044366148968594e-02,2.588452581717319290e-01,9.751013517379760742e-01,3.797145066701240745e-02,-6.597650395012255586e-03,-5.890603142162520803e-03,3.230223140369609808e-02,5.343569612284100601e-02,2.523066662251949310e-02,4.509338339224319009e-02,-3.292300491816544522e-02,-1.783731999875294919e-02,1.262391577221433012e-02,6.484672092898598889e-03,-1.661488825191437257e-02,0.000000000000000000e+00,0.000000000000000000e+00,0.000000000000000000e+00,5.136047704384389956e-01,-0.000000000000000000e+00,-3.000652790069580078e-02,-2.864126788814083469e+01,1.671302318572998047e-02
2.323862000000000094e+00,3.389357642352466837e-02,2.605534291811748560e-01,9.755449891090393066e-01,3.761834580444717996e-02,-6.582765126891709784e-03,-5.391750206822313457e-03,4.098196371577281227e-02,5.227335769363556511e-02,1.754672080278396606e-02,-2.398154142070175326e-02,1.196555180935145700e-02,5.437170005956463992e-02,1.613860383232623014e-02,1.535712683706798483e-02,-1.536529344195675106e-02,0.000000000000000000e+00,0.000000000000000000e+00,0.000000000000000000e+00,5.141529208121998762e-01,-0.000000000000000000e+00,-9.373434782028198242e-01,1.378443369988260940e+02,1.671302318572998047e-02
2.347691000000000194e+00,3.500807404723468158e-02,2.622773799596800348e-01,9.760053753852844238e-01,3.745050796618023398e-02,-6.652509367031766985e-03,-5.007745229240296095e-03,3.847793987809194904e-02,5.035687416837648228e-02,1.732850447297096252e-02,-3.823524243336989814e-02,3.179689114721492155e-02,1.045886467304847460e-02,1.801227810645477864e-02,1.268101010866066157e-02,-1.424440900906259744e-02,0.000000000000000000e+00,0.000000000000000000e+00,0.000000000000000000e+00,5.141418571152291950e-01,-0.000000000000000000e+00,-3.622561693191528320e-01,1.060163862968078661e+02,1.671302318572998047e-02
2.375961000000000212e+00,3.599189712381394707e-02,2.641256748194303339e-01,9.763656258583068848e-01,3.745536926992139304e-02,-6.972592334296034977e-03,-4.731947744824346533e-03,3.157565324655228767e-02,4.076037950323596615e-02,1.328378636389970779e-02,2.140821984252022289e-02,-3.943333610699802094e-02,-1.416107039424429476e-02,1.254585582925764851e-02,6.335033254830388892e-03,-1.336397972148023472e-02,0.000000000000000000e+00,0.000000000000000000e+00,0.000000000000000000e+00,5.144109873876419048e-01,-0.000000000000000000e+00,-7.864147424697875977e-01,1.335596500494503687e+02,1.671302318572998047e-02
2.400135000000000129e+00,3.697254783361731550e-02,2.658945896100070594e-01,9.767407774925231934e-01,3.783548789334619661e-02,-7.156049807597986145e-03,-4.236378831609825986e-03,2.922640129578484361e-02,4.096090104446235836e-02,1.330035366117954254e-02,1.743044661902869857e-02,-1.003461292587557591e-02,4.511425401005099423e-02,1.380189514465150757e-02,5.230566293907850176e-03,-1.195841450679591134e-02,0.000000000000000000e+00,0.000000000000000000e+00,0.000000000000000000e+00,5.143989486075607465e-01,-0.000000000000000000e+00,-1.375659704208374023e-01,2.682795170124541428e+01,1.671302318572998047e-02
2.426187999999999789e+00,3.795726872764017962e-02,2.674568534039745149e-01,9.770321846008300781e-01,3.786441000331897122e-02,-7.486960923297703019e-03,-3.739033105465340134e-03,3.888817686691051212e-02,3.694356456490377472e-02,1.042939443141222000e-02,4.225964569349336362e-03,-5.133273176665831099e-03,1.764031422706003466e-02,1.224632881846676562e-02,1.214483929086585326e-02,-1.068005115483855461e-02,0.000000000000000000e+00,0.000000000000000000e+00,0.000000000000000000e+00,5.146025070714831395e-01,-0.000000000000000000e+00,-6.571558713912963867e-01,1.192999362701345945e+02,1.671302318572998047e-02
