timestamp,x,y,z,roll,pitch,yaw,vx,vy,vz,p,q,r,psp,qsp,rsp,pres,qres,rres,thrust_sp, thrust_res
0.000000000000000000e+00,1.532515609276418082e-03,-1.902993539295138800e-02,1.002088308334350586e+00,7.571337437033640212e-03,-3.713516551463902360e-03,-1.072396314282417912e-02,-1.093564140737904831e-02,2.850674620240880100e-02,-1.437892671674489975e-02,-7.365433348848511065e-03,4.523206457627993761e-03,1.788318529697782017e-02,-7.466639333093780251e-02,3.641355437652066263e-03,-1.997275366825255333e-02,-3.652978241443634311e-02,3.586316406726837436e-02,9.989997744560242046e-03,5.261166684233701263e-01,7.138355970382690430e-01,-4.702359437942504883e-01,2.926350836681275069e+01,0.000000000000000000e+00
2.411599999999999855e-02,1.252074168129081993e-03,-1.855152622086943259e-02,1.001920819282531738e+00,7.887287387912122333e-03,-3.745013429825361229e-03,-1.013087483260865368e-02,-1.094256080308649709e-02,2.124229744901401026e-02,-4.248736891895532608e-03,-8.512452371625643666e-03,6.392854664704192627e-03,1.622501210850710307e-02,-8.735638716833604711e-02,5.735483178722432240e-03,-5.588803504548087164e-05,-3.745782375335693359e-02,3.670170903205871582e-02,2.825648784637451241e-02,5.256212750087847496e-01,7.261419296264648438e-01,-2.941739559173583984e-02,7.250650834186316729e+01,0.000000000000000000e+00
4.758099999999999830e-02,8.251831727570178420e-04,-1.806789366739182390e-02,1.001858592033386230e+00,7.983807574456675688e-03,-3.624055722132979440e-03,-9.843279301814644375e-03,-1.239287176332054194e-02,1.320211178190756722e-02,-6.089114118367433548e-03,-6.129253048678134745e-03,6.273896178284422108e-03,1.792939525558991457e-02,-9.163694716458012368e-02,4.604670675500514843e-03,-4.168466509778715606e-02,-3.597360551357269703e-02,3.621824085712432861e-02,-1.417400836944580217e-02,5.249095408738773116e-01,6.797099113464355469e-01,-9.777518510818481445e-01,1.206569992355677527e+02,0.000000000000000000e+00
7.316799999999999693e-02,1.852399049903143428e-04,-1.732773440032795223e-02,1.001867413520812988e+00,8.425193185035042068e-03,-3.275994244041458003e-03,-9.056587855410275223e-03,-5.430945534475150292e-03,2.488210649324282264e-02,-1.547961030155420303e-03,-2.488076265098706531e-03,6.746365797406785395e-03,1.851737462890156935e-02,-8.237709406157103786e-02,1.249935664491538465e-02,-6.122929610371277004e-02,-3.498084545135498463e-02,3.652517497539520264e-02,-3.592029809951782088e-02,5.225986582842426786e-01,5.723365545272827148e-01,-1.052626490592956543e+00,5.914249874011368746e+01,0.000000000000000000e+00
1.003369999999999956e-01,-4.139745922069706409e-04,-1.646363568706939520e-02,1.002028465270996094e+00,7.437706424473490736e-03,-2.711811187175561244e-03,-8.514469478378802053e-03,-8.797637748075362585e-03,3.175728403285534018e-02,5.964649841189384460e-03,-9.036018382662712543e-04,6.393869669366898656e-03,1.790816123200037607e-02,-7.152229947767116403e-02,1.201657168197302686e-02,-6.032333427991438957e-02,-3.495658040046691756e-02,3.654761016368866106e-02,-3.653164505958557406e-02,5.214656579954836113e-01,5.417132377624511719e-01,-9.728206396102905273e-01,9.960094670376579984e+01,0.000000000000000000e+00
1.254059999999999897e-01,-8.074582573135829231e-04,-1.584749304461933669e-02,1.002292275428771973e+00,6.021120860026233854e-03,-2.525906553430212753e-03,-8.008612588028722959e-03,2.756719494639677664e-03,2.574906411746737123e-02,8.787848055362701416e-03,-4.523583394134294937e-03,7.353919002938034792e-03,1.867830212931596498e-02,-6.843341289359838875e-02,2.319287958873283984e-02,-5.533673547423052785e-02,-3.569314479827880721e-02,3.685579299926757674e-02,-3.293322324752807895e-02,5.224477744967378490e-01,6.076269149780273438e-01,-1.004317164421081543e+00,9.325695771963123093e+01,0.000000000000000000e+00
1.483800000000000119e-01,-1.077866579901677049e-03,-1.529454520715390654e-02,1.002957224845886230e+00,3.340181424476581281e-03,-2.126707793585813633e-03,-6.748933108565061817e-03,-1.695072988221591956e-02,2.672351818916406108e-02,2.139986306428909302e-02,-1.087542922818323342e-02,8.510205776865908261e-03,2.069149304020162852e-02,-5.109637652176757944e-02,8.155391018586585078e-03,1.667184303991893490e-02,-3.777041137218475897e-02,3.712447881698608537e-02,3.553992807865143100e-02,5.237733752307928148e-01,7.330820560455322266e-01,-6.411942243576049805e-01,1.159178178384410387e+02,0.000000000000000000e+00
1.738069999999999893e-01,-1.179165383314991541e-03,-1.502718802369996942e-02,1.003591299057006836e+00,1.749949635968055120e-03,-2.162415844150222810e-03,-5.951410136558418079e-03,-5.276144471947523569e-03,3.814927566793422514e-02,2.975723333656787872e-02,-1.808638043346046109e-02,8.447840802648282771e-03,2.120923504006331020e-02,-3.102071030169026300e-02,1.948460108869565915e-02,1.838462699244678561e-02,-3.751769661903381348e-02,3.640685975551605225e-02,3.503222167491912981e-02,5.230942897939320213e-01,7.334370613098144531e-01,-1.218186616897583008e-01,1.249468771287126714e+02,0.000000000000000000e+00
1.997950000000000004e-01,-1.288827051337479825e-03,-1.456972349346297331e-02,1.004855751991271973e+00,-7.212162757132469394e-04,-2.492974707681616664e-03,-5.067731796289031906e-03,-7.678959018139027565e-03,3.062860820497828943e-02,4.037818685173988342e-02,-2.592741791916461022e-02,8.504912579377339396e-03,2.269581055244962106e-02,-1.720300432926648998e-02,1.361077048302041653e-02,1.267943766841846120e-02,-3.231695294380187988e-02,3.642872869968414445e-02,2.686474025249481479e-02,5.219901681300476159e-01,7.228915691375732422e-01,-9.368530511856079102e-01,1.152727064713333363e+02,0.000000000000000000e+00
2.249460000000000071e-01,-1.340266280351072982e-03,-1.423171844751117479e-02,1.005895376205444336e+00,-2.203465470027864657e-03,-2.442354487565356891e-03,-4.744400207679317499e-03,-7.531290964599651402e-03,3.603480282271321472e-02,4.579397290945053101e-02,-3.124068093312108024e-02,7.847306388704060331e-03,2.307380981273596601e-02,2.646696700383121409e-02,1.483578874788390664e-02,1.099922987811795608e-02,-4.136019945144653841e-03,3.693133890628814975e-02,2.428210973739624093e-02,5.215467984024176884e-01,7.269618511199951172e-01,-1.297680258750915527e+00,1.011077479063731488e+02,0.000000000000000000e+00
2.471830000000000138e-01,-1.466759860702672533e-03,-1.324832481140882263e-02,1.007078528404235840e+00,-3.141910266370770855e-03,-2.720006488077242324e-03,-4.652350977812851063e-03,3.746212784955532931e-03,3.533079180191198848e-02,6.004751101136207581e-02,-3.806704284863780124e-02,7.666882777221340969e-03,2.299235953222643694e-02,5.265061774069407230e-02,2.219856198538566056e-02,9.538864739274555832e-03,1.652764678001403947e-02,3.696095049381255965e-02,2.256774604320526192e-02,5.203294624039608296e-01,7.255389690399169922e-01,-1.151442885398864746e+00,1.084183999033612764e+02,0.000000000000000000e+00
2.731910000000000172e-01,-1.776760532254749230e-03,-1.088787001769942961e-02,1.009172081947326660e+00,-4.377927632268497314e-03,-3.024240957404167318e-03,-4.455066882139188666e-03,-1.470231937535342905e-02,4.036710440776441339e-02,6.406175345182418823e-02,-4.323281699987063104e-02,6.867063521815527927e-03,2.262134911185324435e-02,7.307987984928117353e-02,2.952934660048249504e-03,8.667587715961034417e-03,2.309850454330444544e-02,3.679832220077514787e-02,2.114949822425842355e-02,5.200510570905514385e-01,7.382187843322753906e-01,-1.086097836494445801e+00,1.047685448863923909e+02,0.000000000000000000e+00
3.015369999999999995e-01,-2.080829868815651986e-03,-8.470282552753019556e-03,1.011602640151977539e+00,-4.400215100830432401e-03,-3.497589827331948342e-03,-4.343747756691097167e-03,-1.861367443473241692e-03,4.373645897441202218e-02,8.129373937845230103e-02,-4.678975395411549137e-02,5.938990900248906565e-03,2.046740964814977234e-02,8.296841162427091854e-02,1.320146923186668250e-02,1.526872186545780857e-03,2.898682355880737374e-02,3.703767955303192277e-02,1.369189918041229317e-02,5.186305814991587493e-01,7.439794540405273438e-01,-2.215481996536254883e-01,-1.197724077757810619e+02,0.000000000000000000e+00
3.229580000000000228e-01,-2.254546767380934905e-03,-6.853336745218624459e-03,1.013473153114318848e+00,-3.724159068309044508e-03,-3.746850798652889836e-03,-3.980801870680610033e-03,-7.652419564593299778e-03,4.846247752054066993e-02,8.850057423114776611e-02,-4.857667288946271311e-02,4.035896027504412564e-03,1.871925011864327554e-02,8.604217641653452708e-02,4.674410940522844005e-03,-2.081999744217302023e-02,3.182008266448974748e-02,3.702393770217895369e-02,-9.679979085922241558e-03,5.179747203814989431e-01,7.495763301849365234e-01,-3.223859071731567383e-01,1.507454032088212728e+02,0.000000000000000000e+00
3.491940000000000044e-01,-2.547365015157359094e-03,-4.235127229023298578e-03,1.016457557678222656e+00,-2.103658778618735462e-03,-3.678631815712929409e-03,-3.802083040639609671e-03,-1.943693586532478645e-03,5.805455341859277335e-02,9.530459344387054443e-02,-4.712640289234902580e-02,2.392766439033063540e-03,1.683381584585114457e-02,8.532539459576132801e-02,1.056841225374335891e-02,-3.458859057517785218e-02,3.241581916809082448e-02,3.712237179279327670e-02,-2.396518588066101282e-02,5.172061960703147054e-01,7.524001598358154297e-01,-1.211231827735900879e+00,1.063066829969117464e+02,0.000000000000000000e+00
3.742989999999999928e-01,-2.744633094133305546e-03,-2.447412344936338979e-03,1.018520951271057129e+00,-7.051554035541386265e-04,-3.877274921145756892e-03,-3.607087650762095827e-03,2.069363687401636325e-03,4.977512412481384374e-02,1.031238436698913574e-01,-4.104562564187146795e-02,5.712339002193513038e-04,1.529815476902370540e-02,6.759877072205142112e-02,1.127609788632770102e-02,-3.854067291929050981e-02,3.067395687103271693e-02,3.677011132240295271e-02,-2.846422195434570451e-02,5.163701441139810777e-01,7.527341842651367188e-01,-4.879506826400756836e-01,1.097286624126014942e+02,0.000000000000000000e+00
4.004690000000000194e-01,-3.024090216879539612e-03,3.093394176709681246e-04,1.021809577941894531e+00,1.816330432101942016e-03,-3.489138919199330502e-03,-3.064642961891015857e-03,-7.298762491847220375e-03,5.793929548342473951e-02,1.068244650959968567e-01,-2.874467431732554215e-02,-1.178486399808051539e-03,1.325426238727291442e-02,6.064092223983725410e-02,4.214809811317860033e-03,-3.408911761736364843e-02,3.000213503837585727e-02,3.584139347076416293e-02,-2.556486129760742257e-02,5.157457021979003908e-01,7.531158924102783203e-01,-1.336009860038757324e+00,1.014202905326037580e+02,0.000000000000000000e+00
4.233270000000000088e-01,-3.223057940498318640e-03,2.185823820817231391e-03,1.024124503135681152e+00,3.902718201639829732e-03,-3.432873940049985251e-03,-2.542201488542099146e-03,2.501356952008670399e-03,6.314908872539022611e-02,1.119524240493774414e-01,-1.358338969187422064e-02,-1.836108073028747036e-03,1.160101060559165682e-02,4.707182657918673740e-02,1.369167992782385074e-02,-2.837242996031186237e-02,2.531583905220032016e-02,3.549151122570037842e-02,-2.130648493766784668e-02,5.150838276916934744e-01,7.537891864776611328e-01,-1.055212855339050293e+00,9.225478455328277505e+01,0.000000000000000000e+00
4.499440000000000106e-01,-3.441737562010186487e-03,4.681220807096787666e-03,1.027727842330932617e+00,6.587809246044855523e-03,-3.376945170161960164e-03,-1.734549910212846878e-03,-9.719213740825556266e-03,6.011191691838468909e-02,1.173978000879287720e-01,4.182636290654233313e-03,-2.375715286097973035e-03,1.034752926883163691e-02,-1.632050892583905566e-02,-1.239743939841305223e-02,-1.668711649536080976e-03,-1.925238668918609689e-02,2.092386484146118233e-02,3.090336918830871582e-03,5.139706391795364482e-01,7.372252941131591797e-01,-3.349660634994506836e-01,4.386046102885061693e+00,0.000000000000000000e+00
4.740630000000000122e-01,-3.492308422268244634e-03,5.912113967581038819e-03,1.030192494392395020e+00,8.223167947818233597e-03,-3.130240318385490994e-03,-1.094826804228068605e-03,-2.238635593275489603e-03,6.759559259265413012e-02,1.152327209711074829e-01,2.152659241695932535e-02,-2.037192724447811805e-03,9.712738380285660875e-03,-3.593397816215965213e-02,3.040026312549092002e-03,1.079005211883421467e-03,-3.607797324657440602e-02,2.666575908660888741e-02,4.060819745063781738e-03,5.141366389908111900e-01,7.544229030609130859e-01,-9.531139135360717773e-01,8.982449396356551574e+01,0.000000000000000000e+00
5.000850000000000017e-01,-3.532171932977731712e-03,7.808052597724426599e-03,1.033961653709411621e+00,1.049672497488932099e-02,-3.231066362274548354e-03,-3.404636141239792595e-04,-2.343854664466025420e-03,6.454363926054856870e-02,1.258643120527267456e-01,3.802147714107158294e-02,-2.626295276510697864e-03,1.027420923596391970e-02,-5.319354242835994812e-02,3.024738761204522064e-03,3.544605694389602393e-03,-3.656280040740966797e-02,2.856289446353912562e-02,4.396533966064453472e-03,5.129476910703804071e-01,7.558166980743408203e-01,-7.867730855941772461e-01,9.867113939167361991e+01,0.000000000000000000e+00
5.259859999999999536e-01,-3.559024401612722720e-03,9.088713220561270636e-03,1.036362290382385254e+00,1.105054802051537791e-02,-2.954240717835121544e-03,-1.618030099938794515e-05,-6.691206802802373947e-03,6.451491403129297475e-02,1.313395798206329346e-01,5.122031365765987443e-02,-2.859439328853388175e-03,1.125680172103177105e-02,-5.506795780680508179e-02,1.195782801268238660e-03,4.496618255647610689e-03,-3.652206063270568848e-02,2.862964868545532504e-02,4.428189992904662912e-03,5.122081918114822496e-01,7.558157444000244141e-01,-8.719786405563354492e-01,9.483197202147950122e+01,0.000000000000000000e+00
5.498610000000000442e-01,-3.716262675096075087e-03,1.110254371034278924e-02,1.039960265159606934e+00,1.103394439634113045e-02,-2.440126753761928668e-03,4.765397635504196676e-04,5.026002729403628543e-03,6.792479018204339303e-02,1.206152066588401794e-01,5.923065055573919352e-02,-2.135904085934892116e-03,1.313994632807487586e-02,-5.100765203080218774e-02,1.645075827097273666e-02,3.766396709460151631e-03,-3.699423670768738071e-02,3.007320165634155482e-02,2.373602986335754655e-03,5.126076563069257297e-01,7.569147348403930664e-01,-7.481914758682250977e-01,9.584637805663145116e+01,0.000000000000000000e+00
5.729710000000000081e-01,-3.967333865575553044e-03,1.252065043069618307e-02,1.042205810546875000e+00,1.067486978791088760e-02,-2.233091855493141153e-03,6.193205989592199222e-04,-6.754716982272941823e-03,6.610921438547738560e-02,1.237365901470184326e-01,6.277428011309769962e-02,-1.067587456382629654e-03,1.376142974841460323e-02,-4.907691454149083060e-02,5.085545973501311157e-03,4.801234735491521563e-03,-3.667674958705902100e-02,2.928884625434875766e-02,2.965712547302246180e-03,5.120344602169769610e-01,7.558429241180419922e-01,-8.051604032516479492e-01,9.460486823157657454e+01,0.000000000000000000e+00
5.992739999999999734e-01,-4.351868547935766260e-03,1.468028434351700655e-02,1.045673727989196777e+00,9.337049521661250698e-03,-2.008515348023154345e-03,7.582000789498843886e-04,5.141923212618481915e-04,7.311049792853076268e-02,1.257664412260055542e-01,5.855886553338859185e-02,1.504835298393625937e-03,1.427663939457760392e-02,-3.239997896300269437e-02,1.476241654591127321e-02,3.949906564556781956e-03,-3.673730790615081787e-02,2.982314527034759730e-02,1.764100790023803754e-03,5.114737274222082020e-01,7.560765743255615234e-01,-1.221642374992370605e+00,9.510444192784964912e+01,0.000000000000000000e+00
6.247319999999999540e-01,-4.585740354614828429e-03,1.610089343598404554e-02,1.047977089881896973e+00,8.369532453274392686e-03,-2.017311554717959865e-03,1.080587997635569682e-03,1.120855024850045823e-04,7.306236616359612634e-02,1.171768903732299805e-01,5.092566078008794322e-02,3.787799473915717981e-03,1.460653511002381680e-02,-2.599469170035112464e-02,1.291950730605201381e-02,2.322066258087107475e-03,-3.670951426029205739e-02,2.964483499526977817e-02,-7.699608802795410807e-04,5.117692565613475297e-01,7.552425861358642578e-01,-1.237751126289367676e+00,2.009430725515079246e+02,0.000000000000000000e+00
6.504029999999999534e-01,-4.822794111677125919e-03,1.842027697245450860e-02,1.051499366760253906e+00,6.939140597714165380e-03,-2.333262382119283274e-03,1.054530644671064932e-03,-7.409143504050058615e-03,7.122510441402793435e-02,1.323493123054504395e-01,3.882838617109704571e-02,4.462854858448129028e-03,1.313032915645103403e-02,-1.513130492622962592e-02,3.230927837558513621e-03,3.633093436550838447e-03,-3.579073846340179860e-02,2.854747176170349329e-02,5.872726440429688151e-04,5.101639130962896118e-01,7.528116703033447266e-01,-8.412543535232543945e-01,9.661577837606587593e+01,0.000000000000000000e+00
6.736360000000000126e-01,-4.885942928611288448e-03,2.014792179257920979e-02,1.053853392601013184e+00,6.167911823293417695e-03,-2.734239849226272057e-03,1.120491636938200902e-03,9.810490330171220061e-03,7.082270929610125221e-02,1.288338750600814819e-01,2.513637722657767817e-02,4.429165111610354304e-03,1.277494717930077392e-02,-9.052202858872794577e-03,1.590923334180109963e-02,1.625672334804369873e-04,-3.615728020668029785e-02,2.808580398559570521e-02,-3.018236160278320659e-03,5.100957631949100124e-01,7.537127733230590820e-01,-8.427265882492065430e-01,1.004493381609514273e+02,0.000000000000000000e+00
7.016970000000000152e-01,-4.941261641597918634e-03,2.278007989891829912e-02,1.057354211807250977e+00,4.826407343919559070e-03,-2.772740116513627839e-03,1.398759773164139335e-03,-7.396770209475152062e-03,6.447172299614183089e-02,1.303598135709762573e-01,1.273281944130693136e-02,2.815319798880424641e-03,1.118652101262673434e-02,-6.865130445512374058e-05,-4.572135194869982738e-03,-4.172768809275195778e-04,-3.276547789573669434e-02,2.520573735237121790e-02,-4.428118467330932617e-03,5.092969786057441883e-01,7.405860424041748047e-01,-1.316089034080505371e+00,1.001364062139381161e+02,0.000000000000000000e+00
7.238010000000000277e-01,-4.989296282214692423e-03,2.453712674345554651e-02,1.059743404388427734e+00,4.598509323222177078e-03,-3.036354786486228363e-03,1.271055846035405680e-03,1.288745599248975957e-02,8.041984918926049775e-02,1.233700215816497803e-01,5.119928998925393510e-04,4.756893673377129875e-04,8.451740008331692228e-03,3.812380465467880147e-02,1.864075496603725263e-02,5.327564848979027615e-03,-1.208235919475555455e-02,3.022792637348175118e-02,1.726186275482177864e-03,5.096181370890833229e-01,7.481777667999267578e-01,-1.181557774543762207e+00,9.835776348236427680e+01,0.000000000000000000e+00
7.472739999999999938e-01,-5.034336605599066053e-03,2.630212621245280741e-02,1.062140822410583496e+00,4.259303933813004227e-03,-3.227409206499887162e-03,1.413149280259157073e-03,-5.526786434317623210e-04,6.795024418801576260e-02,1.267625540494918823e-01,-1.059335173766503754e-02,-4.499388527365036838e-04,6.481699669076390266e-03,6.058541655876936716e-02,7.024967486443867842e-03,1.319562040383855973e-02,1.956216096878051966e-02,3.447645306587219377e-02,9.150958061218262066e-03,5.090167421799921543e-01,7.489095926284790039e-01,-1.164462924003601074e+00,1.069238998714491231e+02,0.000000000000000000e+00
7.744050000000000100e-01,-5.045929196128911068e-03,2.903277112619669087e-02,1.065653443336486816e+00,3.902066894645082017e-03,-3.380783933691233756e-03,1.654382586806330989e-03,1.978092181143707978e-03,8.684348047900741774e-02,1.137690693140029907e-01,-1.961528726825718938e-02,-1.189429767749405377e-03,4.329166747468578963e-03,9.220116629781544004e-02,1.180290981390046123e-02,-1.156999490692294311e-02,2.875860333442688266e-02,3.598479926586151123e-02,-1.629404425621032784e-02,5.095857301049409038e-01,7.500143051147460938e-01,-1.185293555259704590e+00,9.917416916366671842e+01,0.000000000000000000e+00
8.022690000000000099e-01,-5.037084685761570625e-03,3.177124640915677395e-02,1.069133043289184570e+00,4.787400211715211150e-03,-4.025775891477234580e-03,1.608452948730849322e-03,-2.754240482221925398e-03,6.724845251581222649e-02,1.261344999074935913e-01,-2.415536393584062982e-02,-2.752396645274388012e-03,2.238428568459509705e-03,6.848284838965776333e-02,-8.830099137102226381e-04,-1.542842163117689319e-02,2.786542177200317452e-02,3.197840154170990268e-02,-2.004429101943969865e-02,5.081231129454935047e-01,7.453136444091796875e-01,-6.747239828109741211e-01,1.007173001424693695e+02,0.000000000000000000e+00
8.241589999999999749e-01,-5.030388450312215688e-03,3.361213044896015079e-02,1.071444511413574219e+00,5.521052616720401561e-03,-4.283611715115487328e-03,1.578851198200210190e-03,-4.251479769915710895e-03,7.785450423469757186e-02,1.271103024482727051e-01,-2.621516357287274543e-02,-3.771194264113302691e-03,1.509196601200250148e-03,7.813885787704424879e-02,-3.266176667204800932e-03,-1.812436255728979914e-02,2.842943072319030831e-02,3.183411955833435197e-02,-2.268672585487365931e-02,5.077079146820927535e-01,7.458007335662841797e-01,-7.690449953079223633e-01,-1.082178997002755523e+02,0.000000000000000000e+00
8.535329999999999862e-01,-5.060643687101146031e-03,3.633978264194531044e-02,1.074848413467407227e+00,7.619923025447101692e-03,-5.017787567372922197e-03,1.996876215700912720e-03,4.938671709527230752e-03,7.025027346321145727e-02,1.204444542527198792e-01,-1.991307504579395080e-02,-6.703339757685259151e-03,1.856228419557442305e-03,5.086784326266279715e-02,-6.890826760024417602e-03,-1.604087601498882520e-02,2.076117992401123324e-02,2.489112019538879464e-02,-2.176851034164428711e-02,5.077718173304014426e-01,7.462692260742187500e-01,-9.316247701644897461e-01,3.759201905957827705e+01,0.000000000000000000e+00
8.748629999999999463e-01,-5.234473673245028207e-03,3.807706835519958366e-02,1.077045202255249023e+00,9.118108932415351295e-03,-5.112171670679677149e-03,2.166886837906115831e-03,-4.629840882910228085e-03,7.653209828625198718e-02,1.284478604793548584e-01,-9.606972006900535779e-03,-1.068161323643329261e-02,6.710332002421052567e-04,2.895643395239484372e-02,-4.869170700485955794e-02,1.522905314048639269e-03,1.654565334320068414e-04,-6.544631719589234092e-03,-4.750609397888183594e-03,5.062812660562499012e-01,7.176902294158935547e-01,-2.683359384536743164e-01,-9.786469895637021921e+01,0.000000000000000000e+00
9.013480000000000381e-01,-5.504119855205307638e-03,4.065387790976900118e-02,1.080277204513549805e+00,1.160022342394851497e-02,-5.122460422702701521e-03,2.494101148836468627e-03,3.085442628824180966e-03,7.917820541210907059e-02,1.171492785215377808e-01,2.477277576220854403e-03,-1.216159364588553782e-02,1.316368133370769775e-03,1.036221620728839873e-02,-5.690437301284521909e-02,6.097510782748250327e-03,-5.615976452827454307e-03,-2.265112400054931918e-02,-1.075917482376098720e-03,5.068235745427568384e-01,7.242636680603027344e-01,-8.148473501205444336e-01,7.585814363929095805e+01,0.000000000000000000e+00
9.232280000000000486e-01,-5.632002739942421239e-03,4.236383327445796682e-02,1.082366824150085449e+00,1.277706935116550147e-02,-4.765254389382134192e-03,2.753931878739239621e-03,-1.035979763448842232e-02,7.492720387430833184e-02,1.079965755343437195e-01,1.618056882005911717e-02,-1.265252811865300551e-02,1.725180553054582368e-03,-7.878482623683284725e-03,-6.175039511115800600e-02,1.372887481311539995e-02,-1.367328763008117745e-02,-1.700493097305297990e-02,5.762305855751038292e-03,5.073705745568043435e-01,7.348744869232177734e-01,-1.018907427787780762e+00,8.999172431520410953e+01,0.000000000000000000e+00
9.487499999999999822e-01,-5.762041792840812832e-03,4.404956493678920115e-02,1.084398746490478516e+00,1.432472181164642401e-02,-4.318825561857364548e-03,2.565713739043275210e-03,1.258871511732072290e-02,8.768060208844355441e-02,1.045187413692474365e-01,2.661253087700206008e-02,-1.046960984347384237e-02,1.084380147690674817e-03,-2.314328100967155688e-02,-1.008886882616628206e-02,1.929262008808887291e-02,-3.203893899917602955e-02,1.009154021739959786e-02,1.197729110717773472e-02,5.076222501621345806e-01,7.514636516571044922e-01,-2.406990528106689453e-02,1.161543336290202433e+02,0.000000000000000000e+00
9.756599999999999717e-01,-5.925973036780469473e-03,4.637944218963491183e-02,1.087348699569702148e+00,1.551932006609526953e-02,-2.901025254611333537e-03,2.548892903424095167e-03,-8.385723675672217270e-03,6.254237437804427424e-02,1.082739233970642090e-01,3.456004342119607664e-02,-5.286103635099013640e-03,2.385211026483220059e-03,-5.572063279126844570e-02,-1.103646503653158556e-02,1.497890461407444009e-02,-3.556804955005645613e-02,2.166938781738281250e-02,7.644599676132202495e-03,5.069549484974512632e-01,7.531576156616210938e-01,-8.629871606826782227e-01,1.027955627823641578e+02,0.000000000000000000e+00
9.988979999999999526e-01,-5.993717653478247177e-03,4.783652315904263902e-02,1.089194655418395996e+00,1.623392535882163187e-02,-1.529511245365489103e-03,2.402575775105870223e-03,9.298301576794355469e-03,8.892176490494620167e-02,9.831143915653228760e-02,4.063511416539235949e-02,3.688158634336094260e-04,1.053397098550413243e-03,-3.408642416579436840e-02,2.559564125141035665e-02,3.045899427474363114e-03,-3.712382912635803223e-02,3.095580637454986572e-02,-3.720265626907348893e-03,5.074465912548947744e-01,7.554833889007568359e-01,-1.348311066627502441e+00,-1.180968257685935328e+02,0.000000000000000000e+00
1.026091000000000086e+00,-6.094740847758347430e-03,4.999468548246452371e-02,1.091867804527282715e+00,1.640039908824451886e-02,6.669675860071500040e-05,2.013440941818876815e-03,-3.814281621221332283e-03,6.155450814225433415e-02,1.024949848651885986e-01,4.393212289110985658e-02,7.314837587242814521e-03,2.526922258334462351e-05,-6.057720386028581788e-02,2.318889489864232531e-02,-8.256690655091804276e-03,-3.708119690418243408e-02,3.235974013805389266e-02,-1.395248770713806291e-02,5.066654270101492719e-01,7.519075870513916016e-01,-1.055581212043762207e+00,9.803066572301236192e+01,0.000000000000000000e+00
1.054226000000000107e+00,-6.133217695871547720e-03,5.140716291424835688e-02,1.093546867370605469e+00,1.599645273588023303e-02,9.583471255234510267e-04,1.919579812421383456e-03,2.670319823056805427e-03,8.306672709347596995e-02,8.213926851749420166e-02,4.404471431068533727e-02,1.455711979212864771e-02,-7.058008261751783172e-04,-3.381650127216488666e-02,3.993424899178511789e-02,-1.854343948882665460e-02,-3.669509589672088901e-02,3.570196926593780656e-02,-2.388941049575805942e-02,5.077708068699406940e-01,7.445361614227294922e-01,-4.983626604080200195e-01,7.621152396656907513e+01,0.000000000000000000e+00
1.077072000000000029e+00,-6.180648668644298308e-03,5.278876237917839997e-02,1.095214962959289551e+00,1.583509572878971650e-02,8.201715949478494139e-04,1.635088205188300415e-03,8.061778374100891237e-03,7.381803628800472084e-02,9.407483786344528198e-02,4.189792970004486972e-02,2.080213110787142855e-02,-2.492927691693684784e-03,-4.078486270294716387e-02,4.314939650077609379e-02,-2.698344631281259648e-02,-3.522517085075378696e-02,3.628364205360412598e-02,-3.151664733886718611e-02,5.063631756222725100e-01,7.336523532867431641e-01,-1.294209122657775879e+00,1.273048906566328640e+02,0.000000000000000000e+00
1.100986000000000020e+00,-6.159431416381267073e-03,5.447130890490183008e-02,1.096828818321228027e+00,1.497658628680260430e-02,7.801997818788208860e-04,1.504276589447279752e-03,-8.839510456171277911e-03,6.862189969904608500e-02,9.159204363822937012e-02,3.612648901762991610e-02,2.574113119251456722e-02,-3.826807299780157941e-03,-2.509477996793638491e-02,2.789158926395952920e-02,-3.045374401262779251e-02,-2.375326752662658761e-02,3.667918741703033586e-02,-3.472247719764709473e-02,5.059960284586005885e-01,7.202578783035278320e-01,-6.670724153518676758e-01,6.036531433741024699e+01,0.000000000000000000e+00
1.123841000000000090e+00,-6.133952707241163010e-03,5.612943987272461105e-02,1.098333120346069336e+00,1.418028893802151039e-02,5.030803266632410953e-04,1.452328908441337255e-03,5.949521263343499934e-03,8.040205573744634016e-02,9.163732826709747314e-02,2.671589586386912546e-02,2.915108392233788787e-02,-5.200517210419392834e-03,4.357025348445105195e-02,4.176847027083234465e-02,-3.088662676193167783e-02,2.711327075958252023e-02,3.700495660305023332e-02,-3.492197990417480330e-02,5.057903398461853772e-01,7.245465517044067383e-01,-6.339179277420043945e-01,-1.716480223711080555e+02,0.000000000000000000e+00
1.153373999999999899e+00,-6.099171134879921921e-03,5.857948402876597682e-02,1.100553274154663086e+00,1.298404285281003906e-02,-5.172052436619445359e-04,1.152358605445026824e-03,-4.164245711950312519e-03,6.163165346086732499e-02,9.734036028385162354e-02,1.642869996010585046e-02,2.892236421588457659e-02,-6.457504487222136096e-03,4.270640886565782446e-02,2.412648634790652211e-02,-3.016474316749864076e-02,3.409442901611327986e-02,3.707877099514007846e-02,-3.346780538558959822e-02,5.050148233070427262e-01,7.254168987274169922e-01,-6.718114614486694336e-01,1.045749704951250578e+02,0.000000000000000000e+00
1.175983000000000001e+00,-6.039739697680893658e-03,6.018831647118270262e-02,1.101934432983398438e+00,1.200558579374325779e-02,-1.026072703832925370e-03,1.512727014422921793e-03,6.025069072272073827e-03,7.674097033432353276e-02,8.074640482664108276e-02,5.402041071778546436e-03,2.639254824008541167e-02,-7.742198127789999551e-03,2.487598338921166025e-03,3.070532876642723813e-02,2.426911392321084819e-03,-2.968007922172546595e-02,3.651991188526153981e-02,-1.845526695251465017e-03,5.062610323276771629e-01,7.395755052566528320e-01,-5.326811075210571289e-01,1.228904301130268948e+02,0.000000000000000000e+00
1.202252000000000098e+00,-6.187000989961868348e-03,6.254348322251351844e-02,1.103923916816711426e+00,1.117055974782173514e-02,-2.307058683153284662e-03,1.650275905498791926e-03,4.042935321749707711e-03,6.495683478678530853e-02,8.380068093538284302e-02,-4.205439929333194653e-03,2.186326705539796272e-02,-8.420271828989845525e-03,-9.900212802639328513e-03,1.908461454312854536e-02,3.513977242289001088e-03,-3.725704252719879567e-02,3.663198351860046803e-02,-1.207625865936279427e-03,5.056607953756652174e-01,7.376066446304321289e-01,-1.147611975669860840e+00,4.152514251199509232e+00,0.000000000000000000e+00
1.224091999999999958e+00,-6.341621892216872843e-03,6.404541252260885498e-02,1.105196833610534668e+00,1.123210313010779282e-02,-2.945274458635349646e-03,1.544326627418316465e-03,9.503381922669142459e-03,7.025604907472018934e-02,8.378646522760391235e-02,-1.180530076165683430e-02,1.457448665610123172e-02,-8.945158703524126037e-03,3.151161623357004449e-03,1.907770486467177604e-02,-3.816324076776100513e-03,-3.180958628654480258e-02,3.585804998874664307e-02,-8.241587877273559223e-03,5.040113071438476755e-01,6.647315025329589844e-01,-8.362401723861694336e-01,1.759940580796088341e+02,0.000000000000000000e+00
1.251802999999999999e+00,-6.546329023438253979e-03,6.629270272054449409e-02,1.107086181640625000e+00,1.139488947596695341e-02,-4.061740518300993585e-03,1.615290751401822185e-03,3.077629230379242287e-03,6.674322341984556539e-02,7.691705971956253052e-02,-1.739734226594965433e-02,7.059711728035156231e-03,-7.563088563053088458e-03,1.948820447383962234e-02,4.930273087298486789e-03,-2.512394241894853192e-02,-1.251017451286316057e-02,3.549118041992187916e-02,-2.982970476150512834e-02,5.050767401363749354e-01,7.104880809783935547e-01,-6.127573251724243164e-01,-1.767518914736838420e+00,0.000000000000000000e+00
1.276134000000000102e+00,-6.699360439878269784e-03,6.850393489337310016e-02,1.108922481536865234e+00,1.209592156058832656e-02,-4.696530487403371978e-03,1.208761244475765840e-03,9.689539872000082002e-03,7.344704297933449255e-02,7.763428986072540283e-02,-1.793545463946724997e-02,-2.005081979797639861e-03,-7.426729939584557696e-03,6.987317833785480770e-02,6.139233947011272369e-03,-3.179086206419511756e-02,3.397368192672729770e-02,3.425219058990478654e-02,-3.535578846931457936e-02,5.054092140437499436e-01,7.470830678939819336e-01,-1.385916113853454590e+00,1.601521173186812632e+02,0.000000000000000000e+00
1.302267000000000063e+00,-6.991680230549519696e-03,7.011356295856764620e-02,1.110650777816772461e+00,1.260719365385789235e-02,-5.452685751841990225e-03,7.423251354226266226e-04,5.936356660637231823e-03,6.293047846582287830e-02,7.904145866632461548e-02,-1.545579457869908011e-02,-1.139604278982277175e-02,-7.953720865131314738e-03,4.223875208420933836e-02,-3.099629026520349037e-02,-1.474916105220573995e-02,1.803194880485534807e-02,6.554681062698364431e-03,-1.706199049949646065e-02,5.045504738206665341e-01,7.240293025970458984e-01,-9.758430719375610352e-01,1.969371802636737812e+02,0.000000000000000000e+00
1.323474000000000039e+00,-7.174142884954970087e-03,7.118768727357824289e-02,1.111759901046752930e+00,1.273397805264347808e-02,-5.709424080419855940e-03,7.559040520062057164e-04,7.554100300126691953e-03,6.979974320272550048e-02,7.140973955392837524e-02,-1.130858016250558575e-02,-1.938762425973136055e-02,-7.270378992992690761e-03,3.930750507283787415e-02,-5.220610303741984870e-02,2.426892765322041789e-04,7.211357355117797852e-03,-1.485927104949951241e-02,-2.118736505508422852e-03,5.042199557373302499e-01,6.896300315856933594e-01,-7.639304399490356445e-01,8.875216792425186441e+01,0.000000000000000000e+00
1.349893999999999927e+00,-7.439791088488504137e-03,7.280069283441797934e-02,1.113376021385192871e+00,1.367196452454465944e-02,-6.031125161890527053e-03,6.749389980935264826e-04,3.003561376952212578e-03,6.411888349183189617e-02,5.996213108301162720e-02,-6.468473837988364221e-03,-2.480123890460700017e-02,-7.580846150470260843e-03,2.849547033924971356e-02,-6.338477381425691726e-02,1.807713219775763849e-03,7.060897350311279991e-03,-1.958114504814148157e-02,-3.714799880981445638e-04,5.048614869968628405e-01,6.934658288955688477e-01,-9.374600648880004883e-01,9.667558351243850723e+01,0.000000000000000000e+00
1.375763000000000069e+00,-7.678260252428966738e-03,7.437091830707957818e-02,1.114933729171752930e+00,1.495349251171778672e-02,-6.103613679077524168e-03,5.417568341905241742e-04,1.125202943486135025e-02,6.434275314575389759e-02,6.111689656972885132e-02,-9.778781757366322280e-04,-2.695277211486972815e-02,-7.323835244860572684e-03,2.256596703271352908e-02,-5.798990327419324686e-02,1.808519501768712703e-03,6.670856475830078645e-03,-2.136350274085998743e-02,3.614127635955810682e-05,5.047905972454344026e-01,7.091280221939086914e-01,-7.959116697311401367e-01,8.937534072374548089e+01,0.000000000000000000e+00
1.400365000000000082e+00,-7.790945719886092219e-03,7.565797465068688221e-02,1.115911126136779785e+00,1.570989985053108592e-02,-5.854667738579788505e-03,1.003918811647512877e-05,4.278996501768338873e-03,5.910269199662463585e-02,6.180910021066665649e-02,4.241480521742853511e-03,-2.522410902170620778e-02,-7.471200532865008952e-03,7.983899064134292525e-03,-6.835194494606322557e-02,1.100626558809820847e-05,6.388425827026366916e-05,-2.590038180351257602e-02,-3.155589103698730902e-04,5.044824621784161911e-01,7.085011005401611328e-01,-9.310814142227172852e-01,9.210798329745169610e+01,0.000000000000000000e+00
1.427235999999999949e+00,-7.907055698169747349e-03,7.754694700282198372e-02,1.117220520973205566e+00,1.648440148119103069e-02,-4.618703817572678005e-03,-1.730716944369878774e-04,1.273562457331172890e-02,6.335386795579379948e-02,5.112025886774063110e-02,8.873620625985827876e-03,-2.003389240652210870e-02,-8.132840558279804885e-03,4.143225538004760913e-03,-4.403201869853021200e-02,1.154047988732476160e-03,-4.826381802558898926e-03,-1.790525317192077567e-02,1.445412635803222656e-03,5.051444401435146725e-01,7.144989967346191406e-01,-1.361075758934020996e+00,4.808304619074528574e+01,0.000000000000000000e+00
1.451786000000000021e+00,-7.963601731679339352e-03,7.941430192738231642e-02,1.118419885635375977e+00,1.697625785936688475e-02,-2.909417770475153375e-03,-7.241293527050644873e-04,5.015712069303714105e-03,6.121900836987057004e-02,5.232604593038558960e-02,1.336836265932261902e-02,-1.207719699693090600e-02,-9.220399880700506229e-03,-3.023703594156705587e-04,-3.351569226640357946e-02,6.564631167771574002e-03,-5.480092763900757530e-03,-1.042064428329467912e-02,8.419635891914368717e-03,5.046832450266180992e-01,7.082459926605224609e-01,-4.572170972824096680e-01,1.020028237065358070e+02,0.000000000000000000e+00
1.474228000000000094e+00,-7.998204141512576040e-03,8.064313906263662068e-02,1.119190931320190430e+00,1.711197713708114895e-02,-1.717691296933665512e-03,-1.216416070290469087e-03,1.017069321863891575e-02,5.776234590270069857e-02,5.481193214654922485e-02,1.681946931597802855e-02,-3.146920150310717531e-03,-1.101626765721351597e-02,-2.834236247831442915e-02,1.323314766343880455e-02,1.799327641732063193e-03,-3.150102496147155762e-02,2.300174236297607491e-02,5.132776498794556358e-03,5.045115240528266209e-01,7.208175659179687500e-01,-8.073710203170776367e-01,1.578018492252798808e+02,0.000000000000000000e+00
1.501182000000000016e+00,-8.343775027017885648e-03,8.224156506804708444e-02,1.120288610458374023e+00,1.660638531535110415e-02,7.740685963009141801e-05,-1.476546283953853725e-03,8.843068823290020294e-03,5.614900163996455057e-02,4.916446655988693237e-02,1.902182292846089223e-02,5.498413026898898645e-03,-1.253980325218924038e-02,-2.768242484375336640e-02,3.522560758459496177e-02,-2.287968735368960463e-02,-3.480721414089203020e-02,3.553908467292785783e-02,-1.874704360961914132e-02,5.042701716572943749e-01,6.985696554183959961e-01,-9.337741136550903320e-01,1.273352440173043902e+02,0.000000000000000000e+00
1.523055000000000048e+00,-8.539232837288640229e-03,8.329871445341445468e-02,1.120972871780395508e+00,1.665171993011762067e-02,1.113526050996238581e-03,-1.894939060625590484e-03,1.210951135842820540e-02,5.893214678661245348e-02,5.120657384395599365e-02,1.932196305886851873e-02,1.373340436797868859e-02,-1.404521013898345737e-02,1.782396386518526193e-02,4.612317917824299007e-02,-3.725656189674233371e-02,6.954324245452881553e-03,3.684794604778290211e-02,-3.187999725341796736e-02,4.975685325621079791e-01,3.665237426757812500e-01,-1.577053070068359375e+00,2.515702105288266566e+01,0.000000000000000000e+00
1.549709999999999921e+00,-8.794030002201616916e-03,8.486337313134729998e-02,1.122035503387451172e+00,1.588822740319931898e-02,1.692623394509373824e-03,-2.346554490748975572e-03,7.877928659768759778e-03,5.361808881324473669e-02,4.748221114277839661e-02,1.650640185075204908e-02,2.092230048979919557e-02,-1.434996528612681246e-02,4.577792079223811511e-02,4.546014418567933396e-02,-4.063461026956251970e-02,3.341216444969177107e-02,3.679891526699066023e-02,-3.400043249130248885e-02,5.025641323678221584e-01,6.261267662048339844e-01,-9.802950620651245117e-01,7.275373386906095163e+01,0.000000000000000000e+00
1.574321000000000081e+00,-8.971655332658081891e-03,8.590518963907632644e-02,1.122723937034606934e+00,1.498197857325290171e-02,1.753863778797493111e-03,-2.130920891274067693e-03,7.148032403137432635e-03,6.065414153961502103e-02,3.145778179168701172e-02,1.268215277401503992e-02,2.666291367795604189e-02,-1.483770254434681711e-02,5.994717645766228092e-02,4.567037583342181684e-02,-3.769419598551455863e-02,3.392922878265380859e-02,3.667749762535095492e-02,-3.166084289550781528e-02,5.056183397145893599e-01,7.337412834167480469e-01,-1.007592797279357910e+00,1.051936080490097964e+02,0.000000000000000000e+00
1.601305999999999896e+00,-9.354252157466737966e-03,8.820063669414879293e-02,1.123684644699096680e+00,1.459796823756752057e-02,4.993055892039688359e-04,-2.016684771793386070e-03,7.624314399405200844e-03,5.338202741014665131e-02,3.919205814599990845e-02,7.792853091472151661e-03,2.869826866748463254e-02,-1.482810077563264696e-02,1.925317308113413256e-02,3.791448974981377618e-02,-3.341752688699176077e-02,-4.287800192832947124e-03,3.679381012916565358e-02,-2.776203155517578333e-02,5.048190406990817891e-01,7.343046665191650391e-01,-1.534945011138916016e+00,-2.617525882415899474e+01,0.000000000000000000e+00
1.624149999999999983e+00,-9.607893412970117467e-03,8.970355670812635296e-02,1.124296784400939941e+00,1.437517769599037064e-02,-6.001529750194745105e-04,-1.971983971558905445e-03,5.130329096325585841e-03,5.564048473398695849e-02,4.328094795346260071e-02,2.689419983994583915e-03,2.790137862036318195e-02,-1.361372014921946594e-02,-5.745228906149431325e-03,2.851625840307816379e-02,-3.152726966055403868e-02,-3.558218181133270680e-02,3.695809841156005859e-02,-2.606545686721802035e-02,5.042484741564862150e-01,7.309551239013671875e-01,-1.040660977363586426e+00,-4.460565345031922391e+01,0.000000000000000000e+00
1.649372999999999978e+00,-9.847535678333805068e-03,9.116724872221429465e-02,1.124898433685302734e+00,1.454818921223640163e-02,-1.838827181890545504e-03,-1.504506827303171137e-03,9.081294383037490786e-03,5.440629010513293312e-02,3.305843472480773926e-02,-8.730934785032267581e-04,2.380195348896275293e-02,-1.224912842980479914e-02,-8.697783748001886722e-03,2.416421855398939722e-02,-3.238211620331765683e-02,-3.730905652046203475e-02,3.696066141128540039e-02,-2.826115489006042480e-02,5.048040731704811490e-01,7.301349639892578125e-01,-9.995867013931274414e-01,1.214774142379129955e+02,0.000000000000000000e+00
1.672511000000000081e+00,-1.012477239908706264e-02,9.332396589464798942e-02,1.125855565071105957e+00,1.488125305661498927e-02,-3.426521536874949092e-03,-1.190343923720230688e-03,9.776306637669898020e-03,5.797635613944795985e-02,3.186443448066711426e-02,-2.051647918804684438e-03,1.590362680175578733e-02,-1.090906122130031256e-02,-5.482060348046664811e-03,1.357946057056959310e-02,-2.733255969951855699e-02,-3.727048039436340471e-02,3.687077760696411133e-02,-2.417287826538086146e-02,5.046704909869693667e-01,7.297813892364501953e-01,-8.240350484848022461e-01,6.898854427776723242e+01,0.000000000000000000e+00
1.701772999999999980e+00,-1.016542637044047688e-02,9.534288431020067345e-02,1.126768350601196289e+00,1.479562626935178142e-02,-4.700451576359121475e-03,-9.721703892761349381e-04,3.984391370763756823e-03,5.292725334950738880e-02,3.014373779296875000e-02,-3.252135971007603064e-03,6.390773889052144170e-03,-8.604580832102446536e-03,-6.345399567617867470e-03,2.029907027434676992e-04,-1.224126043911679708e-02,-3.572734892368317067e-02,3.689489364624023299e-02,-9.788340330123901714e-03,5.039814546971336240e-01,6.982744932174682617e-01,-7.018903493881225586e-01,8.600042131143712254e+01,0.000000000000000000e+00
1.723130999999999968e+00,-1.009469125484767013e-02,9.661484936633613074e-02,1.127331376075744629e+00,1.436892064968467268e-02,-5.373138143765610053e-03,-6.143091570166017094e-04,9.493906006359043373e-03,6.030836292394393255e-02,1.609367690980434418e-02,-4.205434036801084831e-03,-2.907995464970231612e-03,-5.809731693197297576e-03,7.128262412455774188e-02,-5.937823998055896668e-03,-3.632406942129653288e-02,3.089501857757568498e-02,2.937901914119720598e-02,-3.486958742141723494e-02,5.057369759901966244e-01,7.443180084228515625e-01,-5.781515836715698242e-01,6.586576812885905952e+01,0.000000000000000000e+00
1.748110000000000053e+00,-1.003114485529415720e-02,9.788985993038279432e-02,1.127869248390197754e+00,1.433700948979536871e-02,-5.914405173672809823e-03,-5.978475820437487934e-04,5.819375098364520417e-03,5.400766261374379679e-02,1.970290392637252808e-02,-5.367541655249940223e-03,-1.223976337324286616e-02,-4.371868259848246327e-03,4.364099202606444572e-02,-6.236516904565457542e-02,-2.089425823326196505e-03,8.006459474563598980e-03,-1.953403353691101144e-02,-7.302999496459961805e-04,5.037184014517031017e-01,6.619189977645874023e-01,-9.021183252334594727e-01,8.125277047973959554e+01,0.000000000000000000e+00
1.774607000000000046e+00,-9.902599362283222295e-03,9.979204071552053024e-02,1.128601908683776855e+00,1.349182077479140276e-02,-6.595518762376295641e-03,-3.871374470389402252e-04,1.061896043965449357e-02,5.338876384500469696e-02,2.815887890756130219e-02,-8.691264122870906786e-03,-1.993269826800028038e-02,-1.012760649414256231e-03,4.899712337274590712e-02,-6.102380155754998092e-02,-1.863468698841463933e-03,5.206799507141113628e-03,-1.859127879142761369e-02,-1.087516546249389648e-03,5.029019422217194668e-01,6.629803180694580078e-01,-1.298654437065124512e+00,9.976304758333770906e+01,0.000000000000000000e+00
1.799851000000000090e+00,-9.894262893880534718e-03,1.014906132606933215e-01,1.129352927207946777e+00,1.351645377273862081e-02,-6.641593868482953411e-03,-2.064646192482875564e-04,7.242260443613266277e-03,4.855003223168785631e-02,2.154597640037536621e-02,-9.142848282049833436e-03,-2.564477848994783232e-02,1.372337077411986059e-03,4.753532278963776975e-02,-6.625141423788347139e-02,-1.098788092042668474e-03,6.397116184234619314e-03,-1.987174153327941895e-02,-8.538961410522460938e-04,5.032559661628708270e-01,6.661088466644287109e-01,-1.411519169807434082e+00,6.098789291044607808e+01,0.000000000000000000e+00
1.825811999999999991e+00,-9.906316299336123676e-03,1.025653435490477133e-01,1.129873275756835938e+00,1.380427770740444947e-02,-6.245082557357006792e-03,-1.388103530818720970e-04,1.647149099767977742e-02,5.572169630638354465e-02,1.676051318645477295e-02,-7.620103001388112314e-03,-2.987273318782006706e-02,2.589069938104906089e-03,5.764558805494050114e-02,-5.129306443154970502e-02,-5.282977010836354282e-04,1.019308567047119175e-02,-1.600247621536254883e-02,-4.049360752105713324e-04,5.037728490406278015e-01,6.833603382110595703e-01,-5.865784883499145508e-01,9.152195306666459373e+01,0.000000000000000000e+00
1.848581999999999947e+00,-9.898074370839015507e-03,1.036178752062165837e-01,1.130364060401916504e+00,1.417997761425236064e-02,-5.426615088707231749e-03,-3.499880127476969654e-04,1.042648826615707666e-02,4.712208153446179743e-02,1.176777854561805725e-02,-5.255096762748552586e-03,-2.938887309742058140e-02,3.722185512649973070e-03,4.720699690287120942e-02,-5.578353616595409931e-02,-1.043522401323770943e-03,9.538733959197999435e-03,-1.913659572601318637e-02,-3.330111503601074219e-04,5.039805353343820293e-01,6.840052604675292969e-01,-1.338250994682312012e+00,1.114710163491150752e+02,0.000000000000000000e+00
1.872311999999999976e+00,-9.837227070578971957e-03,1.051453929617589544e-01,1.131089329719543457e+00,1.541224413630145826e-02,-3.891236662421082571e-03,-3.897303249021584243e-04,1.347861985976526664e-02,5.457902214806933938e-02,2.635416109114885330e-03,-5.877663832644163889e-04,-2.467473107417455375e-02,3.374439342897638146e-03,4.930000674278586792e-02,-3.989481116153392737e-02,-9.469751016823902291e-04,1.046556234359741211e-02,-1.685009598731994698e-02,-3.818869590759277615e-05,5.047995615688893878e-01,7.001490592956542969e-01,-1.087003111839294434e+00,1.283556742793043099e+02,0.000000000000000000e+00
1.901210000000000067e+00,-9.939242028901314543e-03,1.066361857656111384e-01,1.131676316261291504e+00,1.670044300543501239e-02,-2.111132219016598199e-03,-3.997748923745273386e-04,8.664378912957826015e-03,5.209613597975556315e-02,5.373370368033647537e-03,2.947871365840652388e-03,-1.566828623659746733e-02,2.130363452945473364e-03,3.398646892419249915e-02,-3.283831373714103663e-02,-6.239615080511518464e-04,5.069410800933838238e-03,-1.666893362998962333e-02,3.637999296188354601e-04,5.046144568751367299e-01,7.104649543762207031e-01,-5.561805963516235352e-01,-2.306436549685935589e+01,0.000000000000000000e+00
1.923731000000000080e+00,-1.023786061651253167e-02,1.075349530460668057e-01,1.132058620452880859e+00,1.794729468366336803e-02,-1.116184038903123010e-03,-6.479881468871995101e-04,1.191952881279623004e-02,4.547143219480974385e-02,6.411141715943813324e-03,5.096339105539310008e-03,-3.944395591274039124e-03,1.357229935320557060e-03,1.341359603230065159e-03,-9.196959673737035990e-05,8.801717601837288907e-03,-1.544380784034729039e-02,6.275212764739990581e-03,1.056367158889770508e-02,5.047230755407512426e-01,7.289406061172485352e-01,-1.107015967369079590e+00,8.340348776634989747e+01,0.000000000000000000e+00
1.950844000000000023e+00,-1.065482915222487094e-02,1.088656489370699726e-01,1.132527112960815430e+00,1.918682843615922978e-02,4.527619958203388251e-04,-6.021483405502121031e-04,1.015063811280855072e-02,4.889190318782511702e-02,6.711500464007258415e-04,8.120753946852474550e-03,7.206401766239836637e-03,9.148423598830439591e-04,-1.586871620087821136e-02,3.864484618658815818e-02,-3.711974834157945324e-02,-2.995122373104095598e-02,3.712674975395202637e-02,-3.542010784149170199e-02,5.049569915913380003e-01,7.268230915069580078e-01,-1.296748757362365723e+00,1.696116151304470918e+02,0.000000000000000000e+00
1.974177999999999988e+00,-1.089986038969911579e-02,1.097177279958302387e-01,1.132781147956848145e+00,2.012287709083759174e-02,1.233571816159129142e-03,-6.681683131816996664e-04,1.210340772636919054e-02,4.783094612510979671e-02,5.161994136869907379e-03,1.273735767065012868e-02,1.671851660244486060e-02,-9.128634318375393377e-04,2.944211515280331995e-02,4.552416467943525002e-02,-3.779617108931554448e-02,2.151242494583130091e-02,3.713945150375366072e-02,-3.584998846054077148e-02,5.046117553125512023e-01,7.342706918716430664e-01,-5.969940423965454102e-01,-6.325840744623016043e+00,0.000000000000000000e+00
2.001349999999999962e+00,-1.102049362936148927e-02,1.110806612897285162e-01,1.133137226104736328e+00,2.090943957716540763e-02,1.805791606663387228e-03,-9.814920327521922758e-04,9.437635392682228522e-03,4.130635088458087939e-02,8.142084814608097076e-03,1.793982428861552389e-02,2.396721211804127977e-02,-1.708349802248546089e-03,2.285373244933158049e-02,4.649581353905994641e-02,-3.862092608370346764e-02,2.384009957313537598e-02,3.712598085403442244e-02,-3.578805327415466447e-02,5.042026683221186856e-01,7.331635951995849609e-01,-1.172852873802185059e+00,9.645725651561905067e+01,0.000000000000000000e+00
2.023601000000000205e+00,-1.089081748913466562e-02,1.121031135033994930e-01,1.133431077003479004e+00,2.105470524074749827e-02,1.938489480839855617e-03,-5.628033564356499418e-04,1.128434908972080278e-02,4.577121522374897472e-02,-6.926386151462793350e-03,2.454937584613419918e-02,2.890823757247488329e-02,-2.817314589751539720e-03,2.277547864201461686e-02,4.960152320883956523e-02,-3.740564157095731951e-02,1.898214817047119349e-02,3.721087276935577254e-02,-3.571547269821167409e-02,5.052777618104399293e-01,7.374877929687500000e-01,-9.169954061508178711e-01,9.072094946194052056e+01,0.000000000000000000e+00
2.050590000000000135e+00,-1.065166657862899428e-02,1.135843174177454395e-01,1.133863687515258789e+00,2.153814802506430828e-02,9.812715872463684263e-04,-1.692857594832074741e-04,1.228152701740370910e-02,4.048271083208009047e-02,-1.759871025569736958e-03,2.867942480135133795e-02,3.044978452974022448e-02,-3.533468811897850278e-03,1.888448774134098441e-03,4.416963555215067116e-02,-3.624392356756724054e-02,4.675662517547607769e-03,3.720713555812835832e-02,-3.570585250854492465e-02,5.046351402109356954e-01,7.325135469436645508e-01,-1.307386755943298340e+00,1.752192687409192615e+02,0.000000000000000000e+00
2.073266999999999971e+00,-1.048480597434906132e-02,1.144799600978718690e-01,1.134268403053283691e+00,2.209366782447788266e-02,-1.184585090507894733e-05,-2.310093089650340687e-04,1.463141154972405315e-02,3.714719768454857046e-02,3.195442957803606987e-03,3.047209018377781270e-02,3.031736250985807637e-02,-2.841919762375603661e-03,-2.398063589930105044e-02,3.968591657715624110e-02,-3.649107498085338991e-02,-1.694664955139160364e-02,3.718339204788208285e-02,-3.582086563110351701e-02,5.039954175271639247e-01,7.268942594528198242e-01,-6.405831575393676758e-01,1.609708520944906809e+02,0.000000000000000000e+00
2.099219000000000168e+00,-1.029287336080179915e-02,1.153614894255544782e-01,1.134627938270568848e+00,2.245710747953204300e-02,-9.724469021497039734e-04,5.900933575406793716e-05,1.168067512366373524e-02,3.243869092306517210e-02,8.065994188655167818e-05,3.189061945815364896e-02,2.683010063190272021e-02,-2.226925912875681989e-03,-4.239360321658833947e-02,3.068458884235377923e-02,-3.498851501853078583e-02,-3.057579696178436279e-02,3.716589212417602955e-02,-3.521394729614257812e-02,5.041569725345664832e-01,7.313832044601440430e-01,-1.290101170539855957e+00,-8.797797281202008435e+01,0.000000000000000000e+00
2.124217999999999940e+00,-9.895105738143285604e-03,1.165172016672096078e-01,1.135116696357727051e+00,2.267052854498526754e-02,-2.526766549000969420e-03,4.294632279974312013e-04,1.555688820338147274e-02,3.739217629671636595e-02,5.036675836890935898e-03,3.153178265763713350e-02,1.937624810157663816e-02,-1.330959925991438090e-03,-4.115375640705219717e-02,2.438090944927322548e-02,-3.036110989896472628e-02,-3.456256687641143938e-02,3.680216670036316057e-02,-3.168250322341919362e-02,5.033186026073148689e-01,7.154159545898437500e-01,-9.188169240951538086e-01,7.529916778780628306e+01,0.000000000000000000e+00
2.148317000000000032e+00,-9.634132913578280846e-03,1.172351841922462251e-01,1.135448455810546875e+00,2.264128947386956359e-02,-3.528743488884877877e-03,4.472842868969580088e-04,1.710274051695987937e-02,2.707262864311527767e-02,1.570567255839705467e-04,3.100495949206393681e-02,8.814306390757264270e-03,4.809043280013275304e-04,-5.113907131377693621e-02,1.591697104040059457e-02,-1.328270514212970266e-02,-3.597489297389984408e-02,3.392296433448791643e-02,-1.470196247100830078e-02,5.033667454476791203e-01,7.072267532348632812e-01,-9.536939859390258789e-01,-1.074180230767645270e+02,0.000000000000000000e+00
2.173001999999999878e+00,-9.183131480559729790e-03,1.182485314638726664e-01,1.135888576507568359e+00,2.193207949365677534e-02,-4.554751031605075440e-03,8.346649356166678437e-04,1.655827634603821916e-02,3.437215372309839617e-02,-8.971475996077060699e-03,2.848612052925650340e-02,-1.850553910477065276e-03,1.773362608864504069e-03,-3.648241728216351787e-02,5.818208057652499154e-05,-8.749397939769067156e-05,-3.487516343593597551e-02,2.506227195262909074e-02,-2.660042047500610699e-03,5.040651397392638122e-01,7.155319452285766602e-01,-1.095136284828186035e+00,1.034640265662441436e+02,0.000000000000000000e+00
2.199030000000000040e+00,-8.889551820256837156e-03,1.188814643501511642e-01,1.136167049407958984e+00,2.119463215553507932e-02,-5.194110887794867182e-03,6.904617075995884761e-04,1.130779874336394243e-02,2.573136849508127558e-02,-5.227750632911920547e-03,2.360721989215818634e-02,-1.218652657486044358e-02,1.800458336565811251e-03,-3.042831243881978856e-02,-2.555967892303030037e-02,1.169710241259754903e-02,-2.616954743862152238e-02,7.859084010124207584e-03,9.462958574295044292e-03,5.038548226554153686e-01,7.273001670837402344e-01,-1.177386164665222168e+00,9.502428965793954774e+01,0.000000000000000000e+00
2.222567000000000181e+00,-8.209952151372894649e-03,1.199623630779844269e-01,1.136581420898437500e+00,1.974681305131658141e-02,-5.841129713540338386e-03,7.317550626396738872e-04,2.260888992513820223e-02,2.579347724929338670e-02,-8.569252677261829376e-03,1.497555463317161960e-02,-1.998557717912188489e-02,2.944905158680251062e-03,2.554535392360455029e-03,-3.531189649920248030e-02,1.222916783661489627e-02,-5.238783359527588585e-03,-8.792024850845337608e-03,9.947350621223450054e-03,5.035560848251459110e-01,7.062487602233886719e-01,-1.244031548500061035e+00,-1.072899980109618099e+02,0.000000000000000000e+00
2.248254000000000197e+00,-7.711242810546126841e-03,1.206863283540973164e-01,1.136869788169860840e+00,1.891794998034945774e-02,-5.995744506988698319e-03,5.370118891264774120e-04,1.380899700738940673e-02,2.340923011088510627e-02,-8.865579031407833099e-03,6.131191109215528359e-03,-2.513965548747055731e-02,2.763465973457984899e-03,1.506017460436008190e-02,-5.656102108171700421e-02,4.154305313029160382e-03,2.857667207717895768e-03,-1.999076008796692172e-02,2.337509393692016688e-03,5.032389321186833131e-01,6.960095167160034180e-01,-7.684487104415893555e-01,9.750767813826448105e+01,0.000000000000000000e+00
2.274639000000000078e+00,-6.943069415260267642e-03,1.217103102133098858e-01,1.137296080589294434e+00,1.792344745470418263e-02,-5.970164974264724478e-03,6.751873648872848280e-05,2.213720900933501337e-02,2.588354527723079820e-02,-7.812931202352046967e-03,-3.262983047339352606e-03,-2.842772994489032451e-02,1.708908493877294614e-03,3.101407014923747429e-02,-4.602725662611946433e-02,-3.291957472830733204e-05,8.482962846755981445e-03,-1.872695684432983468e-02,-4.532098770141601779e-04,5.026439114517875506e-01,6.768144369125366211e-01,-6.540116071701049805e-01,8.393228784208145044e+01,0.000000000000000000e+00
2.298920999999999992e+00,-6.434724772196541258e-03,1.223155054465892982e-01,1.137548804283142090e+00,1.754842349169389790e-02,-5.531133419821587793e-03,-2.859618550870000084e-04,1.619890400175169609e-02,1.880106505959768665e-02,-1.440590992569923401e-02,-1.047387304640012493e-02,-2.771305026203233629e-02,8.004634386569798362e-04,2.423563343362917372e-02,-4.815747396653127094e-02,-1.513187490959677682e-03,4.986506700515747764e-03,-1.759148240089416712e-02,-9.629249572753906684e-04,5.024760365625507985e-01,6.494268178939819336e-01,-1.149859309196472168e+00,9.413422721662767856e+01,0.000000000000000000e+00
2.323567000000000160e+00,-5.519332524687957202e-03,1.233823883822309647e-01,1.137852907180786133e+00,1.793053985375373666e-02,-4.730694334460938677e-03,-8.271119996197206061e-04,2.378696763772783843e-02,1.979042263372129962e-02,-8.343172259628772736e-03,-1.377062990597780444e-02,-2.538809844889666073e-02,-1.608463296904123329e-03,2.474778432420974075e-02,-3.080705855952926495e-02,-4.021531925439070058e-03,4.484552145004272634e-03,-1.357048153877258440e-02,-1.849871873855590864e-03,5.019919772552338122e-01,6.554226875305175781e-01,-7.751067876815795898e-01,5.980732203316605222e+01,0.000000000000000000e+00
2.351745000000000196e+00,-4.894438729519746782e-03,1.240905811342557785e-01,1.138068675994873047e+00,1.842738164922698083e-02,-3.749419092568206935e-03,-1.278876338346191313e-03,1.613675362148897507e-02,1.214594431474570052e-02,-3.888869192451238632e-03,-1.581394123218944278e-02,-2.051750668300096961e-02,-4.082346240565920201e-03,1.297221251574474758e-02,-3.401755968405029140e-02,-8.109093239437127620e-03,1.516944169998169075e-03,-1.576139330863952567e-02,-4.679405689239502474e-03,5.013222457340875682e-01,6.457619667053222656e-01,-9.520789384841918945e-01,1.223141260716179062e+02,0.000000000000000000e+00
2.374877000000000127e+00,-3.931544360669290798e-03,1.250846891237483438e-01,1.138333201408386230e+00,1.967783785105857788e-02,-2.144521163194301749e-03,-1.617302422067577435e-03,2.568634300060671297e-02,1.558970627160207595e-02,-1.672914624214172363e-02,-1.454385879130383127e-02,-1.282679589614294478e-02,-6.068770456569954827e-03,1.412038830938155617e-02,-3.854069267426785041e-03,-1.744113141452376115e-02,5.750417709350585938e-03,-6.148922443389892752e-03,-1.289163827896118268e-02,5.028579947697842112e-01,6.824868917465209961e-01,-9.956585168838500977e-01,-6.673536049322839858e+01,0.000000000000000000e+00
2.400954000000000033e+00,-2.945667078426078903e-03,1.259877458127810768e-01,1.138608813285827637e+00,2.055537508435281366e-02,-3.961457043564209357e-04,-1.830099030511143270e-03,2.217635690667965967e-02,1.062894598848056378e-02,-1.952235773205757141e-02,-1.212447947905333570e-02,-3.471803476490612460e-03,-8.332735681827444299e-03,2.922023286682241122e-02,3.732568359638444022e-02,-3.791756544570534099e-02,3.030138015747070590e-02,2.749900817871094028e-02,-3.270555734634399830e-02,5.036516953050953482e-01,7.204616069793701172e-01,-7.878278493881225586e-01,1.033389999534870611e+02,0.000000000000000000e+00
2.423598999999999837e+00,-2.417700578220262526e-03,1.268050681004123104e-01,1.138744473457336426e+00,2.132662470211862948e-02,5.640824012413947486e-04,-2.186877600354174625e-03,2.404393722938932831e-02,1.520885801119272948e-02,-1.653656922280788422e-02,-8.411836535493599776e-03,5.883819597375442717e-03,-1.088260571239095705e-02,-3.328244551660040906e-02,5.452716969117611667e-02,-3.768041178115936335e-02,-3.316915333271026889e-02,3.589674234390258928e-02,-3.138467073440551897e-02,5.030284876961141904e-01,7.057912349700927734e-01,-1.157333731651306152e+00,5.258719394834268712e+01,0.000000000000000000e+00
