timestamp,x,y,z,roll,pitch,yaw,vx,vy,vz,p,q,r,psp,qsp,rsp,pres,qres,rres,thrust_sp, thrust_res
0.000000000000000000e+00,2.191307162221305116e-02,-4.131254535211337231e-02,9.948590993881225586e-01,8.946167459276645889e-03,-1.289939769878634124e-02,1.696650679112612359e-01,-3.007928595391419838e-02,3.776131367938253408e-02,-3.013656474649906158e-02,1.880984688698355070e-02,1.599559875759435160e-02,5.126054277810907639e-02,-5.527470299292249617e-02,-9.146144659038207836e-02,1.000000000000000056e-01,0.000000000000000000e+00,-0.000000000000000000e+00,-0.000000000000000000e+00,5.145949641588360990e-01,0.000000000000000000e+00,1.323255419731140137e+00,9.340356773016556247e+01,0.000000000000000000e+00
2.260399999999999909e-02,2.149531682238707553e-02,-4.047631525537531694e-02,9.942131042480468750e-01,9.632806206786028239e-03,-1.245309769704561198e-02,1.707013656780878019e-01,-2.176402531429942264e-02,4.782061890244348329e-02,-2.576438710093498230e-02,2.481011193599000006e-02,6.330274908852745464e-02,4.008751553148245245e-02,-5.801648727721402110e-02,-7.727322489094295976e-02,1.000000000000000056e-01,0.000000000000000000e+00,-0.000000000000000000e+00,-0.000000000000000000e+00,5.143490676665429806e-01,0.000000000000000000e+00,1.534120917320251465e+00,5.023750642102075403e+01,0.000000000000000000e+00
4.622600000000000320e-02,2.104089292529558175e-02,-3.965364703784283323e-02,9.935477972030639648e-01,9.675612727898030146e-03,-1.221601536905247976e-02,1.718080083518598311e-01,-1.539068823666364487e-02,4.808583892955864414e-02,-3.102865815162658691e-02,-2.626731226083735380e-04,-1.035234807017721380e-02,6.269898469687341935e-02,-5.945685718145406889e-02,-7.221259215787964592e-02,1.000000000000000056e-01,0.000000000000000000e+00,-0.000000000000000000e+00,-0.000000000000000000e+00,5.148218036158808131e-01,0.000000000000000000e+00,1.576442122459411621e+00,1.091925608646471915e+02,0.000000000000000000e+00
7.239099999999999702e-02,2.035734771315852662e-02,-3.826810885441129378e-02,9.924843907356262207e-01,9.466622027112908330e-03,-1.207765470700294941e-02,1.736443145115864617e-01,-3.388973457213240864e-02,4.438623893136740134e-02,-1.967055536806583405e-02,-1.573466405260412829e-02,-3.738485553527711586e-02,8.295750211575743382e-02,-5.797537933704416391e-02,-8.769960590507772102e-02,1.000000000000000056e-01,0.000000000000000000e+00,-0.000000000000000000e+00,-0.000000000000000000e+00,5.140875901225909761e-01,0.000000000000000000e+00,1.194418787956237793e+00,-3.374211121691430293e+01,0.000000000000000000e+00
9.898300000000000154e-02,1.964143825200659679e-02,-3.673496814435390362e-02,9.913714528083801270e-01,9.537181819653109752e-03,-1.234836932775751350e-02,1.751973580694268229e-01,-1.768092524359307985e-02,4.483254278517754404e-02,-2.099727839231491089e-02,4.138041333055350601e-02,-1.593660974267221628e-02,5.042739621194638339e-02,-5.873507218539829322e-02,-7.403580035271248305e-02,1.000000000000000056e-01,0.000000000000000000e+00,-0.000000000000000000e+00,-0.000000000000000000e+00,5.142950034284778926e-01,0.000000000000000000e+00,1.071898579597473145e+00,8.710223327739772969e+01,0.000000000000000000e+00
1.237219999999999986e-01,1.917931843096482014e-02,-3.571805953293862024e-02,9.906530976295471191e-01,9.290949984975632042e-03,-1.238634215596023935e-02,1.762764010845672136e-01,-2.547504597563778755e-02,4.034909721847017988e-02,-2.554004639387130737e-02,9.131281342054356400e-04,-4.791446350082101402e-02,7.024536919822670089e-02,-5.891319375732141650e-02,-8.357602640812565598e-02,1.000000000000000056e-01,0.000000000000000000e+00,-0.000000000000000000e+00,-0.000000000000000000e+00,5.147159887831518343e-01,0.000000000000000000e+00,1.018873095512390137e+00,-1.288819727982523489e+01,0.000000000000000000e+00
1.457440000000000124e-01,1.868449467261414088e-02,-3.470182624674758576e-02,9.898937344551086426e-01,9.399696271764302821e-03,-1.217198317729906165e-02,1.774273000205150996e-01,-2.868128120720819102e-02,4.609069151360146305e-02,-2.086213976144790649e-02,5.014130461681597789e-02,2.850073265392786756e-02,3.105376298049095096e-02,-5.345405546659302148e-02,-8.307574424591823714e-02,1.000000000000000056e-01,0.000000000000000000e+00,-0.000000000000000000e+00,-0.000000000000000000e+00,5.144560825036069707e-01,0.000000000000000000e+00,1.249239325523376465e+00,7.417862061295232934e+01,0.000000000000000000e+00
1.718850000000000100e-01,1.794665267759901206e-02,-3.315494312030801971e-02,9.887035489082336426e-01,8.514360020582334779e-03,-1.218920538830081668e-02,1.792983420820482010e-01,-2.580410502924022909e-02,4.098117883104303305e-02,-2.678974904119968414e-02,-3.545229827410230350e-02,-7.984987455248955535e-03,2.640146111950003247e-02,-5.195738571746581769e-02,-8.165262571587844631e-02,1.000000000000000056e-01,0.000000000000000000e+00,-0.000000000000000000e+00,-0.000000000000000000e+00,5.150165902033113641e-01,0.000000000000000000e+00,1.764235377311706543e+00,-3.576241628660695682e+01,0.000000000000000000e+00
1.987990000000000035e-01,1.643680753266094433e-02,-3.165096755272564510e-02,9.874336123466491699e-01,7.481261656649054910e-03,-1.223903727243791373e-02,1.813408734902177688e-01,-2.587107995016784540e-02,4.407124687006389735e-02,-3.373129665851593018e-02,-3.943108224262512757e-02,-5.954612379460266780e-02,7.145012102295283940e-02,-4.094314048272571643e-02,-8.302985164236825755e-02,1.000000000000000056e-01,0.000000000000000000e+00,-0.000000000000000000e+00,-0.000000000000000000e+00,5.156655750039416120e-01,0.000000000000000000e+00,7.979708909988403320e-01,7.644188575670609964e+01,0.000000000000000000e+00
2.241549999999999931e-01,1.545811010554383122e-02,-3.064706660441268368e-02,9.865522384643554688e-01,7.173786444276758316e-03,-1.213413615893044195e-02,1.825007610265285685e-01,-3.318568601155683084e-02,3.807282811040000464e-02,-3.097704052925109863e-02,2.482770512452989534e-02,1.820971979824009823e-02,3.979373258033512550e-02,-4.253918184586775314e-02,-8.949643653544551991e-02,1.000000000000000056e-01,0.000000000000000000e+00,-0.000000000000000000e+00,-0.000000000000000000e+00,5.155692331437222720e-01,0.000000000000000000e+00,1.275854945182800293e+00,8.636274918652796373e+01,0.000000000000000000e+00
2.456959999999999977e-01,1.451876923797235097e-02,-2.967149629126198188e-02,9.857770204544067383e-01,6.744193891710630571e-03,-1.217533595783648614e-02,1.836803147369117095e-01,-1.772109099112413946e-02,4.913168906431879257e-02,-4.289112240076065063e-02,-5.844460752685002453e-02,2.931093888949391421e-02,5.474932601831505874e-02,-3.137962596226351319e-02,-7.568765993815279591e-02,1.000000000000000056e-01,0.000000000000000000e+00,-0.000000000000000000e+00,-0.000000000000000000e+00,5.165572187370165436e-01,0.000000000000000000e+00,1.141938090324401855e+00,8.563202822836331052e+01,0.000000000000000000e+00
2.716689999999999938e-01,1.310715819177220472e-02,-2.820385812515423252e-02,9.847009181976318359e-01,6.564129086789106428e-03,-1.141900714682031470e-02,1.855492299768595199e-01,-3.753170075078254148e-02,4.490952800697588232e-02,-4.633240401744842529e-02,-3.740088329446545484e-02,2.614467585265767280e-02,9.922491947075405549e-02,-3.126304959622856067e-02,-9.011627991301654483e-02,1.000000000000000056e-01,0.000000000000000000e+00,-0.000000000000000000e+00,-0.000000000000000000e+00,5.169480654883895632e-01,0.000000000000000000e+00,1.381444573402404785e+00,8.647298160954279922e+01,0.000000000000000000e+00
2.997239999999999904e-01,1.162086771912189051e-02,-2.589506637240113207e-02,9.837464094161987305e-01,6.149723357530811549e-03,-1.074722559184970727e-02,1.874535590895443082e-01,-1.782754052436704220e-02,5.291656109900248067e-02,-4.730018228292465210e-02,-1.103639762341839317e-02,2.207984008270543960e-02,6.725364879759324066e-02,-2.257677980963686964e-02,-6.716849653809565945e-02,1.000000000000000056e-01,0.000000000000000000e+00,-0.000000000000000000e+00,-0.000000000000000000e+00,5.171481716987327282e-01,0.000000000000000000e+00,1.054423213005065918e+00,9.666323453041913183e+01,0.000000000000000000e+00
3.223480000000000234e-01,1.062847119160640480e-02,-2.437329028975260964e-02,9.832048416137695312e-01,5.807497382930070472e-03,-1.042056508518074409e-02,1.885788676342268211e-01,-2.453485714420430147e-02,4.666900720261162039e-02,-4.162311926484107971e-02,-2.975318266196887509e-02,7.594754758509205533e-03,5.324256259952053760e-02,-2.400961836341524575e-02,-7.462501499771437286e-02,1.000000000000000056e-01,0.000000000000000000e+00,-0.000000000000000000e+00,-0.000000000000000000e+00,5.168245841889986814e-01,0.000000000000000000e+00,1.143073678016662598e+00,9.620895864872157688e+01,0.000000000000000000e+00
3.490519999999999734e-01,9.199142573832176650e-03,-2.215010191650822191e-02,9.825385808944702148e-01,5.826292714630474864e-03,-1.002918736151503509e-02,1.904846501666974667e-01,-2.796749170286854866e-02,4.595052825432491272e-02,-4.636584222316741943e-02,3.831129464387981153e-03,1.879380908333552064e-02,7.057118326232085515e-02,-2.188495144092786338e-02,-7.443179032568594811e-02,1.000000000000000056e-01,0.000000000000000000e+00,-0.000000000000000000e+00,-0.000000000000000000e+00,5.172822759072044363e-01,0.000000000000000000e+00,1.231787085533142090e+00,4.798346203264650001e+01,0.000000000000000000e+00
3.728369999999999740e-01,8.251195728710806337e-03,-2.070577080562075942e-02,9.821543693542480469e-01,6.396801140292235864e-03,-9.826588777329892110e-03,1.916121942062762873e-01,-2.861984834599027791e-02,4.608611812980341338e-02,-3.284661844372749329e-02,5.854154082139936127e-02,2.994258506951353802e-02,3.126284710162876429e-02,-2.419988362095514683e-02,-7.346082910213681816e-02,1.000000000000000056e-01,0.000000000000000000e+00,-0.000000000000000000e+00,-0.000000000000000000e+00,5.163634114359445526e-01,0.000000000000000000e+00,1.371899724006652832e+00,6.324462156316413797e+01,0.000000000000000000e+00
3.992189999999999905e-01,6.961801292003322664e-03,-1.944254994223440502e-02,9.816591143608093262e-01,6.841254106616059469e-03,-9.411402340195884619e-03,1.934772841232319518e-01,-3.235931533458583087e-02,4.695491569376913227e-02,-2.765270508825778961e-02,2.328241981584543152e-02,7.335021741678817049e-03,2.809077010022666132e-02,-2.485242914987376844e-02,-7.410550083924394293e-02,1.000000000000000056e-01,0.000000000000000000e+00,-0.000000000000000000e+00,-0.000000000000000000e+00,5.160610074789175883e-01,0.000000000000000000e+00,1.484027981758117676e+00,7.365602234898715039e+01,0.000000000000000000e+00
4.242520000000000180e-01,6.135722310061317471e-03,-1.858800647155185726e-02,9.813529253005981445e-01,6.794601783039541133e-03,-9.269073862860022217e-03,1.950914907569483159e-01,-3.086412629106354694e-02,5.361747204291205521e-02,-3.403756394982337952e-02,2.512665743785236563e-02,1.865260212124239189e-02,1.089308976545207142e-01,-1.895524092747388062e-02,-7.111708941002052586e-02,1.000000000000000056e-01,0.000000000000000000e+00,-0.000000000000000000e+00,-0.000000000000000000e+00,5.166035910547378540e-01,0.000000000000000000e+00,2.099897742271423340e+00,-1.938316844933657634e+01,0.000000000000000000e+00
4.473599999999999799e-01,5.270905584148154535e-03,-1.771149775084520511e-02,9.810878634452819824e-01,7.054554815044461816e-03,-9.381298278029248650e-03,1.960580018304558525e-01,-3.212806667623528678e-02,3.779974597174208528e-02,-3.062365576624870300e-02,1.001782132760908189e-02,-1.236200517871413780e-02,1.435769970631861972e-02,-3.316828206915136551e-02,-7.556990859532276839e-02,1.000000000000000056e-01,0.000000000000000000e+00,-0.000000000000000000e+00,-0.000000000000000000e+00,5.164163057648643029e-01,0.000000000000000000e+00,9.419606924057006836e-01,6.941724110102308032e+01,0.000000000000000000e+00
4.717899999999999872e-01,4.046383828691714826e-03,-1.642190434008339306e-02,9.806814789772033691e-01,7.321914803681960071e-03,-9.539321895858821065e-03,1.981478727382715022e-01,-1.643895148268378209e-02,5.289583432163707383e-02,-3.648004680871963501e-02,-5.378582527423899501e-02,-3.828317464811439690e-03,5.984778121304433485e-02,-2.176184788392234240e-02,-6.237996301045575787e-02,1.000000000000000056e-01,0.000000000000000000e+00,-0.000000000000000000e+00,-0.000000000000000000e+00,5.169303405936036544e-01,0.000000000000000000e+00,1.417925953865051270e+00,4.516481371691148894e+01,0.000000000000000000e+00
4.999870000000000148e-01,3.066022457028597104e-03,-1.476370913855932360e-02,9.803955554962158203e-01,7.637323773769823937e-03,-9.270483498156734115e-03,2.001943039043239114e-01,-3.781355449528366053e-02,4.786839594692607336e-02,-3.550796583294868469e-02,-3.211398655509008215e-02,5.124186918742871903e-03,1.125083226538909770e-01,-2.560767937983653847e-02,-8.102217366877499660e-02,1.000000000000000056e-01,0.000000000000000000e+00,-0.000000000000000000e+00,-0.000000000000000000e+00,5.169328396228862754e-01,0.000000000000000000e+00,1.256733775138854980e+00,8.003140971273626292e+01,0.000000000000000000e+00
5.237389999999999546e-01,2.451442318959520545e-03,-1.352629251622372054e-02,9.802170991897583008e-01,7.760196786831328845e-03,-9.216185524831610465e-03,2.014813845917073909e-01,-2.940378021152341773e-02,4.787397574337845518e-02,-3.256600722670555115e-02,-2.738494459656736629e-02,2.351061941682292249e-03,4.580179991887975421e-02,-2.623195445950392973e-02,-7.114888439484101657e-02,1.000000000000000056e-01,0.000000000000000000e+00,-0.000000000000000000e+00,-0.000000000000000000e+00,5.167769638218716599e-01,0.000000000000000000e+00,1.272148728370666504e+00,9.579590978885423169e+01,0.000000000000000000e+00
5.530990000000000073e-01,1.849372294665250268e-03,-1.230220991691180661e-02,9.800458550453186035e-01,7.653163125849216618e-03,-9.355512959162926023e-03,2.030630499470686967e-01,-2.798145087777512835e-02,5.707540478749816709e-02,-3.525478765368461609e-02,-2.042638081639147965e-02,2.932242893166705708e-02,7.797432435720068333e-02,-1.738470759398055149e-02,-7.126581824914131336e-02,1.000000000000000056e-01,0.000000000000000000e+00,-0.000000000000000000e+00,-0.000000000000000000e+00,5.170406701054772736e-01,0.000000000000000000e+00,1.081743121147155762e+00,8.679268227402357638e+01,0.000000000000000000e+00
5.751500000000000501e-01,1.264470477793972749e-03,-1.108541479351881666e-02,9.800646901130676270e-01,7.788400422373446992e-03,-9.792764243957918779e-03,2.044855796387285984e-01,-2.847584630114313037e-02,4.555411494742447193e-02,-1.777747832238674164e-02,6.210780011620738172e-02,-5.340688130169501946e-02,8.158376068231169842e-02,-2.761581151598068579e-02,-7.665062020460043646e-02,1.000000000000000056e-01,0.000000000000000000e+00,-0.000000000000000000e+00,-0.000000000000000000e+00,5.157859290738840974e-01,0.000000000000000000e+00,1.440084338188171387e+00,9.510989241880731981e+01,0.000000000000000000e+00
6.001769999999999605e-01,1.245282048428231485e-04,-8.959393909884467641e-03,9.801502227783203125e-01,8.201886201426818179e-03,-9.857615458585211599e-03,2.063364120505821742e-01,-2.752900238861128585e-02,4.387430525199130515e-02,-1.549349911510944366e-02,2.887357596975818549e-02,2.311274445399414887e-02,2.953209602784179905e-02,-2.855245366712158214e-02,-7.659112836761111653e-02,1.000000000000000056e-01,0.000000000000000000e+00,-0.000000000000000000e+00,-0.000000000000000000e+00,5.156446208618215010e-01,0.000000000000000000e+00,1.227597117424011230e+00,9.657543244863860821e+01,0.000000000000000000e+00
6.259789999999999521e-01,-1.524133162990255839e-03,-6.202182123748927432e-03,9.803100824356079102e-01,8.593586612810087677e-03,-9.709643683702084971e-03,2.082806415630940045e-01,-2.149211229861121980e-02,4.982595403192856959e-02,-2.603281103074550629e-02,-1.146495856485878380e-02,2.092315326526981642e-03,5.580909484421615885e-02,-2.494764943090873807e-02,-7.078204916950833758e-02,1.000000000000000056e-01,0.000000000000000000e+00,-0.000000000000000000e+00,-0.000000000000000000e+00,5.164527544774226708e-01,0.000000000000000000e+00,1.076168417930603027e+00,1.002053706339877408e+02,0.000000000000000000e+00
6.505360000000000031e-01,-2.594385412994961414e-03,-4.387989960902202551e-03,9.803972840309143066e-01,8.776631711681715312e-03,-9.536212400525601041e-03,2.098509888582842375e-01,-2.762797533761712429e-02,5.211971225506106808e-02,-1.488346233963966370e-02,4.584785324234767062e-02,8.003212902772764963e-04,8.552144852702876776e-02,-2.270765175336822428e-02,-7.565479515873108074e-02,1.000000000000000056e-01,0.000000000000000000e+00,-0.000000000000000000e+00,-0.000000000000000000e+00,5.156588737754924656e-01,0.000000000000000000e+00,1.331988692283630371e+00,9.055751669548045868e+01,0.000000000000000000e+00
6.730199999999999516e-01,-3.673461765457502332e-03,-2.574488540684169956e-03,9.805356264114379883e-01,8.939657807587078966e-03,-9.789808740034322554e-03,2.111802558046895761e-01,-2.361175875750621406e-02,5.066106138081614280e-02,-2.500357106328010559e-02,8.809569561103698177e-04,-3.292424597925348861e-02,5.097584350532132630e-02,-2.467163125741244495e-02,-7.391372857789889339e-02,1.000000000000000056e-01,0.000000000000000000e+00,-0.000000000000000000e+00,-0.000000000000000000e+00,5.164349216194474845e-01,0.000000000000000000e+00,1.152017235755920410e+00,8.643698651261682642e+01,0.000000000000000000e+00
6.982070000000000221e-01,-5.112404185521738677e-03,-2.320560954475030799e-04,9.807527661323547363e-01,9.483629246302626228e-03,-1.028421775625831813e-02,2.135075707723226301e-01,-3.417684173612846321e-02,5.181660594766095140e-02,-2.586739510297775269e-02,-4.682052566755364603e-02,4.195487334384551820e-02,1.111132025982339427e-01,-2.396762158644906784e-02,-8.628291245752757466e-02,1.000000000000000056e-01,0.000000000000000000e+00,-0.000000000000000000e+00,-0.000000000000000000e+00,5.165271996560173440e-01,0.000000000000000000e+00,1.215657114982604980e+00,4.158372845960088426e+01,0.000000000000000000e+00
7.224329999999999918e-01,-6.289607952243199233e-03,1.506482521247964673e-03,9.810071587562561035e-01,1.095298425292710182e-02,-1.028796824211530847e-02,2.153933118163786631e-01,-2.611709981771094535e-02,5.856349846503586948e-02,-2.291208878159523010e-02,8.933447138855866998e-02,3.098316032271649159e-02,7.965401410880702804e-02,-2.826847929407179383e-02,-7.768807568739136138e-02,1.000000000000000056e-01,0.000000000000000000e+00,-0.000000000000000000e+00,-0.000000000000000000e+00,5.163305955278262305e-01,0.000000000000000000e+00,1.341239333152770996e+00,7.373075827888543188e+01,0.000000000000000000e+00
7.487960000000000171e-01,-7.413558820859508618e-03,3.261344896895953561e-03,9.811862707138061523e-01,1.202938255203617017e-02,-9.630585218450393725e-03,2.172877974781994848e-01,-3.398832891850543658e-02,4.195723001763165122e-02,-1.875903457403182983e-02,2.637597754590121149e-02,3.762721282182242971e-02,4.537554867542405168e-02,-4.639603887443458086e-02,-8.337905354001415303e-02,1.000000000000000056e-01,0.000000000000000000e+00,-0.000000000000000000e+00,-0.000000000000000000e+00,5.160445789232779301e-01,0.000000000000000000e+00,8.921211957931518555e-01,2.238962306158484239e+01,0.000000000000000000e+00
7.728009999999999602e-01,-8.125967164085312611e-03,4.398390914121143649e-03,9.813024997711181641e-01,1.248292591489346369e-02,-9.232550999870969832e-03,2.187555120902042738e-01,-2.157725629582546781e-02,5.686989087247369679e-02,-2.784562669694423676e-02,-4.603751126245009262e-02,5.879625986779103003e-02,9.314497883880250295e-02,-3.609706276898530519e-02,-6.762723049928565100e-02,1.000000000000000056e-01,0.000000000000000000e+00,-0.000000000000000000e+00,-0.000000000000000000e+00,5.167507431508816529e-01,0.000000000000000000e+00,1.091175675392150879e+00,7.266615718352304043e+01,0.000000000000000000e+00
7.990880000000000205e-01,-9.347387381248713559e-03,6.380634399750304518e-03,9.814121723175048828e-01,1.297189976204462039e-02,-9.021763482498057485e-03,2.209543221895406973e-01,-2.987613183931417046e-02,4.850374094708199274e-02,-1.777698472142219543e-02,7.029270875846130306e-02,-3.629810959043870688e-02,9.284726892047204250e-02,-4.480553628572665065e-02,-7.646841013346965255e-02,1.000000000000000056e-01,0.000000000000000000e+00,-0.000000000000000000e+00,-0.000000000000000000e+00,5.160347214259684012e-01,0.000000000000000000e+00,1.565844178199768066e+00,9.418776906953139871e+01,0.000000000000000000e+00
8.215580000000000105e-01,-1.038700860427711065e-02,8.084921375293796161e-03,9.815365672111511230e-01,1.314070660875647258e-02,-8.785824824631305319e-03,2.221298493290466691e-01,-3.374104818201131839e-02,4.032553579936751925e-02,-8.869489654898643494e-03,1.348525083378077777e-02,-7.742973694927883684e-03,3.745602656285673682e-02,-4.929293832455422519e-02,-7.821205886276592911e-02,1.000000000000000056e-01,0.000000000000000000e+00,-0.000000000000000000e+00,-0.000000000000000000e+00,5.153941584095748096e-01,0.000000000000000000e+00,1.300676941871643066e+00,8.663554011178909775e+01,0.000000000000000000e+00
8.466780000000000417e-01,-1.138993257634349915e-02,9.701441757365935475e-03,9.816098809242248535e-01,1.320534128779107808e-02,-8.800799660515279399e-03,2.235381616637057700e-01,-1.806803838393830977e-02,5.296389426671411355e-02,-1.345872972160577774e-02,2.073177722411005328e-02,-6.072841898121508417e-03,6.999542778770798113e-02,-3.959187746832516092e-02,-6.385923044631283685e-02,1.000000000000000056e-01,0.000000000000000000e+00,-0.000000000000000000e+00,-0.000000000000000000e+00,5.157581852870497530e-01,0.000000000000000000e+00,1.258117079734802246e+00,2.701568628077238543e+01,0.000000000000000000e+00
8.768660000000000343e-01,-1.284013801558370020e-02,1.212609211185511349e-02,9.816262125968933105e-01,1.291831594727584076e-02,-8.346351442218402639e-03,2.257447979570801344e-01,-3.115286103273717452e-02,4.744795358840900312e-02,-6.857140455394983292e-03,4.002714727100767367e-02,-2.703289183570784220e-03,9.002495518669015317e-02,-3.955186202032577591e-02,-7.526824314876283395e-02,1.000000000000000056e-01,0.000000000000000000e+00,-0.000000000000000000e+00,-0.000000000000000000e+00,5.152951938773123741e-01,0.000000000000000000e+00,1.335985779762268066e+00,9.573116642571167745e+01,0.000000000000000000e+00
8.981470000000000287e-01,-1.378109121503473707e-02,1.370066041449749007e-02,9.816692471504211426e-01,1.290394505909283653e-02,-8.395978733945819172e-03,2.270415321798695540e-01,-2.154230276870883545e-02,4.985887632473932907e-02,-1.552589423954486847e-02,1.680476338794815311e-02,-2.666470144813068432e-02,7.376410129709699837e-02,-3.726037576240043281e-02,-6.605759585300974290e-02,1.000000000000000056e-01,0.000000000000000000e+00,-0.000000000000000000e+00,-0.000000000000000000e+00,5.159618305271586047e-01,0.000000000000000000e+00,1.239510416984558105e+00,9.154068827555794030e+01,0.000000000000000000e+00
9.206720000000000459e-01,-1.593448475395049108e-02,1.623102071862787821e-02,9.816113710403442383e-01,1.292483755977638649e-02,-8.843738496210562516e-03,2.292109742363794833e-01,-2.954942096704464213e-02,4.524029711414153526e-02,-1.219678949564695358e-02,-1.614413333634810363e-02,-2.876113985018662750e-02,1.006721794986505242e-01,-3.805472622359946933e-02,-7.838067139095146463e-02,1.000000000000000056e-01,0.000000000000000000e+00,-0.000000000000000000e+00,-0.000000000000000000e+00,5.157506702421669198e-01,0.000000000000000000e+00,1.328159213066101074e+00,9.178742202913548454e+01,0.000000000000000000e+00
9.477539999999999853e-01,-1.731104841045633808e-02,1.787536597355858167e-02,9.815303683280944824e-01,1.356807782312722047e-02,-8.622837989754605914e-03,2.303140057924597528e-01,-2.560247011542395035e-02,4.468405853798418370e-02,-7.895826362073421478e-03,1.824512891892079991e-02,3.719825297138874831e-02,7.591775043485048287e-03,-4.125422846394224963e-02,-7.317466839028473335e-02,1.000000000000000056e-01,0.000000000000000000e+00,-0.000000000000000000e+00,-0.000000000000000000e+00,5.154639405348144798e-01,0.000000000000000000e+00,1.255849719047546387e+00,8.707870327570702784e+01,0.000000000000000000e+00
9.732600000000000140e-01,-1.927612352916325059e-02,2.026081780596583615e-02,9.813389778137207031e-01,1.395922391537023424e-02,-8.412795817468454729e-03,2.325724256832879533e-01,-2.371633233211142139e-02,4.735408600464940942e-02,-1.066621672362089157e-02,-9.470735306466415704e-03,-2.125122889994522299e-02,8.622054154721861541e-02,-3.980219340323947613e-02,-7.125550005443269386e-02,1.000000000000000056e-01,0.000000000000000000e+00,-0.000000000000000000e+00,-0.000000000000000000e+00,5.157111469468795839e-01,0.000000000000000000e+00,1.510214209556579590e+00,-4.661377687762716704e+01,0.000000000000000000e+00
9.979810000000000070e-01,-2.052541597761191328e-02,2.179498355763228798e-02,9.811959862709045410e-01,1.426114810491061272e-02,-8.136500666896528955e-03,2.340380495359968283e-01,-3.450941375762259927e-02,4.092145121927210499e-02,-3.611046820878982544e-03,4.887248611970787526e-02,2.956402113825757835e-02,6.242423219615814839e-02,-4.406097743260126848e-02,-7.980351883158498527e-02,1.000000000000000056e-01,0.000000000000000000e+00,-0.000000000000000000e+00,-0.000000000000000000e+00,5.152236920455510738e-01,0.000000000000000000e+00,1.351320862770080566e+00,6.112976959988557724e+01,0.000000000000000000e+00
1.024383999999999961e+00,-2.257102816765482745e-02,2.483435306716053406e-02,9.810405969619750977e-01,1.504058969854865299e-02,-8.450132198327908739e-03,2.359771056452335536e-01,-1.449915694353550062e-02,4.838990734286491291e-02,-9.952793829143047333e-03,2.794938937299019498e-03,1.176249039537763733e-02,3.697661550431471933e-02,-4.335980014230256252e-02,-6.388801932233277581e-02,1.000000000000000056e-01,0.000000000000000000e+00,-0.000000000000000000e+00,-0.000000000000000000e+00,5.157289747057987039e-01,0.000000000000000000e+00,1.367148280143737793e+00,4.980051091792333295e+01,0.000000000000000000e+00
1.052430999999999894e+00,-2.387287681434969652e-02,2.676909022543382671e-02,9.809414148330688477e-01,1.520797727137044100e-02,-8.334717584193018780e-03,2.374151112138209729e-01,-2.865738319507724063e-02,4.544422874449323413e-02,-1.498468965291976929e-02,-4.225149889153141831e-03,2.227084091721174067e-02,9.324757386406677673e-02,-4.360933919303627143e-02,-7.826065332499260174e-02,1.000000000000000056e-01,0.000000000000000000e+00,-0.000000000000000000e+00,-0.000000000000000000e+00,5.161416820555664309e-01,0.000000000000000000e+00,1.418379664421081543e+00,-4.760691711879828603e+01,0.000000000000000000e+00
1.077056000000000013e+00,-2.511350764124126861e-02,2.867372610098196939e-02,9.808495044708251953e-01,1.569770272208219006e-02,-8.032522383053741777e-03,2.385475461613226766e-01,-3.404605766458805582e-02,3.948619021081866548e-02,-4.311983473598957062e-03,1.544600767113277553e-03,3.255746380922886624e-02,4.230269319540567313e-02,-4.879582604184409117e-02,-7.982910279917505847e-02,1.000000000000000056e-01,0.000000000000000000e+00,-0.000000000000000000e+00,-0.000000000000000000e+00,5.153838527985636908e-01,0.000000000000000000e+00,8.416873216629028320e-01,9.256675344362311364e+01,0.000000000000000000e+00
1.098586000000000062e+00,-2.632095543046363006e-02,3.047632148910769251e-02,9.806184172630310059e-01,1.594043408642431894e-02,-8.006443984684086246e-03,2.399893097452370228e-01,-2.408789107087002182e-02,4.975734171606913114e-02,-2.377850189805030823e-02,-4.849927807368603627e-02,5.236990681631437800e-02,8.199025216027014396e-02,-4.179998900202559764e-02,-6.974367347364196501e-02,1.000000000000000056e-01,0.000000000000000000e+00,-0.000000000000000000e+00,-0.000000000000000000e+00,5.168766809390387129e-01,0.000000000000000000e+00,1.034899592399597168e+00,4.762221332744452917e-01,0.000000000000000000e+00
1.122441000000000022e+00,-2.747497827535494777e-02,3.225985266092794984e-02,9.804491400718688965e-01,1.610265076968165482e-02,-7.920234933189940207e-03,2.412927789294083691e-01,-2.303660193167661463e-02,4.301469683717272507e-02,-1.124174054712057114e-02,-2.898475304935951152e-02,2.052845607188983484e-02,4.920183402819629931e-02,-4.775948218424552749e-02,-7.160827752560727788e-02,1.000000000000000056e-01,0.000000000000000000e+00,-0.000000000000000000e+00,-0.000000000000000000e+00,5.159930256048501640e-01,0.000000000000000000e+00,9.311364889144897461e-01,9.864915984292451867e+01,0.000000000000000000e+00
1.151162999999999936e+00,-2.916091835954958203e-02,3.436894645289285261e-02,9.800682067871093750e-01,1.649907686082604727e-02,-7.527505331029971103e-03,2.430435670257975467e-01,-2.369534595483106104e-02,4.419399929492338897e-02,-1.054874714463949203e-02,2.158074995895185606e-03,1.616695115951477871e-02,2.981863916164684269e-02,-4.637715315051726961e-02,-7.001093514891235103e-02,1.000000000000000056e-01,0.000000000000000000e+00,-0.000000000000000000e+00,-0.000000000000000000e+00,5.160005491801803457e-01,0.000000000000000000e+00,9.140104055404663086e-01,3.383007380814031251e+01,0.000000000000000000e+00
1.175475000000000048e+00,-3.022324584954838231e-02,3.571770748616205637e-02,9.797801375389099121e-01,1.698887453389355887e-02,-7.271723821287601197e-03,2.444536448525891359e-01,-2.627655619536873113e-02,4.033779227677568996e-02,-1.279454957693815231e-02,2.583359594031092027e-02,1.645677889603328059e-02,8.509183879333516443e-02,-5.105639644612815220e-02,-7.123631810439166878e-02,1.000000000000000056e-01,0.000000000000000000e+00,-0.000000000000000000e+00,-0.000000000000000000e+00,5.162178631589838806e-01,0.000000000000000000e+00,1.147220969200134277e+00,9.028589373256738781e+01,0.000000000000000000e+00
1.202700000000000102e+00,-3.120936406657081122e-02,3.699485779408629577e-02,9.795143008232116699e-01,1.724366007270095036e-02,-6.889427108682788514e-03,2.455180539533183826e-01,-2.163468068709401351e-02,3.445618435923092360e-02,-7.184513378888368607e-03,-1.232274140986664920e-02,2.958540375265352601e-02,2.633920077226931458e-02,-5.615118146146910738e-02,-6.599403790215221943e-02,1.000000000000000056e-01,0.000000000000000000e+00,-0.000000000000000000e+00,-0.000000000000000000e+00,5.158477360176219051e-01,0.000000000000000000e+00,9.791599512100219727e-01,1.007895293929422564e+02,0.000000000000000000e+00
1.227041999999999966e+00,-3.218872558574616127e-02,3.826223977233971646e-02,9.792062044143676758e-01,1.749874378710852482e-02,-6.403113990781417186e-03,2.469698262419839363e-01,-1.681272642308871343e-02,4.268995357149274472e-02,-1.106174010783433914e-02,1.516545832200505602e-02,3.084573407906558359e-02,8.476763447476257096e-02,-4.981090548554142905e-02,-5.864154412460707844e-02,1.000000000000000056e-01,0.000000000000000000e+00,-0.000000000000000000e+00,-0.000000000000000000e+00,5.161887602068271352e-01,0.000000000000000000e+00,1.432261347770690918e+00,8.775321860719164135e+01,0.000000000000000000e+00
1.253152000000000044e+00,-3.302423960095580285e-02,3.935562985722589058e-02,9.789298772811889648e-01,1.757833769525975892e-02,-6.234941561504392382e-03,2.481859872396521283e-01,-1.164892868858834370e-02,3.759312125541312138e-02,-4.937985446304082870e-03,8.897420114929647031e-03,-3.792535021561101866e-02,3.267776914767810820e-02,-5.493992135159689316e-02,-5.560214947622044851e-02,1.000000000000000056e-01,0.000000000000000000e+00,-0.000000000000000000e+00,-0.000000000000000000e+00,5.157795947062386865e-01,0.000000000000000000e+00,9.634355306625366211e-01,-5.794859533357379888e+01,0.000000000000000000e+00
1.279196000000000000e+00,-3.369337898246065055e-02,4.034250331939180645e-02,9.785706400871276855e-01,1.777896502157823300e-02,-5.752429396155056551e-03,2.494971644333048300e-01,-2.843353347088655586e-02,2.862599044625815936e-02,-3.478604368865489960e-03,4.904801475013385176e-02,2.939294816975334887e-02,8.340001073941939735e-02,-5.862569309903598036e-02,-6.788543118121308229e-02,1.000000000000000056e-01,0.000000000000000000e+00,-0.000000000000000000e+00,-0.000000000000000000e+00,5.157241009973495549e-01,0.000000000000000000e+00,9.588779211044311523e-01,9.305296045969046759e+01,0.000000000000000000e+00
1.302664000000000044e+00,-3.432973202187090955e-02,4.124475440890307265e-02,9.782966971397399902e-01,1.777484702626509414e-02,-5.591351829871138435e-03,2.503834807442191224e-01,-1.086586937318743430e-02,3.122506170040697041e-02,-4.806063137948513031e-03,-3.532984335915063945e-02,6.224955064638628549e-03,2.554761594567943328e-02,-5.753996248012962361e-02,-5.034710466622567548e-02,1.000000000000000056e-01,0.000000000000000000e+00,-0.000000000000000000e+00,-0.000000000000000000e+00,5.158635969159323098e-01,0.000000000000000000e+00,1.083542466163635254e+00,9.318852605433687586e+01,0.000000000000000000e+00
1.325363999999999987e+00,-3.492125771288924485e-02,4.214075606495877591e-02,9.779189229011535645e-01,1.786165536869850634e-02,-5.006468046824474882e-03,2.517520291961357071e-01,-1.245477514221629209e-02,3.988007069724960885e-02,-5.819336976855993271e-03,1.987241702984671871e-02,3.664505515466963403e-02,5.731658358920681262e-02,-4.982944733501130929e-02,-4.923978106537021948e-02,1.000000000000000056e-01,0.000000000000000000e+00,-0.000000000000000000e+00,-0.000000000000000000e+00,5.159966271818036132e-01,0.000000000000000000e+00,1.157663941383361816e+00,9.239980312974049070e+01,0.000000000000000000e+00
1.347841999999999985e+00,-3.544394591060867628e-02,4.297448159269588730e-02,9.775126576423645020e-01,1.752824725442654261e-02,-4.798961649221222814e-03,2.529807232846390530e-01,-1.995907718602143999e-02,2.414614014171006726e-02,3.727064933627843857e-03,1.507411101366941918e-02,-4.080127047699945442e-02,6.675684337165969928e-02,-5.902296781539297793e-02,-5.669812843244539241e-02,1.000000000000000056e-01,0.000000000000000000e+00,-0.000000000000000000e+00,-0.000000000000000000e+00,5.153367908089078187e-01,0.000000000000000000e+00,1.211152195930480957e+00,6.376004129831164136e+01,0.000000000000000000e+00
1.372200000000000086e+00,-3.691594425099866544e-02,4.411271376204603523e-02,9.770264029502868652e-01,1.764339868683700158e-02,-4.832499201312678849e-03,2.548149881614205636e-01,-1.562703661200069705e-02,2.827081986203387742e-02,-4.074947442859411240e-03,-1.479028203397428354e-02,1.544060042105273138e-02,5.924386747766587774e-02,-5.413073197416900378e-02,-5.200626397164458126e-02,1.000000000000000056e-01,0.000000000000000000e+00,-0.000000000000000000e+00,-0.000000000000000000e+00,5.159744053327250946e-01,0.000000000000000000e+00,7.216972112655639648e-01,5.584684708821791332e+01,0.000000000000000000e+00
1.396945000000000103e+00,-3.851137050457107552e-02,4.513029897964857678e-02,9.765279889106750488e-01,1.794714873999302823e-02,-5.025773464228722176e-03,2.564278084222555432e-01,-6.675842770417764714e-03,2.419271835272266205e-02,3.226935397833585739e-03,3.349746004495903449e-03,-1.758437968621716016e-02,6.851096093838872358e-02,-6.005064035490427499e-02,-4.840800134919890502e-02,1.000000000000000056e-01,0.000000000000000000e+00,-0.000000000000000000e+00,-0.000000000000000000e+00,5.154891819264436625e-01,0.000000000000000000e+00,7.946327924728393555e-01,1.082127155866955093e+02,0.000000000000000000e+00
1.426385000000000014e+00,-4.046924667900063388e-02,4.641471025487257235e-02,9.757083058357238770e-01,1.744409338424229156e-02,-4.751174968466997939e-03,2.586851560567744457e-01,-1.055166410901076622e-02,2.562560992686178929e-02,-3.479686332866549492e-03,-1.753287316010418645e-03,-2.561034421524783014e-02,8.618172273636330594e-02,-5.286886541499762754e-02,-5.171068559395225472e-02,1.000000000000000056e-01,0.000000000000000000e+00,-0.000000000000000000e+00,-0.000000000000000000e+00,5.160724557415127256e-01,0.000000000000000000e+00,1.086687922477722168e+00,6.134204504910040612e+01,0.000000000000000000e+00
1.446474999999999955e+00,-4.137362461617850873e-02,4.699546405991895937e-02,9.751917123794555664e-01,1.700718485269591893e-02,-4.771060185963849065e-03,2.596538205656864218e-01,-1.810789336794228765e-02,1.162923110957964253e-02,2.459638286381959915e-03,6.004426253280134053e-03,-2.005660309630563198e-03,1.149239741988968867e-02,-5.928086611626353503e-02,-6.025136409717262581e-02,1.000000000000000056e-01,0.000000000000000000e+00,-0.000000000000000000e+00,-0.000000000000000000e+00,5.156916377101039561e-01,0.000000000000000000e+00,1.290748238563537598e+00,-5.188698344520049233e+01,0.000000000000000000e+00
1.470698000000000061e+00,-4.224072832278605999e-02,4.776176355394232131e-02,9.744551181793212891e-01,1.647627418889510351e-02,-5.266169743366244660e-03,2.612735094376017475e-01,5.370805081489776929e-03,2.643754207212934901e-02,-8.038923144340515137e-03,-6.349673557117649358e-02,-2.053858051903978063e-02,4.960461660899514319e-02,-4.576026041132743444e-02,-4.177594194238204439e-02,1.000000000000000056e-01,0.000000000000000000e+00,-0.000000000000000000e+00,-0.000000000000000000e+00,5.165508684390531791e-01,0.000000000000000000e+00,1.370949387550354004e+00,6.981419803520587664e+01,0.000000000000000000e+00
1.498615999999999948e+00,-4.322712315364947433e-02,4.867333001595451625e-02,9.734070301055908203e-01,1.594084581046942631e-02,-5.251079640085531963e-03,2.632197407499525799e-01,-1.335526041617589657e-02,1.029773356441229110e-02,-3.282568417489528656e-03,-4.691562640886966229e-02,-2.257198100336837640e-02,6.289951300444640570e-02,-5.223574117747155354e-02,-6.339479724239249769e-02,1.000000000000000056e-01,0.000000000000000000e+00,-0.000000000000000000e+00,-0.000000000000000000e+00,5.163053159869360753e-01,0.000000000000000000e+00,1.230637192726135254e+00,7.458466169873125295e+01,0.000000000000000000e+00
1.521935999999999956e+00,-4.385239260144049855e-02,4.926493891578888340e-02,9.725715517997741699e-01,1.530169295334292932e-02,-5.324263417705754620e-03,2.647594577469960520e-01,-2.620750124299426904e-03,2.325225423215626294e-02,-1.068493537604808807e-02,-4.204417647268595543e-02,3.817747669560762891e-02,5.400656629078733062e-02,-3.741774967433040416e-02,-5.072913732409587567e-02,1.000000000000000056e-01,0.000000000000000000e+00,-0.000000000000000000e+00,-0.000000000000000000e+00,5.169490108046692622e-01,0.000000000000000000e+00,4.359538555145263672e-01,6.973188059532888872e+01,0.000000000000000000e+00
1.546157999999999921e+00,-4.424710886217823186e-02,4.889699117809270801e-02,9.716729521751403809e-01,1.497897622710278251e-02,-5.452698407888867393e-03,2.662664311259936856e-01,7.416690371214425606e-04,1.386948878006954988e-02,4.463102959562093019e-05,2.801258429648029527e-02,-2.257426328395341700e-02,6.539970642773619558e-02,-4.453411710818604152e-02,-5.285686254122752559e-02,1.000000000000000056e-01,0.000000000000000000e+00,-0.000000000000000000e+00,-0.000000000000000000e+00,5.162477698897033340e-01,0.000000000000000000e+00,1.007040858268737793e+00,9.317838322341941648e+01,0.000000000000000000e+00
1.573525000000000063e+00,-4.451548423066942206e-02,4.847994668700055659e-02,9.708770513534545898e-01,1.490666350174379810e-02,-5.350051879618122896e-03,2.673416874040104307e-01,-2.540033680896470851e-03,6.666107450026505753e-03,-4.818511195480823517e-03,-5.065173496719164135e-03,1.377220925219363110e-02,1.373380948155836050e-02,-4.770952941567217082e-02,-5.639383131406555671e-02,1.000000000000000056e-01,0.000000000000000000e+00,-0.000000000000000000e+00,-0.000000000000000000e+00,5.166952564358754385e-01,0.000000000000000000e+00,1.602341055870056152e+00,1.060735122914785578e+01,0.000000000000000000e+00
1.598152999999999935e+00,-4.466311658616776287e-02,4.819309953745564562e-02,9.702296257019042969e-01,1.467289691433374538e-02,-5.331083463167463066e-03,2.683360644124004324e-01,4.558111769936017826e-03,9.775846874449033511e-03,-1.016415748745203018e-02,-5.671749041762289001e-02,-1.197892776883673245e-02,7.130207843326762107e-02,-4.401224697628734750e-02,-4.976230723859156879e-02,1.000000000000000056e-01,0.000000000000000000e+00,-0.000000000000000000e+00,-0.000000000000000000e+00,5.171729349059956959e-01,0.000000000000000000e+00,8.553124666213989258e-01,9.889778555890215728e+01,0.000000000000000000e+00
1.622519000000000045e+00,-4.482688124818991898e-02,4.778733839478407908e-02,9.692755341529846191e-01,1.426976712088086005e-02,-5.359970362018851020e-03,2.697989188431244578e-01,7.008680058767368347e-03,1.403560765657330296e-02,-1.459174696356058121e-02,-8.962472616058447068e-04,-1.148325125291412008e-02,7.629507856319416026e-02,-3.877718324751111556e-02,-4.870443735570993693e-02,1.000000000000000056e-01,0.000000000000000000e+00,-0.000000000000000000e+00,-0.000000000000000000e+00,5.176116187835732019e-01,0.000000000000000000e+00,1.079904198646545410e+00,9.273649730487626641e+01,0.000000000000000000e+00
1.649518000000000040e+00,-4.512067357869643108e-02,4.780539342211823084e-02,9.686910510063171387e-01,1.405288000963665976e-02,-5.647256451148274792e-03,2.704174339161633522e-01,6.499595152307931396e-03,4.886603242165808887e-03,-5.669067613780498505e-03,-1.070499010449616969e-02,-7.762499334191184930e-02,7.197665602109455836e-03,-4.467261596285369146e-02,-5.331488555770363957e-02,1.000000000000000056e-01,0.000000000000000000e+00,-0.000000000000000000e+00,-0.000000000000000000e+00,5.170305104593538870e-01,0.000000000000000000e+00,1.142033219337463379e+00,1.119739778192164721e+02,0.000000000000000000e+00
1.673905999999999894e+00,-4.544895735907546891e-02,4.776578757265081965e-02,9.677992463111877441e-01,1.366923358390026259e-02,-5.684487849470842846e-03,2.716462820154290636e-01,1.062984105720355538e-03,7.020860484175890648e-03,-1.731809414923191071e-02,-7.909672209825202582e-02,4.783144142553788503e-02,7.187471066770184658e-02,-3.824605180559011164e-02,-5.737897412358469729e-02,1.000000000000000056e-01,0.000000000000000000e+00,-0.000000000000000000e+00,-0.000000000000000000e+00,5.180005390626695183e-01,0.000000000000000000e+00,7.780803442001342773e-01,1.015973017151338098e+02,0.000000000000000000e+00
1.699100000000000055e+00,-4.561630239466052394e-02,4.775927703289378073e-02,9.672620296478271484e-01,1.395607471007806119e-02,-5.808625977135939422e-03,2.722086786044983775e-01,1.125499727370517927e-02,1.388754739958245922e-02,-1.336502004414796829e-02,-1.082031939305000108e-03,1.597531358299273535e-02,2.210407733711164911e-03,-3.672341307460760818e-02,-4.847065878346434875e-02,1.000000000000000056e-01,0.000000000000000000e+00,-0.000000000000000000e+00,-0.000000000000000000e+00,5.177923918153498617e-01,0.000000000000000000e+00,1.012191653251647949e+00,1.012966845991940374e+02,0.000000000000000000e+00
1.724501999999999979e+00,-4.581751668898736973e-02,4.772695450745367829e-02,9.665045142173767090e-01,1.373202677480601756e-02,-6.078055737607446218e-03,2.735585800928659328e-01,4.016434127854722836e-04,-3.690468297991906024e-03,3.714377991855144501e-03,-3.414929415608055491e-03,-4.728612866689676369e-02,3.812534029757973231e-02,-4.746467564423119401e-02,-6.359884930389145263e-02,1.000000000000000056e-01,0.000000000000000000e+00,-0.000000000000000000e+00,-0.000000000000000000e+00,5.166176093260028690e-01,0.000000000000000000e+00,4.089335203170776367e-01,7.082684188155197091e+01,0.000000000000000000e+00
1.746995000000000076e+00,-4.597278560720604451e-02,4.756931300506211935e-02,9.660247564315795898e-01,1.388159995461626245e-02,-6.287709841011235312e-03,2.742258091168872092e-01,5.461578731053945597e-03,2.069864441320480412e-03,-7.939634844660758972e-03,2.684070918129977112e-02,-7.593890021399624319e-04,2.803645929230161316e-02,-4.274461718397547239e-02,-5.801728872085780420e-02,1.000000000000000056e-01,0.000000000000000000e+00,-0.000000000000000000e+00,-0.000000000000000000e+00,5.175496934433883034e-01,0.000000000000000000e+00,9.785944223403930664e-01,9.654540010685806806e+01,0.000000000000000000e+00
1.772637000000000018e+00,-4.612376768013110723e-02,4.732451753552859713e-02,9.652706384658813477e-01,1.407196610146765371e-02,-6.713014851345677769e-03,2.752712326752553285e-01,1.070583854684761284e-02,3.473403825866174834e-03,1.154681434854865074e-03,2.090248243415347706e-02,-2.504964161726444538e-02,3.175097112954461398e-02,-4.443940280131815357e-02,-5.747030283193639566e-02,1.000000000000000056e-01,0.000000000000000000e+00,-0.000000000000000000e+00,-0.000000000000000000e+00,5.169671044191275211e-01,0.000000000000000000e+00,2.185904383659362793e+00,1.010096117483784042e+02,0.000000000000000000e+00
1.798529000000000044e+00,-4.617060895064641762e-02,4.713579317991459933e-02,9.647709727287292480e-01,1.402256789274280643e-02,-6.680155791904063278e-03,2.759710649637057145e-01,2.779715230186654337e-03,1.030729440507450806e-03,3.173262579366564751e-03,-8.910496165471048710e-03,1.978485633286280933e-03,5.069378846776340097e-02,-4.458019477867863900e-02,-6.476221079487833043e-02,1.000000000000000056e-01,0.000000000000000000e+00,-0.000000000000000000e+00,-0.000000000000000000e+00,5.168864068389780186e-01,0.000000000000000000e+00,1.084324240684509277e+00,3.784122875672994724e+01,0.000000000000000000e+00
1.821247000000000060e+00,-4.621039439596788534e-02,4.689412831381357949e-02,9.640887975692749023e-01,1.394258032232351292e-02,-7.162782585618199249e-03,2.770900062591918900e-01,1.143542936129650182e-02,-2.803824110284969424e-03,2.640356775373220444e-03,1.436667114389776449e-02,-3.997370001604138440e-02,6.468001927829790387e-02,-4.858038205714308722e-02,-6.072820389721426959e-02,1.000000000000000056e-01,0.000000000000000000e+00,-0.000000000000000000e+00,-0.000000000000000000e+00,5.170038490798856134e-01,0.000000000000000000e+00,1.322217822074890137e+00,6.406109554635828829e+01,0.000000000000000000e+00
1.845639999999999947e+00,-4.647822137396683678e-02,4.694170354115986821e-02,9.636645913124084473e-01,1.368841818490063207e-02,-7.551306825726689098e-03,2.776386267024939514e-01,5.969289064315699486e-03,-8.521697224902110776e-03,1.002948824316263199e-02,1.934222725920668740e-02,5.339250213989377679e-03,-1.999717956669501071e-02,-4.947713699345752253e-02,-6.994846164584411774e-02,1.000000000000000056e-01,0.000000000000000000e+00,-0.000000000000000000e+00,-0.000000000000000000e+00,5.165162691556298702e-01,0.000000000000000000e+00,1.082312941551208496e+00,9.987243989308463199e+01,0.000000000000000000e+00
1.872007999999999894e+00,-4.679621302664932481e-02,4.697089425745943486e-02,9.631793498992919922e-01,1.363907335311580898e-02,-8.281524611014390302e-03,2.784933387939407812e-01,2.737577194763862048e-02,-1.008704699498162834e-05,2.155479509383440018e-03,-3.156218066864997784e-02,-5.558939062145949739e-02,2.924296862652743523e-02,-4.573080268258510050e-02,-5.580119960636264337e-02,1.000000000000000056e-01,0.000000000000000000e+00,-0.000000000000000000e+00,-0.000000000000000000e+00,5.171623126389018887e-01,0.000000000000000000e+00,1.312040925025939941e+00,8.759243595412954164e+01,0.000000000000000000e+00
1.896446000000000076e+00,-4.696566175130994364e-02,4.699270127362204647e-02,9.629549384117126465e-01,1.390549172743224711e-02,-8.295819435236051476e-03,2.792261753646492206e-01,1.022160435043065890e-02,-5.459922698102063896e-05,6.983763072639703751e-03,4.921624984895202337e-02,8.077972620766905865e-03,3.564136238099321202e-02,-4.480438408247006121e-02,-7.256622159821010665e-02,1.000000000000000056e-01,0.000000000000000000e+00,-0.000000000000000000e+00,-0.000000000000000000e+00,5.168547742932377842e-01,0.000000000000000000e+00,8.837612867355346680e-01,1.043454761390126322e+02,0.000000000000000000e+00
1.923186999999999980e+00,-4.716166275683572606e-02,4.695586108513739171e-02,9.627048969268798828e-01,1.360461514705299177e-02,-8.831377324048483857e-03,2.797601031580516651e-01,1.056623454663155499e-02,-5.412569681693395196e-03,7.322674151510000229e-03,-1.857580665955823121e-02,-5.855165787947018245e-03,-2.075377136900621866e-02,-4.764376693607782348e-02,-7.456717979167415411e-02,1.000000000000000056e-01,0.000000000000000000e+00,-0.000000000000000000e+00,-0.000000000000000000e+00,5.168741808167413021e-01,0.000000000000000000e+00,8.978339433670043945e-01,5.291927091559954022e+01,0.000000000000000000e+00
1.948159999999999892e+00,-4.724059314278900717e-02,4.711471634863257513e-02,9.625952839851379395e-01,1.312210730522797401e-02,-9.270262832842934841e-03,2.805308043387348960e-01,1.337589892619366061e-02,3.718361500978622190e-03,-6.631811847910284996e-04,-8.492346884816300012e-02,5.762306816629260333e-04,6.191499593171626709e-02,-3.710815139755163639e-02,-7.373918728506018150e-02,1.000000000000000056e-01,0.000000000000000000e+00,-0.000000000000000000e+00,-0.000000000000000000e+00,5.175071099628483218e-01,0.000000000000000000e+00,9.563447237014770508e-01,1.204169180862418074e+02,0.000000000000000000e+00
1.971198000000000006e+00,-4.718449665830658918e-02,4.755708695775799633e-02,9.624811410903930664e-01,1.306422115718968054e-02,-1.008969531787973217e-02,2.812110529316005358e-01,3.192204758295640824e-03,-7.678669714169752795e-03,1.808034814894199371e-02,5.924550294575443854e-02,-1.701376332012784556e-02,2.869041686350198156e-02,-4.470824397274505285e-02,-8.973353937595834884e-02,1.000000000000000056e-01,0.000000000000000000e+00,-0.000000000000000000e+00,-0.000000000000000000e+00,5.161537950950071396e-01,0.000000000000000000e+00,1.140912652015686035e+00,5.251516277335573335e+01,0.000000000000000000e+00
1.997068000000000065e+00,-4.713918227868119787e-02,4.778696655408657540e-02,9.625053405761718750e-01,1.303929291750339885e-02,-1.054867297882933208e-02,2.812688433813714806e-01,1.006407232448603729e-02,-1.236851956777279202e-02,1.642127335071563721e-02,1.672710773870646900e-02,-1.495321611997436385e-02,-1.391618770440453644e-02,-4.801719066308525463e-02,-8.641315504292104710e-02,1.000000000000000056e-01,0.000000000000000000e+00,-0.000000000000000000e+00,-0.000000000000000000e+00,5.162914194521086575e-01,0.000000000000000000e+00,7.165898084640502930e-01,-5.261886382797674067e+00,0.000000000000000000e+00
2.024763000000000090e+00,-4.704810724953249756e-02,4.814038624157387231e-02,9.625415205955505371e-01,1.312632371116067426e-02,-1.024852360649730620e-02,2.818688012274075394e-01,1.212932059544672737e-02,-8.665306197534162428e-04,1.232872344553470612e-02,-2.962226086759744276e-02,2.798666364679745777e-02,2.230444246593067670e-02,-3.866203240350459674e-02,-8.156852648199343359e-02,1.000000000000000056e-01,0.000000000000000000e+00,-0.000000000000000000e+00,-0.000000000000000000e+00,5.166164713798002683e-01,0.000000000000000000e+00,9.063385725021362305e-01,8.041804623108316719e+01,0.000000000000000000e+00
2.047095999999999805e+00,-4.709610390605690339e-02,4.837993985087760129e-02,9.625598788261413574e-01,1.315908383429194133e-02,-1.015219714282378227e-02,2.823264339359901065e-01,4.114821829814284404e-03,-3.491225689568655359e-03,2.945535443723201752e-02,3.644378921066856319e-02,-3.354705418577856764e-03,4.949950511760031757e-02,-4.051814821402987404e-02,-8.845513606553589980e-02,1.000000000000000056e-01,0.000000000000000000e+00,-0.000000000000000000e+00,-0.000000000000000000e+00,5.153617396833082287e-01,0.000000000000000000e+00,7.811070680618286133e-01,9.826588377764926463e+01,0.000000000000000000e+00
2.073630000000000084e+00,-4.748264876590700678e-02,4.875095690715284397e-02,9.627543091773986816e-01,1.290561822446252560e-02,-1.017258679856891668e-02,2.828963465030291946e-01,8.669712436532379246e-03,-9.390822427282072629e-03,2.605478279292583466e-02,3.475069689522319871e-02,4.143043896914922440e-03,-2.749897833412540127e-02,-4.375312486129227102e-02,-8.518441590699604715e-02,1.000000000000000056e-01,0.000000000000000000e+00,-0.000000000000000000e+00,-0.000000000000000000e+00,5.156060394283051851e-01,0.000000000000000000e+00,1.781726002693176270e+00,-2.005779647894248896e+01,0.000000000000000000e+00
2.096548999999999996e+00,-4.771765720006809763e-02,4.897587070420023059e-02,9.629105329513549805e-01,1.266934263688585145e-02,-1.049954078972370475e-02,2.834595113385414145e-01,7.627828498033114440e-03,-8.700051715079520215e-03,2.176279015839099884e-02,-1.752618911640636129e-02,-2.847037111221938088e-02,5.200961828975899509e-02,-4.035112338703620433e-02,-8.870672688196866440e-02,1.000000000000000056e-01,0.000000000000000000e+00,-0.000000000000000000e+00,-0.000000000000000000e+00,5.159260583667256705e-01,0.000000000000000000e+00,5.480746030807495117e-01,1.069598676476184096e+02,0.000000000000000000e+00
2.122100000000000097e+00,-4.804015733464717802e-02,4.923256673488153601e-02,9.632260799407958984e-01,1.308685126286267611e-02,-1.069528204095493429e-02,2.841241172910660140e-01,1.310047217594113161e-02,-8.380786091405194056e-04,2.576583251357078552e-02,5.633660651622290211e-02,2.097698659916921726e-02,2.945941035463793545e-02,-3.768029987247002721e-02,-8.426315196177155964e-02,1.000000000000000056e-01,0.000000000000000000e+00,-0.000000000000000000e+00,-0.000000000000000000e+00,5.156192070145779738e-01,0.000000000000000000e+00,7.786492109298706055e-01,3.713452957387623599e+01,0.000000000000000000e+00
2.147844999999999782e+00,-4.807969621323194415e-02,4.892681434673914337e-02,9.635036587715148926e-01,1.311767937805370134e-02,-1.047229154580775479e-02,2.841100205995066297e-01,1.363991958287836571e-02,-1.457226464071335534e-02,1.959025673568248749e-02,-2.932218278950048454e-02,-2.096857179909819568e-02,-2.533977665973957162e-03,-4.961173747139929063e-02,-8.596341420486812435e-02,1.000000000000000056e-01,0.000000000000000000e+00,-0.000000000000000000e+00,-0.000000000000000000e+00,5.160658253251252381e-01,0.000000000000000000e+00,1.123839020729064941e+00,1.009030812878937127e+02,0.000000000000000000e+00
2.173702000000000023e+00,-4.785516615552751207e-02,4.782359121376135447e-02,9.639455676078796387e-01,1.359198978204734752e-02,-9.790674087626793920e-03,2.847711279453839506e-01,1.008671848990746155e-02,-1.035316333715702655e-02,1.723205670714378357e-02,-5.845335314100162660e-02,6.086194236056484408e-02,5.310889421929141513e-02,-4.710577746371575475e-02,-8.306976816407210529e-02,1.000000000000000056e-01,0.000000000000000000e+00,-0.000000000000000000e+00,-0.000000000000000000e+00,5.162266001283566386e-01,0.000000000000000000e+00,1.189434409141540527e+00,7.554247961660965416e+01,0.000000000000000000e+00
2.196207999999999938e+00,-4.770489207339646820e-02,4.708332736035190924e-02,9.642029404640197754e-01,1.374340211849837262e-02,-9.513991010430933315e-03,2.850050786081008702e-01,1.525664171873185142e-02,-7.609090307287407970e-03,2.733408473432064056e-02,7.045774954003581302e-03,-1.777334450789464643e-02,-1.951644813038668977e-02,-4.768020981149652393e-02,-7.646621272841598593e-02,1.000000000000000056e-01,0.000000000000000000e+00,-0.000000000000000000e+00,-0.000000000000000000e+00,5.154704971394408197e-01,0.000000000000000000e+00,1.732534289360046387e+00,-3.638295263308095429e+01,0.000000000000000000e+00
2.221350999999999853e+00,-4.751151898452045386e-02,4.603389274616062621e-02,9.645265936851501465e-01,1.319248086261700509e-02,-8.920040811689400329e-03,2.857600037913305968e-01,2.749059673026157252e-03,-2.218939727165726919e-02,2.229442074894905090e-02,-6.233280254607299897e-02,-4.133325903863711175e-04,2.858426829423903193e-02,-5.380582445817491677e-02,-8.606594787918790679e-02,1.000000000000000056e-01,0.000000000000000000e+00,-0.000000000000000000e+00,-0.000000000000000000e+00,5.158300093726054802e-01,0.000000000000000000e+00,1.115838170051574707e+00,1.083764898626140791e+02,0.000000000000000000e+00
2.248050000000000104e+00,-4.738031620400322969e-02,4.534390129736763642e-02,9.647436141967773438e-01,1.337236133336789680e-02,-8.898859470090281221e-03,2.860788863780736602e-01,1.877190512050580865e-02,-5.677359664676516829e-03,1.620354317128658295e-02,-2.708375856233700106e-03,1.725095325819774733e-02,-1.889063146229302175e-03,-4.364463535879632705e-02,-6.825859635829285843e-02,1.000000000000000056e-01,0.000000000000000000e+00,-0.000000000000000000e+00,-0.000000000000000000e+00,5.162806498952587919e-01,0.000000000000000000e+00,1.028511404991149902e+00,5.866097040362779325e+01,0.000000000000000000e+00
2.275014000000000092e+00,-4.743257653643580263e-02,4.466812903921366790e-02,9.651570916175842285e-01,1.337281462055999251e-02,-8.895272057993786063e-03,2.865241234220630151e-01,1.507669422323140544e-03,-1.554299003632042368e-02,2.629665285348892212e-02,-1.782924340636010034e-03,-2.091652932159500031e-02,2.602609245582862205e-02,-5.023866921986806788e-02,-8.651092310147155684e-02,1.000000000000000056e-01,0.000000000000000000e+00,-0.000000000000000000e+00,-0.000000000000000000e+00,5.155159278345977647e-01,0.000000000000000000e+00,8.867939710617065430e-01,1.031618180162277554e+02,0.000000000000000000e+00
2.299509000000000025e+00,-4.745798187429580567e-02,4.421151852906236857e-02,9.654281735420227051e-01,1.325262146604053518e-02,-8.413025375099802972e-03,2.867025281554007599e-01,-1.510625613564405261e-03,-1.792880108890645974e-02,1.377587486058473587e-02,-5.904502557993852874e-02,3.894450742430017459e-02,2.489524457382883207e-02,-4.999951050175318462e-02,-8.355001055160110601e-02,1.000000000000000056e-01,0.000000000000000000e+00,-0.000000000000000000e+00,-0.000000000000000000e+00,5.164374826960722586e-01,0.000000000000000000e+00,1.416000008583068848e+00,6.787167857487591505e+01,0.000000000000000000e+00
2.323850000000000193e+00,-4.742043403186951139e-02,4.377889210436918671e-02,9.657070636749267578e-01,1.335197141396680595e-02,-8.226356792462086176e-03,2.869531730145669091e-01,8.149874482054883518e-03,-7.609421607853003935e-03,1.680088229477405548e-02,-3.879625238741054444e-02,5.084737234399890060e-02,-2.211415326496415836e-03,-4.411875979464593284e-02,-7.260685930978351410e-02,1.000000000000000056e-01,0.000000000000000000e+00,-0.000000000000000000e+00,-0.000000000000000000e+00,5.162104514966056046e-01,0.000000000000000000e+00,9.212094545364379883e-01,8.179100304671494825e+01,0.000000000000000000e+00
2.351125000000000131e+00,-4.739703157036923020e-02,4.311807323978705808e-02,9.662088155746459961e-01,1.257170916322057283e-02,-8.042089137963337464e-03,2.876116273080742136e-01,4.670672093369918412e-03,-2.220844418705384196e-02,2.827305346727371216e-02,2.781064865732438187e-03,-1.376035077404506521e-02,8.260547695955678532e-03,-5.105465525237473656e-02,-7.898903984846941673e-02,1.000000000000000056e-01,0.000000000000000000e+00,-0.000000000000000000e+00,-0.000000000000000000e+00,5.153311221248700891e-01,0.000000000000000000e+00,8.414896726608276367e-01,7.046669966699553811e+01,0.000000000000000000e+00
2.372726999999999808e+00,-4.752926869633609941e-02,4.280392538649972767e-02,9.666218161582946777e-01,1.231081896631018927e-02,-8.389761025870523525e-03,2.879329908364063328e-01,4.231758579479896754e-03,-1.909243251823844814e-02,2.589233592152595520e-02,9.976730859375360430e-03,-4.257191182147669617e-02,3.965689415000889922e-02,-4.510980690692358713e-02,-8.038450404630465007e-02,1.000000000000000056e-01,0.000000000000000000e+00,-0.000000000000000000e+00,-0.000000000000000000e+00,5.154841877203142353e-01,0.000000000000000000e+00,1.518563866615295410e+00,1.210890360213277290e+02,0.000000000000000000e+00
2.396736000000000200e+00,-4.768707643938563390e-02,4.228852061396928125e-02,9.672893285751342773e-01,1.226627778934265799e-02,-8.312447865170602412e-03,2.881702336819498278e-01,9.741536106380399573e-03,-1.665851186922709740e-02,2.709365636110305786e-02,1.410186833933462294e-02,3.425386513325412441e-02,-2.041180524882771352e-02,-4.449789570149454560e-02,-7.549098954548064122e-02,1.000000000000000056e-01,0.000000000000000000e+00,-0.000000000000000000e+00,-0.000000000000000000e+00,5.153507419896876662e-01,0.000000000000000000e+00,9.017146825790405273e-01,1.197259215082899573e+02,0.000000000000000000e+00
2.424792000000000058e+00,-4.771266877165326881e-02,4.177665432741626411e-02,9.679544568061828613e-01,1.224607062163673814e-02,-7.864144479835744050e-03,2.882834907594769014e-01,1.601611487380992169e-02,-2.058414130165612393e-02,3.261717781424522400e-02,2.727318376462165017e-02,-2.679152739624685725e-02,-3.211133974452512474e-02,-4.869801729905293836e-02,-6.947525371498967928e-02,1.000000000000000056e-01,0.000000000000000000e+00,-0.000000000000000000e+00,-0.000000000000000000e+00,5.148918509027056167e-01,0.000000000000000000e+00,4.481209516525268555e-01,8.899605348894550616e+01,0.000000000000000000e+00
