timestamp,x,y,z,roll,pitch,yaw,vx,vy,vz,p,q,r,psp,qsp,rsp,pres,qres,rres,thrust_sp, thrust_res
0.000000000000000000e+00,-2.425860346953572985e-02,2.383182870211408844e-02,9.961968064308166504e-01,1.563479574808734895e-02,-1.859369228392804274e-03,-8.859730107087827877e-04,2.330695566910330127e-02,9.820282599608452789e-03,-5.249219480901956558e-03,1.139858992875189894e-02,-8.655519439842941989e-03,-1.166633250375547978e-02,-2.896314991737996003e-01,1.842446175634047112e-01,-2.710013361977133689e-02,-2.109408617019653265e-01,1.927645683288574108e-01,-2.465454339981078963e-02,5.264671999572455574e-01,7.458024024963378906e-01,-1.000769019126892090e+00,9.079795301464324098e+01,0.000000000000000000e+00
2.558500000000000010e-02,-2.421045592165361679e-02,2.408802458306215019e-02,9.962956309318542480e-01,1.532161459113716255e-02,-1.423011384259709189e-03,-1.059925214523137291e-03,3.562357429952026013e-05,-9.179995800493468208e-03,1.269113156013190746e-03,8.654174949047467938e-03,-2.935703480984705200e-03,-8.862075902694187268e-03,-3.125135822872928681e-01,1.685584587979950810e-01,-8.352322744883035333e-02,-2.193155050277710016e-01,1.964857220649719183e-01,-8.065352439880370261e-02,5.259482950682542457e-01,7.435967922210693359e-01,-1.247995972633361816e+00,9.555592426217666002e+01,0.000000000000000000e+00
5.078499999999999681e-02,-2.417561881907079324e-02,2.423073071308510726e-02,9.963434338569641113e-01,1.483865388991055523e-02,-1.438368753992280702e-03,-1.129145341204037048e-03,1.211796175160143735e-02,7.594875881880765525e-03,-8.955506607890129089e-03,3.895694387919093876e-03,1.149782460922144220e-03,-7.169146565640421159e-03,-2.644383746093944554e-01,2.010104265110735089e-01,1.484689291685038423e-02,-1.908666193485260010e-01,2.158859968185424805e-01,1.794971823692321708e-02,5.223429262051340061e-01,5.070282220840454102e-01,-1.174192309379577637e+00,1.252579649246500821e+02,0.000000000000000000e+00
7.447199999999999653e-02,-2.413914789205712230e-02,2.445338628910134759e-02,9.962883591651916504e-01,1.335437768020787674e-02,-2.418250892563644783e-03,-6.712683171748861114e-04,6.519027276875699606e-03,-2.343385585931033639e-03,-9.275966440327465534e-04,-2.750284250174569404e-03,3.058678934692310317e-04,-4.908793594598811864e-03,1.469481524035084752e-01,1.980426796890858987e-01,-2.270462582385392725e-01,2.210970282554626520e-01,2.256022810935973955e-01,-2.252575278282165361e-01,5.263853154537856405e-01,7.578402757644653320e-01,-1.587761282920837402e+00,3.452320482020778769e+01,0.000000000000000000e+00
9.898999999999999466e-02,-2.414207966999935839e-02,2.485222966840149733e-02,9.961841702461242676e-01,1.066913142921797376e-02,-3.520895200974427652e-03,-5.092934207535970747e-04,2.767959014607046433e-03,5.159097466442726966e-03,1.837005605921149254e-03,-1.287148310052547984e-02,-3.747669581682543626e-03,-3.114891116576631869e-03,1.570522667577806675e-01,1.838513846377196614e-01,-2.276833803472900208e-01,2.058680534362792858e-01,2.208582043647766002e-01,-2.263675689697265403e-01,5.262009267270146839e-01,7.581422328948974609e-01,-1.143025517463684082e+00,1.109404745751451600e+02,0.000000000000000000e+00
1.252169999999999950e-01,-2.425909255170613857e-02,2.551256636929168098e-02,9.960187673568725586e-01,5.613448805174722084e-03,-7.631306887847078002e-03,3.125794649694134527e-04,8.713585724508123020e-03,7.367188933747630640e-03,-5.040892865508794785e-03,-2.711944390266047764e-02,-1.364792386982464738e-02,2.043014116327358939e-04,1.019928985871450533e-01,1.595872776260877368e-01,-2.224568555183082941e-01,1.167737960815429660e-01,2.180518269538879450e-01,-2.234448194503784180e-01,5.266868033277883887e-01,7.563487291336059570e-01,-1.061350226402282715e+00,9.380339334379976890e+01,0.000000000000000000e+00
1.501280000000000114e-01,-2.443220828004187550e-02,2.592087291010875330e-02,9.959354996681213379e-01,3.662200717444012189e-03,-1.142078755705844273e-02,1.987541212725201390e-03,-9.476541982487077589e-03,1.091626093534196068e-03,-4.011084325611591339e-03,-3.758352640548092566e-02,-2.748898849966381966e-02,4.567934063689484299e-03,-1.474173185693400112e-01,1.015150853800841635e-01,-2.074460708569444145e-01,-1.403027772903442383e-01,2.003372132778167558e-01,-2.131437420845031794e-01,5.265022734467712517e-01,7.495608329772949219e-01,-4.086161851882934570e-01,-3.647273546972077440e+01,0.000000000000000000e+00
1.742980000000000085e-01,-2.482017907996863018e-02,2.639516863222043236e-02,9.959486722946166992e-01,4.316574744338858884e-03,-1.841106599455022419e-02,5.078221475329887380e-03,-2.162145948915167228e-03,8.007828008617882271e-03,-5.589339416474103928e-03,-4.321442966688608667e-02,-4.463738101005434306e-02,1.091640070456202476e-02,-1.773484127138245381e-01,-1.470066070556640681e-01,-5.682220015087337261e-02,-1.728129029273986761e-01,-4.700660705566406250e-02,-7.127348184585570456e-02,5.261816271003395551e-01,7.254472970962524414e-01,3.284240961074829102e-01,-8.596715145998999219e+00,0.000000000000000000e+00
1.990210000000000035e-01,-2.512763186162521312e-02,2.700990721508471012e-02,9.959868192672729492e-01,5.348186501674396034e-03,-2.255152723915765378e-02,7.239788482510889356e-03,-1.909488620721976060e-02,-3.070951823279610433e-03,8.705385960638523102e-03,-4.330001206582867468e-02,-6.101427787092477545e-02,1.852461113014396490e-02,-2.113007911182608334e-01,-3.090925693511962780e-01,1.825187045465641034e-01,-1.906559944152831920e-01,-2.090925693511962724e-01,1.619594693183898926e-01,5.241321662793954061e-01,6.708052158355712891e-01,-1.129622817039489746e+00,9.530142458351281221e+01,0.000000000000000000e+00
2.242719999999999991e-01,-2.565808872591172907e-02,2.800717409271663572e-02,9.959120750427246094e-01,4.781516930544122204e-03,-2.658801872559557467e-02,1.031437428018685057e-02,-6.701160828935636554e-03,1.345254871639051976e-02,-7.874245755374431610e-03,-3.903833360722022000e-02,-7.360717664170209062e-02,2.645291381460210950e-02,-2.022875771225994823e-01,-3.169058084487915150e-01,2.414071530520305320e-01,-2.007897377014160045e-01,-2.169058084487915095e-01,2.121414542198181152e-01,5.253640885013668438e-01,6.713372468948364258e-01,-1.465343952178955078e+00,9.887932355757561709e+01,0.000000000000000000e+00
2.494379999999999931e-01,-2.587995409506835265e-02,2.877014905584393892e-02,9.956637620925903320e-01,2.234945241877784629e-03,-2.680043040164936663e-02,1.079056659452747903e-02,-7.304154630610674125e-03,1.268087019802593973e-02,-9.777131490409374237e-03,-4.177977284924727641e-02,-8.686208032213391106e-02,3.578103505849972166e-02,-1.907193737236136111e-01,-3.150518655776977650e-01,2.439371998698568467e-01,-2.033384799957275446e-01,-2.150518655776977595e-01,2.134535908699035645e-01,5.256029753257748238e-01,6.751341819763183594e-01,-9.295169115066528320e-01,1.007435144085038701e+02,0.000000000000000000e+00
2.752809999999999979e-01,-2.608816761448663063e-02,2.997190030370866509e-02,9.949638247489929199e-01,-3.723386503404966987e-03,-2.294418457257529909e-02,8.840832724859644387e-03,2.364857817379902418e-04,2.338360922008343376e-02,-3.017789684236049652e-02,-5.085568732631685906e-02,-9.066022805542103824e-02,3.947351822331666982e-02,-2.463221718997371523e-02,-1.948343992233276256e-01,2.450109197535754457e-01,-8.550274372100830078e-02,-9.483439922332763394e-02,2.201887428760528620e-01,5.275567945423894622e-01,6.963834762573242188e-01,-1.661257147789001465e+00,-3.980038655787806334e+01,0.000000000000000000e+00
2.995149999999999757e-01,-2.586089318100394385e-02,3.074729850358629696e-02,9.942723512649536133e-01,-8.242583011649000715e-03,-1.810636537378007560e-02,6.947163510922720921e-03,2.774985797871785780e-03,2.444979453577483808e-02,-3.487936407327651978e-02,-6.430549662234576191e-02,-8.607295922206353866e-02,3.853026524021917892e-02,1.050450065345888695e-01,1.238779425621032437e-02,2.274949680124616624e-01,1.480461359024047747e-02,1.123877942562103299e-01,2.081174254417419434e-01,5.284105742086091517e-01,7.196667194366455078e-01,-1.107800126075744629e+00,1.097131852039422455e+02,0.000000000000000000e+00
3.270279999999999854e-01,-2.503559314088096149e-02,3.177632922787435032e-02,9.930259585380554199e-01,-1.400264736509920435e-02,-9.332023643227271847e-03,2.979694677697280851e-03,1.545176317982195797e-03,3.044592555306260481e-02,-3.231909498572349548e-02,-8.111688372210042186e-02,-6.791495600613919881e-02,3.008057203854510447e-02,2.614856481552124134e-01,1.389754540026007790e-01,-1.538314939336571097e-01,1.614856481552124079e-01,2.154644429683685303e-01,-1.620509147644042802e-01,5.288293973721732710e-01,7.456794977188110352e-01,-9.155026674270629883e-01,-4.869947417843352611e+01,0.000000000000000000e+00
3.484419999999999740e-01,-2.452147087672102918e-02,3.254319170515605070e-02,9.921936988830566406e-01,-1.671010515440232713e-02,-3.637602363307790299e-03,1.961267580259121667e-04,-4.461924199389655753e-03,2.786406380125706558e-02,-3.417197614908218384e-02,-9.407922947603648833e-02,-4.297514473334937413e-02,1.902426921157493456e-02,3.166389465332031250e-01,1.762582293298380343e-01,-2.178586856130187710e-01,2.166389465332031194e-01,2.201632618904113825e-01,-2.183079957962036077e-01,5.291840600319994703e-01,7.523704767227172852e-01,-1.258225560188293457e+00,1.165244615801432388e+02,0.000000000000000000e+00
3.767240000000000033e-01,-2.394724688673708496e-02,3.371506285227538618e-02,9.910852313041687012e-01,-1.625823817775274086e-02,1.556199082851650317e-03,-2.800335577118446499e-03,-1.740033215023299067e-03,4.434250112295128748e-02,-2.855374850332736969e-02,-9.564036288680392850e-02,-1.322177516618923063e-02,5.610540363060384506e-03,3.143537402153014915e-01,2.159796870004905833e-01,-1.654460670600180483e-01,2.143537402153015137e-01,2.228792130947112871e-01,-1.575936198234557939e-01,5.285368994650309071e-01,7.326714992523193359e-01,-1.488994002342224121e+00,1.251906602405687750e+02,0.000000000000000000e+00
3.977149999999999852e-01,-2.366932057964748343e-02,3.419106748084089348e-02,9.905675053596496582e-01,-1.307407921798067404e-02,2.224664348723592866e-03,-2.563803361236201023e-03,-2.296092916037261594e-02,2.955617335643211108e-02,-1.314860861748456955e-02,-8.901131807873804980e-02,1.687180752509538639e-02,-6.034981083981360087e-03,2.945775270462036022e-01,2.039265845509880548e-01,1.975908081966015750e-01,1.945775270462035966e-01,2.239318907260894609e-01,2.047984600067138672e-01,5.269152990274211801e-01,7.019435167312622070e-01,-5.485471487045288086e-01,-1.034196098460715518e+02,0.000000000000000000e+00
4.242469999999999852e-01,-2.341970672074695017e-02,3.446402218051618921e-02,9.900875091552734375e-01,-5.263853013626496394e-03,1.873568037582540313e-04,-6.365837178923712276e-04,-1.043544618660808762e-02,4.758123916469667036e-02,-1.212925557047128677e-02,-7.103015696174511118e-02,4.137455236123802060e-02,-1.431941856661737844e-02,-1.203451697997414138e-01,2.058969143101168631e-01,1.927076645046151004e-01,-2.126552581787109208e-01,2.259408652782440019e-01,1.944742441177368109e-01,5.275322194100852125e-01,7.364106178283691406e-01,-3.910672664642333984e-02,-9.003071786517571695e+01,0.000000000000000000e+00
4.491290000000000004e-01,-2.323827346040111680e-02,3.464993241698401810e-02,9.898666739463806152e-01,1.063802175243153082e-03,-2.774774416600456206e-03,-2.758113613300509416e-04,-2.065888585339577949e-02,3.147352528742675126e-02,-1.935650245286524296e-03,-4.798620000906915484e-02,6.014676846150977807e-02,-2.208609793792843529e-02,-1.891772624912111955e-01,1.747525658994644737e-01,1.567582766453376464e-01,-2.252456367015838457e-01,2.241847515106201172e-01,1.574488162994384655e-01,5.268737423648355289e-01,7.395044565200805664e-01,-1.230430245399475098e+00,8.641025315220539937e+01,0.000000000000000000e+00
4.749820000000000153e-01,-2.299617312137568897e-02,3.502635511486552194e-02,9.894927740097045898e-01,8.990441656202691201e-03,-8.269186527382288432e-03,-2.517632612506325723e-03,-1.042696443135397201e-02,5.453920629159218075e-02,-1.096341852098703384e-02,-2.302365001740627748e-02,6.803576497985727722e-02,-3.150629956194093279e-02,-2.210627253043440377e-01,1.476981183584315238e-01,1.019742048883943292e-01,-2.269309401512145941e-01,2.231823563575744684e-01,1.087168335914611844e-01,5.277227445254198956e-01,7.472221851348876953e-01,-1.247658133506774902e+00,9.721448543795251851e+01,0.000000000000000000e+00
4.991300000000000181e-01,-2.295159748619194501e-02,3.551426338233084484e-02,9.890773892402648926e-01,1.117176916377156555e-02,-1.208450011438033656e-02,-4.078118171542567845e-03,-1.253769485822182894e-02,5.041181113979378153e-02,-2.572538517415523529e-02,2.089758397425506287e-03,6.716759932425198087e-02,-4.120933624754428981e-02,-2.407261888964459251e-01,1.225034356117248313e-01,1.726299729632806146e-01,-2.261407971382141113e-01,2.225034356117248369e-01,1.836006760597228837e-01,5.288770401246757347e-01,7.486095428466796875e-01,-1.453781962394714355e+00,1.087205538118642920e+02,0.000000000000000000e+00
5.257929999999999549e-01,-2.304331728421434369e-02,3.669625484987151798e-02,9.880149364471435547e-01,9.595145928099665933e-03,-1.708636516256500926e-02,-6.600808273001703384e-03,-2.103222620825113964e-02,5.994135299014917428e-02,-4.028421640396118164e-02,2.526180852394086657e-02,5.232911153021711781e-02,-5.062999125701701797e-02,2.027596739700339712e-01,1.229474127292632946e-01,2.049972076068139193e-01,1.980301737785339355e-01,2.229474127292633001e-01,2.228672146797180120e-01,5.296913787684106589e-01,7.285115718841552734e-01,-1.524351239204406738e+00,9.810897384184654868e+01,0.000000000000000000e+00
5.498800000000000354e-01,-2.316124536478744028e-02,3.758423472559207362e-02,9.871888160705566406e-01,6.359006124192815267e-03,-2.048850178123085009e-02,-8.156724447682912188e-03,-1.275974488159716154e-02,6.165086881128361423e-02,-3.840545564889907837e-02,4.287962959699857107e-02,2.897441331527348882e-02,-5.767664546218451843e-02,1.071526562626074208e-01,1.171042203903198131e-01,1.863175002522900747e-01,8.041859865188598355e-02,2.171042203903198187e-01,2.085863292217254583e-01,5.291453484769209625e-01,7.003011703491210938e-01,-1.251455664634704590e+00,1.125133988391073956e+02,0.000000000000000000e+00
5.767539999999999889e-01,-2.344172458610955037e-02,3.901497597167403325e-02,9.858654737472534180e-01,8.207136623770957054e-04,-2.526345956837783291e-02,-1.111887116789183998e-02,-2.704161778410150985e-02,6.385118327161665164e-02,-4.310461133718490601e-02,5.306423244306222864e-02,-5.813487302365039251e-03,-5.787598159118605146e-02,-3.772042396367937533e-02,9.980311393737792414e-02,2.295411304916639833e-02,-1.030890941619873047e-01,1.998031139373779297e-01,5.357937812805175365e-02,5.297096740943199045e-01,7.042787075042724609e-01,-7.665108442306518555e-01,1.435993314500737768e+02,0.000000000000000000e+00
5.988710000000000422e-01,-2.379235310108831353e-02,4.026517995325629151e-02,9.850236773490905762e-01,-5.841909232623714509e-04,-2.873642980597224117e-02,-1.365205554312899812e-02,-3.140778463146409738e-02,5.313612444618757286e-02,-3.896158561110496521e-02,5.916238700379115173e-02,-4.535800517032049367e-02,-5.750351008559424770e-02,6.563047958752410427e-02,-1.452824831008911188e-01,1.260547501208492960e-01,-1.227682828903198155e-03,-4.528248310089111328e-02,1.638362646102905218e-01,5.291673293021783575e-01,6.851406097412109375e-01,-7.085001468658447266e-02,-1.385865873163097284e+00,0.000000000000000000e+00
6.250130000000000408e-01,-2.464442492693138392e-02,4.262930025634182468e-02,9.839585423469543457e-01,6.314801726119037388e-04,-3.357796364487208862e-02,-1.685683842925193160e-02,-2.882973222182683842e-02,5.930681537351096405e-02,-3.358167037367820740e-02,6.093165778157131479e-02,-8.437018277581950776e-02,-5.617469144856641894e-02,3.110660100813942425e-02,-3.028308272361755482e-01,1.577702603056018171e-01,-3.637357950210571428e-02,-2.028308272361755427e-01,2.043275535106658936e-01,5.294247812795248587e-01,7.135791778564453125e-01,-1.510269761085510254e+00,1.178653779783784756e+02,0.000000000000000000e+00
6.494499999999999718e-01,-2.525834516333104116e-02,4.422466268120121141e-02,9.832347631454467773e-01,2.044053240082826552e-03,-3.523427591776950862e-02,-1.840826316755842310e-02,-4.420704069392090985e-02,5.478812489228444133e-02,-3.238631784915924072e-02,6.097497784552045885e-02,-1.178612157905784830e-01,-5.774223226218484772e-02,-5.614992321325130292e-02,-3.220142364501953347e-01,1.444548571619447552e-01,-1.111711621284484780e-01,-2.220142364501953014e-01,1.952400147914886419e-01,5.292889400477800432e-01,7.054049968719482422e-01,2.477620840072631836e-01,9.895593095930647110e+01,0.000000000000000000e+00
6.755349999999999966e-01,-2.627736022065467122e-02,4.670386189050650810e-02,9.821754693984985352e-01,3.759907665107103773e-03,-3.445449702166691885e-02,-2.171472003374292498e-02,-2.751477221101656517e-02,7.307887371959524703e-02,-4.235522821545600891e-02,5.453330809897428966e-02,-1.340145541568398546e-01,-6.571387542544937510e-02,-2.515903899485846112e-02,-3.138319969177246205e-01,1.189710594183717440e-01,-8.625440597534179965e-02,-2.138319969177246149e-01,1.788239121437072698e-01,5.303196004136879749e-01,7.149609327316284180e-01,-1.464892029762268066e+00,1.154715879195857724e+02,0.000000000000000000e+00
7.006299999999999750e-01,-2.695770709473587282e-02,4.839059749418020417e-02,9.814318418502807617e-01,4.479159199946668515e-03,-3.105106338394580945e-02,-2.395918167764277823e-02,-3.801631620403301409e-02,6.756731977715971227e-02,-4.590697959065437317e-02,4.140794611003628667e-02,-1.347269531237801077e-01,-7.544138630479238494e-02,-1.446799147365566973e-02,-3.068254947662353294e-01,1.250278727255199063e-01,-6.493588685989379328e-02,-2.068254947662353516e-01,1.912138044834136852e-01,5.305125327843238647e-01,7.053403854370117188e-01,-1.449104666709899902e+00,8.160543363715486009e+01,0.000000000000000000e+00
7.276529999999999943e-01,-2.834267858841355361e-02,5.086985952256400240e-02,9.803212881088256836e-01,4.770380297952151946e-03,-2.231048054644269030e-02,-2.751914671545394736e-02,-3.580118521865827130e-02,7.736223931145994048e-02,-4.912874847650527954e-02,2.093630082691827141e-02,-1.113770498412514076e-01,-8.648314580822560882e-02,1.405523595864396902e-01,-1.301190257072448730e-01,1.088222213262150240e-01,8.180065155029296597e-02,-3.011902570724487097e-02,1.851124227046966608e-01,5.310831235745741008e-01,7.157306671142578125e-01,-1.301566958427429199e+00,1.096639941815398203e+02,0.000000000000000000e+00
7.493450000000000388e-01,-2.929999372697867158e-02,5.254018324975416598e-02,9.795352816581726074e-01,4.564122543790824320e-03,-1.571294092904174100e-02,-2.974083144418100677e-02,-2.819321550598253776e-02,7.316090173490309712e-02,-5.535547062754631042e-02,-6.998600702198268719e-04,-7.498688784346685399e-02,-9.578899615636084219e-02,1.725690979155488358e-01,7.384315729141233131e-02,-1.678543931087975727e-01,1.160745263099670355e-01,1.738431572914123369e-01,-8.512823581695556918e-02,5.318599258496345961e-01,7.270767688751220703e-01,-1.321098923683166504e+00,9.900084628328848169e+01,0.000000000000000000e+00
7.749500000000000277e-01,-3.076204753694054481e-02,5.510833855273047227e-02,9.782681465148925781e-01,4.066555642974359862e-03,-5.332691768792585663e-03,-3.297824814327829368e-02,-4.740438125410485065e-02,7.887697722715131254e-02,-5.921946838498115540e-02,-1.543935609964557955e-02,-2.639322514626165489e-02,-1.001492549066291121e-01,2.639701236998893696e-01,1.282227747477211188e-01,-2.755078908280675920e-01,1.981561303138732744e-01,2.219566941261291448e-01,-1.835358381271362249e-01,5.328201218597651279e-01,7.548879384994506836e-01,-1.366359829902648926e+00,9.741360594282589602e+01,0.000000000000000000e+00
7.997079999999999744e-01,-3.189683780528821538e-02,5.682074840879336453e-02,9.774445295333862305e-01,5.270531529151602050e-03,-4.040618633609494026e-04,-3.400003110302346476e-02,-4.356134813240323395e-02,7.588278382970863045e-02,-4.498315230011940002e-02,-1.873780689414910813e-02,2.291352414730695591e-02,-1.015313358275338196e-01,2.732294460056866603e-01,1.705545768158803210e-01,1.313385342175402981e-01,2.168076038360595703e-01,2.276526153087615745e-01,2.263048231601715032e-01,5.317622350966482170e-01,7.465448379516601562e-01,-1.118482232093811035e+00,1.043585969324082185e+02,0.000000000000000000e+00
8.235630000000000450e-01,-3.303763257247040869e-02,5.804109380166475041e-02,9.767335057258605957e-01,7.557487377328595338e-03,2.218208946838107209e-03,-3.381986702590149968e-02,-5.932060289364440853e-02,6.964309880071527237e-02,-3.851243853569030762e-02,-6.812218725103675113e-03,6.784190313951432572e-02,-9.942977295797932047e-02,-1.833881163878997300e-01,1.735935110052133079e-01,1.292515158837006795e-01,-2.212419748306274359e-01,2.277974724769592230e-01,2.237036347389221025e-01,5.315565281682215204e-01,7.546885013580322266e-01,-1.389199376106262207e+00,1.019760903461243799e+02,0.000000000000000000e+00
8.502380000000000493e-01,-3.488768080920306297e-02,5.975285661560177097e-02,9.759433865547180176e-01,1.371864691911129676e-02,2.084530603808421034e-03,-3.250699233677496747e-02,-4.898217569096397633e-02,6.518570163346447399e-02,-2.992873825132846832e-02,1.469020737364392683e-02,1.011437243182653906e-01,-9.142573301842445155e-02,-2.040430701153455595e-01,1.773544043697504180e-01,1.303237494652874362e-01,-2.011628687381744329e-01,2.236230611801147405e-01,2.210780739784240778e-01,5.308584041474768700e-01,7.447565793991088867e-01,-1.152405858039855957e+00,-6.636719963658637766e+01,0.000000000000000000e+00
8.770850000000000035e-01,-3.674741273312567835e-02,6.134434225586498507e-02,9.752356410026550293e-01,2.036609103126406708e-02,-1.286810297686846738e-03,-3.380828311678645698e-02,-6.553924030449539972e-02,6.250800944387099878e-02,-3.101330623030662537e-02,4.098616189564986689e-02,1.190651131508743549e-01,-8.136891551279748502e-02,-1.205167306324132215e-01,1.371357953737157853e-01,2.957534797375006852e-02,-7.399098873138428012e-02,2.218577921390533503e-01,1.236287713050842202e-01,5.309184900824681641e-01,7.377400398254394531e-01,-1.274406552314758301e+00,8.263190178638106431e+01,0.000000000000000000e+00
8.982400000000000384e-01,-3.795291065143672343e-02,6.250569733305862130e-02,9.746648669242858887e-01,2.237060316847211058e-02,-3.831241249566907925e-03,-3.549703870919747317e-02,-5.647601348701319218e-02,7.208840958192130888e-02,-3.012798726558685303e-02,6.130649083702523899e-02,1.282858427111424893e-01,-7.307802234898155835e-02,7.900377018562818043e-02,1.288135668483021412e-01,-2.059387452930365459e-01,1.291125297546386608e-01,2.220661640167236328e-01,-1.072842121124267523e-01,5.310586024299991381e-01,7.437810897827148438e-01,-3.758312463760375977e-01,1.080453896124085418e+02,0.000000000000000000e+00
9.235459999999999781e-01,-3.942047504275587866e-02,6.356682324238617510e-02,9.740179181098937988e-01,2.157585716177141608e-02,-6.247968563959149790e-03,-3.701821344707620365e-02,-5.224198565366997699e-02,7.721185249336944001e-02,-3.841590136289596558e-02,7.111857216898812006e-02,1.268092816616808172e-01,-6.584307070724867983e-02,1.409784251696647450e-01,1.234876990318298229e-01,-2.838619232177734264e-01,1.822242021560668834e-01,2.234876990318298284e-01,-1.838619232177734208e-01,5.317797640550947502e-01,7.447046041488647461e-01,-1.360656619071960449e+00,-1.675383077927951447e+01,0.000000000000000000e+00
9.498619999999999841e-01,-4.206124647765597385e-02,6.511687232279972370e-02,9.731249213218688965e-01,1.826786589096101449e-02,-9.754209762783849769e-03,-3.821414600961305086e-02,-7.338410003784638647e-02,6.907136821753734335e-02,-3.870976716279983521e-02,6.998993009962581335e-02,1.149621582913028239e-01,-6.206804294341435047e-02,1.962432997583850036e-01,1.241896152496337891e-01,-2.423441529273986927e-01,2.222309589385986217e-01,2.241896152496337946e-01,-1.423441529273986872e-01,5.317819800128289476e-01,7.364950180053710938e-01,-9.336959123611450195e-01,-8.162368390261714524e+01,0.000000000000000000e+00
9.765239999999999476e-01,-4.486241027234954409e-02,6.661003120777803099e-02,9.724771380424499512e-01,1.646238424408636575e-02,-1.386850076872137016e-02,-3.642326739017859999e-02,-5.706142395321137095e-02,7.222308722012138471e-02,-3.127369284629821777e-02,6.098540376610681740e-02,8.997538995203742396e-02,-5.386730379427116799e-02,2.126163128663732249e-01,1.241250991821288840e-01,-2.636636018753051869e-01,2.209536552429199052e-01,2.241250991821288896e-01,-1.636636018753051813e-01,5.310434056897338495e-01,7.200809717178344727e-01,-1.148826718330383301e+00,8.302394098436145953e+01,0.000000000000000000e+00
9.987770000000000259e-01,-4.680431504639716300e-02,6.755020381994958356e-02,9.722794890403747559e-01,1.669821244744735741e-02,-1.704832560942137754e-02,-3.461971986917748711e-02,-8.633950965671004230e-02,5.602511083416667620e-02,-1.206187624484300613e-02,5.365265009284189007e-02,5.538382268341607295e-02,-4.177950427585006010e-02,1.834948364975493296e-01,1.170652925968169999e-01,4.915866561341289409e-02,2.058094739913940430e-01,2.170652925968170055e-01,1.447296202182769831e-01,5.288967808432168960e-01,6.751854419708251953e-01,-1.172326445579528809e+00,1.127324839869247199e+02,0.000000000000000000e+00
1.029814999999999925e+00,-4.952378748651597995e-02,6.806453547250160274e-02,9.722338914871215820e-01,1.970522286077352678e-02,-2.190687804718516318e-02,-3.141653101454638941e-02,-7.296541864264355359e-02,6.150601875879262159e-02,-1.303260121494531631e-02,5.289347999351358409e-02,1.091976475421881435e-02,-2.461720062843595486e-02,-2.462869919043366995e-01,1.032571017742156816e-01,8.131341860600518889e-02,-2.126044571399688665e-01,2.032571017742156871e-01,1.675881206989288386e-01,5.295677483200029734e-01,7.060263156890869141e-01,-1.692926764488220215e+00,1.069486797977579329e+02,0.000000000000000000e+00
1.051093000000000055e+00,-5.043720805056619433e-02,6.810435718233134872e-02,9.723276495933532715e-01,2.071805213518439215e-02,-2.335100654448973856e-02,-3.024779151362661303e-02,-8.313545534405893112e-02,4.779141696977735887e-02,-1.220681052654981613e-02,5.395886082389995952e-02,-3.461484658507833073e-02,-7.051112921344557076e-03,-1.656947966413515327e-01,-3.105433940887450950e-01,1.991097469299386857e-02,-1.140116393566131536e-01,-2.105433940887451172e-01,1.028010606765746987e-01,5.292776631371830520e-01,6.918038129806518555e-01,-9.996017217636108398e-01,1.275363794279829364e+02,0.000000000000000000e+00
1.077873000000000081e+00,-5.312731913133379724e-02,6.809355064867601837e-02,9.725384116172790527e-01,2.538397822519596406e-02,-2.769531151328696872e-02,-2.936274368874405849e-02,-7.272031724211658332e-02,5.521606052894376809e-02,-1.572132110595703125e-02,5.996282295658261763e-02,-7.825418801237049582e-02,7.020861166451039352e-03,-2.080665480085810426e-01,-3.209914207458496316e-01,-1.265924209152424762e-02,-1.347271442413330023e-01,-2.209914207458495983e-01,6.725692749023437500e-02,5.298942234668688744e-01,7.103197574615478516e-01,-1.255205035209655762e+00,9.867167897661805398e+01,0.000000000000000000e+00
1.098737000000000075e+00,-5.499762099308574959e-02,6.807435639091767576e-02,9.727726578712463379e-01,2.741223886575502866e-02,-3.001599769866936107e-02,-2.983788379038737615e-02,-8.612500455583969872e-02,4.059504299445462761e-02,-1.565204374492168427e-02,6.114705839972437579e-02,-1.095553589569156216e-01,1.461919013339204113e-02,-2.467812465776051678e-01,-3.223354935646057240e-01,1.485369781124210031e-02,-1.477033853530883845e-01,-2.223354935646057184e-01,9.584494829177855890e-02,5.294927429765267091e-01,6.873012781143188477e-01,-9.548135995864868164e-01,8.440623466858863821e+01,0.000000000000000000e+00
1.126076999999999995e+00,-5.769993834083162604e-02,6.795045528445317617e-02,9.727348089218139648e-01,2.604557641932479448e-02,-2.959961036838065773e-02,-3.013822613165619696e-02,-7.774640410723165918e-02,5.788612615338013107e-02,-3.553574532270431519e-02,5.119319054617742226e-02,-1.209433744412379552e-01,1.661905310699448440e-02,-2.030146496694281433e-01,-3.220062971115112416e-01,-6.560413720700794538e-02,-1.287421345710754450e-01,-2.220062971115112360e-01,1.624315381050109655e-02,5.312340438020082267e-01,7.005417346954345703e-01,-9.802831411361694336e-01,6.261660615954897935e+01,0.000000000000000000e+00
1.153947999999999974e+00,-6.025028122847195244e-02,6.746963455555736455e-02,9.724602103233337402e-01,2.122001628873193893e-02,-2.372269943864080410e-02,-3.038770579991188076e-02,-8.049199618305037662e-02,4.040259916776613863e-02,-3.367159888148307800e-02,3.207732538741769890e-02,-1.138785285151050763e-01,1.708580835447869040e-02,-1.253906428591913813e-01,-3.204637050628661998e-01,-3.460361790169038526e-02,-6.582190990447997492e-02,-2.204637050628661943e-01,4.863762259483337541e-02,5.312606495433492837e-01,7.056012153625488281e-01,-1.097405076026916504e+00,8.102565985964750439e+01,0.000000000000000000e+00
1.175567999999999946e+00,-6.194911267454453196e-02,6.718077130289261401e-02,9.721598029136657715e-01,1.707639983397904113e-02,-1.775981143075155977e-02,-3.064371344541876735e-02,-8.092948578681519178e-02,4.814087345257769823e-02,-3.789945319294929504e-02,9.502417222570421276e-03,-9.255688402447699581e-02,1.904111971765006309e-02,-1.794560024297917750e-02,-3.032419204711914174e-01,-4.118073373960882272e-02,6.240391731262206684e-03,-2.032419204711914118e-01,4.317957758903503279e-02,5.314645394746217999e-01,6.952359676361083984e-01,-6.427794694900512695e-01,-8.349803807503037945e+01,0.000000000000000000e+00
1.202642999999999907e+00,-6.449585200020033215e-02,6.678816230693426781e-02,9.717222452163696289e-01,1.084402329160457507e-02,-7.364115588196051831e-03,-3.031753493611948416e-02,-8.436590585165118505e-02,3.886192314310552010e-02,-4.825743287801742554e-02,-1.185054046101129306e-02,-5.465775193491544115e-02,2.449882610374723435e-02,8.049650307774351699e-02,-1.479608654975891058e-01,-4.532813397780429548e-02,7.325763702392577847e-02,-4.796086549758910716e-02,3.878890872001648088e-02,5.323127527573476847e-01,6.954375505447387695e-01,-9.953109025955200195e-01,1.017984098050556696e+02,0.000000000000000000e+00
1.228128000000000108e+00,-6.705852284354943404e-02,6.670367252629894050e-02,9.713116288185119629e-01,5.731608725201662626e-03,3.604045368421848750e-03,-2.978787703995928321e-02,-7.852924448532676294e-02,4.310666314679959671e-02,-3.621333092451095581e-02,-2.589296703110258169e-02,-9.040356010857892102e-03,2.727661836309671489e-02,1.732919052438432750e-01,1.183258085685907623e-01,-2.459075261022791448e-01,1.279691576957702470e-01,1.999325931072234996e-01,-1.628317594528198298e-01,5.324068723549267856e-01,7.432644367218017578e-01,-1.005936503410339355e+00,1.328623560370837708e+02,0.000000000000000000e+00
1.248933999999999989e+00,-6.793558685782835616e-02,6.686242432354756737e-02,9.712319970130920410e-01,4.419609515052190692e-03,7.134421794573464481e-03,-2.974634988727016885e-02,-7.765226907501972253e-02,3.764282050599881968e-02,-3.404214978218078613e-02,-3.851901504473983356e-02,3.876590867569303794e-02,2.714028610111627812e-02,-1.727553506029659292e-01,1.649795684512510574e-01,-1.707788641329279766e-01,-2.219866454601287786e-01,2.247106611728668102e-01,-8.770737648010253074e-02,5.323694987309677273e-01,7.464359998703002930e-01,-4.417625665664672852e-01,1.094009362758459503e+02,0.000000000000000000e+00
1.278869000000000034e+00,-7.142978383770873241e-02,6.739664922529338409e-02,9.709975123405456543e-01,2.821137181296374651e-03,1.836414563936750177e-02,-2.799959635309158534e-02,-7.951395134869017334e-02,3.431452960041434658e-02,-1.902798376977443695e-02,-4.905364647919580046e-02,8.614657803806252678e-02,2.387721821560257612e-02,-1.636181818915277142e-01,2.336986272901364903e-01,-2.233023687572663618e-01,-2.219472348690032792e-01,2.248543202877044678e-01,-1.448835253715514970e-01,5.313824422618849130e-01,7.480549812316894531e-01,-1.169514060020446777e+00,9.294118441392321017e+01,0.000000000000000000e+00
1.298947999999999992e+00,-7.232598611356147456e-02,6.753247673204597346e-02,9.710201621055603027e-01,3.394907092003409191e-03,1.998103711031462559e-02,-2.692536499439799821e-02,-8.116692463835090132e-02,3.773581082962870759e-02,-1.605759561061859131e-02,-5.873748740586715034e-02,1.308997999428599124e-01,2.004937707367461866e-02,-1.610245080270106266e-01,2.411237515176730684e-01,-2.367550420915039422e-01,-2.193297564983367753e-01,2.239954411983489935e-01,-1.613134145736694336e-01,5.311532714500235564e-01,7.448261976242065430e-01,5.797183513641357422e-02,8.560429766033306187e-01,0.000000000000000000e+00
1.324972000000000039e+00,-7.500780191526283669e-02,6.802785990272654237e-02,9.712405800819396973e-01,4.412944923273617523e-03,2.155348453300298672e-02,-2.375352554131096583e-02,-8.529550823019808881e-02,4.751382184269214298e-02,-1.102889142930507660e-02,-6.923572814416924237e-02,1.671670590687607261e-01,1.920593345793111112e-02,-1.593258697155666703e-01,2.455084813838500357e-01,-2.177203963653963348e-01,-2.192995727062225231e-01,2.235044360160827470e-01,-1.511316061019897516e-01,5.308228065912631299e-01,7.448962926864624023e-01,-1.578712344169616699e+00,1.061099598884370465e+02,0.000000000000000000e+00
1.349639000000000033e+00,-7.800835424758804926e-02,6.842493994200837815e-02,9.714409112930297852e-01,3.089772906667633077e-03,1.910690505113943338e-02,-1.999378530542022386e-02,-8.735820046988060361e-02,4.998427373225690362e-02,-1.293364539742469788e-02,-7.985427858149711511e-02,1.897091837563207872e-01,2.371862387906644234e-02,-1.506752789914462265e-01,2.264939678157632252e-01,-1.600877591095080654e-01,-2.208843648433685136e-01,2.235019326210021806e-01,-1.041003942489624051e-01,5.310210107378556810e-01,7.467374801635742188e-01,-8.903838396072387695e-01,-3.895819691245880989e+01,0.000000000000000000e+00
1.376889000000000030e+00,-8.090223113827334223e-02,6.904687958005870096e-02,9.716659188270568848e-01,-4.694369049302690071e-04,1.394754631021211111e-02,-1.581009184774213525e-02,-8.347713859180981577e-02,5.148548494795314456e-02,-7.771404460072517395e-03,-9.006394912731427449e-02,1.934929943333698887e-01,3.414485046252255934e-02,-1.274993024925585028e-01,1.949160244372942219e-01,-4.605131672008936500e-02,-2.232212305068969616e-01,2.241971969604492076e-01,-1.875185966491699089e-03,5.307111266392142701e-01,7.492040395736694336e-01,-1.172069191932678223e+00,7.946709948350979857e+01,0.000000000000000000e+00
1.401351999999999931e+00,-8.277411546007082399e-02,6.953728400721712055e-02,9.718642830848693848e-01,-3.195807215241864424e-03,9.739045912520616355e-03,-1.285304206638173373e-02,-7.269885381409089964e-02,5.767711877788624097e-02,-1.520976051688194275e-02,-9.575627165530149754e-02,1.806283890945236947e-01,4.860747556783643480e-02,-1.241236686706542747e-01,1.748296790024073122e-01,-2.197095347825882630e-02,-2.241236686706542802e-01,2.247620522975921631e-01,1.388536691665649345e-02,5.312964428086667246e-01,7.506260871887207031e-01,-1.245070576667785645e+00,1.011122694916036977e+02,0.000000000000000000e+00
1.424841999999999942e+00,-8.456161831865312284e-02,7.015029837543178270e-02,9.720267057418823242e-01,-6.140059027474915367e-03,5.395172094418754227e-03,-1.042179772549289493e-02,-8.233003985020642679e-02,4.589198306235692942e-02,-5.472679622471332550e-03,-9.715469628887707376e-02,1.524066999723865667e-01,6.357818922884898860e-02,-1.240557730197906494e-01,1.363154107085410849e-01,3.062105864795117149e-02,-2.240557730197906550e-01,2.253401041030883567e-01,5.965161323547363281e-02,5.305650199569569292e-01,7.477812767028808594e-01,-5.804451704025268555e-01,4.662315814245217638e+01,0.000000000000000000e+00
1.448569999999999913e+00,-8.755899644496734080e-02,7.149899762852633678e-02,9.722537994384765625e-01,-1.095598738920655277e-02,-1.337806374647643182e-03,-7.790762918784915891e-03,-6.629026149986530503e-02,6.717030595941701765e-02,-1.874005421996116638e-02,-9.540541619765052772e-02,1.075600529434765085e-01,7.572686719825978685e-02,-1.190125048160552979e-01,1.259417414665222057e-01,-1.807453204211703079e-01,-2.190125048160553034e-01,2.259417414665222112e-01,-1.590866446495056152e-01,5.315479171029250383e-01,7.476000785827636719e-01,-1.236422657966613770e+00,1.053274114548503348e+02,0.000000000000000000e+00
1.475570999999999966e+00,-9.044032373216448484e-02,7.310727576147506290e-02,9.723401665687561035e-01,-1.614450270572784230e-02,-7.751054682578750743e-03,-5.974815877219998538e-03,-8.376809569586519955e-02,5.896991740738720400e-02,-1.256830990314483643e-02,-9.250150081361034615e-02,5.292776084423232719e-02,8.495455026331208415e-02,2.216837048530578558e-01,1.226937294006347490e-01,-2.374977465681581135e-01,1.216837048530578502e-01,2.226937294006347545e-01,-2.207515597343444880e-01,5.309089084644491585e-01,7.346645593643188477e-01,-1.126747965812683105e+00,-9.975045954469737808e+01,0.000000000000000000e+00
1.498644000000000087e+00,-9.234449050627496769e-02,7.432286912026554726e-02,9.722942113876342773e-01,-1.948386846092541383e-02,-1.176439919936278500e-02,-4.238198022905888436e-03,-6.618396238270302101e-02,8.383568689800748042e-02,-2.372981794178485870e-02,-9.104189979255621068e-02,-2.954056659901804684e-03,9.185436906577916505e-02,3.029659748077392356e-01,1.195368230342864768e-01,-1.594403450420248114e-01,2.029659748077392578e-01,2.195368230342864824e-01,-1.475567221641540527e-01,5.315703619978988659e-01,7.238218784332275391e-01,-7.730687856674194336e-01,-2.753423082746516926e+01,0.000000000000000000e+00
1.526950000000000029e+00,-9.528449166132874071e-02,7.640415742645569053e-02,9.721469879150390625e-01,-2.355460347618537273e-02,-1.713145036248286956e-02,-4.300942849406939840e-04,-8.993100514192776951e-02,7.319694602166350317e-02,-1.511860918253660202e-02,-9.462757876136378143e-02,-5.589720147311766363e-02,9.721550304797628439e-02,3.140970706939697488e-01,-1.180599212646484403e-01,2.175559287663602903e-01,2.140970706939697155e-01,-1.805992126464843819e-02,2.190847635269164984e-01,5.305433676362798501e-01,6.980069875717163086e-01,-1.506302952766418457e+00,9.657953056214061860e+01,0.000000000000000000e+00
1.549358000000000013e+00,-9.710115273095676347e-02,7.761995268526347691e-02,9.720796346664428711e-01,-2.377051987181122775e-02,-2.087337613764028710e-02,2.208888523183348204e-03,-7.873031105849709332e-02,8.308125978345809459e-02,-4.433850292116403580e-03,-9.848322356951419443e-02,-1.056695363379227814e-01,1.031673394146122025e-01,3.166542530059814342e-01,-2.919895172119140736e-01,2.267952736194867314e-01,2.166542530059814287e-01,-1.919895172119140681e-01,2.208692371845245306e-01,5.294966090975816719e-01,6.810570955276489258e-01,-1.086312890052795410e+00,1.085064273813843982e+02,0.000000000000000000e+00
1.575488000000000000e+00,-9.989887342539820192e-02,7.947020755079566012e-02,9.721174836158752441e-01,-1.886377107679419740e-02,-2.591822329040693873e-02,5.060315249357079381e-03,-8.668293974641397281e-02,7.151817427903439661e-02,-2.232177648693323135e-03,-9.903248231396963308e-02,-1.436292991207770986e-01,1.069854782521062475e-01,3.152265310287475364e-01,-3.179528713226318359e-01,2.338591798344168693e-01,2.152265310287475586e-01,-2.179528713226318304e-01,2.197571218013763261e-01,5.290743220073769182e-01,6.651680469512939453e-01,-5.939491987228393555e-01,-4.357728565473012239e+00,0.000000000000000000e+00
1.600000000000000089e+00,-1.016370255159299435e-01,8.070955725438878903e-02,9.721233844757080078e-01,-1.333439603082506135e-02,-2.728939025197818502e-02,5.014194955766938279e-03,-7.630577659914264399e-02,8.300639515496360810e-02,-1.862998236902058125e-03,-9.192814166700476186e-02,-1.661182050624306350e-01,1.058324930488699078e-01,3.071135282516479492e-01,-3.210582971572876199e-01,2.268794837763780936e-01,2.071135282516479437e-01,-2.210582971572875866e-01,2.124147176742553766e-01,5.290392610420490138e-01,6.630580425262451172e-01,-1.320470929145812988e+00,2.638175251824140588e+01,0.000000000000000000e+00
1.626745000000000108e+00,-1.041243522290754425e-01,8.266768178756105090e-02,9.720000624656677246e-01,-3.684956142698781259e-03,-2.403621076555739755e-02,2.681168393159790147e-03,-7.835903620596275376e-02,7.469075112533202221e-02,-7.712358143180608749e-03,-6.859376557230389970e-02,-1.661330809654419649e-01,9.656810434632379092e-02,2.598366618156432994e-01,-3.210108757019042858e-01,1.842694957653177035e-01,1.598366618156432939e-01,-2.210108757019042802e-01,1.758156895637512096e-01,5.295658935307584469e-01,6.665382385253906250e-01,-1.248335719108581543e+00,1.007350654645005648e+02,0.000000000000000000e+00
1.649747999999999992e+00,-1.055297813967222692e-01,8.383940946255884208e-02,9.716835021972656250e-01,2.721235818453385160e-03,-1.914696543368621384e-02,1.181897654893845212e-03,-6.841012427465995027e-02,8.951965084133800543e-02,-1.850784011185169220e-02,-3.362592293100632318e-02,-1.519491475450709672e-01,8.211745634792785853e-02,2.489123821258544811e-01,-3.103595018386841042e-01,1.907210255646708472e-02,1.489123821258544755e-01,-2.103595018386840709e-01,1.447384357452392509e-02,5.308038379596862200e-01,6.877212524414062500e-01,-1.325213789939880371e+00,1.011092095668555260e+02,0.000000000000000000e+00
1.674906000000000006e+00,-1.076940556686613037e-01,8.573770441106164097e-02,9.710212349891662598e-01,1.247014641229818310e-02,-9.388924309285950898e-03,-1.542651245813867877e-03,-6.805490564686127175e-02,8.931350729985104708e-02,-3.176950290799140930e-02,8.216068537350440168e-03,-1.174796898170209491e-01,6.198306580975476709e-02,1.831363194756922552e-01,-2.661769032478332742e-01,-1.069372393507036362e-02,1.297662019729614313e-01,-1.661769032478332409e-01,-7.755374908447265105e-03,5.322547372068001659e-01,7.091854810714721680e-01,-1.309935927391052246e+00,1.095257101716037340e+02,0.000000000000000000e+00
1.701650000000000107e+00,-1.091169779034808773e-01,8.705681030796182107e-02,9.704092741012573242e-01,1.830026497287419451e-02,-2.364034911820800389e-03,-2.475075180289812785e-03,-8.353095739907197281e-02,8.142559382782936506e-02,-3.801094368100166321e-02,5.479874157548206975e-02,-7.182585737352964461e-02,4.355275785306554626e-02,4.562844042457111365e-02,-1.796945452690124623e-01,-3.197556314470586386e-02,3.531078100204467635e-02,-7.969454526901244285e-02,-2.637366056442260603e-02,5.327261871338783150e-01,7.041064500808715820e-01,-1.426963448524475098e+00,8.317800273128025879e+01,0.000000000000000000e+00
1.725195000000000034e+00,-1.105568759650860100e-01,8.839407074145597121e-02,9.697419404983520508e-01,2.420995034227962917e-02,4.501087757225796793e-03,-2.811632837577299725e-03,-6.750605063707788844e-02,9.082323643684438175e-02,-3.505238890647888184e-02,1.006257017306306789e-01,-1.932293135872212991e-02,2.786505842148261775e-02,-2.315417475171485662e-01,9.215613603591918390e-02,4.683036607082352934e-04,-2.134403049945831354e-01,1.921561360359191895e-01,7.322824001312255339e-03,5.332188034920846142e-01,7.371983528137207031e-01,-1.204274535179138184e+00,9.524560827761547444e+01,0.000000000000000000e+00
1.751857999999999915e+00,-1.125927973965817896e-01,9.032846486148976561e-02,9.686846733093261719e-01,3.214819474026848339e-02,1.445108034261677332e-02,-2.487006774527391814e-03,-7.007230238961720259e-02,8.123358031428662418e-02,-3.129245713353157043e-02,1.451957117527553631e-01,3.599456092379049038e-02,1.709273086408736805e-02,-2.913388511578198226e-01,1.775071695101914371e-01,1.497069305427839447e-02,-2.145453572273254284e-01,2.226741135120391679e-01,2.142387628555297852e-02,5.330586219221919997e-01,7.359836101531982422e-01,-1.231376767158508301e+00,1.013746102274347152e+02,0.000000000000000000e+00
1.775984000000000007e+00,-1.144231601131541626e-01,9.218718374257092729e-02,9.675648808479309082e-01,3.689290749088530719e-02,2.319387672844674952e-02,-1.886205965791212151e-03,-6.164034094832033378e-02,8.552429200148964350e-02,-3.508850559592247009e-02,1.831911669136472298e-01,8.819618785988973808e-02,8.828225952274195570e-03,-1.758856117725372536e-01,2.414981722196560820e-01,-1.252452784050186452e-01,-7.588561177253723422e-02,2.243317902088165228e-01,-1.197481870651245089e-01,5.336955358698645124e-01,7.481746673583984375e-01,-1.160281062126159668e+00,-4.503643006617734557e+01,0.000000000000000000e+00
1.798853000000000035e+00,-1.156139270493986432e-01,9.345346123277027683e-02,9.667906761169433594e-01,3.740744698340256469e-02,2.654847533696025330e-02,-1.643284526600177591e-03,-5.162157321766762397e-02,8.856460929996737286e-02,-3.942433372139930725e-02,2.128278264403389852e-01,1.358957690882588165e-01,-6.463831609458719129e-04,7.977931499481200062e-02,2.689965278377395297e-01,-1.770162821744015458e-01,1.797793149948120062e-01,2.244612693786620927e-01,-1.718466639518737848e-01,5.341776540747211754e-01,7.510271072387695312e-01,-1.074070096015930176e+00,7.539583545512947182e+01,0.000000000000000000e+00
1.824057999999999957e+00,-1.167716273044806796e-01,9.471807158440888330e-02,9.660995006561279297e-01,3.547908334403983982e-02,2.751692593532517606e-02,-1.399574069969579393e-03,-6.740573763917119543e-02,7.729928555226864284e-02,-3.487207368016242981e-02,2.249760751737518993e-01,1.749689254845134267e-01,-9.524414059314520453e-03,1.185721526952311922e-01,2.597149912918190751e-01,-1.731976276775545331e-01,2.153920412063598522e-01,2.241276919841766191e-01,-1.688489198684692272e-01,5.339533171176661375e-01,7.500647306442260742e-01,-5.617436170578002930e-01,-4.092836497854898425e+01,0.000000000000000000e+00
1.850082000000000004e+00,-1.189864248031709676e-01,9.674623476905981623e-02,9.651396274566650391e-01,3.035985726794767844e-02,2.484553103326514467e-02,5.274940607006374299e-04,-5.940597940112420094e-02,7.691315433674912605e-02,-3.378275409340858459e-02,2.153791011900589303e-01,1.986060550502708744e-01,-1.481590499236243655e-02,1.623025778507043160e-01,2.490297813783371728e-01,-1.725801346699121774e-01,2.224207878112793024e-01,2.238920331001281738e-01,-1.737784624099731334e-01,5.339794461293886352e-01,7.487949132919311523e-01,-1.148940682411193848e+00,1.361210529504751889e+02,0.000000000000000000e+00
1.876430999999999960e+00,-1.209781377069370223e-01,9.817522006851971128e-02,9.648007750511169434e-01,2.781491871948007025e-02,2.025818219707020695e-02,2.501328391474565149e-03,-6.351500802578127769e-02,7.378706773268182972e-02,-2.843349054455757141e-02,1.864202022663490887e-01,2.023520562926949817e-01,-1.302716543162962815e-02,1.792315943362729758e-01,2.120615906268062956e-01,-9.799506238404066816e-02,2.233411073684692383e-01,2.228204190731048473e-01,-1.051120519638061440e-01,5.336424698945969602e-01,7.465245723724365234e-01,-6.330667734146118164e-01,-5.458203948790411886e+01,0.000000000000000000e+00
1.899888000000000021e+00,-1.239132369049461418e-01,1.000374670240973679e-01,9.644948244094848633e-01,2.667237111990199139e-02,1.079487537171153200e-02,5.683400023225587162e-03,-6.135913338846524928e-02,5.951380271420528972e-02,-2.059405669569969177e-02,1.486269388527733382e-01,1.822663353196037339e-01,-3.757871840320369146e-03,1.703162368916115166e-01,1.502793212916288812e-01,1.501329667551754357e-03,2.155293703079223522e-01,2.224828720092773271e-01,-1.513334512710571254e-02,5.330687221727922198e-01,7.423994541168212891e-01,-1.060836911201477051e+00,8.684371061731275176e+01,0.000000000000000000e+00
1.926903999999999950e+00,-1.266813999725199535e-01,1.016411994735622326e-01,9.643550515174865723e-01,2.822553055366854372e-02,9.586452575691684075e-04,8.838806880666284088e-03,-5.175815282704174236e-02,5.961210970333417208e-02,-1.522925868630409241e-02,1.126161110042248892e-01,1.377193510981419844e-01,1.235408886875265580e-02,5.242051423777845803e-02,1.236400842666625921e-01,-9.413711006890176924e-02,1.036561131477355957e-01,2.236400842666625977e-01,-1.202546596527099554e-01,5.326789022565613374e-01,7.391469478607177734e-01,-5.061782598495483398e-01,-3.752669854545085570e+01,0.000000000000000000e+00
1.950790999999999942e+00,-1.287641310443401188e-01,1.029139108574987221e-01,9.643477797508239746e-01,3.065179465509665011e-02,-5.014343016993327851e-03,9.897056445520385770e-03,-5.076431774531089958e-02,4.020970831264889661e-02,-7.907818071544170380e-03,8.241187044592530875e-02,8.191291194621408422e-02,2.769007493007676762e-02,-2.933132007147323250e-01,1.247877478599548340e-01,-1.904053327549823649e-01,-2.124943256378173662e-01,2.247877478599548395e-01,-2.199294805526733343e-01,5.318440421197103696e-01,7.205822467803955078e-01,-1.310775399208068848e+00,1.001101168158227352e+02,0.000000000000000000e+00
1.973405999999999993e+00,-1.310195130593730939e-01,1.044309299394650670e-01,9.644163846969604492e-01,3.348461742396109664e-02,-9.903267655900327426e-03,1.098045273110615644e-02,-5.505861765487559539e-02,3.979979100962985350e-02,-1.120610162615776062e-02,5.918285303639082839e-02,2.116209280109824370e-02,4.167061530364363914e-02,-3.171721025719669296e-01,1.136855840682983176e-01,-1.695074389245238844e-01,-2.218555569648742731e-01,2.136855840682983232e-01,-2.026089191436767634e-01,5.321368652129826460e-01,7.210315465927124023e-01,-5.841219425201416016e-02,-1.052592939782578014e+02,0.000000000000000000e+00
1.999638000000000027e+00,-1.343513593914449911e-01,1.065410581249343069e-01,9.645326137542724609e-01,3.749855837906543310e-02,-1.564790453872832998e-02,1.296389315566765302e-02,-5.585723441185454219e-02,3.974866365178927885e-02,-1.197667606174945831e-02,4.325047232753362336e-02,-3.848137643193299401e-02,5.125737787875953716e-02,-2.975398659706115501e-01,-3.148669719696045033e-01,-1.337934256084643281e-01,-1.975398659706115723e-01,-2.148669719696044977e-01,-1.731257200241088923e-01,5.320092106858018699e-01,7.087999582290649414e-01,-1.051668047904968262e+00,-1.623448197781196356e+01,0.000000000000000000e+00
2.027283000000000168e+00,-1.365164321622209243e-01,1.079548825610503748e-01,9.644318819046020508e-01,3.728343934142420990e-02,-1.760514758115383493e-02,1.503952361342330776e-02,-5.915419026825044502e-02,4.259596856710597818e-02,-1.674490049481391907e-02,3.094380224753748992e-02,-9.183029209500681578e-02,5.821873704953135775e-02,-2.429117441177368053e-01,-3.197854995727539285e-01,-1.335058006112161411e-01,-1.429117441177367998e-01,-2.197854995727538951e-01,-1.788728713989257701e-01,5.323508203835241037e-01,7.052416801452636719e-01,-8.865488767623901367e-01,3.905492946657911801e+01,0.000000000000000000e+00
2.051546999999999787e+00,-1.394958136395237358e-01,1.100743062399676536e-01,9.641170501708984375e-01,3.253984751757761640e-02,-1.899235248999442405e-02,1.834740784295516361e-02,-5.721089873741503490e-02,5.031746605650027487e-02,-2.796229347586631775e-02,1.569210767754643590e-02,-1.332187562464665354e-01,6.616021527208844344e-02,-1.214948671483145892e-01,-3.191468477249145286e-01,-8.863025844326583025e-02,-4.542242288589477123e-02,-2.191468477249145508e-01,-1.431523561477661133e-01,5.329291865520250360e-01,6.878592967987060547e-01,-8.852890729904174805e-01,7.199933947523304312e+01,0.000000000000000000e+00
2.076445000000000096e+00,-1.410653715452543366e-01,1.114399898657554705e-01,9.638581275939941406e-01,2.690967135884234085e-02,-1.745616473578404104e-02,2.035267606847070143e-02,-5.782342707414070415e-02,4.319919869168357962e-02,-2.668272703886032104e-02,-1.533242049691502197e-03,-1.616910815064227236e-01,7.381901008372407369e-02,-4.492819695675359659e-02,-3.168663263320922741e-01,-4.153604514869972675e-02,-3.618299961090087891e-04,-2.168663263320922685e-01,-1.012144804000854464e-01,5.329298533005356608e-01,6.889256238937377930e-01,-5.666328668594360352e-01,-2.011796020024654652e+01,0.000000000000000000e+00
2.099454000000000153e+00,-1.432814161017172683e-01,1.134180781672160798e-01,9.634887576103210449e-01,1.711005291698194583e-02,-1.170037032754400741e-02,2.360043796972756056e-02,-5.077755607673167804e-02,4.467269518994931160e-02,-3.072510287165641785e-02,-2.041998844681641723e-02,-1.658893301925009056e-01,8.098293737068121279e-02,1.333831703418766335e-01,-2.882081747055053600e-01,4.700639022667844197e-02,1.100758910179138184e-01,-1.882081747055053544e-01,-2.090195417404174666e-02,5.335123893716171573e-01,7.002124786376953125e-01,-1.052043080329895020e+00,1.049824595810080154e+02,0.000000000000000000e+00
2.124363999999999919e+00,-1.447195956802299344e-01,1.146852357675034878e-01,9.632765650749206543e-01,1.144432763136204491e-02,-6.605049527602879778e-03,2.559799920177664723e-02,-5.194096400091378907e-02,3.772321033705184484e-02,-3.041260689496994019e-02,-3.753671584458477539e-02,-1.530411086080938621e-01,8.668365875897032780e-02,1.815770274479471258e-01,-2.391215324401855524e-01,1.472175155822921244e-01,1.254032135009765514e-01,-1.391215324401855469e-01,7.422505617141723910e-02,5.335440209996564764e-01,6.990078687667846680e-01,-1.166423678398132324e+00,1.011924559124596357e+02,0.000000000000000000e+00
2.149868999999999808e+00,-1.467814014424620173e-01,1.163766130688076023e-01,9.631327390670776367e-01,6.291313956901736434e-03,1.638093227089854054e-03,2.772152531832807604e-02,-4.609987160301286940e-02,3.941374485458015026e-02,-2.058935724198818207e-02,-5.285794043636007217e-02,-1.157572815335541766e-01,8.768580281047093361e-02,1.888818837904008563e-01,-8.724761605262756903e-02,1.494644539716081244e-01,9.457468986511230469e-02,1.275238394737243652e-02,7.104207873344421664e-02,5.331191019230946404e-01,7.109429836273193359e-01,-1.231359362602233887e+00,3.458854582490271667e+01,0.000000000000000000e+00
2.174188000000000009e+00,-1.479354614997756001e-01,1.175406501627761086e-01,9.631904363632202148e-01,5.521075881017337497e-03,7.198351700471228298e-03,2.786639112538375623e-02,-4.728830532264201303e-02,2.005899268020700996e-02,-1.695976406335830688e-02,-6.856754472121448507e-02,-6.490089752676260482e-02,8.591952124863298790e-02,8.934204711845195046e-02,5.197630524635313276e-02,1.950812908762481479e-01,3.944242000579833637e-03,1.519763052463531383e-01,1.165132820606231689e-01,5.330630810826797461e-01,7.202864885330200195e-01,-1.053296446800231934e+00,9.319750092290627208e+01,0.000000000000000000e+00
2.201185999999999865e+00,-1.494817542263856547e-01,1.190867125707744528e-01,9.634082913398742676e-01,8.040354282437205125e-03,1.514300130854007165e-02,2.748701535638346446e-02,-3.644938805453956654e-02,3.512661147819072516e-02,-2.752303145825862885e-02,-7.855471772577661549e-02,-8.014302241071325286e-03,8.094720461016614854e-02,1.454271082636180434e-01,1.736959323492033302e-01,2.730418401261223149e-01,6.050097942352294922e-02,2.209664046764373835e-01,1.957897424697875866e-01,5.339199869240529583e-01,7.229945659637451172e-01,-7.609297037124633789e-01,1.203572905347875945e+02,0.000000000000000000e+00
2.225387000000000004e+00,-1.504142144145215187e-01,1.200491110982422061e-01,9.635336399078369141e-01,1.165440306094116599e-02,1.943676200389865549e-02,2.653793558511514938e-02,-4.096065064338607481e-02,2.513247966035573808e-02,-1.145767234265804291e-02,-8.531883482609103897e-02,4.759948953126220961e-02,7.395622883704228157e-02,-1.668861193261322595e-01,1.982755714642666089e-01,1.695680957685974377e-01,-2.199865221977233831e-01,2.246554791927337646e-01,9.509282112121582309e-02,5.331482111918725009e-01,7.421271800994873047e-01,-1.025656104087829590e+00,9.362816484064309464e+01,0.000000000000000000e+00
2.249798000000000187e+00,-1.517033656743988213e-01,1.214112192453896816e-01,9.637044668197631836e-01,1.674975160107746580e-02,2.327644695691799548e-02,2.423517936671923390e-02,-4.013695201521637335e-02,2.379157772687724368e-02,-1.047423575073480606e-02,-8.744165934887512814e-02,9.428286103419866726e-02,6.364695764382946597e-02,-1.992577557623915196e-01,2.222050662910030339e-01,-3.092332588463682363e-02,-2.207649171352386308e-01,2.238666236400604082e-01,-9.878783226013183871e-02,5.331335993284976871e-01,7.434407472610473633e-01,-1.207058548927307129e+00,6.480846167553025339e+01,0.000000000000000000e+00
2.275237999999999872e+00,-1.526708836670266911e-01,1.221350380620287446e-01,9.637821912765502930e-01,1.964304628117122947e-02,2.328053398002416507e-02,2.270870194027133082e-02,-2.815393024241800990e-02,3.214653855956539630e-02,-1.685246452689170837e-02,-8.494747952850878470e-02,1.311301447652340191e-01,5.077600149934693302e-02,-2.085309576084620753e-01,2.278489896986129470e-01,-9.773251693797052608e-02,-2.184077382087707409e-01,2.211077213287353516e-01,-1.612547636032104492e-01,5.335772816180281986e-01,7.404198646545410156e-01,-1.198169112205505371e+00,1.450242591751001839e+02,0.000000000000000000e+00
2.301212000000000035e+00,-1.541168047822138731e-01,1.233039670887522282e-01,9.637813568115234375e-01,2.099732780342035074e-02,2.058586590012745354e-02,2.108339112678957530e-02,-3.975545040016342790e-02,3.536104971129697128e-02,-1.653448119759559631e-02,-7.458336407493096343e-02,1.479681876036999244e-01,3.592191794494137974e-02,-2.139707920062984547e-01,1.965044885103406913e-01,-8.575659315215647394e-02,-2.175084471702575517e-01,2.198097109794616699e-01,-1.449991106986999456e-01,5.336245020918088944e-01,7.406678199768066406e-01,-6.437526941299438477e-01,9.866089410791860814e+01,0.000000000000000000e+00
2.327630999999999784e+00,-1.554855493327109706e-01,1.246506616471450696e-01,9.637287855148315430e-01,1.782412864893452228e-02,1.561720695908030976e-02,2.154197562125135038e-02,-3.264448423463146148e-02,3.436766692496300013e-02,-1.823195815086364746e-02,-6.390205509498832204e-02,1.484553636452834724e-01,2.275047356364129705e-02,-1.928724279134754194e-01,1.710962183819428328e-01,-5.857677847966413776e-02,-2.169163942337035966e-01,2.208579897880554033e-01,-1.193118095397949219e-01,5.338424736576000695e-01,7.434160709381103516e-01,-8.603814840316772461e-01,9.051410401311585474e+01,0.000000000000000000e+00
2.349502000000000201e+00,-1.563524322032411040e-01,1.255926972875492653e-01,9.636946916580200195e-01,1.415024925319672416e-02,1.135000173607103591e-02,2.274683338693962373e-02,-3.334429071758075735e-02,4.429041767259381257e-02,-2.277592569589614868e-02,-4.516413883348423253e-02,1.310536493065962704e-01,1.144550062649088429e-02,-1.625530266299791138e-01,1.411952132350224320e-01,-2.646213755848052240e-02,-2.195022940635681097e-01,2.210559904575347956e-01,-9.078587293624877652e-02,5.342964688196913947e-01,7.466611862182617188e-01,-1.440200209617614746e+00,1.840581277533735616e+01,0.000000000000000000e+00
2.374744999999999884e+00,-1.574440449043323087e-01,1.266624729792196202e-01,9.636459946632385254e-01,1.014312799127710212e-02,6.637518082377669160e-03,2.376163673890140798e-02,-2.821307739421403254e-02,4.538269166742841393e-02,-1.222703978419303894e-02,-2.866166153342258188e-02,1.020817785560516888e-01,3.074682435023668586e-03,-1.364580801529725052e-01,1.210168838500976507e-01,-6.836107927575024723e-03,-2.203894615173339899e-01,2.210168838500976562e-01,-7.413479089736937921e-02,5.335851440307598503e-01,7.466597557067871094e-01,-1.100622773170471191e+00,1.001677499520393155e+02,0.000000000000000000e+00
2.397902999999999896e+00,-1.589590939451960561e-01,1.282931331897151639e-01,9.635364413261413574e-01,3.910663446199140122e-03,6.403654992714891137e-05,2.517670712091335875e-02,-3.111450133952161148e-02,4.103451415164813959e-02,-1.251232810318470001e-02,-1.931266364978855357e-02,6.036533435694631244e-02,-1.154871075206338792e-03,-1.201902091503143089e-01,1.226839661598205511e-01,1.385669189090236314e-02,-2.201902091503143144e-01,2.226839661598205566e-01,-5.751947164535522322e-02,5.336556956950535557e-01,7.463533878326416016e-01,-4.807058572769165039e-01,-5.997126023362469738e+01,0.000000000000000000e+00
2.426781000000000077e+00,-1.603066468756875196e-01,1.299308923209206712e-01,9.634625315666198730e-01,-1.550382802419955240e-03,-5.655606880740959852e-03,2.633133034906222358e-02,-1.568825347072125287e-02,4.523170075866744799e-02,-1.564357802271842957e-02,-1.739463698070992798e-02,1.460083460575886151e-02,-3.974594372647560075e-03,3.839330673217774409e-02,1.242721021175384466e-01,2.402995502446828718e-02,-6.160669326782226146e-02,2.242721021175384521e-01,-5.054590702056884627e-02,5.327306128590307832e-01,6.805834770202636719e-01,-9.267209768295288086e-01,7.719222984835619172e+01,0.000000000000000000e+00
