timestamp,x,y,z,roll,pitch,yaw,vx,vy,vz,p,q,r,psp,qsp,rsp,pres,qres,rres,thrust_sp, thrust_res
0.000000000000000000e+00,-1.021790729669886169e-02,4.581245865394000666e-03,9.971092939376831055e-01,8.795257975000336445e-03,-6.296012949452922669e-03,-7.822041390867237945e-03,-2.507119333369153130e-02,-1.442459109112809168e-02,1.397715881466865540e-03,-7.520557597874324464e-03,-1.077156188015361039e-02,5.502839819584792735e-02,-2.791495904246858450e-01,-2.077176840184826734e-01,9.125906141018373663e-02,-2.130836427211761364e-01,-1.399986505508422907e-01,1.130521416664123507e-01,5.207970676580557789e-01,4.684382677078247070e-01,-6.885458230972290039e-01,9.034740641623253055e+01,-4.149215221405029574e-02
2.555599999999999886e-02,-1.076683153373915458e-02,3.461266611532988913e-03,9.971184134483337402e-01,9.429084380362435028e-03,-6.168727783308680657e-03,-7.805427979140694070e-03,-6.871970998727263032e-03,-1.341416112968854893e-02,2.290887758135795593e-03,3.705870879116487937e-02,1.708481924329883009e-02,-2.931050201512192671e-02,-2.676053099890732812e-01,7.935496672910050120e-02,1.564010616449941493e-01,-1.997278332710266113e-01,1.283007860183715820e-01,1.781674146652221513e-01,5.073144867253445156e-01,-2.487874627113342285e-01,-4.955018758773803711e-01,8.356308879668557665e+01,-4.149215221405029574e-02
5.267100000000000254e-02,-1.148452798970118864e-02,1.837528540224729482e-03,9.971033930778503418e-01,9.732971529736761385e-03,-5.420863889706195593e-03,-7.603489560927217603e-03,-2.140092605461213840e-02,-2.864572030572635347e-02,-2.863229601643979549e-04,-4.393478332659409014e-02,1.414623811291031326e-02,-1.470518100699056731e-02,-2.818365759145825544e-01,-6.021838931143782409e-02,-7.034506059001223444e-03,-1.983442068099975641e-01,-1.253485679626464844e-03,1.417086124420165877e-02,5.146694868568897352e-01,1.320869922637939453e-01,-1.389169096946716309e+00,-1.736181836070090867e+01,-5.933415889739990234e-02
7.283499999999999697e-02,-1.171355187093565432e-02,1.304966621094380205e-03,9.970563650131225586e-01,1.011730465366851746e-02,-4.928826871203773052e-03,-7.540612764438929180e-03,-1.698668297537478042e-02,-1.142654594107188858e-02,-6.809830199927091599e-03,2.327133242641843403e-02,6.926175602482420590e-02,-4.953180176639040977e-02,-2.740535343641271604e-01,1.248918757610473496e-01,1.786287801570302924e-01,-2.038541972637176458e-01,1.752761006355285645e-01,1.996399283409118486e-01,5.073797084762715626e-01,-2.822237014770507812e-01,-8.169533014297485352e-01,9.883707200736991183e+01,-5.933415889739990234e-02
9.912200000000000177e-02,-1.235392953763933543e-02,-2.478958694357029954e-04,9.968190193176269531e-01,9.061536802365261281e-03,-4.747065381245141324e-03,-8.573533140892373658e-03,-1.363948033321962967e-02,-2.516789454398307008e-02,-5.960298702120780945e-03,-6.734226150393277099e-02,-4.321498852101564314e-02,-5.023225467005858896e-02,-2.599568957331122032e-01,-2.172390193752060938e-01,6.977469750484396882e-03,-1.819580197334289551e-01,-1.696868062019347978e-01,3.092039823532104215e-02,5.157269867266722763e-01,1.643158197402954102e-01,-8.106757402420043945e-01,8.230890897072032431e+01,-5.933415889739990234e-02
1.253700000000000092e-01,-1.298140473982337117e-02,-1.107670935511362222e-03,9.961062073707580566e-01,4.265693610794867030e-03,-4.419035714629870881e-03,-9.635155157418648711e-03,-1.193494515416763761e-02,-6.753651832603693728e-03,-3.496786579489707947e-02,-2.539242819898416825e-01,5.073534095950848338e-02,-1.972106737469354887e-02,-1.835895396523777590e-01,-4.115536682049040357e-02,-5.955177605885090403e-02,-1.530565202236175426e-01,3.812348842620849523e-03,-3.261061906814575334e-02,5.169796631750180893e-01,1.122658252716064453e-01,-7.448166608810424805e-01,9.171445511823223740e+01,-5.662319660186767439e-02
1.527719999999999911e-01,-1.360962112012470242e-02,-1.475954742206387086e-03,9.949738383293151855e-01,-2.811241226021252843e-03,-5.852777714370871465e-03,-1.106951488510212779e-02,-8.175185214686226873e-03,-8.964831417973056701e-04,-4.369565844535827637e-02,-2.278879975191723806e-01,-7.610729379746784817e-02,-2.804023054322582476e-02,3.603720644244667870e-02,-1.849149177444193715e-01,-2.099073266826723128e-01,1.877807378768920829e-02,-1.330402851104736384e-01,-1.788796663284301647e-01,5.137075569297163691e-01,-1.043975949287414551e-01,-1.410621762275695801e+00,1.239157917716075588e+02,-5.662319660186767439e-02
1.751729999999999954e-01,-1.401843546769184976e-02,-1.623811533608951040e-03,9.939759969711303711e-01,-8.725269714182732825e-03,-5.935537640532340120e-03,-1.154116547224662281e-02,-1.969262950019635278e-02,-7.413129707886412754e-03,-4.566761106252670288e-02,-3.284213793324128328e-01,-9.196744928539786479e-03,-2.067431321408134959e-02,1.223769202998369332e-01,2.133497080391601186e-03,-2.342872398993498806e-01,7.294156551361083429e-02,6.448509693145751398e-02,-2.018400192260742243e-01,5.137600364629589800e-01,-1.159995794296264648e-01,-5.869981050491333008e-01,8.758947165202975782e+01,-5.662319660186767439e-02
2.015470000000000039e-01,-1.459145301053622196e-02,-1.671239172231212076e-03,9.923027753829956055e-01,-1.677069413270725756e-02,-4.657851190605244440e-03,-1.085867922599354288e-02,-6.691166167517095809e-03,1.310815850760160307e-02,-6.427162885665893555e-02,-2.688508038958297153e-01,1.058447375623925157e-01,6.900845313210061949e-02,2.960449457168579102e-01,1.578039425158453690e-01,-2.347531995072489053e-01,1.960449457168579046e-01,2.002165317535400391e-01,-2.042103052139282171e-01,5.137355978044225724e-01,-2.009208202362060547e-01,-7.137581110000610352e-01,9.596784614083095732e+01,-5.662319660186767439e-02
2.249430000000000041e-01,-1.515375897365327587e-02,-1.378658221344788689e-03,9.911677241325378418e-01,-1.982181216397689572e-02,-3.582762200438516231e-03,-9.479496707247540496e-03,-1.750500405238384488e-02,5.996726491744854221e-04,-3.667401894927024841e-02,-7.248754034272870961e-02,5.741959558857509353e-03,8.335913285033430542e-02,3.045165061950683705e-01,1.524960284871051119e-01,-2.423366883769677294e-01,2.045165061950683649e-01,1.988686859607696478e-01,-2.155922412872314509e-01,5.137161461672540286e-01,-9.977138042449951172e-02,-6.158779859542846680e-01,9.805032983763283028e+01,-5.662319660186767439e-02
2.516450000000000076e-01,-1.602051920935879809e-02,-9.798425138985483642e-04,9.896002411842346191e-01,-1.993957433432529472e-02,-2.021251844878779735e-03,-6.664677399008367940e-03,-1.020564753979635864e-02,1.411735033370603402e-02,-3.846104443073272705e-02,1.495952226422574693e-01,1.786664028064620033e-02,7.873527013122059992e-02,5.259749889373779852e-02,1.120589589954510690e-01,1.316857009066130929e-02,-4.740250110626220703e-02,1.416452050209045244e-01,3.194637894630431713e-02,5.155593935494900970e-01,-1.678538322448730469e-02,-1.392307877540588379e+00,1.046843013331694578e+02,-5.662319660186767439e-02
2.760540000000000216e-01,-1.664543587980901740e-02,-7.086309808150357669e-04,9.887469410896301270e-01,-1.706471458300104146e-02,-2.661522967127627481e-03,-4.410238011366839246e-03,-1.891735957534389570e-02,-6.047500164751750361e-03,-3.523463010787963867e-02,1.654263679621942873e-01,-5.064645919649217454e-02,1.216165459821340195e-01,-6.201077103614804908e-02,2.382144596853932872e-02,-1.091207414191504299e-01,-1.620107710361480546e-01,6.610370278358458640e-02,-9.660598039627074640e-02,5.196921223048275307e-01,2.123600244522094727e-01,-8.592115640640258789e-01,-3.176931865063554739e+00,-5.662319660186767439e-02
2.977600000000000247e-01,-1.731828556523083706e-02,-4.319410642442242289e-04,9.879633784294128418e-01,-1.191341911367880396e-02,-4.472387594855575799e-03,-1.940484178925764962e-03,-1.915604386596438113e-02,1.359792174240667673e-02,-4.245645552873611450e-02,2.981555349961946821e-01,-7.551869281778927911e-02,1.227254755506213824e-01,-2.548471014421117842e-02,4.128144115198847941e-02,-6.519350219830757909e-02,-1.140756368637084878e-01,9.487144947052002231e-02,-5.964252948760986189e-02,5.184004200719077859e-01,1.084206104278564453e-01,-7.122098207473754883e-01,8.509690339746032350e+01,-5.662319660186767439e-02
3.235620000000000163e-01,-1.800371635352416080e-02,1.674220208389866479e-04,9.867156147956848145e-01,-4.519828858246286579e-03,-8.267187359433991745e-03,-4.056807395257715042e-05,-1.593771965520293654e-02,1.309975139835586541e-02,-4.675962030887603760e-02,2.050710999373923371e-01,-1.401772121841346197e-01,5.191128042166179984e-02,-3.701637229887547176e-03,-1.543013735547835164e-01,-3.566221323182935249e-02,-4.141346812248229703e-02,-7.811508178710936667e-02,-3.549549579620361189e-02,5.180416259393029188e-01,6.421983242034912109e-02,-6.903489828109741211e-01,1.022426453086732892e+02,-5.662319660186767439e-02
3.497080000000000188e-01,-1.853194484121571325e-02,1.094793982973642308e-03,9.852147698402404785e-01,-1.057535777344257395e-03,-1.092662642503494652e-02,1.690184872911313935e-03,-2.107613662335827351e-02,2.222011906904916914e-02,-5.414676666259765625e-02,8.509712677855983676e-02,-8.946277629880450277e-02,5.305749761535395737e-02,-5.572129548961624046e-02,-2.537156807589187046e-01,-2.697201001924703911e-02,-7.888619899749756137e-02,-1.553020119667053167e-01,-3.173518180847167969e-02,5.183138058137791715e-01,4.021489620208740234e-02,-4.508472681045532227e-01,1.847548275392823598e+02,-5.662319660186767439e-02
3.754939999999999944e-01,-1.883642337999080416e-02,1.867816273381800929e-03,9.840901494026184082e-01,-7.015002081089803275e-04,-1.183160935843030614e-02,2.644130184551210429e-03,-2.090026407151973284e-02,3.480244218783629107e-02,-6.841181218624114990e-02,-3.155716836038970075e-02,3.565365731113760272e-04,4.257083387694141074e-02,-4.484097000016657592e-02,-6.680136919021606445e-02,-2.327294852986723159e-02,-7.487121820449828269e-02,3.319863080978393416e-02,-3.074823617935180595e-02,5.207280444132948993e-01,1.052842140197753906e-01,-7.348383665084838867e-01,1.205734113805051351e+02,-5.662319660186767439e-02
4.018639999999999990e-01,-1.920510404574949509e-02,3.115100609180590941e-03,9.822308421134948730e-01,-8.719015114750789915e-04,-1.158784955140856887e-02,3.616126388107548158e-03,-6.612285844620629377e-03,2.747137183669194974e-02,-6.220554187893867493e-02,2.845511357771041139e-02,1.001897124092798221e-02,5.106241599258991987e-02,-1.354495910091757238e-01,-1.065972510094767567e-02,5.708054488927855052e-02,-1.598385214805602972e-01,8.042635917663573664e-02,4.691603779792785645e-02,5.253956712785695649e-01,3.715771436691284180e-01,-1.140434622764587402e+00,1.557307992651486188e+02,-5.662319660186767439e-02
4.269410000000000149e-01,-1.920406556418809488e-02,4.347976191668316559e-03,9.809126257896423340e-01,-1.408469673834248466e-03,-9.124458788475564575e-03,3.786807316013874030e-03,-1.231340028863430261e-02,3.832658791734053910e-02,-6.480983644723892212e-02,-1.833532892610967649e-02,1.462758819653078579e-01,-3.099632989564401683e-02,-1.039602374852514333e-01,1.104708721656870868e-01,1.738784956934904535e-01,-1.423952221870422308e-01,1.921746253967284990e-01,1.632210016250610352e-01,5.124822973589838737e-01,-3.438172340393066406e-01,-6.040362119674682617e-01,1.078588708065538242e+02,-5.662319660186767439e-02
4.499070000000000014e-01,-1.907181909613743162e-02,5.955542853651338286e-03,9.795578122138977051e-01,-2.112289625488848049e-03,-6.459459587786708923e-03,4.300857059695714461e-03,6.171546469985332746e-03,4.169279198886334525e-02,-7.286102324724197388e-02,8.729642429447768710e-04,1.253364020423539393e-01,6.410806308860686475e-02,-8.810035964193871361e-03,1.151688021774625870e-01,1.382204354258843304e-01,-5.396409630775451244e-02,1.640506982803344727e-01,1.261493504047393743e-01,5.191899430546420557e-01,-2.595454454421997070e-02,-8.254045248031616211e-01,8.920735905129818377e+01,-5.662319660186767439e-02
4.766279999999999961e-01,-1.883589938782928228e-02,8.460541963751509395e-03,9.775080084800720215e-01,-3.910990432973836077e-03,-2.820219248682809265e-03,3.779881979072366276e-03,-9.042605830238545014e-03,4.862446200371562527e-02,-6.557899713516235352e-02,-5.115888995537885148e-02,8.831281306119677377e-02,-4.847285446002563142e-02,-2.586439418723361638e-02,1.593006044535062449e-01,6.131590328225463432e-02,-8.952673673629760187e-02,1.991584897041320801e-01,5.071533322334289412e-02,5.114712323937169458e-01,-4.233847260475158691e-01,-6.404386758804321289e-01,1.079749976828223907e+02,-5.662319660186767439e-02
4.982570000000000054e-01,-1.870673185752021531e-02,1.017159448340653957e-02,9.762138128280639648e-01,-6.045950718759178499e-03,-1.894696153881936240e-03,2.596397272824756998e-03,4.694682895114187134e-03,4.580197967418183497e-02,-8.040305227041244507e-02,-1.419310296668893634e-01,2.764339361781850343e-02,-5.756659102449368515e-02,2.341253566470858638e-01,1.481622772004836941e-01,-1.352549938926293494e-01,1.587402105331420787e-01,1.689466416835784801e-01,-1.425226807594299205e-01,5.188057137705625044e-01,-9.933745861053466797e-02,-1.025879502296447754e+00,-7.725715762660632890e+01,-5.662319660186767439e-02
5.238760000000000083e-01,-1.845168655478141018e-02,1.267770770910896239e-02,9.741637706756591797e-01,-8.439936829834784535e-03,-3.414437394073877030e-03,1.050239077786111874e-03,-1.604131928913458266e-02,5.567064459147659516e-02,-8.338443934917449951e-02,-8.795655018975678807e-02,-8.321071185079627341e-02,-2.067881238353209972e-02,2.089565873146057018e-01,-1.813769862723603188e-01,-1.908223925457503689e-01,1.089565873146057101e-01,-1.324857831001281794e-01,-1.937486171722412054e-01,5.163583669786196984e-01,-2.565366625785827637e-01,-1.045189976692199707e+00,1.209429655957378458e+02,-5.662319660186767439e-02
5.518739999999999757e-01,-1.810696404689085201e-02,1.499855421547151291e-02,9.723179936408996582e-01,-9.098900116494444343e-03,-7.357655698270182398e-03,4.329809043032619570e-04,-8.515236356711497825e-03,5.918680000475873976e-02,-8.055575937032699585e-02,1.774083534923991470e-02,-1.440494095934418961e-01,4.595183055595603722e-03,1.001839280128479087e-01,-2.484536372684277294e-01,-6.039775895674692231e-03,1.839280128479003744e-04,-1.829187512397766058e-01,-7.230019569396972136e-03,5.179946228465465152e-01,-1.701415777206420898e-01,-1.095420718193054199e+00,1.071870943809263963e+02,-5.662319660186767439e-02
5.770650000000000501e-01,-1.794108831192445241e-02,1.652393187725217233e-02,9.711381196975708008e-01,-7.456240278466400376e-03,-1.082687978642993265e-02,1.024492594075908153e-03,-1.370321325797136183e-02,5.591077077562943420e-02,-6.261178106069564819e-02,1.497323847469076707e-01,-2.031318719067846945e-01,1.656007065613430626e-02,2.375144038878753694e-01,-2.595329132443988107e-01,7.380766425410112061e-03,1.418102502822875810e-01,-1.662260055541992243e-01,4.515999555587768208e-03,5.206472687145353717e-01,3.445398807525634766e-02,-8.835295438766479492e-01,9.021216867066627287e+01,-5.662319660186767439e-02
5.986559999999999659e-01,-1.775840362226939126e-02,1.806726346330261163e-02,9.700424671173095703e-01,-5.250242476039289168e-03,-1.242781731301567660e-02,2.271843401037726418e-03,-1.655518806923853004e-02,5.238559590338518618e-02,-8.022641390562057495e-02,1.004514530229462937e-01,-2.657535671399705382e-02,7.116643021872572084e-02,-6.341246927271496081e-02,-1.321451306343078558e-01,2.405911821639545797e-02,-1.434661030769348034e-01,-3.214513063430785716e-02,1.765691041946411063e-02,5.253150244129597413e-01,2.079837322235107422e-01,-6.321674585342407227e-01,1.097765556990616318e+02,-5.662319660186767439e-02
6.240299999999999736e-01,-1.729241700238619631e-02,2.024089410142847559e-02,9.682733416557312012e-01,-1.114158052201186591e-03,-1.125231016571404119e-02,2.698255620565094635e-03,6.215538204509469741e-03,6.152174043717945767e-02,-8.230698108673095703e-02,1.542011382377078965e-01,8.194899543843915668e-02,2.704156132349989569e-02,-8.266184582029129091e-02,-2.251508259696159003e-02,5.190641687703947266e-02,-1.450182795524597168e-01,5.635179877281188549e-02,4.422608613967895369e-02,5.248589346942648115e-01,1.622031927108764648e-01,-8.989032506942749023e-01,9.942825220079119219e+01,-5.662319660186767439e-02
6.505130000000000079e-01,-1.657429928753403198e-02,2.218533124677001325e-02,9.665417671203613281e-01,3.183232160063160458e-03,-5.767699355573085995e-03,2.268525379135936590e-03,4.051473190297417461e-03,6.816253248984915913e-02,-8.434818685054779053e-02,1.649645160302870561e-01,2.106601845521690330e-01,-3.339159811655641880e-02,-9.306724186808967847e-02,9.845679254641478972e-02,1.697329510615838977e-01,-1.328488469123840221e-01,1.462151348590850775e-01,1.632524549961089921e-01,5.199838157505868308e-01,-1.226907968521118164e-01,-1.398789525032043457e+00,1.156473560076868807e+02,-5.662319660186767439e-02
6.742569999999999952e-01,-1.609569857579628768e-02,2.348813268686343603e-02,9.653459787368774414e-01,5.328565392333281699e-03,-1.705924330378305598e-03,1.568703008729900334e-03,9.278287777671955991e-03,5.936191369819823760e-02,-8.719381690025329590e-02,6.039531286350648120e-02,1.964024590585203012e-01,-2.297478122484274132e-02,-1.269467853081520659e-01,1.703097564604083569e-01,1.821814330580865116e-01,-1.459703207015991266e-01,1.870323657989501898e-01,1.777400135993957575e-01,5.207574404461788875e-01,-1.028054952621459961e-01,-5.008858442306518555e-01,1.182213127964061812e+02,-5.662319660186767439e-02
6.988710000000000200e-01,-1.529191650261787529e-02,2.553921077151447352e-02,9.634969234466552734e-01,7.074323611980609834e-03,3.292831644937432856e-03,-1.801219529405777715e-05,1.139474320934149437e-02,7.214605151359951285e-02,-7.982073724269866943e-02,3.021700245692926154e-02,1.396494734266328364e-01,-5.179803256348030488e-02,-1.468202890165929420e-01,2.153404039716243223e-01,1.959963373161063838e-01,-1.673863291740417536e-01,1.982704997062683105e-01,1.961104273796081543e-01,5.166353057293363582e-01,-3.090789914131164551e-01,-7.992643117904663086e-01,8.354061064412707083e+01,-5.662319660186767439e-02
7.224169999999999758e-01,-1.468636923257258566e-02,2.684212440355105561e-02,9.622925519943237305e-01,7.630971061180496715e-03,4.429839899955823057e-03,-2.058892024154049087e-03,1.269600814463833424e-02,6.536445035646222534e-02,-7.494407147169113159e-02,4.123618509273802718e-02,1.467549594420529402e-02,-1.478154912917043484e-01,-1.828087913823580879e-01,8.639001430939505233e-02,1.806514142410562129e-01,-1.937537670135497936e-01,6.097133159637450894e-02,1.865093171596527155e-01,5.179288365667273908e-01,-2.305400967597961426e-01,-1.260026574134826660e+00,9.846877454694448772e+01,-5.662319660186767439e-02
7.479970000000000230e-01,-1.363129702526790117e-02,2.875791819650570791e-02,9.605237245559692383e-01,6.290232161855113281e-03,3.560106517447536589e-03,-5.391413646089662955e-03,6.722170704228710471e-03,6.974497633362461424e-02,-8.194197714328765869e-02,-1.312000467103506818e-01,-6.227407694971714286e-02,-1.240951653712215608e-01,-1.452398254978141956e-01,-1.305886919140865909e-01,3.379425498027598118e-02,-1.706179618835449163e-01,-1.459208965301513616e-01,4.894528985023498258e-02,5.263807606150401330e-01,1.860194206237792969e-01,-7.153841257095336914e-01,9.275728157052061817e+01,-5.662319660186767439e-02
7.745039999999999702e-01,-1.297447850267268409e-02,3.009800249033503863e-02,9.593059420585632324e-01,4.782572217369723475e-03,1.156370569157294526e-03,-7.718632606435809999e-03,1.906341946147609157e-02,7.381746524770722850e-02,-8.352730423212051392e-02,-8.518964178198908110e-02,-1.343371818591795885e-01,-1.402343246570191271e-01,-1.404194786590455823e-01,-1.646519448075209335e-01,1.174337102667092625e-01,-1.793295443058013916e-01,-1.751199245452880748e-01,1.390818715095520075e-01,5.225143454584157965e-01,-4.133206605911254883e-02,-6.540993452072143555e-01,1.203793110646717111e+02,-5.662319660186767439e-02
7.995379999999999709e-01,-1.194505486685957032e-02,3.222347951726874105e-02,9.572827219963073730e-01,2.582161095195435220e-04,-2.743810875771357516e-03,-1.099701444247956454e-02,6.999022703083839121e-03,7.981473874718560124e-02,-8.331090211868286133e-02,-1.707888772143911771e-01,-1.172393367415959231e-01,-1.120808241580608239e-01,9.300016465031679669e-02,-1.685022403446809203e-01,-1.644580115779091523e-01,1.898871660232543876e-02,-1.428826332092285045e-01,-1.337309718132018987e-01,5.220648986422808946e-01,-7.928931713104248047e-02,-8.220032453536987305e-01,9.538475289138696667e+01,-5.662319660186767439e-02
8.237679999999999447e-01,-1.122181427922675466e-02,3.374018788018150888e-02,9.558544158935546875e-01,-4.031941023931784329e-03,-3.890683151332563483e-03,-1.253837818434805525e-02,1.093162046490824511e-02,8.028900575622188729e-02,-9.343623369932174683e-02,-2.272702641854341954e-01,-5.024310096238825650e-03,-6.325399679954500642e-02,2.578490734100341575e-01,1.291438353477596390e-01,-2.343189601415652246e-01,1.578490734100341797e-01,1.570138871669769232e-01,-1.992570161819458008e-01,5.200947728400940884e-01,-2.382739186286926270e-01,-9.759815931320190430e-01,9.566403249635962425e+01,-5.662319660186767439e-02
8.516209999999999614e-01,-1.032011586221368363e-02,3.682907261269356691e-02,9.536761641502380371e-01,-9.613441209189502873e-03,-3.471549975184506920e-03,-1.458135929691663918e-02,3.395078517671869245e-02,9.374534842739425111e-02,-9.308630973100662231e-02,-1.115273050881460809e-01,3.065890336641216574e-02,-2.340983076577440869e-02,3.048731327056884988e-01,1.931462793321682969e-01,-2.496776505933363255e-01,2.048731327056884655e-01,2.004835367202758845e-01,-2.088558912277221624e-01,5.194571669875133191e-01,-2.873615622520446777e-01,-7.945615053176879883e-01,1.731930658028782943e+02,-5.662319660186767439e-02
8.782450000000000534e-01,-1.002654511241273839e-02,3.786605121550095515e-02,9.530246257781982422e-01,-1.098497096593872673e-02,-2.569281512172283399e-03,-1.482237406066505732e-02,1.400815528227369704e-02,8.710825735248391155e-02,-9.631676226854324341e-02,-1.462568992123604861e-01,1.072644337123380004e-01,2.991586410629539991e-03,2.965597867965698020e-01,1.801195993872593548e-01,-2.186039336871936078e-01,1.965597867965698242e-01,2.000636637210845836e-01,-1.771086931228637584e-01,5.201376764465701630e-01,-2.728790640830993652e-01,-7.500380277633666992e-01,1.083094857068562504e+02,-5.662319660186767439e-02
9.009530000000000038e-01,-9.410273890754444412e-03,3.994812656450720534e-02,9.517882466316223145e-01,-1.099626374895718017e-02,-1.534125048639145561e-03,-1.428426114552163763e-02,1.545332838307141715e-02,9.021033685568262406e-02,-6.188451126217842102e-02,7.565203012365917523e-02,2.499478842629769895e-02,3.322656925231864955e-02,1.876085996627807617e-01,1.319316239945216851e-01,-4.839240502529765925e-02,8.760859966278075617e-02,1.408304572105407715e-01,-8.401179313659667622e-03,5.247140431029668761e-01,1.003197431564331055e-01,-1.148068785667419434e+00,9.493521033078424409e+01,-5.662319660186767439e-02
9.218399999999999928e-01,-8.893463909914732859e-03,4.191022643740408005e-02,9.508419036865234375e-01,-8.065582806367509183e-03,-1.864992257399000763e-03,-1.334629522108664659e-02,1.844480681006126568e-02,8.027193572084091733e-02,-5.791709199547767639e-02,2.033671785317499314e-01,-6.627774880593376161e-02,2.187459508502120550e-02,1.988364696502685769e-01,1.419695331056295695e-01,-4.510446030512171856e-02,9.883646965026855746e-02,1.504733920097351130e-01,-7.742643356323242188e-03,5.215929640152090485e-01,-6.202995777130126953e-02,-9.732090234756469727e-01,8.971439131414491897e+01,-5.662319660186767439e-02
9.469790000000000152e-01,-8.140119214598657768e-03,4.484236262810824269e-02,9.496243596076965332e-01,-1.559528582696877966e-04,-4.697210321006561884e-03,-1.102994820833567112e-02,2.100808802307992107e-02,7.788168917638074729e-02,-4.067032784223556519e-02,3.115394136622392507e-01,-1.797465470660507825e-01,5.320263282106756780e-02,1.620027628065388858e-01,6.382681445593804681e-02,-1.722392803956076385e-02,7.686460018157958984e-02,8.865489363670349399e-02,1.359286308288574184e-02,5.217597587228895994e-01,5.681276321411132812e-03,-7.611538171768188477e-01,9.463213434674327118e+01,-5.662319660186767439e-02
9.725589999999999513e-01,-7.392988879225703171e-03,4.785554544509913050e-02,9.486321210861206055e-01,9.214699853266644647e-03,-9.235142934100659673e-03,-9.705130029059771263e-03,8.327992300863553896e-03,7.508507818903965847e-02,-4.155981913208961487e-02,2.756362035060916926e-01,-1.755409299811185875e-01,1.750739461851502990e-02,1.050949707665514710e-01,-1.214672696495106979e-01,5.300900544382308732e-02,8.053225278854370117e-02,-5.725872516632080078e-02,7.987815141677856445e-02,5.219495367634368055e-01,3.860831260681152344e-03,-7.324627637863159180e-01,9.919060259880977526e+01,-5.662319660186767439e-02
9.972879999999999523e-01,-6.645155886380681338e-03,5.085932009012233274e-02,9.476236104965209961e-01,1.727015274601923639e-02,-1.387580714410807659e-02,-9.411202482369587438e-03,1.667841464307918617e-02,7.763808478588213324e-02,-4.584874585270881653e-02,2.360167948210981914e-01,-1.550385882469792753e-01,-1.276374445450784156e-03,7.436623435708582253e-02,-1.814786521673587560e-01,1.036658629116794794e-01,9.748613834381103516e-02,-9.583364725112915317e-02,1.294483065605163408e-01,5.242133202211133325e-01,1.005364656448364258e-01,-5.772796869277954102e-01,9.064746345666036120e+01,-5.662319660186767439e-02
1.024181999999999926e+00,-5.875665526241728547e-03,5.379375490275643129e-02,9.464914798736572266e-01,2.382336821084341319e-02,-1.724725822783712559e-02,-1.011534117502104445e-02,1.752966622445552292e-02,8.957042856634371553e-02,-6.426098197698593140e-02,1.418221657225639809e-01,-2.969363011928231530e-02,-2.508030267863745055e-02,-2.547915491436282542e-02,-1.014179944992065485e-01,1.042759998943859623e-01,2.936990261077880582e-02,-1.417994499206542969e-03,1.316921710968017578e-01,5.259007564681654756e-01,1.087198257446289062e-01,-7.582212686538696289e-01,9.892546148541904927e+01,-5.920603275299072404e-02
1.056076999999999932e+00,-5.456561577342906519e-03,5.545014511076425817e-02,9.456304311752319336e-01,2.747058388102039186e-02,-1.805420639114085901e-02,-1.118099230174562919e-02,1.349438585925850052e-02,7.515870208157500454e-02,-5.577635020017623901e-02,1.895532735791117251e-01,-2.556400569820026572e-02,-5.669022797942317726e-02,-6.346829814716183071e-02,-1.143935918807983398e-01,1.066163787761706672e-01,2.640877962112426688e-02,-1.439359188079833950e-02,1.368985891342162919e-01,5.255552731211110551e-01,1.149971485137939453e-01,-8.286973237991333008e-01,-8.240920346849279099e+01,-5.920603275299072404e-02
1.074362000000000039e+00,-5.217632107232251550e-03,5.627162248658925531e-02,9.451678395271301270e-01,2.873425222329804504e-02,-1.778914022325062128e-02,-1.190065942577604730e-02,1.795357083072551124e-02,6.533319815219794380e-02,-5.616535991430282593e-02,1.515321613305934678e-01,-9.104558099794636539e-03,-5.812892440511029796e-02,-1.423184633255004938e-01,-9.980929493904114325e-02,1.117236364686656769e-01,-4.231846332550048828e-02,1.907050609588623047e-04,1.440603017807006725e-01,5.247615805627856567e-01,6.310260295867919922e-02,-6.167091131210327148e-01,1.252606150380480443e+02,-5.920603275299072404e-02
1.102495000000000003e+00,-4.473418901727167600e-03,5.860711921578602712e-02,9.436725974082946777e-01,3.188167269817864663e-02,-1.451577023644756714e-02,-1.430128720389524724e-02,3.070093752708476231e-02,7.889668217459157307e-02,-6.573399156332015991e-02,9.016495335489925489e-02,1.292675428973200091e-01,-6.909033380491728937e-02,-3.025602817535400502e-01,2.099127599248742926e-02,1.609097652874428852e-01,-2.025602817535400446e-01,1.006177425384521401e-01,2.001549482345580944e-01,5.214381102721692418e-01,-1.674120426177978516e-01,-5.228813886642456055e-01,6.453194146698228906e+01,-5.920603275299072404e-02
1.127866999999999953e+00,-3.977441012421248888e-03,6.012857664251843037e-02,9.426249861717224121e-01,3.261950392065035564e-02,-1.153249264929856466e-02,-1.607967453428290477e-02,8.505357913240547268e-03,6.535850933928954998e-02,-7.027058303356170654e-02,-5.419975944495278482e-03,1.531576889095597471e-01,-7.145933018748443222e-02,-3.078368306159973145e-01,4.977155718380690819e-02,1.598641843243763239e-01,-2.078368306159973089e-01,1.288391590118408148e-01,2.041117429733276256e-01,5.222608410140477941e-01,-1.508440971374511719e-01,-7.038661241531372070e-01,1.074927863274194806e+02,-5.920603275299072404e-02
1.154797999999999991e+00,-3.466902347472105347e-03,6.156424364551119077e-02,9.414860010147094727e-01,3.276655458273861066e-02,-8.584062243733647790e-03,-1.768626652580961370e-02,2.036681303771054052e-02,7.565261925727337355e-02,-6.535974889993667603e-02,8.287450243439561937e-03,1.723682930564074955e-01,-1.056147073697680239e-01,-3.069346785545349343e-01,1.076724927961797140e-01,1.562342089023638914e-01,-2.069346785545349010e-01,1.551978349685669001e-01,2.052744626998901367e-01,5.213582557512145277e-01,-1.914337277412414551e-01,-1.272814154624938965e+00,5.713276680325621726e+01,-5.920603275299072404e-02
1.172963999999999896e+00,-3.235620376981943741e-03,6.225982466881414823e-02,9.409107565879821777e-01,3.226144203651103159e-02,-7.244747325918288183e-03,-1.854069087576987185e-02,3.645336603743085102e-02,6.501502315547270927e-02,-6.624603271484375000e-02,-2.818225732387728832e-02,1.430029157122486572e-01,-5.694549659025803512e-02,-2.967670500278473122e-01,1.373411961624050603e-01,1.477505481600927817e-01,-1.967670500278472789e-01,1.650764465332031083e-01,1.993970096111297441e-01,5.243480634808218577e-01,-4.121184349060058594e-02,-8.132098913192749023e-01,1.022807031227286103e+02,-5.920603275299072404e-02
1.203716999999999926e+00,-2.063659647439755260e-03,6.462868319233944225e-02,9.391243457794189453e-01,2.934925939730389371e-02,-3.414802837187869144e-03,-2.179940430236803131e-02,1.484300918172401680e-02,6.473599221234045686e-02,-6.203050166368484497e-02,-8.392755666480226917e-02,8.687939574108742569e-02,-1.225638518035255253e-01,-2.849813589846099671e-01,1.310192356822521553e-01,8.873067631192851912e-02,-1.859216630458831732e-01,1.524927556514739935e-01,1.495764076709747148e-01,5.202195352335446943e-01,-2.612719535827636719e-01,-1.079846739768981934e+00,6.601543123395238410e+01,-5.920603275299072404e-02
1.226736000000000049e+00,-1.306420628575221364e-03,6.614276318483609807e-02,9.378783702850341797e-01,2.535558958605300256e-02,-1.572503608865405411e-03,-2.417052448812381099e-02,2.902345009301720430e-02,5.885221068631266150e-02,-7.152969390153884888e-02,-2.480221183177922228e-01,8.332939173758653617e-02,-1.248193971865925872e-01,-2.630750989240023263e-01,3.580553746463190079e-02,7.537650051680638841e-04,-1.867834746837615800e-01,3.080329298973083496e-02,6.848112344741820456e-02,5.277671629834693734e-01,9.926855564117431641e-02,-7.430688142776489258e-01,6.819907003236214393e+01,-5.920603275299072404e-02
1.251357999999999970e+00,-1.958724736178286963e-04,6.841677079279763485e-02,9.359607100486755371e-01,1.797947543733454875e-02,-6.045802979142145261e-04,-2.777932379631695842e-02,2.574922863234477624e-02,6.979514889038147818e-02,-7.773979753255844116e-02,-2.841657706606418587e-01,9.912093383436704555e-03,-6.982312902519186015e-02,-1.953763288506029927e-01,-2.744226466547755941e-02,-8.398702532203451698e-02,-1.778897881507873480e-01,-3.459577560424804271e-02,-6.144511699676513845e-03,5.295241681118856292e-01,1.556606292724609375e-01,-1.200478911399841309e+00,-1.072189025718911495e+02,-5.920603275299072404e-02
1.276110000000000078e+00,5.061178581975999454e-04,6.992016877150272758e-02,9.347067475318908691e-01,1.234078353753184296e-02,-1.107586462357534884e-03,-3.060104883774920556e-02,1.326743071684608963e-02,5.371156100448413323e-02,-7.486887276172637939e-02,-2.845251661727160597e-01,-4.122338424815632368e-02,-1.724443327934190584e-01,-1.447870185769560836e-01,-1.116324042108239045e-01,-1.121883403875321844e-01,-1.511555135250091386e-01,-1.070654511451721164e-01,-2.652393579483032157e-02,5.304894468395534579e-01,2.084398269653320312e-01,-1.015717625617980957e+00,9.262915405188034867e+01,-5.920603275299072404e-02
1.303546000000000094e+00,1.188405741580013343e-03,7.263957602782962486e-02,9.328199625015258789e-01,2.665569626585028665e-03,-3.880930177659891456e-03,-3.383903746852504058e-02,2.796648952906166316e-02,6.639829643236000445e-02,-7.570677250623703003e-02,-3.754348751642377358e-01,-1.004908694747741332e-01,-1.191073523194774719e-01,1.851952043518442226e-01,-1.489943429990489565e-02,-2.911203288563102287e-01,1.013651132583618109e-01,-5.716967582702636892e-03,-1.964012145996093806e-01,5.244371991548428813e-01,-1.402567028999328613e-01,-1.217038989067077637e+00,8.779000600606133276e+01,-5.920603275299072404e-02
1.325633999999999979e+00,1.624424344424026372e-03,7.447449077889195523e-02,9.315227270126342773e-01,-3.587121451455987150e-03,-6.229483153524562056e-03,-3.520685511183892918e-02,1.743699651281250401e-02,7.033876316300824438e-02,-7.538192719221115112e-02,-2.751118185127038873e-01,-1.189874693658731913e-01,-5.258867608084743378e-02,2.739231586456298828e-01,-6.942340411655589794e-02,-3.099752775689114115e-01,1.739231586456298773e-01,-3.522573709487914623e-02,-2.114831328392028642e-01,5.232200158242187316e-01,-2.173955440521240234e-01,-1.143834948539733887e+00,7.870626422129457467e+01,-5.920603275299072404e-02
1.353385999999999978e+00,2.283315708091956768e-03,7.734428796516701343e-02,9.297342300415039062e-01,-1.333991869565367104e-02,-8.837247704993833608e-03,-3.640300544223550733e-02,2.564839565671522131e-02,7.686958009553343518e-02,-7.391383498907089233e-02,-2.958679371960997728e-01,-5.015641726408534562e-02,-4.068904820952608942e-02,3.109076738357544056e-01,1.155691494612683667e-01,-3.194989681243896595e-01,2.109076738357544001e-01,1.582066655158996527e-01,-2.194989681243896540e-01,5.226726839747711795e-01,-2.558872103691101074e-01,-4.349659681320190430e-01,1.117197581783085951e+02,-5.920603275299072404e-02
1.374400000000000066e+00,2.752728353256410094e-03,7.930463900601952831e-02,9.286403059959411621e-01,-1.891195381644019888e-02,-9.690374253006783789e-03,-3.679294980608718846e-02,2.645688795860700118e-02,7.555862413008940237e-02,-6.063978746533393860e-02,-2.526459269125337914e-01,-2.471612254647379339e-02,-3.053645601657050193e-02,3.155117750167846791e-01,1.439971286477625401e-01,-3.209843397140502708e-01,2.155117750167846735e-01,1.920320391654968262e-01,-2.209843397140502930e-01,5.216310692147311245e-01,-2.707430124282836914e-01,-1.369842410087585449e+00,-1.779198367462830888e+01,-5.920603275299072404e-02
1.401178000000000035e+00,4.027674044104507557e-03,8.328514366820645443e-02,9.272812604904174805e-01,-2.469373780917164668e-02,-8.958013957479638023e-03,-3.587756337237838627e-02,1.789201417000194083e-02,8.086517384426099297e-02,-4.683620855212211609e-02,-1.108683520950285023e-01,5.485913378865608925e-02,3.243618247801859089e-02,3.171161651611328347e-01,1.646671322286646366e-01,-3.164059162139892800e-01,2.171161651611328014e-01,2.136692583560943492e-01,-2.164059162139892467e-01,5.187752917315293644e-01,-3.820033073425292969e-01,-6.882754564285278320e-01,7.997826401080439496e+01,-5.920603275299072404e-02
1.425508999999999915e+00,4.801199958449915706e-03,8.591099268156500435e-02,9.266255497932434082e-01,-2.528249107832411524e-02,-8.493679826745870187e-03,-3.416032297703697901e-02,2.315125265131355928e-02,8.126468374579208509e-02,-5.207801610231399536e-02,-8.421174643509676122e-03,4.005992460264133637e-02,1.177196023659947549e-01,2.935478806495666615e-01,1.660510110288712093e-01,-2.407619814167413219e-01,1.935478806495666559e-01,2.061314821243286077e-01,-1.450587987899780162e-01,5.204034148014679007e-01,-3.239108324050903320e-01,-8.781095743179321289e-01,9.470637167283213387e+01,-5.920603275299072404e-02
1.453175000000000106e+00,5.921683796317080486e-03,8.981935981327122953e-02,9.260334968566894531e-01,-2.112825662147643085e-02,-7.911166561574090039e-03,-3.077392519070282217e-02,1.547104305214461357e-02,8.618106806394219832e-02,-2.575490809977054596e-02,1.589225051733176852e-01,2.882898595133847643e-03,1.693755990981817561e-01,2.266969323158264105e-01,6.224059279392280680e-02,-2.115362083529881698e-01,1.266969323158264049e-01,1.045650601387023843e-01,-1.253562927246093806e-01,5.243798896399984866e-01,-1.231062412261962891e-02,-6.614423990249633789e-01,7.167573877273618166e+01,-5.920603275299072404e-02
1.475081000000000087e+00,6.597131115742305499e-03,9.244255784537112886e-02,9.258060455322265625e-01,-1.588979658065709996e-02,-8.104258821926002554e-03,-2.819306510208717531e-02,1.351760128487906019e-02,9.566415921823681612e-02,-2.694703638553619385e-02,3.087505617806273195e-01,-2.554609007063552567e-02,1.391078349746783516e-01,2.491597533226013184e-01,4.166239643844261986e-02,-1.663771306319533905e-01,1.491597533226013128e-01,8.541905879974365234e-02,-8.748199939727782648e-02,5.259971266637634146e-01,6.444382667541503906e-02,-9.720550775527954102e-01,9.010170402121966049e+01,-5.920603275299072404e-02
1.501373999999999986e+00,7.762741668235940626e-03,9.558408152510880496e-02,9.257054328918457031e-01,-6.287780359377194428e-03,-1.022215129937231737e-02,-2.394474649932295737e-02,1.003518782225672201e-02,8.770056486197530532e-02,-1.869470439851284027e-02,3.620078613089636188e-01,-1.081577155363569603e-01,1.396520927920376909e-01,2.319482684135437123e-01,-1.706841557427643541e-02,-1.439881090909736761e-01,1.319482684135437067e-01,4.197413921356200894e-02,-7.711436748504638117e-02,5.262295347517493838e-01,1.049358844757080078e-01,-7.360039949417114258e-01,1.065734292047574314e+02,-5.920603275299072404e-02
1.523174000000000028e+00,8.528959981363626666e-03,9.743707586274366617e-02,9.257068037986755371e-01,6.157431838702177472e-04,-1.258020636960499594e-02,-2.115950523175864559e-02,8.990640141096720508e-03,1.009493205606284416e-01,-9.028762578964233398e-03,3.687688596642574868e-01,-1.159365976856986252e-01,1.263258048849920934e-01,2.210487365722656194e-01,-4.283607452193821663e-02,-1.213088385790047907e-01,1.210487365722656139e-01,3.147205710411071777e-02,-6.242015361785888117e-02,5.256498112658284372e-01,1.066085100173950195e-01,-8.398073911666870117e-01,8.299478973698383300e+01,-5.920603275299072404e-02
1.547956000000000110e+00,9.589023364123509460e-03,1.002373122795677252e-01,9.257259964942932129e-01,1.047343798828826410e-02,-1.656061376860207268e-02,-1.752420257040833082e-02,9.882692916829201313e-03,9.462513866139544982e-02,-6.721763871610164642e-03,3.307713581489636345e-01,-1.342821687404753828e-01,7.863812594445607207e-02,1.693880729496927695e-01,-1.295213406565924319e-01,-6.523400905698058250e-02,9.741024971008301059e-02,-3.113712072372436246e-02,-1.683651208877563407e-02,5.250842587691880725e-01,8.125638961791992188e-02,-1.066344141960144043e+00,1.719544109968964847e+02,-5.920603275299072404e-02
1.573031999999999986e+00,1.065847244638830002e-02,1.029710682231247953e-01,9.257453083992004395e-01,1.935115172575478312e-02,-1.936353301116700010e-02,-1.468273263568833573e-02,1.577390429218031298e-02,9.575556425416677231e-02,-1.980493078008294106e-03,3.018546939144771124e-01,-8.922874094660053490e-02,3.895685932495478176e-02,9.709337226374659124e-02,-1.314649581909179688e-01,9.354049033412643877e-03,7.854323387145996371e-02,-3.146495819091797014e-02,4.947890639305114330e-02,5.253590179893532497e-01,1.108994483947753906e-01,-1.053830027580261230e+00,1.021823347383020746e+02,-5.920603275299072404e-02
1.598394000000000092e+00,1.190448553291654533e-02,1.058652802884797323e-01,9.258222579956054688e-01,2.709436588015054492e-02,-2.051345144093619233e-02,-1.218686582660613062e-02,1.933894151692171562e-02,8.672523993029368494e-02,-3.851753892377018929e-03,2.097718394903449468e-01,-5.353353917862888750e-02,3.299669937774196704e-02,1.215645337442877727e-02,-1.402876377105712891e-01,6.200376908118061803e-02,4.884999990463256836e-02,-4.028763771057129045e-02,9.492580890655517856e-02,5.267248321258602983e-01,1.745302677154541016e-01,-6.673401594161987305e-01,8.609866675245858403e+01,-5.920603275299072404e-02
1.623545999999999934e+00,1.307042578129728218e-02,1.085801217866761564e-01,9.258840084075927734e-01,3.361547091645097907e-02,-1.980629232610953139e-02,-1.001757324538421826e-02,1.221139925832036115e-02,7.406067012477973721e-02,-1.261344924569129944e-02,1.486117711582088663e-01,3.635360341107505416e-02,6.865027217159068440e-02,-1.013745320694273006e-01,-1.021571040153503446e-01,4.813113566307695990e-02,-1.556210517883300712e-02,-2.157104015350341623e-03,7.483638525009154996e-02,5.284224734840966553e-01,2.288647890090942383e-01,-1.198976397514343262e+00,1.180905010134220987e+02,-5.920603275299072404e-02
1.652768000000000015e+00,1.423950157484146078e-02,1.111067046395112085e-01,9.258149862289428711e-01,3.906733347624175012e-02,-1.739950261589973124e-02,-8.657148639534460038e-03,1.886551848597220471e-02,8.639139339567747378e-02,-2.191619388759136200e-02,1.413857932831904529e-01,1.149939107069514743e-01,7.037155481414508751e-02,-1.370561838150024525e-01,-4.109706644375224482e-03,4.505247126677086600e-02,-3.705618381500244002e-02,8.932721614837646484e-02,6.806203722953796387e-02,5.273230086157748575e-01,1.261687278747558594e-01,-1.214786171913146973e+00,4.602067740104910598e+01,-7.637202739715576172e-02
1.681454000000000004e+00,1.533732915264894754e-02,1.126752458132250501e-01,9.256706237792968750e-01,4.178513881882977427e-02,-1.523363404077815453e-02,-8.664170521874894546e-03,1.220856579695873100e-02,6.198584671506228438e-02,-1.320706587284803391e-02,1.862317431356689812e-01,6.449490654955708502e-02,-2.607652052800846915e-02,-2.396788597106933594e-01,-7.354248093773470274e-02,1.290640835727264457e-01,-1.396788597106933538e-01,1.105801463127136126e-02,1.522130191326141191e-01,5.250156309821538692e-01,3.116595745086669922e-02,-1.463311910629272461e+00,1.453850844085736185e+02,-7.637202739715576172e-02
1.702874999999999917e+00,1.604981126631133473e-02,1.134118255373239154e-01,9.256370663642883301e-01,4.265295115073532151e-02,-1.390870567430813054e-02,-8.676902619352578130e-03,1.279482589825538599e-02,7.283717410129891823e-02,-1.792987994849681854e-02,8.010786070376738066e-02,1.245035422978594819e-01,-6.757857593768969683e-03,-2.631306290626526101e-01,-5.873941023624734692e-02,1.460715220305739137e-01,-1.631306290626525768e-01,1.544029712677001849e-02,1.693494737148284746e-01,5.256578551899883101e-01,4.192852973937988281e-02,-6.868864297866821289e-01,1.051545735179031738e+02,-7.637202739715576172e-02
1.723932000000000020e+00,1.742600165050844224e-02,1.147950762643980688e-01,9.255093336105346680e-01,4.373440002950092914e-02,-1.108084236903450481e-02,-8.989725498959886055e-03,3.161940759530736111e-02,6.894305919473758815e-02,-1.804159395396709442e-02,2.752291560203232526e-02,1.500554469833522420e-01,-2.092248134718599495e-02,-2.970992684364318626e-01,1.036410004126541162e-01,1.725697862242436265e-01,-1.970992684364318848e-01,1.439711272716522050e-01,1.971859931945800781e-01,5.241709612891316539e-01,-4.443162679672241211e-02,-1.324227213859558105e+00,9.101411484149581099e+01,-7.637202739715576172e-02
1.749554999999999971e+00,1.944919669567997389e-02,1.167664502216697181e-01,9.252858757972717285e-01,4.276875679424264887e-02,-6.873841427496918399e-03,-9.548310282501150034e-03,1.101614179416540024e-02,5.806934473159838794e-02,-2.233492024242877960e-02,-1.096656666332325586e-01,1.287514223170259098e-01,-4.008172835311220317e-02,-2.721028149127960316e-01,8.312467831246943273e-02,1.465571029409452886e-01,-1.721028149127960261e-01,1.135052919387817272e-01,1.728890061378478837e-01,5.212746167123054608e-01,-2.234695553779602051e-01,-1.204596161842346191e+00,7.240399403261044142e+01,-7.637202739715576172e-02
1.776327999999999907e+00,2.073267624562218428e-02,1.179725274725869771e-01,9.251030087471008301e-01,4.108609474283368007e-02,-4.564325327615526007e-03,-1.000787985231211576e-02,3.231317461873701308e-02,6.105677794573759198e-02,-2.467511966824531555e-02,-1.088546792952197334e-01,1.103762830102456571e-01,-2.532086070884591311e-02,-2.568059086799621693e-01,1.478112600501476359e-01,1.327518284886438915e-01,-1.568059086799621638e-01,1.429250299930572565e-01,1.608470499515533281e-01,5.222115026759707179e-01,-1.882663965225219727e-01,-8.287483453750610352e-01,6.559374901497413646e+01,-7.637202739715576172e-02
1.803223999999999938e+00,2.273297431966924548e-02,1.196478329033324878e-01,9.247320294380187988e-01,3.589451899462160062e-02,-1.656345311014773003e-03,-1.166463041664147181e-02,1.707371343254317567e-02,5.844079610346019499e-02,-2.085526101291179657e-02,-1.577170116935605881e-01,6.612042136814484661e-02,-6.694462595813206740e-02,-2.781312443231275799e-01,3.564758792632204826e-02,6.168662609976063860e-02,-1.793789327144622858e-01,2.550793290138244490e-02,9.448006153106688898e-02,5.243586343836300623e-01,-6.282925605773925781e-02,-8.804668188095092773e-01,9.281363063117322554e+01,-7.637202739715576172e-02
1.827674000000000021e+00,2.410578919917192794e-02,1.207044387637242616e-01,9.245077967643737793e-01,3.059651934197804568e-02,-9.100983061149925391e-05,-1.322814230846540429e-02,2.457293158629575425e-02,4.454968154686195919e-02,-3.039747662842273712e-02,-2.850198667421323107e-01,3.818138214812078629e-02,-7.473794845485003113e-02,-2.623580877227861818e-01,4.553404136813856556e-02,5.161853930279945712e-02,-1.886450171470641923e-01,1.638280749320983679e-02,8.897842168807983121e-02,5.247677405188867494e-01,-8.405929803848266602e-02,-8.813520669937133789e-01,9.136727660272049434e+01,-7.637202739715576172e-02
1.848530999999999924e+00,2.544008832477738860e-02,1.217733637309948991e-01,9.241957664489746094e-01,2.503125232451272955e-02,1.240653494820609382e-04,-1.475763059744937024e-02,2.673312855490972764e-02,5.232916070220162974e-02,-2.290868572890758514e-02,-2.734914714950321124e-01,-5.702080078843150754e-03,-1.045299401403445710e-01,-2.132631552659870755e-01,-3.053694831568455614e-03,2.411192476524449957e-02,-1.851529777050018311e-01,-3.502693176269531389e-02,6.575734019279479148e-02,5.263366222035230635e-01,2.414488792419433594e-02,-8.544145822525024414e-01,9.648578621578219838e+01,-7.637202739715576172e-02
1.872895999999999894e+00,2.671383604474485834e-02,1.227385941415644888e-01,9.238884449005126953e-01,1.877392113156687442e-02,-9.352078191608992341e-04,-1.623614396350791730e-02,3.551053843889412365e-02,4.709699339452268901e-02,-3.603686019778251648e-02,-3.601351195370618985e-01,-5.967057404501631412e-02,-5.801066952853978220e-02,-1.097053361814847722e-01,-4.035587606669617522e-02,-7.394408138884969728e-02,-1.180166780948638805e-01,-7.277605533599852683e-02,-2.820382118225097517e-02,5.266077799136157367e-01,-1.964074373245239258e-02,-1.292513489723205566e+00,-5.549859281791189147e+01,-7.637202739715576172e-02
1.899035999999999946e+00,2.855279971805737074e-02,1.241404812026193488e-01,9.234532713890075684e-01,9.556322682368592961e-03,-4.208136545151619501e-03,-1.848851783753921105e-02,1.555619971096855632e-02,4.348171390814808968e-02,-4.086336866021156311e-02,-3.619149017271437452e-01,-9.414864981403903155e-02,-4.058986889397319525e-02,1.242864168775389827e-01,-4.328297799817297509e-02,-2.409641253537061489e-01,5.695760250091552734e-02,-3.897868394851684154e-02,-1.892162561416625977e-01,5.240666576618626671e-01,-1.842119097709655762e-01,-1.107071280479431152e+00,7.432536722727004985e+01,-7.637202739715576172e-02
1.924854999999999983e+00,2.962455285325770252e-02,1.249318840240845052e-01,9.230646491050720215e-01,7.809310310682352320e-04,-7.696452752554705512e-03,-2.022030964741556441e-02,3.075227514296959702e-02,4.950902034101388460e-02,-3.642791137099266052e-02,-2.669927970169397868e-01,-1.007596853176436491e-01,-3.029987382394528153e-02,2.800152063369750755e-01,2.403315508629809416e-02,-2.675017660695330202e-01,1.800152063369750977e-01,3.567278981208801131e-02,-2.109337806701660212e-01,5.227959286598153898e-01,-2.433813214302062988e-01,-6.429816484451293945e-01,1.060581324130149881e+02,-7.637202739715576172e-02
1.952444000000000068e+00,3.071791445010266589e-02,1.258355060579917362e-01,9.226900339126586914e-01,-7.973984021581639187e-03,-9.689518705090938155e-03,-2.167164648600532553e-02,2.854286107595629604e-02,5.105459479002001644e-02,-2.941312454640865326e-02,-2.567226658960738428e-01,-4.795224026330015266e-02,-3.375162604573975905e-02,3.105401039123535378e-01,1.444658399142309813e-01,-2.776290875088976984e-01,2.105401039123535045e-01,1.719208180904388261e-01,-2.170233249664306474e-01,5.214722793622638131e-01,-2.941663265228271484e-01,-7.350767850875854492e-01,8.890422159555468795e+01,-7.637202739715576172e-02
1.976858999999999922e+00,3.142197291227438044e-02,1.265062610335665472e-01,9.225350022315979004e-01,-1.308947614311984850e-02,-1.040507157977432762e-02,-2.212012529356694249e-02,3.285869508568314834e-02,4.993882756324746763e-02,-2.958782948553562164e-02,-2.642929361155841872e-01,2.405081709397648843e-02,-2.092724378256782813e-02,3.142138004302978405e-01,1.755521041196486665e-01,-2.793176264799832609e-01,2.142138004302978349e-01,2.032714962959289440e-01,-2.174283027648925837e-01,5.207432594556562488e-01,-3.402835130691528320e-01,-9.212440252304077148e-01,9.589152560704523864e+01,-7.637202739715576172e-02
1.998493999999999993e+00,3.208822473570046435e-02,1.272288752395412392e-01,9.223930239677429199e-01,-1.689068881507204203e-02,-1.081564630938358640e-02,-2.121583858514402426e-02,2.207016867556229472e-02,4.954924755767003974e-02,-2.384283021092414856e-02,-1.536920515621508221e-01,-2.831917356990799883e-02,8.723348375584387415e-02,3.178446173667907604e-01,1.608189565166691093e-01,-2.821360587295621558e-01,2.178446173667907548e-01,1.993468701839447021e-01,-2.227680444717407282e-01,5.196249279154199208e-01,-3.834919929504394531e-01,-9.506720304489135742e-01,4.881425892253017196e+01,-7.637202739715576172e-02
2.023254000000000108e+00,3.286306791469737615e-02,1.281807719929273504e-01,9.223056435585021973e-01,-1.856760832213946374e-02,-1.159707463313774944e-02,-1.869651176375174834e-02,1.614679965126121150e-02,5.636252784199947269e-02,-2.049365453422069550e-02,3.067733904061612990e-02,1.466014026932235814e-02,1.491915043686973807e-01,2.544598340988158958e-01,1.127839704754388384e-01,-2.099120557273926047e-01,1.544598340988159180e-01,1.586374461650848222e-01,-1.575985193252563421e-01,5.258385019870712718e-01,-3.931140899658203125e-02,-4.272061586380004883e-01,-5.245414527840542185e+00,-7.637202739715576172e-02
2.048121000000000080e+00,3.345517611306349920e-02,1.291501473265095901e-01,9.225276708602905273e-01,-1.473115945342703438e-02,-1.400563866173820671e-02,-1.541910637629365782e-02,1.211072384234909531e-02,5.151956087908848847e-02,-7.361627649515867233e-03,1.623604940787836681e-01,-5.245562390547840736e-02,1.346385373415430187e-01,2.225678682327270619e-01,-6.502724586234613635e-02,-1.714467922919793996e-01,1.225678682327270425e-01,-2.067232131958007899e-03,-1.283683061599731334e-01,5.283424810098917845e-01,1.459385156631469727e-01,-1.118132233619689941e+00,3.597408726408023938e+01,-7.637202739715576172e-02
2.075143999999999878e+00,3.387636935119086451e-02,1.300800892437503076e-01,9.228845238685607910e-01,-6.447423863072099769e-03,-1.828484940333696684e-02,-1.177644927442642736e-02,-6.658151380488346732e-04,5.034012580831273564e-02,-1.254074857570230961e-03,2.690198273320488775e-01,-1.226835956596019767e-01,1.426753336285809248e-01,2.313408732414245494e-01,-1.562040507956021507e-01,-1.200956164424680367e-01,1.313408732414245439e-01,-5.668108463287353099e-02,-8.745174407958984653e-02,5.278423028071502765e-01,1.402788162231445312e-01,-7.382744550704956055e-01,1.278616193758805935e+02,-7.637202739715576172e-02
2.104137999999999842e+00,3.409429819462850286e-02,1.306653605288690956e-01,9.233261346817016602e-01,3.465591850913598768e-03,-2.348853460964983597e-02,-7.965476517520438809e-03,3.675852800291702117e-03,4.157925132813899277e-02,7.060628384351730347e-03,2.872956835518325480e-01,-1.755264168077798059e-01,1.386594870315302763e-01,2.333841800689697155e-01,-1.925262331962585560e-01,-6.526060006345416054e-02,1.333841800689697099e-01,-9.252623319625853660e-02,-4.363020658493042131e-02,5.255721117304180678e-01,4.797065258026123047e-02,-1.788346588611602783e+00,1.482265797070823226e+02,-7.637202739715576172e-02
2.124960999999999878e+00,3.413581569137073835e-02,1.306452831814597371e-01,9.234842061996459961e-01,7.133666106872533705e-03,-2.499505092544840323e-02,-6.923035611713818614e-03,-1.080354615470274521e-03,5.043925496375295525e-02,2.301991730928421021e-02,3.183629482374002451e-01,-1.679634069507414396e-01,6.929660640796227178e-02,2.245520591735839788e-01,-1.863954544067382701e-01,-3.677117629951007216e-02,1.245520591735839733e-01,-8.639545440673827847e-02,-1.828726530075073034e-02,5.243088071591299748e-01,3.979706764221191406e-02,-7.420560121536254883e-01,9.153356438825362318e+01,-7.637202739715576172e-02
2.153580999999999968e+00,3.421371453331022855e-02,1.305884656096539809e-01,9.237977266311645508e-01,1.332945706161751953e-02,-2.721029164202914963e-02,-4.698445734559168578e-03,5.145079484097737910e-03,5.017676356895060114e-02,6.110556423664093018e-03,2.800878898654938221e-01,-6.581450773623027939e-02,1.635222422639505679e-01,1.191794698401793806e-01,-1.550930738449096680e-01,-3.396806966602826383e-02,6.083267927169799805e-02,-5.509307384490966936e-02,-2.196092605590820382e-02,5.299305760780796959e-01,2.772554159164428711e-01,-8.995891809463500977e-01,9.359264102676985431e+01,-7.637202739715576172e-02
2.177553000000000072e+00,3.428408507502216096e-02,1.305702325457469559e-01,9.241093993186950684e-01,1.946646809375324888e-02,-2.812703536073235533e-02,-3.280952252230128884e-03,-3.865403274291357751e-03,4.462571567622383023e-02,1.847848482429981232e-02,3.437683841050973577e-01,-2.582389069179551189e-02,4.703259035640545982e-02,9.591771382876529417e-02,-1.333339571952819880e-01,1.615985697829136480e-02,8.087196350097655695e-02,-3.333395719528198242e-02,2.389660477638244629e-02,5.269590251902519507e-01,1.624367237091064453e-01,-9.329458475112915039e-01,1.014129617396243361e+02,-7.637202739715576172e-02
2.204666000000000015e+00,3.436461194861682028e-02,1.305137480823188867e-01,9.244012236595153809e-01,2.437277317503007065e-02,-2.755436755749363087e-02,-1.794742254297093794e-03,1.433033256338764674e-02,4.170231355086028574e-02,1.101705897599458694e-02,2.059491631436475290e-01,6.758947080099657334e-02,9.355244052387264031e-02,-1.806230502212020916e-03,-7.161126732826234020e-02,6.210477673625837414e-02,1.627550125122070174e-02,2.838873267173766882e-02,6.570653915405273715e-02,5.288959217657178691e-01,2.364923954010009766e-01,-7.854465246200561523e-01,1.047538668098660253e+02,-7.637202739715576172e-02
2.226447999999999983e+00,3.443944029370974574e-02,1.304448413439371623e-01,9.246674776077270508e-01,2.937938417051695270e-02,-2.548578414692959093e-02,-6.799403366237571607e-04,-8.581980538819143503e-04,3.819742770545020427e-02,8.412834256887435913e-03,2.576569746432607055e-01,1.117975720222661035e-01,5.304720545841397350e-02,-8.872112769614955152e-02,-6.787014007568359375e-02,9.654667577791128941e-02,-3.614929318428039551e-02,3.212985992431640486e-02,9.687348604202269953e-02,5.269970488432020872e-01,1.205413341522216797e-01,-1.080337166786193848e+00,-1.318775110606596286e+02,-7.637202739715576172e-02
2.253896999999999817e+00,3.501148195052966594e-02,1.313484345643769202e-01,9.249827861785888672e-01,3.396820232690997421e-02,-2.266057426724921164e-02,-3.791367350788701522e-05,9.710054963126074634e-03,3.436001646081299210e-02,1.504395157098770142e-02,1.780645011180486126e-01,1.461349605199547541e-01,8.664572277968461342e-03,-1.866952897489388974e-01,-3.574873805046081821e-02,1.264600106208306485e-01,-1.030645072460174561e-01,6.425126194953918735e-02,1.251999378204345648e-01,5.256822843970138104e-01,7.333230972290039062e-02,-1.555502057075500488e+00,1.083145946883554132e+02,-7.637202739715576172e-02
2.275021999999999878e+00,3.525551808121550612e-02,1.317571474770888595e-01,9.251075387001037598e-01,3.646899223279641278e-02,-2.095777155980060869e-02,5.445866502393311359e-04,2.132818091933167542e-03,3.875993668900805378e-02,1.774228177964687347e-02,3.033988237851535930e-01,1.474882707976263863e-01,3.453263741311463075e-02,-1.715255022154361098e-01,-7.748764753341674805e-02,1.326508369387573161e-01,-7.647017240524291160e-02,2.251235246658325057e-02,1.297297239303588923e-01,5.254453931996015958e-01,6.853616237640380859e-02,-1.057904124259948730e+00,1.049972674311286056e+02,-7.637202739715576172e-02
2.299841999999999942e+00,3.574128782440760821e-02,1.325066689254223162e-01,9.254125356674194336e-01,4.028264179766859882e-02,-1.758516821309474842e-02,1.211051948504651872e-03,-4.353116280987631356e-03,2.307394980276111091e-02,1.565012894570827484e-02,1.392864891762502222e-01,1.497978462160972080e-01,4.740226032875154150e-02,-1.587562739849090465e-01,-3.115844030937617998e-02,1.238050093088134962e-01,-5.875627398490905484e-02,6.152848005294799666e-02,1.192094385623931885e-01,5.254741446514261671e-01,6.082975864410400391e-02,-1.433675527572631836e+00,-1.025715598983444323e+02,-7.637202739715576172e-02
2.325458999999999943e+00,3.638319880097071884e-02,1.334411728056641155e-01,9.259831309318542480e-01,4.568095839526702118e-02,-1.245204402840682789e-02,1.835736744195847012e-03,-5.978517980151757966e-04,2.378977847312604629e-02,3.199495375156402588e-03,1.161484396670133812e-01,1.965204227442048368e-01,6.221874393532680902e-02,-2.147319018840789795e-01,1.835838131784393173e-02,1.619844922172663237e-01,-1.147319018840789739e-01,7.329229116439818503e-02,1.560592174530029130e-01,5.257762643076479003e-01,2.654278278350830078e-02,-9.114114046096801758e-01,-1.201382207548958903e+01,-7.637202739715576172e-02
2.350953000000000070e+00,3.674945910180041353e-02,1.339618336184185132e-01,9.264007806777954102e-01,4.851381669879853420e-02,-9.735734456155054062e-03,1.510357398764178511e-03,-4.439675409077195427e-03,9.420840383724825989e-03,1.398199144750833511e-02,1.672062326717570768e-01,7.949971222965993012e-02,-3.887895296696828457e-02,-2.763819932937622292e-01,-2.440762336999584975e-02,1.942941769645588901e-01,-1.763819932937621959e-01,1.606929302215576172e-02,1.894755005836486761e-01,5.237935427260715926e-01,-3.931641578674316406e-02,-1.060936331748962402e+00,8.190133792256732193e+01,-7.637202739715576172e-02
2.375094999999999956e+00,3.710918455663954341e-02,1.346968010569338237e-01,9.268690347671508789e-01,4.975134180105873771e-02,-7.034214001044647446e-03,1.016231556953410510e-03,-2.450608289786189355e-03,9.154485142977600645e-03,1.663140766322612762e-02,3.502715329510648623e-02,1.624546579655402057e-01,-2.830591974998454899e-02,-2.987406194210052712e-01,1.467714010677681202e-01,2.064733727577143518e-01,-1.987406194210052379e-01,1.673332214355468806e-01,2.033207237720489335e-01,5.215435324822097485e-01,-1.518692374229431152e-01,-1.093309044837951660e+00,9.246628136093222849e+01,-7.637202739715576172e-02
2.396573000000000064e+00,3.761459056985804600e-02,1.355939278206456933e-01,9.275522828102111816e-01,4.963734368020463611e-02,-3.797439580986106122e-03,-5.190863391958246229e-04,2.522997542347884940e-04,1.226878815829313824e-02,3.344292752444744110e-03,-4.663243716960618207e-02,1.143229749955848445e-01,-3.516858583081232392e-02,-2.961297929286956787e-01,1.801963599859933152e-01,1.965653516850344729e-01,-1.961297929286956732e-01,1.778127551078796387e-01,1.980549395084381104e-01,5.233594662166698441e-01,-1.069944500923156738e-01,-1.023108601570129395e+00,1.019108756999290932e+02,-7.637202739715576172e-02
2.422276999999999791e+00,3.812971665888990197e-02,1.363032405425380067e-01,9.281234741210937500e-01,4.647194511298732150e-02,-8.525853674912209357e-04,-2.531904359711375022e-03,4.454410978048876056e-03,-2.686826278797657501e-03,6.050325464457273483e-03,-1.420572047394216553e-01,9.146753958448355926e-02,-6.179852482804656238e-02,-2.982492923736572155e-01,1.120785732172525362e-01,1.772057449422246578e-01,-1.982492923736572099e-01,8.752419948577880304e-02,1.846389591693878007e-01,5.204370999824193822e-01,-2.548853158950805664e-01,-9.927235841751098633e-01,8.138686075352528349e+01,-7.637202739715576172e-02
