timestamp,x,y,z,roll,pitch,yaw,vx,vy,vz,p,q,r,psp,qsp,rsp,pres,qres,rres,thrust_sp, thrust_res
0.000000000000000000e+00,-1.032947080162935870e-02,-1.259735383085097173e-02,9.969637989997863770e-01,9.336221556377363034e-03,-7.812452670211467165e-03,4.163961577425594196e-03,2.743289642866043182e-02,-1.377277101868145531e-02,-8.826497942209243774e-04,-1.981188722664275342e-02,1.230071933866930950e-02,-5.782530336030979219e-03,-7.986678981946071509e-02,-3.507303835925115743e-02,1.170721451621747899e-02,0.000000000000000000e+00,0.000000000000000000e+00,0.000000000000000000e+00,5.122486713495493227e-01,-0.000000000000000000e+00,1.078349351882934570e-01,9.219144137892007507e+01,2.411352396011352539e-01
2.582699999999999926e-02,-9.660129692413197897e-03,-1.265613166387153862e-02,9.967975020408630371e-01,9.040415160893430085e-03,-8.023074234780880332e-03,4.200317529058337357e-03,1.937036878749258048e-02,-9.073474972322461904e-03,8.002013200893998146e-04,-4.267489257843152389e-03,-3.968071964125293588e-02,3.768644317964396639e-02,-7.221470392795339976e-02,-4.650681830280847806e-02,1.183063857160160381e-02,0.000000000000000000e+00,0.000000000000000000e+00,0.000000000000000000e+00,5.121370053033746927e-01,-0.000000000000000000e+00,-1.391826868057250977e-01,1.700606044457270514e+02,2.411352396011352539e-01
5.085400000000000337e-02,-9.544536887241335255e-03,-1.259312294392788203e-02,9.966675043106079102e-01,8.615958553575261969e-03,-8.318233555823395520e-03,4.193438406715908201e-03,2.050442133580261325e-02,-1.640291903335286058e-02,7.605100399814546108e-04,-3.456019818651012709e-02,-3.277660908405802265e-02,-4.076289688709477943e-02,-7.613228345279934861e-02,-4.623334227324853163e-02,1.179650204046511774e-02,0.000000000000000000e+00,0.000000000000000000e+00,0.000000000000000000e+00,5.121529800102804231e-01,-0.000000000000000000e+00,1.447526216506958008e-01,9.222621387198461207e+01,2.411352396011352539e-01
7.829500000000000348e-02,-9.328626069620390635e-03,-1.250587130352617989e-02,9.966105222702026367e-01,8.051405626978274180e-03,-9.218587091112340204e-03,4.478316648086717519e-03,2.199194974574337699e-02,-6.459826206665269209e-03,-4.237188491970300674e-03,-6.161485875666870837e-02,-1.505287463961416973e-02,4.152773487528847729e-02,-6.337944993919723824e-02,-5.085243287023948067e-02,1.260878348651178760e-02,0.000000000000000000e+00,0.000000000000000000e+00,0.000000000000000000e+00,5.125334835878769812e-01,-0.000000000000000000e+00,-1.219950914382934570e-01,9.245195162405353528e+01,2.411352396011352539e-01
9.933300000000000463e-02,-9.156048812455389388e-03,-1.246546582352433402e-02,9.965147376060485840e-01,7.691391649520009505e-03,-9.414982034576357961e-03,4.295737598646670423e-03,2.532843124019780456e-02,-1.025004673112115197e-02,-4.523570649325847626e-03,-1.525694963247933855e-02,-1.320797140130278158e-02,-2.766734239492506589e-02,-6.561630673312458806e-02,-4.951037559854275238e-02,1.208437034988618652e-02,0.000000000000000000e+00,0.000000000000000000e+00,0.000000000000000000e+00,5.125699754307726508e-01,-0.000000000000000000e+00,2.274090051651000977e-01,9.416507918110862363e+01,2.411352396011352539e-01
1.256299999999999917e-01,-8.855985862720502921e-03,-1.235701693931831081e-02,9.961065053939819336e-01,6.519966390202817409e-03,-8.689551560778330241e-03,4.443378777869565199e-03,1.775851615509080328e-02,-1.009027748593715156e-02,-1.893672905862331390e-02,-6.852226456177615277e-02,3.314939146254139435e-02,2.405245695206736575e-02,-5.725493328170941365e-02,-5.118405268685847359e-02,1.248805132731367618e-02,0.000000000000000000e+00,0.000000000000000000e+00,0.000000000000000000e+00,5.136873005082820409e-01,-0.000000000000000000e+00,4.158526659011840820e-01,-3.021820147314586791e+01,2.411352396011352539e-01
1.504399999999999904e-01,-8.593866228632958404e-03,-1.235802767817959814e-02,9.956852197647094727e-01,6.021449558280997719e-03,-7.725182072911174203e-03,4.325157039271367021e-03,3.161209225557150976e-02,-5.665801375743738898e-03,-1.884188503026962280e-02,-4.082805440141398789e-02,7.498033676556460636e-02,-3.295829074778400952e-02,-5.058413482710055059e-02,-3.242883140669127612e-02,1.214011762672756456e-02,0.000000000000000000e+00,0.000000000000000000e+00,0.000000000000000000e+00,5.137338704700203929e-01,-0.000000000000000000e+00,-3.182932138442993164e-01,1.808743511849880008e+02,2.411352396011352539e-01
1.764149999999999885e-01,-8.085515979381816681e-03,-1.256015337566759003e-02,9.948340058326721191e-01,4.822093322238834960e-03,-5.859234292144854805e-03,4.439624624953098474e-03,2.094966189905026963e-02,-2.882570056272568300e-03,-2.818936854600906372e-02,-6.010001702223554537e-02,4.061378493208617907e-02,2.193195844486777249e-02,-4.131556795743634297e-02,-3.054415304173181342e-02,1.245254411129592675e-02,0.000000000000000000e+00,0.000000000000000000e+00,0.000000000000000000e+00,5.145172672502261735e-01,-0.000000000000000000e+00,6.484762430191040039e-01,-5.470653676100052820e+01,2.399826765060424916e-01
1.990730000000000000e-01,-7.751136029036683264e-03,-1.265322878445311605e-02,9.941011667251586914e-01,3.810297426459777464e-03,-4.532055891050434937e-03,4.370206964696388488e-03,1.832269307303595676e-02,-9.603998294909111763e-03,-3.622898086905479431e-02,-3.452563816549342190e-02,7.415033795764137958e-02,6.016784378676503196e-03,-4.062233908269265864e-02,-2.225489900327217579e-02,1.224312772217578393e-02,0.000000000000000000e+00,0.000000000000000000e+00,0.000000000000000000e+00,5.152044699269624495e-01,-0.000000000000000000e+00,-1.983155012130737305e-01,9.385721523445947412e+01,2.399826765060424916e-01
2.265580000000000094e-01,-7.226049757507896701e-03,-1.274776187761610981e-02,9.928159713745117188e-01,2.031253342691824795e-03,-3.102727253915471550e-03,4.808475835946921483e-03,3.064825425037543544e-02,8.780597409688233436e-04,-5.315221473574638367e-02,-8.098144745842375536e-02,6.832345653448580747e-02,1.492460551096813507e-03,-1.980921619130586453e-02,-2.373907101022316134e-03,1.346419391409325872e-02,0.000000000000000000e+00,0.000000000000000000e+00,0.000000000000000000e+00,5.166023733336000401e-01,-0.000000000000000000e+00,-5.415817499160766602e-01,5.575634708171524068e+01,2.350556135177612194e-01
2.519390000000000240e-01,-6.789527732640933226e-03,-1.253692355142199330e-02,9.918075799942016602e-01,1.256066523239884707e-03,-2.815118689613260727e-03,5.106109520363295157e-03,2.255705097297724601e-02,-1.696432857723094911e-03,-4.793607816100120544e-02,-6.117291325155580807e-03,-2.198757234739275035e-02,2.567480614302985673e-02,-1.824131452935046430e-02,-8.418764238274929756e-03,1.429655560300713280e-02,0.000000000000000000e+00,0.000000000000000000e+00,0.000000000000000000e+00,5.163443168123945659e-01,-0.000000000000000000e+00,2.060616016387939453e-02,9.218902349195388979e+01,2.350556135177612194e-01
2.730480000000000129e-01,-6.266817312092234048e-03,-1.202385412912807504e-02,9.906795024871826172e-01,3.208029298957392633e-04,-2.155144314729628974e-03,5.138827371875953967e-03,1.946497353488579191e-02,4.150017104922335345e-04,-6.287027895450592041e-02,-5.311159958084111371e-02,3.261386575854614139e-02,1.567874443989766484e-02,-9.792040735080116687e-03,-5.073123600027407663e-03,1.438775978913403586e-02,0.000000000000000000e+00,0.000000000000000000e+00,0.000000000000000000e+00,5.175927072190688039e-01,-0.000000000000000000e+00,9.167257547378540039e-01,-1.856377626781953438e+01,2.350556135177612194e-01
2.995639999999999969e-01,-5.418830777994161629e-03,-1.123177765610064438e-02,9.887284636497497559e-01,-6.010810169477140657e-05,-1.666760604000616652e-03,5.423449508243772914e-03,3.099798697513135928e-02,6.437998666963404108e-03,-6.366085261106491089e-02,1.510724664964852720e-02,1.749568582511381318e-03,1.228616413281247502e-02,-2.411234607783158384e-03,8.316601096200623711e-03,1.518647044512089206e-02,0.000000000000000000e+00,0.000000000000000000e+00,0.000000000000000000e+00,5.178647453570057735e-01,-0.000000000000000000e+00,-6.861388683319091797e-02,-6.937922426810278864e+01,2.350556135177612194e-01
3.263309999999999822e-01,-4.826428690351761662e-03,-1.072963855111615239e-02,9.873792529106140137e-01,-3.239059339573423821e-04,-1.191347527243813431e-03,5.462180777445587582e-03,3.522732563574452330e-02,1.503895434404962190e-03,-7.354519516229629517e-02,-2.556663932565811717e-02,7.730828795415751846e-03,2.687314192228015125e-02,-5.188988405478636191e-03,1.348622968856009498e-02,1.529822751293374861e-02,0.000000000000000000e+00,0.000000000000000000e+00,0.000000000000000000e+00,5.187699047096582250e-01,-0.000000000000000000e+00,-6.634891033172607422e-02,8.946986371166929075e+01,2.350556135177612194e-01
3.478749999999999898e-01,-4.199713777555505977e-03,-1.019684451434592527e-02,9.859619140625000000e-01,-6.311328591561197706e-05,-4.959220597666735841e-04,5.512491913214201747e-03,2.525182731983912493e-02,7.834205097102931933e-03,-7.368939369916915894e-02,4.179736300142027766e-02,4.326050293151236653e-02,-1.520148163129444140e-02,-8.066393276511089894e-04,9.990762360480702833e-03,1.543548022455853985e-02,0.000000000000000000e+00,0.000000000000000000e+00,0.000000000000000000e+00,5.189645818168056035e-01,-0.000000000000000000e+00,-2.481919527053833008e-01,9.884813691382532852e+01,2.350556135177612194e-01
3.745169999999999888e-01,-3.156353602870220956e-03,-9.359492803246702297e-03,9.836724400520324707e-01,-2.622787397053574169e-04,9.333188312865559055e-05,5.684070244581327681e-03,3.654361031526278530e-02,6.305601782738107924e-03,-8.224011957645416260e-02,-5.844629251092069849e-02,1.602269023008649805e-03,-6.757264225138872411e-04,-1.168221374282989687e-03,2.487035740650061708e-02,1.591905250110170478e-02,0.000000000000000000e+00,0.000000000000000000e+00,0.000000000000000000e+00,5.198520999366433859e-01,-0.000000000000000000e+00,-6.531082391738891602e-01,9.382253836404331082e+01,2.350556135177612194e-01
4.021759999999999780e-01,-2.066068805907937504e-03,-8.421988645087464392e-03,9.812188148498535156e-01,-2.154608708981513385e-04,-2.113104187562164782e-04,6.434638375546358237e-03,3.512952711545030277e-02,1.647886052521456424e-02,-8.513293415307998657e-02,3.147050403065486390e-02,-3.928310683588419339e-02,5.290835378701490288e-02,7.352842966500769233e-03,2.094762885596336902e-02,1.801371634279458345e-02,0.000000000000000000e+00,0.000000000000000000e+00,0.000000000000000000e+00,5.203395538790479558e-01,-0.000000000000000000e+00,9.200617074966430664e-01,-8.445867003084682523e+00,2.350556135177612194e-01
4.241099999999999870e-01,-1.295855964612012065e-03,-7.783127621203224204e-03,9.794855117797851562e-01,-1.370294203813985203e-04,-7.176577839582698459e-04,6.627102969006305917e-03,3.168297360228990167e-02,1.191086260435443925e-02,-8.679935336112976074e-02,-1.152404528571110594e-03,-6.081979010985227863e-02,6.139719087524326191e-04,2.193486094160672882e-03,1.568383152468549174e-02,1.855557561467974237e-02,0.000000000000000000e+00,0.000000000000000000e+00,0.000000000000000000e+00,5.206872067149982408e-01,-0.000000000000000000e+00,-2.921823263168334961e-01,1.397904491386594827e+02,2.350556135177612194e-01
4.528360000000000163e-01,-1.085732760266625783e-04,-6.816510548639488458e-03,9.767171144485473633e-01,2.280734210447341221e-04,-1.072519033231689178e-03,6.976356048854858924e-03,3.398390702686651665e-02,1.867107363857133107e-02,-9.484770894050598145e-02,9.278531524556269533e-03,3.275176370259189756e-02,3.243798542353435593e-02,6.376213384325040041e-03,1.650402488238432441e-02,1.952856125678198440e-02,0.000000000000000000e+00,0.000000000000000000e+00,0.000000000000000000e+00,5.215879456494882938e-01,-0.000000000000000000e+00,7.988933324813842773e-01,-2.269494276276816880e+00,2.350556135177612194e-01
4.775170000000000248e-01,3.781733946515589227e-04,-5.969174195882966799e-03,9.748823046684265137e-01,8.332327003722049411e-04,-1.574579881801652093e-03,6.917218031196864687e-03,4.319173179178953381e-02,1.688325758769127979e-02,-9.517433494329452515e-02,-1.219387333739252541e-03,2.163985398126597876e-03,-2.308224142598458775e-02,5.806716367236775238e-04,2.055290617869922828e-02,1.936021841360485718e-02,0.000000000000000000e+00,0.000000000000000000e+00,0.000000000000000000e+00,5.218584770158070096e-01,-0.000000000000000000e+00,8.853527307510375977e-01,7.270452918628018324e+01,2.350556135177612194e-01
4.996720000000000050e-01,9.017181716363680162e-04,-5.111867551850881805e-03,9.729266762733459473e-01,1.314924488337630834e-03,-1.913280717942500431e-03,7.288733629520524615e-03,4.886142598926295627e-02,2.201087079337917668e-02,-9.432831406593322754e-02,5.511194743529956169e-02,-6.336518253789845401e-02,3.456520565645623821e-02,2.264733623840690588e-03,2.198651169191181975e-02,2.039408035769024741e-02,0.000000000000000000e+00,0.000000000000000000e+00,0.000000000000000000e+00,5.220529415507724202e-01,-0.000000000000000000e+00,-1.885308027267456055e-01,8.842338993836412442e+01,2.350556135177612194e-01
5.287359999999999838e-01,1.761751120810784539e-03,-3.794520603478825083e-03,9.699560403823852539e-01,1.509902238354380753e-03,-1.846336979766549646e-03,7.389282875879287990e-03,3.160089673046519165e-02,1.943984089736518206e-02,-9.760067611932754517e-02,9.965267802915926329e-03,1.586649230461131127e-02,-1.168871990060628072e-02,-8.295083531027589059e-04,8.696561187519170552e-03,2.068448261345817718e-02,0.000000000000000000e+00,0.000000000000000000e+00,0.000000000000000000e+00,5.226232045207632737e-01,-0.000000000000000000e+00,-1.927694082260131836e-01,9.691834892610827978e+01,2.350556135177612194e-01
5.534130000000000438e-01,2.362859651516420814e-03,-2.886034393901181199e-03,9.679141044616699219e-01,1.311665442430126876e-03,-2.206355155762729225e-03,7.648585196616124703e-03,5.037997578959829692e-02,2.702064776662115031e-02,-1.082525178790092468e-01,-2.233085876706494138e-02,-1.752100859029587926e-02,3.954941580674706941e-02,7.224240199268703796e-03,2.397120715521536619e-02,2.139642145210485236e-02,0.000000000000000000e+00,0.000000000000000000e+00,0.000000000000000000e+00,5.236825579241155548e-01,-0.000000000000000000e+00,-5.556403398513793945e-01,9.283221557590482576e+01,2.350556135177612194e-01
5.740929999999999644e-01,2.952161707715093581e-03,-1.969036309560719903e-03,9.658191204071044922e-01,1.460630672443428285e-03,-2.604316047313037785e-03,7.728790912222384575e-03,4.430552398191742181e-02,2.640833032479833128e-02,-1.050703376531600952e-01,1.059839241942198314e-02,-2.393963273233725916e-02,-3.804514959162771937e-02,5.374846392044218234e-03,1.449639351160414945e-02,2.162869676374523653e-02,0.000000000000000000e+00,0.000000000000000000e+00,0.000000000000000000e+00,5.237297228631497825e-01,-0.000000000000000000e+00,-2.863882780075073242e-01,1.071682020776821389e+02,2.350556135177612194e-01
6.014800000000000146e-01,3.837111891390940048e-03,-6.754264861111859393e-04,9.627509117126464844e-01,1.903806026690951390e-03,-3.684103219277368169e-03,8.170193872712346039e-03,4.083239647218452062e-02,3.333158075267633746e-02,-1.070977076888084412e-01,-1.432662782513128641e-03,-3.392091837321017239e-02,5.075388633968862251e-02,8.823921489291734060e-03,6.336786386550979228e-03,2.286933569034166336e-02,0.000000000000000000e+00,0.000000000000000000e+00,0.000000000000000000e+00,5.242342454266343266e-01,-0.000000000000000000e+00,1.828268766403198242e-01,-2.858212186502310814e+01,2.350556135177612194e-01
6.243109999999999493e-01,4.476047598308035419e-03,1.905005753182784187e-04,9.607046842575073242e-01,2.609807621625467259e-03,-4.148573833619995099e-03,7.838102061725017028e-03,4.406311450522362033e-02,2.756517977989634410e-02,-1.107934862375259399e-01,4.060915537929458974e-02,1.763825981475245983e-02,-4.926192326492999374e-02,-6.567831330847287603e-04,6.797431204032613333e-03,2.193895805401452348e-02,0.000000000000000000e+00,0.000000000000000000e+00,0.000000000000000000e+00,5.247901951544035049e-01,-0.000000000000000000e+00,-3.297325372695922852e-01,1.019738705346441208e+02,2.350556135177612194e-01
6.514889999999999848e-01,5.490793903589831319e-03,1.526468592801228253e-03,9.575871825218200684e-01,3.517099947289179050e-03,-4.614354329191661108e-03,7.921452903202052045e-03,4.785742995439098285e-02,3.427563186040048088e-02,-1.108840927481651306e-01,-2.095309464924246731e-02,-2.412133363548000023e-02,1.434112683346285173e-02,3.526747039561467165e-04,7.071698627401910332e-03,2.216904410571002293e-02,0.000000000000000000e+00,0.000000000000000000e+00,0.000000000000000000e+00,5.251664198321237542e-01,-0.000000000000000000e+00,5.919581651687622070e-01,4.971516087405485962e+01,2.350556135177612194e-01
6.741219999999999990e-01,6.202662181781401843e-03,2.430738158628793256e-03,9.554444551467895508e-01,4.464816937086566254e-03,-4.447018007919467664e-03,7.810353282290796555e-03,5.021533969133031711e-02,3.363923936381307128e-02,-1.088103950023651123e-01,5.681738605570939987e-02,1.875997323442814974e-02,-2.469048509238327277e-02,-6.595588863003685326e-03,1.006445220087460492e-02,2.185157930236142354e-02,0.000000000000000000e+00,0.000000000000000000e+00,0.000000000000000000e+00,5.253129090527407508e-01,-0.000000000000000000e+00,-3.755275011062622070e-01,9.863543116269279665e+01,2.094259500503539984e-01
7.001929999999999543e-01,6.942728196912699261e-03,4.597618188481769619e-03,9.522650241851806641e-01,5.052265040449544116e-03,-4.227885060635649950e-03,7.776631471605493368e-03,4.419591645292018922e-02,3.755702811582790901e-02,-1.109831482172012329e-01,-8.533268582144801218e-03,-1.588740543225125937e-02,2.500690367266904680e-03,-5.845715699724968531e-03,7.092066702884740163e-03,2.176039785876593413e-02,0.000000000000000000e+00,0.000000000000000000e+00,0.000000000000000000e+00,5.258470663602613504e-01,-0.000000000000000000e+00,-2.835762500762939453e-02,1.041000332911882253e+02,2.094259500503539984e-01
7.273190000000000488e-01,7.721356834239129566e-03,6.743419986116650638e-03,9.490705728530883789e-01,5.302106770595229127e-03,-4.271037300336510967e-03,7.870562049330506044e-03,4.206220303065674737e-02,4.034533646882643848e-02,-1.110438704490661621e-01,2.072820932466641966e-02,9.360114263880794927e-03,1.818210489393285237e-02,-4.446967027730329772e-03,6.638721146645992430e-03,2.202332342699114820e-02,0.000000000000000000e+00,0.000000000000000000e+00,0.000000000000000000e+00,5.262327083484183987e-01,-0.000000000000000000e+00,-2.227152585983276367e-01,1.027154310030215782e+02,2.094259500503539984e-01
7.505490000000000217e-01,8.271778785498345651e-03,8.212862161523663829e-03,9.469519853591918945e-01,5.285225305949390988e-03,-4.575743039509694299e-03,7.949948912665030440e-03,5.385555010607742665e-02,4.060539496494652151e-02,-1.131607592105865479e-01,-2.672370578206448646e-02,-1.506655561967283098e-02,-1.777154002580642184e-02,-3.587131898946839190e-03,1.457408092636169362e-02,2.222814626675739813e-02,0.000000000000000000e+00,0.000000000000000000e+00,0.000000000000000000e+00,5.266957533154028592e-01,-0.000000000000000000e+00,-5.499089956283569336e-01,9.998545220309166837e+01,2.094259500503539984e-01
7.771219999999999795e-01,9.116267800614533817e-03,1.066117297969689307e-02,9.437273740768432617e-01,5.432121697521929797e-03,-5.335540025294127631e-03,8.107119726652690581e-03,4.614692109399206460e-02,4.426035323720236420e-02,-1.182564347982406616e-01,8.923167228646292515e-04,-2.489912046330690354e-02,2.692714686469369761e-02,-1.470746696075908057e-04,2.670240167112433206e-03,2.269365222492114587e-02,0.000000000000000000e+00,0.000000000000000000e+00,0.000000000000000000e+00,5.274575702513693010e-01,-0.000000000000000000e+00,2.855619192123413086e-01,1.526501517230410627e+02,2.094259500503539984e-01
7.982080000000000286e-01,9.712339116963881677e-03,1.274757038987554998e-02,9.416809678077697754e-01,5.901643965534612152e-03,-5.706096627048351522e-03,8.030976278772554086e-03,3.847935850190397494e-02,3.947144393901391018e-02,-1.012666076421737671e-01,3.783054381927367787e-02,-1.084937375728280834e-02,-2.429378951603439543e-02,-5.857389929545707939e-03,-3.960043010074636334e-03,2.249603798341226479e-02,0.000000000000000000e+00,0.000000000000000000e+00,0.000000000000000000e+00,5.265191642644982961e-01,-0.000000000000000000e+00,4.724835157394409180e-01,1.819529609983380780e+01,2.094259500503539984e-01
8.254669999999999508e-01,1.064683794910483566e-02,1.577888654577267596e-02,9.386519193649291992e-01,6.623707750459470987e-03,-6.209043097697763969e-03,8.052378645263447501e-03,5.462277742234762645e-02,4.891464961540809009e-02,-1.153223738074302673e-01,8.310297290360760952e-03,-1.284548214115760131e-02,-9.356013934813784370e-04,-8.085746532891235905e-04,6.989744174793277066e-03,2.252678296916271750e-02,0.000000000000000000e+00,0.000000000000000000e+00,0.000000000000000000e+00,5.279263033133543281e-01,-0.000000000000000000e+00,3.953181505203247070e-01,-3.846313455613253041e+01,2.094259500503539984e-01
8.499529999999999585e-01,1.129845802518529389e-02,1.777267246502663850e-02,9.366775155067443848e-01,7.513990395735256969e-03,-6.258311187098186679e-03,7.895310184722045821e-03,5.009136955226742294e-02,4.656776455892814442e-02,-1.061604470014572144e-01,5.675677001913827929e-02,2.050442132158132591e-02,-2.001832324977472627e-02,-8.231438296952487549e-03,1.555576091703059780e-03,2.210225670699250689e-02,0.000000000000000000e+00,0.000000000000000000e+00,0.000000000000000000e+00,5.275589402911293746e-01,-0.000000000000000000e+00,-5.312563180923461914e-01,1.014644203848312145e+02,2.094259500503539984e-01
8.749149999999999983e-01,1.199791514518844075e-02,1.970681516687543267e-02,9.347055554389953613e-01,8.191927485601444361e-03,-6.074000130007695120e-03,7.963895500012471013e-03,5.209080359143419825e-02,4.941584354924789119e-02,-1.047922223806381226e-01,2.747777796797602756e-02,1.420384083060782961e-02,5.075302464478002873e-02,-8.762784557375601427e-03,5.580993304239175758e-03,2.228086190507910791e-02,0.000000000000000000e+00,0.000000000000000000e+00,0.000000000000000000e+00,5.277608214380022922e-01,-0.000000000000000000e+00,-4.441617727279663086e-01,1.009200474777920249e+02,2.094259500503539984e-01
8.995290000000000230e-01,1.278384715281230023e-02,2.172077418384834105e-02,9.327744245529174805e-01,8.980541598936723005e-03,-5.692642503825950939e-03,7.627167976113463296e-03,4.610782867902142590e-02,4.991399002826728271e-02,-1.039640754461288452e-01,4.260410059849323999e-02,4.125468414444134063e-02,-4.537204646342617859e-02,-1.244198382838305333e-02,3.820744046766654835e-03,2.134303546097937598e-02,0.000000000000000000e+00,0.000000000000000000e+00,0.000000000000000000e+00,5.279965358419294041e-01,-0.000000000000000000e+00,-1.068056821823120117e-01,8.859260104486202181e+01,2.094259500503539984e-01
9.291869999999999852e-01,1.398864166984230967e-02,2.467493538240586592e-02,9.298468828201293945e-01,8.977423976339856185e-03,-5.180136131765156193e-03,7.963875796100281651e-03,5.175255785768133332e-02,4.842319919383151344e-02,-1.104204580187797546e-01,-3.947652248672193359e-02,9.531851708160595307e-03,3.631756829617054788e-02,-1.178398420608454088e-02,1.318728554534296174e-02,2.225305502690200221e-02,0.000000000000000000e+00,0.000000000000000000e+00,0.000000000000000000e+00,5.288427679259954939e-01,-0.000000000000000000e+00,1.205841183662414551e+00,-1.034636645662181280e+02,2.411682367324829157e-01
9.523939999999999628e-01,1.484232062185267265e-02,2.664465193541952839e-02,9.279070496559143066e-01,9.180475203983403526e-03,-4.879281341770846936e-03,7.936615621483148961e-03,5.010963856925931825e-02,5.546945907383250135e-02,-1.034557446837425232e-01,4.321380664079258588e-04,4.904021981126543972e-02,-4.393617298930931059e-02,-5.987065614802580121e-03,1.389672175138287856e-02,2.217056815154350158e-02,0.000000000000000000e+00,0.000000000000000000e+00,0.000000000000000000e+00,5.286425905970290051e-01,-0.000000000000000000e+00,1.800476312637329102e-01,-4.632542336634215019e+01,2.411682367324829157e-01
9.785639999999999894e-01,1.568872816140895118e-02,2.853165965093070258e-02,9.260501861572265625e-01,8.810118896018705875e-03,-5.165969926673730228e-03,8.167142745273041696e-03,5.508080543870321616e-02,5.754721128299426086e-02,-1.101833060383796692e-01,-3.618469597756645423e-02,-1.442653623143565558e-02,5.579055684445127089e-02,-1.724399616976724208e-03,1.673475409089849458e-02,2.280560277895260501e-02,0.000000000000000000e+00,0.000000000000000000e+00,0.000000000000000000e+00,5.294338303383553379e-01,-0.000000000000000000e+00,3.870836496353149414e-01,6.961085647342542870e+01,2.411682367324829157e-01
1.000515999999999961e+00,1.651774581652615606e-02,3.040619996556784971e-02,9.242089390754699707e-01,8.866353346166689492e-03,-5.426334254223563747e-03,8.256190867274526557e-03,5.361643663841285379e-02,4.938137217378753274e-02,-9.574970602989196777e-02,-5.300956289785072571e-04,-5.335304887941415969e-02,-1.608138377241229156e-02,-7.134672918844248840e-03,1.404212942825841179e-02,2.306709334436546355e-02,0.000000000000000000e+00,0.000000000000000000e+00,0.000000000000000000e+00,5.286783964424209836e-01,-0.000000000000000000e+00,1.018142342567443848e+00,1.024607059281151180e+02,2.411682367324829157e-01
1.024413000000000018e+00,1.746730956541100652e-02,3.229276894274590859e-02,9.224330186843872070e-01,8.913852798242338435e-03,-5.790215057896785922e-03,8.562022488715849769e-03,4.263800426313169717e-02,5.282709714917049187e-02,-9.628231078386306763e-02,5.171121179766484388e-02,-1.480487154000276456e-03,3.247356085534197634e-02,-2.257838977925116179e-03,4.239672689531850773e-03,2.395809567926676653e-02,0.000000000000000000e+00,0.000000000000000000e+00,0.000000000000000000e+00,5.290037686979783826e-01,-0.000000000000000000e+00,-6.350752115249633789e-01,9.562191071974815770e+01,2.411682367324829157e-01
1.048743999999999899e+00,1.842941791955146624e-02,3.411048489461103450e-02,9.207574129104614258e-01,8.961583663823437587e-03,-6.215680915275134666e-03,8.404268343106350084e-03,5.480977419853578364e-02,5.059121508051118987e-02,-9.932233393192291260e-02,-3.049016901303423788e-02,-1.490128363428290872e-02,-2.270899303266614780e-02,-3.550063010127421908e-03,1.307985713480978168e-02,2.348305556830498908e-02,0.000000000000000000e+00,0.000000000000000000e+00,0.000000000000000000e+00,5.295116152621333061e-01,-0.000000000000000000e+00,-3.560105562210083008e-01,9.637774628349093575e+01,2.411682367324829157e-01
1.080500999999999934e+00,1.990242479120167898e-02,3.679973960657793169e-02,9.183631539344787598e-01,9.948516551773379721e-03,-6.417590324957700432e-03,8.567467309311861332e-03,5.290502347505068176e-02,5.644349966913657368e-02,-9.715163707733154297e-02,1.434901889148540791e-02,9.685537624758698907e-03,1.430841583011688810e-02,-3.281734539581105184e-03,9.772252327391031321e-03,2.394843409947733370e-02,0.000000000000000000e+00,0.000000000000000000e+00,0.000000000000000000e+00,5.296934093407302813e-01,-0.000000000000000000e+00,-8.697569370269775391e-02,-5.114852729780080409e+01,2.411682367324829157e-01
1.098988999999999994e+00,2.041696950405259142e-02,3.764668717052949143e-02,9.176033735275268555e-01,1.029160731109764540e-02,-6.628279651244461945e-03,8.524394427998844073e-03,5.556252094928403745e-02,5.130292555716547270e-02,-9.101578593254089355e-02,3.481586273116916725e-03,-3.058445038838459445e-02,1.185312437626244268e-02,-9.437522117433852845e-03,1.128248150292163535e-02,2.382197714744688222e-02,0.000000000000000000e+00,0.000000000000000000e+00,0.000000000000000000e+00,5.294631108242625617e-01,-0.000000000000000000e+00,-4.408677816390991211e-01,9.445174905076322602e+01,2.411682367324829157e-01
1.129685999999999968e+00,2.190416414752601945e-02,4.004086253064022966e-02,9.154334664344787598e-01,1.144874734936207443e-02,-6.601342897684547850e-03,8.596701545701537772e-03,5.540404561927320115e-02,5.491395656657512003e-02,-8.890178054571151733e-02,5.869882007370011423e-02,-1.754416581981389778e-02,1.319656269707803267e-02,-1.176338946279400187e-02,1.214253814289468006e-02,2.401595858167893116e-02,0.000000000000000000e+00,0.000000000000000000e+00,0.000000000000000000e+00,5.296284818886408674e-01,-0.000000000000000000e+00,2.615691423416137695e-01,1.518560466093787227e+02,2.411682367324829157e-01
1.149426999999999977e+00,2.236714171875713378e-02,4.072929485006019507e-02,9.147153496742248535e-01,1.160121461237753962e-02,-6.360908919308849718e-03,8.521451130619431269e-03,5.167085584164430451e-02,5.663658538317291324e-02,-9.331593662500381470e-02,2.125788266988195424e-02,2.396716869765297062e-02,1.242562790366412082e-02,-1.127667839587741597e-02,1.132456099257827219e-02,2.380816544851921401e-02,0.000000000000000000e+00,0.000000000000000000e+00,0.000000000000000000e+00,5.301616820136154651e-01,-0.000000000000000000e+00,-4.273467063903808594e-01,1.019289483804729457e+02,2.411682367324829157e-01
1.179065000000000030e+00,2.379778021743899838e-02,4.273536879008001804e-02,9.125766754150390625e-01,1.201925530565601911e-02,-6.272778507917076141e-03,8.622247219801343343e-03,5.758090203292512421e-02,5.010663307436450525e-02,-9.048897773027420044e-02,2.122835642604977043e-03,-4.308113121013939020e-03,1.472828546542353026e-02,-1.778423585545511887e-02,1.803155194859971944e-02,2.405973916848230809e-02,0.000000000000000000e+00,0.000000000000000000e+00,0.000000000000000000e+00,5.302753100641610651e-01,0.000000000000000000e+00,-2.921437025070190430e-01,8.065717115392531866e+01,2.411682367324829157e-01
1.203769000000000089e+00,2.476311580194346523e-02,4.407143356898071684e-02,9.112603068351745605e-01,1.196448883772364621e-02,-6.227556116491728133e-03,8.746024469760868905e-03,5.500527449461047047e-02,5.509582298782535192e-02,-8.238303661346435547e-02,-3.569066081188494027e-02,2.846598878373183400e-02,-8.757066406624840552e-03,-1.150192932720579472e-02,1.648256762357758892e-02,2.441062584372527544e-02,0.000000000000000000e+00,0.000000000000000000e+00,0.000000000000000000e+00,5.299439540450806563e-01,-0.000000000000000000e+00,-6.123133897781372070e-01,9.415034646306889954e+01,2.411682367324829157e-01
1.226603000000000110e+00,2.574440079851143121e-02,4.533831969506663118e-02,9.100095033645629883e-01,1.200455297842562864e-02,-6.761400280941742835e-03,9.059356477850168468e-03,5.909707779094350993e-02,5.657503783040668255e-02,-7.977783679962158203e-02,3.546332692382158508e-02,-5.104479031356968372e-02,1.765565767139770301e-02,-1.029402003619277021e-02,1.739898436374069657e-02,2.528249649283736966e-02,0.000000000000000000e+00,0.000000000000000000e+00,0.000000000000000000e+00,5.300041614870830697e-01,-0.000000000000000000e+00,5.498527288436889648e-01,-1.057380492579406734e+02,2.411682367324829157e-01
1.246707999999999927e+00,2.675643803685407926e-02,4.656404084677183419e-02,9.088172316551208496e-01,1.193553445537709305e-02,-7.222163056762820332e-03,9.169962579550220566e-03,5.368200005870387564e-02,5.199326475012838733e-02,-8.530857414007186890e-02,-2.485423319840423736e-03,-7.120901425407684393e-02,3.065678508786186945e-02,-1.259974735243541213e-02,1.044827875281690785e-02,2.562692774437547172e-02,0.000000000000000000e+00,0.000000000000000000e+00,0.000000000000000000e+00,5.306467404532440035e-01,-0.000000000000000000e+00,6.449735164642333984e-02,7.446220323710208788e+01,2.411682367324829157e-01
1.275889999999999969e+00,2.893084570611137440e-02,4.886760280134769263e-02,9.066880345344543457e-01,1.199054914075483105e-02,-8.759179536664829513e-03,9.643340964157582143e-03,5.912221369963104045e-02,4.988998902531097818e-02,-8.338031172752380371e-02,-4.407500657972669017e-02,-4.438124817671484229e-02,4.220288441463464907e-02,-1.235362207683196080e-02,6.960835548893760591e-03,2.696843718324748451e-02,0.000000000000000000e+00,0.000000000000000000e+00,0.000000000000000000e+00,5.308259128236407776e-01,-0.000000000000000000e+00,-6.128069162368774414e-01,7.082648671171513399e+01,2.411682367324829157e-01
1.302337999999999996e+00,3.061880326191063553e-02,5.051480560253364394e-02,9.053130149841308594e-01,1.302624356568325183e-02,-9.244380545733621446e-03,9.769320948869064658e-03,5.344945692213757399e-02,4.923799166972847585e-02,-7.009104639291763306e-02,7.419805655203649819e-02,2.553939909409349771e-03,-1.748422622849861441e-02,-1.782133484637613008e-02,1.656560979945767825e-04,2.735370808590992242e-02,0.000000000000000000e+00,0.000000000000000000e+00,0.000000000000000000e+00,5.301161442466519880e-01,-0.000000000000000000e+00,-2.140587568283081055e-01,9.606826358200848404e+01,2.411682367324829157e-01
1.324526000000000092e+00,3.177015952726969239e-02,5.151932722380898888e-02,9.045119881629943848e-01,1.312953718734625845e-02,-9.438501982937053114e-03,9.905912578982101202e-03,5.647307232299132729e-02,4.605638580082727085e-02,-7.158950716257095337e-02,-1.483295798865112529e-02,-2.657625920342764764e-02,4.826902692309511383e-02,-2.001023553445521741e-02,2.933031711259490547e-03,2.772214553586560548e-02,0.000000000000000000e+00,0.000000000000000000e+00,0.000000000000000000e+00,5.304357159218212603e-01,-0.000000000000000000e+00,8.607137203216552734e-02,8.788837439048785427e+01,2.411682367324829157e-01
1.350532999999999983e+00,3.361047062348630071e-02,5.289101383731353856e-02,9.033674597740173340e-01,1.361250697171235112e-02,-9.439588972379509002e-03,1.021987935237689098e-02,5.249161851416813546e-02,4.993249039321665667e-02,-7.616917043924331665e-02,4.699739868927930997e-02,2.281138182597231001e-02,2.714069945958126270e-02,-1.870335493356764175e-02,8.109021912150122038e-04,2.861194598713406867e-02,0.000000000000000000e+00,0.000000000000000000e+00,0.000000000000000000e+00,5.310072723839506237e-01,-0.000000000000000000e+00,1.026595234870910645e+00,-5.218026323042437298e+00,2.411682367324829157e-01
1.376382999999999912e+00,3.552293194742564553e-02,5.409985095584785020e-02,9.021909832954406738e-01,1.344535043432617399e-02,-9.539719997581741495e-03,1.053441186772216716e-02,5.897767432244217789e-02,3.725337489779245032e-02,-6.717707216739654541e-02,-3.195466145181743295e-02,-1.279141697071872232e-02,-2.982815132355301838e-02,-2.680414820129243397e-02,7.142696539347500283e-03,2.946118244389239749e-02,0.000000000000000000e+00,0.000000000000000000e+00,0.000000000000000000e+00,5.305933925814027008e-01,-0.000000000000000000e+00,-1.830281019210815430e-01,2.822688031119616170e+01,2.411682367324829157e-01
1.398146000000000111e+00,3.679583653774952390e-02,5.489202154566077269e-02,9.014921784400939941e-01,1.319896446935349930e-02,-9.832948304639987924e-03,1.101693557133331947e-02,5.306290705370816929e-02,4.752762232459460667e-02,-6.424880772829055786e-02,1.159678483364082191e-02,1.508616652483794895e-02,2.906734388677370551e-02,-1.477216894055240204e-02,9.997691156599184531e-04,3.084270183656012687e-02,0.000000000000000000e+00,0.000000000000000000e+00,0.000000000000000000e+00,5.305844545791342792e-01,-0.000000000000000000e+00,-3.426219224929809570e-01,9.699471727121819242e+01,2.411682367324829157e-01
1.425091000000000108e+00,3.863662087746523588e-02,5.602012390670435549e-02,9.006569981575012207e-01,1.297702220651422191e-02,-1.056534516220830611e-02,1.142544035245397077e-02,6.132539568430791371e-02,4.084261188684726318e-02,-6.238081306219100952e-02,2.620099123577487085e-03,-3.548823121960806987e-02,5.033185578016712751e-04,-1.899811847676472279e-02,4.765126388709319677e-03,3.196737917362568737e-02,0.000000000000000000e+00,0.000000000000000000e+00,0.000000000000000000e+00,5.306591947204613025e-01,-0.000000000000000000e+00,-1.937519311904907227e-01,5.630335644177405641e+01,2.411682367324829157e-01
1.451354999999999951e+00,4.039973884525115133e-02,5.792366683171466801e-02,8.999991416931152344e-01,1.297297297961229855e-02,-1.091779020080507756e-02,1.198846106369677068e-02,4.983941566299533027e-02,3.935730582988953424e-02,-6.082626804709434509e-02,3.466176311996578378e-03,-1.023467089273943052e-02,4.256215288644407679e-02,-1.769778973740981920e-02,-6.055291204575023560e-03,3.359827551105620813e-02,0.000000000000000000e+00,0.000000000000000000e+00,0.000000000000000000e+00,5.307372386657345231e-01,0.000000000000000000e+00,2.420532703399658203e-02,-6.094417286956882407e+01,2.411682367324829157e-01
1.472083000000000030e+00,4.157888448008837529e-02,5.915063184637586041e-02,8.995972275733947754e-01,1.321631937198113060e-02,-1.065026889267506327e-02,1.215405526377994448e-02,5.148788177994846615e-02,3.550034714376087280e-02,-5.443852022290229797e-02,3.076360720267985044e-02,2.353430140480019042e-02,-3.627312954820343608e-03,-2.095718260947734488e-02,-3.843996417578009845e-04,3.403330597927217704e-02,0.000000000000000000e+00,0.000000000000000000e+00,0.000000000000000000e+00,5.304482445717405570e-01,-0.000000000000000000e+00,-1.871508359909057617e-01,8.494239085805629941e+01,2.411682367324829157e-01
1.497457999999999956e+00,4.335791908442043069e-02,6.093357900753559875e-02,8.989926576614379883e-01,1.306968763141859793e-02,-1.043115861965393520e-02,1.271886260969328636e-02,5.672194245904781107e-02,4.460687958766863803e-02,-5.626879259943962097e-02,-4.373193154782253900e-02,1.890083451770192824e-02,2.231823982375124096e-02,-1.125412940965648742e-02,6.259085578781695483e-03,3.558005033666827854e-02,0.000000000000000000e+00,0.000000000000000000e+00,0.000000000000000000e+00,5.307751646394929246e-01,-0.000000000000000000e+00,-1.097623109817504883e-01,7.475070872009613510e+00,2.411682367324829157e-01
1.525382000000000016e+00,4.508785278254338891e-02,6.269878312124518849e-02,8.983032703399658203e-01,1.268189856829033367e-02,-1.020175438124981682e-02,1.342763463083693383e-02,5.938655984043603869e-02,3.995479310213526786e-02,-5.164232105016708374e-02,1.182356331948137065e-02,-2.172037345371372399e-02,4.366745427037400928e-02,-1.220494648438993739e-02,1.047745556904791653e-02,3.754412137068058319e-02,0.000000000000000000e+00,0.000000000000000000e+00,0.000000000000000000e+00,5.306309272423924694e-01,-0.000000000000000000e+00,-3.296552896499633789e-01,9.248449064525946994e+01,2.411682367324829157e-01
1.552264000000000088e+00,4.711571814064731412e-02,6.441062968532026978e-02,8.976905345916748047e-01,1.177737716792765649e-02,-1.028101281640991793e-02,1.403728372158325431e-02,5.155032911641338478e-02,4.062152719024551134e-02,-5.572824180126190186e-02,-2.771610299860270341e-02,-1.322627143623604333e-02,1.609619106413132800e-02,-3.895633530027674436e-03,5.100534605710365862e-03,3.927928979590816772e-02,0.000000000000000000e+00,0.000000000000000000e+00,0.000000000000000000e+00,5.311121688841320410e-01,-0.000000000000000000e+00,9.710551500320434570e-01,-6.050051366316241186e+00,2.411682367324829157e-01
1.578340000000000076e+00,4.845868895073290883e-02,6.555144025408109199e-02,8.972336649894714355e-01,1.134486973877384119e-02,-1.048634628736566654e-02,1.479269327501105818e-02,5.318480905683057453e-02,3.981164603553936226e-02,-5.314512550830841064e-02,-9.408949919753878746e-03,-3.771312309192299816e-02,5.301774478580468380e-02,-8.600436285788760210e-04,7.295236263714536401e-03,4.138392940029128608e-02,0.000000000000000000e+00,0.000000000000000000e+00,0.000000000000000000e+00,5.311033989959684787e-01,-0.000000000000000000e+00,3.989008665084838867e-01,1.660674777814516645e+01,2.411682367324829157e-01
1.607807999999999904e+00,4.976314415014017334e-02,6.662089321829496591e-02,8.968542218208312988e-01,1.104644410461480368e-02,-1.077619137670882132e-02,1.508760841650754782e-02,4.750320670444042187e-02,3.373812235510632862e-02,-5.272842943668365479e-02,-8.727294322894102105e-03,2.972880787730823940e-02,-2.089256023206712345e-02,-2.480831451828795914e-03,1.899505869747894048e-03,4.223627476038116502e-02,0.000000000000000000e+00,0.000000000000000000e+00,0.000000000000000000e+00,5.312387118789237972e-01,-0.000000000000000000e+00,-3.390892744064331055e-01,4.709347130832091466e+01,2.411682367324829157e-01
1.625299999999999967e+00,5.044624570696857463e-02,6.713578449974880180e-02,8.966695070266723633e-01,1.108443980103836039e-02,-1.098790486332879013e-02,1.540954630974808622e-02,4.847232855211076885e-02,3.594253094168980284e-02,-4.863028973340988159e-02,1.681278873444874700e-02,1.857436326694593539e-03,5.630023203417393665e-03,4.234930828517589202e-04,2.884652742616346591e-03,4.313277711453128438e-02,0.000000000000000000e+00,0.000000000000000000e+00,0.000000000000000000e+00,5.310985830780201589e-01,-0.000000000000000000e+00,-3.528453111648559570e-01,1.016131272634407310e+02,2.411682367324829157e-01
1.651197000000000026e+00,5.225344166633202198e-02,6.878858783970337454e-02,8.962134122848510742e-01,1.143932312536461403e-02,-1.115602347926469839e-02,1.584489913769600300e-02,6.124973721162337709e-02,3.679694834748323956e-02,-5.316527187824249268e-02,-1.698676355271193025e-02,6.808488734996430598e-03,-6.913666443618214814e-03,-4.893788261186617083e-04,1.278504065313979497e-02,4.430199032812298654e-02,0.000000000000000000e+00,0.000000000000000000e+00,0.000000000000000000e+00,5.316089219465711668e-01,-0.000000000000000000e+00,-4.145957231521606445e-01,9.161580669604974503e+01,2.411682367324829157e-01
1.672414000000000067e+00,5.328275649843042250e-02,6.999707173441029051e-02,8.959565162658691406e-01,1.208718908252750732e-02,-1.126797614456021002e-02,1.637887504625275964e-02,5.159381732758780426e-02,3.942757214964375673e-02,-3.654074296355247498e-02,6.772153395318017410e-02,-6.508922136466230995e-03,2.238065602660738174e-02,-1.437338247324756839e-03,4.227223321172500492e-03,4.583904837698810075e-02,0.000000000000000000e+00,0.000000000000000000e+00,0.000000000000000000e+00,5.305548864921126873e-01,-0.000000000000000000e+00,2.900179624557495117e-01,9.769477068000946929e+01,2.411682367324829157e-01
1.700731999999999911e+00,5.484286920342413413e-02,7.175063475652349032e-02,8.955979943275451660e-01,1.259194629610569174e-02,-1.083743556413074849e-02,1.669262900923439499e-02,5.307690678504701359e-02,3.316492912825426409e-02,-4.195819050073623657e-02,1.313639162788860643e-02,2.307428082881392978e-02,-4.670603680665744422e-04,-8.655380429380264695e-03,1.065161130021952986e-02,4.668412063513521781e-02,0.000000000000000000e+00,0.000000000000000000e+00,0.000000000000000000e+00,5.311045418184725531e-01,-0.000000000000000000e+00,6.592094898223876953e-02,1.392593524118195170e+01,2.411682367324829157e-01
1.727325999999999917e+00,5.586388122459724076e-02,7.291487092305182216e-02,8.954697847366333008e-01,1.314355330406988265e-02,-1.031975869401269286e-02,1.704337676301144119e-02,4.660443621597366859e-02,3.784316382434554232e-02,-4.001588374376296997e-02,6.537110389294298329e-02,2.993606675892706084e-02,1.086868154000362845e-02,-6.700925752181348394e-03,9.940958239538043653e-03,4.766766197070598787e-02,0.000000000000000000e+00,0.000000000000000000e+00,0.000000000000000000e+00,5.311064650168342283e-01,-0.000000000000000000e+00,2.198922634124755859e-02,-3.611205367021991464e+01,2.411682367324829157e-01
1.750810999999999895e+00,5.689310710259471576e-02,7.401177859374905021e-02,8.952656984329223633e-01,1.283348923337610838e-02,-1.018944589138537360e-02,1.736534029343846791e-02,5.395025348586306863e-02,3.743819499127974681e-02,-4.918916150927543640e-02,-4.548404328414822062e-02,2.577167798318985570e-03,5.191252575048115742e-02,-4.933672293009189018e-03,1.808984735286613826e-02,4.852546125150930534e-02,0.000000000000000000e+00,0.000000000000000000e+00,0.000000000000000000e+00,5.319264124243501257e-01,-0.000000000000000000e+00,7.340949773788452148e-01,-3.133975951599698107e+00,2.411682367324829157e-01
1.776453999999999978e+00,5.921321367585278411e-02,7.521396381770238670e-02,8.949092626571655273e-01,1.269989520624243383e-02,-9.977968803843495493e-03,1.806319929238374075e-02,5.029820703602649185e-02,3.812209357317716818e-02,-4.072228819131851196e-02,2.127753517632312991e-02,1.727195810583894917e-02,1.620114596059953754e-02,-2.313802430473344690e-03,1.759175521974214174e-02,5.048190080064479668e-02,0.000000000000000000e+00,0.000000000000000000e+00,0.000000000000000000e+00,5.314753862459932199e-01,-0.000000000000000000e+00,-5.481611490249633789e-01,4.827667522352597729e+01,2.411682367324829157e-01
1.797763000000000000e+00,6.070880317512748064e-02,7.597327101500873925e-02,8.946375846862792969e-01,1.237247948339453493e-02,-1.029561508083176591e-02,1.838016908801230406e-02,5.163220122338254420e-02,3.526526004883286797e-02,-3.667758405208587646e-02,-5.639138592450873566e-02,-2.731878757901415322e-02,3.912838158597125443e-02,-1.673863599910454907e-03,1.834637569927923331e-02,5.136709401536249109e-02,0.000000000000000000e+00,0.000000000000000000e+00,0.000000000000000000e+00,5.313341249722060011e-01,-0.000000000000000000e+00,-5.373576879501342773e-01,8.693046768015024384e+01,2.411682367324829157e-01
1.822808999999999902e+00,6.288941245974352667e-02,7.702495535580884678e-02,8.941698074340820312e-01,1.213081228309244482e-02,-1.081696450387670261e-02,1.910034002348053039e-02,4.826958805665219898e-02,4.007685997677125356e-02,-3.834511712193489075e-02,4.622906737906801178e-02,-1.920287536626546707e-02,4.016911405220503078e-02,4.848122760634686161e-03,1.393303064732981725e-02,5.340574180950646843e-02,0.000000000000000000e+00,0.000000000000000000e+00,0.000000000000000000e+00,5.316218261662081224e-01,-0.000000000000000000e+00,-3.515046834945678711e-01,9.952379971709051176e+01,2.411682367324829157e-01
1.850495000000000001e+00,6.500291424664843276e-02,7.820122054153332003e-02,8.937773704528808594e-01,1.241269536665050299e-02,-1.134492738620052066e-02,1.935944604488685009e-02,4.819774967137080424e-02,2.535956276909548390e-02,-3.236665576696395874e-02,2.821269758569132022e-02,-8.734576643127274498e-03,-9.911835796582784894e-03,-7.817879266744865580e-03,1.247936991966337207e-02,5.414174224021511828e-02,0.000000000000000000e+00,0.000000000000000000e+00,0.000000000000000000e+00,5.313404453721064513e-01,-0.000000000000000000e+00,-1.561139822006225586e-01,7.495552048009543000e+01,2.411682367324829157e-01
1.876317000000000013e+00,6.703067620947515681e-02,7.953343745374417961e-02,8.934298157691955566e-01,1.300702975932027661e-02,-1.126153288514508688e-02,1.980040090240426862e-02,4.987444055089414185e-02,3.098655514509281519e-02,-3.772322461009025574e-02,-6.059696443123702495e-03,2.671174376386060284e-02,3.702728450199648663e-02,-4.398040827273940953e-03,1.592653094688206011e-02,5.535331604748994216e-02,0.000000000000000000e+00,0.000000000000000000e+00,0.000000000000000000e+00,5.318890665810778184e-01,-0.000000000000000000e+00,-2.023589611053466797e-02,9.906086315552538224e+01,2.411682367324829157e-01
1.897256000000000054e+00,6.840545239879330941e-02,8.039150738685904574e-02,8.931943178176879883e-01,1.345144052903855456e-02,-1.143628206163405103e-02,1.982903583926391364e-02,5.470125810543218642e-02,2.983188876294426764e-02,-2.730798535048961639e-02,-3.720838528597927332e-03,4.074507273790042503e-03,-1.590432615488448012e-02,-8.008605955316088626e-03,1.962485141869854330e-02,5.541132879659271815e-02,0.000000000000000000e+00,0.000000000000000000e+00,0.000000000000000000e+00,5.312815485080678579e-01,-0.000000000000000000e+00,-3.744031190872192383e-01,1.048880458761109367e+02,2.411682367324829157e-01
1.923430999999999891e+00,7.035826966205717403e-02,8.167211000207989791e-02,8.928580880165100098e-01,1.368889855234665248e-02,-1.122850117645701751e-02,2.038193972394207118e-02,5.072834755507491661e-02,3.251768157147305605e-02,-3.489210084080696106e-02,-1.624724250332921366e-02,2.146015113275344388e-02,3.902046496660222658e-02,-6.384733596682568013e-03,1.875920495417554221e-02,5.696186701303651567e-02,0.000000000000000000e+00,0.000000000000000000e+00,0.000000000000000000e+00,5.319815058957323428e-01,-0.000000000000000000e+00,-1.586259603500366211e-01,2.969029956729016817e+01,2.411682367324829157e-01
1.949338999999999933e+00,7.212739813195177818e-02,8.288089340655609150e-02,8.924611210823059082e-01,1.333123346620067318e-02,-1.168074040186461993e-02,2.083691580522187975e-02,5.215860892618111311e-02,2.905735994813872514e-02,-2.698984928429126740e-02,4.675267833358247305e-03,-4.781139123735259067e-02,2.993532480261973383e-02,-5.980479227266680652e-03,1.903397734912831707e-02,5.823625176190355690e-02,0.000000000000000000e+00,0.000000000000000000e+00,0.000000000000000000e+00,5.315650767835832236e-01,-0.000000000000000000e+00,1.309332013130187988e+00,1.507610580023989455e-01,2.618664026260376088e-01
1.972534999999999927e+00,7.312699113290020703e-02,8.365257212181469171e-02,8.922047019004821777e-01,1.288319191042861141e-02,-1.225713690619745222e-02,2.124890952300804645e-02,4.398298780285148091e-02,3.434865477574588349e-02,-3.324759006500244141e-02,-1.009065368137369335e-02,-2.131904994537955206e-02,4.108279918326867425e-02,2.176887339682816343e-03,9.805760455749431420e-03,5.944133609857576994e-02,0.000000000000000000e+00,0.000000000000000000e+00,0.000000000000000000e+00,5.321617933584468219e-01,-0.000000000000000000e+00,2.196896076202392578e-02,7.696139677516643474e+01,3.110979795455932617e-01
1.998858000000000024e+00,7.455427174424929249e-02,8.474977005598179070e-02,8.918163776397705078e-01,1.275732700091038868e-02,-1.321430542471180303e-02,2.158743707734237308e-02,4.555780224636434700e-02,2.321179741952896294e-02,-3.100325353443622589e-02,4.646272060956232151e-03,-4.340604652826677429e-02,2.210607630892001685e-02,-5.310855979637047440e-03,7.049642817889003113e-03,6.040558243587990095e-02,0.000000000000000000e+00,0.000000000000000000e+00,0.000000000000000000e+00,5.321520751908670466e-01,-0.000000000000000000e+00,5.720521211624145508e-01,9.879944449523230787e+01,3.110979795455932617e-01
2.025612999999999886e+00,7.600004682200019179e-02,8.573037623996833390e-02,8.914318084716796875e-01,1.324650243106506239e-02,-1.335488644246374257e-02,2.153837327722733438e-02,4.556425110523625727e-02,2.237723811963383130e-02,-2.304662764072418213e-02,1.596874667009448925e-02,3.994444588533841572e-02,-4.297547270908193273e-02,-6.558616822158753155e-03,7.342540358865998380e-03,6.026550424958476704e-02,0.000000000000000000e+00,0.000000000000000000e+00,0.000000000000000000e+00,5.317292673650951818e-01,-0.000000000000000000e+00,-2.659238576889038086e-01,7.939795064835259097e+01,3.110979795455932617e-01
2.048668999999999851e+00,7.705211683859504446e-02,8.632722599564564281e-02,8.911503553390502930e-01,1.337038975690228726e-02,-1.373724815790122733e-02,2.176072206950272966e-02,4.979646999838360094e-02,2.883852356896367264e-02,-2.171631529927253723e-02,2.981297573833044390e-03,-4.543447986175878223e-02,2.408516369603428547e-02,-1.712349863636839289e-03,9.231982430211359281e-03,6.087568706578433408e-02,0.000000000000000000e+00,0.000000000000000000e+00,0.000000000000000000e+00,5.317798935946523864e-01,-0.000000000000000000e+00,-3.573864698410034180e-01,7.194390565992921438e+01,3.110979795455932617e-01
2.074946000000000179e+00,7.865751611614486827e-02,8.711082741911940763e-02,8.907303214073181152e-01,1.325964332884598321e-02,-1.355568417610997223e-02,2.183044218609730622e-02,4.147037920575626091e-02,2.079052289653515045e-02,-2.177645638585090637e-02,-9.969345725867466076e-03,1.217240118238173754e-02,-3.020295563270912129e-02,-7.129252956868127253e-03,4.698281670956729744e-03,6.109798465105770182e-02,0.000000000000000000e+00,0.000000000000000000e+00,0.000000000000000000e+00,5.319253334658703425e-01,-0.000000000000000000e+00,-4.136425256729125977e-01,1.052674970354509867e+02,3.110979795455932617e-01
2.100862999999999925e+00,8.025164654525959729e-02,8.784797461622599613e-02,8.903374075889587402e-01,1.247429736896307761e-02,-1.382554379703226921e-02,2.226286118028906677e-02,4.116811840567575348e-02,2.597703746816081710e-02,-2.747869491577148438e-02,-5.481920312915047888e-02,-1.764375394085242188e-02,5.399541150108288362e-02,3.621983198994426466e-03,5.175909352141501094e-03,6.230612937446122768e-02,0.000000000000000000e+00,0.000000000000000000e+00,0.000000000000000000e+00,5.324940222983679528e-01,-0.000000000000000000e+00,7.269507646560668945e-01,-3.065745776885855989e+01,3.110979795455932617e-01
2.126409999999999911e+00,8.176180827153524400e-02,8.857103610342594024e-02,8.900725245475769043e-01,1.196155306223913896e-02,-1.448119637484324151e-02,2.242914779324306149e-02,3.480546696526512496e-02,2.491343218133762472e-02,-1.913070678710937500e-02,2.806205147940077360e-02,-1.541062339614564583e-02,2.004477857801749072e-03,6.373770206234878090e-03,-2.483433173417439431e-03,6.281379260520303376e-02,0.000000000000000000e+00,0.000000000000000000e+00,0.000000000000000000e+00,5.320272760291232528e-01,-0.000000000000000000e+00,-1.851733922958374023e-01,4.438377475513136261e+01,3.110979795455932617e-01
2.148171000000000053e+00,8.264184851777832408e-02,8.915509567488630327e-02,8.899569511413574219e-01,1.160630566196029813e-02,-1.507837470399242541e-02,2.245211395188306466e-02,3.676001438415713030e-02,1.898678405220763712e-02,-2.622076869010925293e-02,-5.376481013971116246e-02,-4.280755141310787354e-02,2.513808096334953918e-02,4.799388270790408244e-03,-3.328115113383216424e-03,6.288109303218691881e-02,0.000000000000000000e+00,0.000000000000000000e+00,0.000000000000000000e+00,5.326691470253090976e-01,-0.000000000000000000e+00,-2.804597616195678711e-01,6.625321743971720423e+01,3.110979795455932617e-01
2.176109999999999989e+00,8.384537646845975634e-02,9.027879640836333763e-02,8.897677063941955566e-01,1.186694912417809826e-02,-1.546619820215711094e-02,2.244014390830803909e-02,3.788924679959445457e-02,2.373330019145750147e-02,-8.413248695433139801e-03,4.638640157802539216e-02,1.587392540473688690e-02,-1.616154602009665237e-02,8.819855505221043529e-03,-3.716312854323232211e-03,6.285079691583239647e-02,0.000000000000000000e+00,0.000000000000000000e+00,0.000000000000000000e+00,5.315153158286519686e-01,-0.000000000000000000e+00,-2.470220327377319336e-01,8.778827796820131368e+01,3.110979795455932617e-01
2.200950000000000184e+00,8.496474791552606487e-02,9.130166355649638188e-02,8.896061182022094727e-01,1.235337820658824817e-02,-1.582679744322534887e-02,2.223663022538735143e-02,4.120201615692917901e-02,1.764100664615409278e-02,-1.032426953315734863e-02,2.113956413038626907e-03,-2.320404791711314779e-02,-1.612690388158753707e-02,1.213856511616352718e-03,-2.763831469415416707e-03,6.227489475435060706e-02,0.000000000000000000e+00,0.000000000000000000e+00,0.000000000000000000e+00,5.317740862294083604e-01,-0.000000000000000000e+00,2.402869462966918945e-01,6.773071030059603004e+01,3.110979795455932617e-01
2.225865999999999900e+00,8.569292251573487618e-02,9.194613104126081460e-02,8.895496726036071777e-01,1.297980422300500786e-02,-1.543340606226362155e-02,2.228819173611866836e-02,3.375179495462603263e-02,2.199518709009692582e-02,-1.095287594944238663e-02,7.484206504270407567e-02,2.153082203599601674e-02,-4.258477325099556746e-03,2.120302212192148525e-03,-5.437871436656287021e-03,6.243657737183666567e-02,0.000000000000000000e+00,0.000000000000000000e+00,0.000000000000000000e+00,5.319332389417233964e-01,-0.000000000000000000e+00,3.247977495193481445e-01,-4.280831307589246393e+01,3.110979795455932617e-01
2.247961999999999794e+00,8.649443407212425994e-02,9.255898192707308347e-02,8.894895911216735840e-01,1.317122160270849801e-02,-1.507571150917552671e-02,2.216316017964058138e-02,3.062840422260110218e-02,1.978764889557589265e-02,-9.938403964042663574e-03,-2.925516007549895138e-03,6.958858716945122902e-04,1.974070011659969856e-02,-6.498268264326350491e-04,-3.631443421641463321e-03,6.207618651617624606e-02,0.000000000000000000e+00,0.000000000000000000e+00,0.000000000000000000e+00,5.319728021050487143e-01,-0.000000000000000000e+00,-2.380336523056030273e-01,1.058369162461766138e+02,3.110979795455932617e-01
2.275856000000000101e+00,8.767626134250637582e-02,9.349258541196039940e-02,8.894395232200622559e-01,1.333352727250629310e-02,-1.466335944296304206e-02,2.215819015971795189e-02,3.118191012006625573e-02,1.838008558932030870e-02,-1.216328330338001251e-02,1.501735518043253136e-02,-3.327294255119978266e-03,2.582533240729792141e-03,-1.635184206117690220e-03,9.277261194328916645e-04,6.203624107946398292e-02,0.000000000000000000e+00,0.000000000000000000e+00,0.000000000000000000e+00,5.322496655988785408e-01,-0.000000000000000000e+00,7.090007066726684570e-01,1.349070141462620995e+02,3.110979795455932617e-01
2.302507999999999999e+00,8.880261983276933890e-02,9.432922017124198422e-02,8.894135355949401855e-01,1.286536830963402878e-02,-1.472573264872756305e-02,2.229996914759930018e-02,2.814199285330709621e-02,1.573469524904777886e-02,-5.376240238547325134e-03,-3.166657699635950368e-02,-8.953945643502960600e-03,-3.221007344963969926e-02,5.551312644211849751e-04,-7.224051207707417885e-04,6.244251256938404548e-02,0.000000000000000000e+00,0.000000000000000000e+00,0.000000000000000000e+00,5.318673535344824455e-01,-0.000000000000000000e+00,-3.291000127792358398e-01,9.455175668059055738e+01,3.110979795455932617e-01
2.326862999999999904e+00,8.949289645987798525e-02,9.487752110690562957e-02,8.894490003585815430e-01,1.256837585749287327e-02,-1.491884808860843847e-02,2.242338817392066849e-02,3.578278055829109405e-02,1.883056246048729621e-02,-3.321414347738027573e-03,-5.131971266841550683e-05,-3.618210267774787936e-02,9.255347480794304249e-03,5.777486546474849827e-03,5.156138899012684823e-03,6.275440269145265981e-02,0.000000000000000000e+00,0.000000000000000000e+00,0.000000000000000000e+00,5.318286150924199651e-01,-0.000000000000000000e+00,-8.425486087799072266e-02,9.131984093893474608e+01,3.110979795455932617e-01
2.352431000000000161e+00,9.026267024125822491e-02,9.515309977699967781e-02,8.895193934440612793e-01,1.235671003617271925e-02,-1.491751725878831536e-02,2.249658259923005901e-02,2.762069509743527232e-02,1.666331920418559834e-02,-3.591296263039112091e-03,-2.792844301858259451e-02,2.353551243489691858e-02,4.618112653302038073e-03,5.687045903541439532e-03,-1.315407684082570096e-03,6.299624390949348784e-02,0.000000000000000000e+00,0.000000000000000000e+00,0.000000000000000000e+00,5.319406951510395887e-01,-0.000000000000000000e+00,4.276859760284423828e-02,1.085706994614742200e+02,3.110979795455932617e-01
2.376606999999999914e+00,9.112897476445018519e-02,9.513075847271718066e-02,8.896014690399169922e-01,1.252732005448586178e-02,-1.524771791622914208e-02,2.252827685953991133e-02,2.897434873214935896e-02,1.333386809102680634e-02,6.423738668672740459e-04,3.849642027950326423e-02,-4.402577180065854467e-02,7.618735343398214122e-03,2.678671147420473922e-03,-3.513689452801061581e-04,6.307906310042266096e-02,0.000000000000000000e+00,0.000000000000000000e+00,0.000000000000000000e+00,5.317312248618548676e-01,-0.000000000000000000e+00,2.455586194992065430e-01,4.927442925748144376e+01,3.110979795455932617e-01
2.400039000000000033e+00,9.200967074074077601e-02,9.510007136318321397e-02,8.897359967231750488e-01,1.280336876877554222e-02,-1.510016413300596660e-02,2.245899535746529244e-02,2.776506604622906715e-02,1.660015486759751704e-02,-7.367070764303207397e-03,1.781667474724242528e-02,7.692015199888172818e-03,1.865376885392135142e-02,4.026115140024648376e-03,2.871666396155524116e-04,6.288194580747402673e-02,0.000000000000000000e+00,0.000000000000000000e+00,0.000000000000000000e+00,5.324067665946184968e-01,-0.000000000000000000e+00,-2.774318456649780273e-01,1.027117563612481064e+02,3.110979795455932617e-01
2.423121000000000080e+00,9.283339985456447174e-02,9.505915844897593059e-02,8.899130821228027344e-01,1.340908346815430051e-02,-1.480821721167835392e-02,2.211896434282997412e-02,2.035394022078610213e-02,7.708376098809031560e-03,3.098931629210710526e-03,3.228207129588803181e-02,3.052086307748209590e-02,-3.500620196046499988e-02,-6.516685923426555199e-03,-2.359274810953872377e-03,6.194470889481401565e-02,0.000000000000000000e+00,0.000000000000000000e+00,0.000000000000000000e+00,5.317305201924046321e-01,-0.000000000000000000e+00,-4.846056699752807617e-01,1.138942445232305403e+02,3.110979795455932617e-01
