timestamp,x,y,z,roll,pitch,yaw,vx,vy,vz,p,q,r,psp,qsp,rsp,pres,qres,rres,thrust_sp, thrust_res
0.000000000000000000e+00,-5.576728321789179051e-03,1.932599811115795138e-02,9.964938163757324219e-01,1.383922047754465243e-02,-4.535709667465193107e-03,-3.903519951156549615e-03,6.208440531556131542e-03,-2.488722438641919124e-02,-7.460123393684625626e-03,-5.889463102504341463e-02,8.602451655016723694e-03,1.827862117398176833e-02,-3.109277958892724403e-01,-1.544481310935723328e-01,-3.934116494912345829e-02,-2.130259037017822321e-01,-1.264298915863037165e-01,-2.848752737045287878e-02,5.158684136792405228e-01,1.654690504074096680e-01,-1.199180722236633301e+00,1.422454786735505365e+02,1.365144252777099679e-02
3.375700000000000228e-02,-5.450276697657767053e-03,1.835695141033659439e-02,9.963589906692504883e-01,1.348160119035237380e-02,-4.503014205540667447e-03,-3.922910311396662734e-03,8.925713025691141972e-03,-1.950153357215908545e-02,-3.919233102351427078e-03,-4.531887439997905193e-02,-1.040729466005046316e-02,5.121719230292186981e-02,-3.004963546189888257e-01,-1.411240645902835100e-01,-5.829350449137068318e-02,-2.123035132884979193e-01,-1.146669030189514105e-01,-4.738572835922241072e-02,5.151868420621956712e-01,1.420332193374633789e-01,-1.538681864738464355e+00,2.122595690250060230e+01,1.365144252777099679e-02
7.041200000000000236e-02,-5.365441830946420486e-03,1.764172446237362996e-02,9.962316155433654785e-01,1.329625572189221429e-02,-4.929946839476340159e-03,-3.772791191735448864e-03,2.146222915403266221e-05,-2.338654345763991477e-02,-5.136550753377377987e-04,2.564416628293320066e-03,-8.572191156638616196e-04,2.776617405067862906e-02,-3.038749685971891545e-01,-1.667620566499054824e-01,-4.073936048180304415e-02,-2.124685406684875544e-01,-1.300048112869262584e-01,-3.027480840682983398e-02,5.153745325915697340e-01,1.648142337799072266e-01,-4.932109117507934570e-01,-2.949100489259295088e+01,1.365144252777099679e-02
1.049039999999999973e-01,-5.304540518029504659e-03,1.691355092222472309e-02,9.961980581283569336e-01,1.372023572908840673e-02,-5.696123697221500137e-03,-3.970328506103423458e-03,1.243505248293167754e-02,-2.015697095585427395e-02,-1.689997152425348759e-03,3.614287689835390949e-02,-2.748950895437036676e-02,4.035941228409441021e-03,-3.041283937224426026e-01,-1.330425441619805804e-01,-5.933276778859915973e-02,-2.127115666866302435e-01,-1.026731371879577581e-01,-4.830340147018432478e-02,5.151676729179089920e-01,1.486788988113403320e-01,-3.083139657974243164e-01,-3.836384409616805158e+01,1.365144252777099679e-02
1.378310000000000091e-01,-4.791076701677022924e-03,1.693455858377403839e-02,9.962434768676757812e-01,1.437802997138675279e-02,-5.852595180944941688e-03,-4.159585516519364104e-03,7.543382704545839590e-03,-2.288922183719580006e-02,1.232178066857159138e-03,2.910580776301933612e-02,-6.730874666020394623e-03,1.575312270547728905e-02,-3.113195981952029956e-01,-1.471610524717107960e-01,-5.197589069542327828e-02,-2.129207611083984431e-01,-1.103398203849792480e-01,-4.043712615966797014e-02,5.151876455357631279e-01,1.613494157791137695e-01,-9.710704088211059570e-01,9.120381651550374613e+01,1.365144252777099679e-02
1.719970000000000110e-01,-4.386059540028876963e-03,1.689524303478355527e-02,9.964731335639953613e-01,1.525767827620232511e-02,-5.227175238961434545e-03,-4.550740876973615422e-03,7.467608798862319756e-03,-1.810438644124970353e-02,5.378908943384885788e-03,7.593065417238466230e-02,2.264888595127027837e-02,-1.709244523370254468e-02,-3.118783167544492141e-01,-1.341946185818469195e-01,-7.319448816248802503e-02,-2.119928061962127741e-01,-1.023390054702758706e-01,-6.055641174316406250e-02,5.143976886415982941e-01,1.364480257034301758e-01,-5.255743265151977539e-01,8.439664508299394186e+01,1.365144252777099679e-02
2.063129999999999964e-01,-3.664567871967586762e-03,1.681143760833943637e-02,9.966455101966857910e-01,1.332769191988501280e-02,-2.923873299734092157e-03,-4.327625054050087197e-03,4.192539171028675064e-03,-1.316005812795176776e-02,-2.675211755558848381e-03,-9.002145715403078730e-02,1.467968871643234585e-01,1.363596069803910821e-03,-2.952145164255944865e-01,-1.348973223188725812e-01,-7.659924635687401229e-02,-2.110888659954071045e-01,-1.158407807350158580e-01,-6.453820466995238703e-02,5.147642806992926978e-01,1.246303319931030273e-01,-8.792589902877807617e-01,8.266701578890409507e+01,1.365144252777099679e-02
2.394100000000000117e-01,-2.633491100502271826e-03,1.660161968178443595e-02,9.963362216949462891e-01,7.251875799896236562e-03,8.106256858444460534e-04,-3.969664763035120683e-03,2.226773619785140518e-02,-2.474421344051686532e-03,-2.411554194986820221e-02,-2.465606605306310539e-01,1.065830228309708194e-01,-9.257850993613534960e-03,-2.470036939098974593e-01,-6.828724223742235755e-02,-8.843595446163744767e-02,-2.101466774940490556e-01,-8.920905590057372214e-02,-7.728109359741210105e-02,5.153923733495221482e-01,7.089293003082275391e-02,-8.465164899826049805e-01,1.246746257883959714e+02,1.365144252777099679e-02
2.727359999999999784e-01,-1.560036522573992213e-03,1.659592010754066052e-02,9.956762790679931641e-01,-1.692412522145732377e-03,5.896472958049070456e-03,-2.979336720496757272e-03,7.973116395511061980e-03,1.989827589520829290e-03,-3.891332447528839111e-02,-3.686562972007113026e-01,2.186856456656816328e-01,8.722548292884527155e-02,-1.854706731859534219e-01,-9.274632895961661128e-02,-7.451434213834222386e-02,-2.087199926376342718e-01,-1.333514928817748912e-01,-6.617052555084228238e-02,5.167689786266100871e-01,8.154439926147460938e-02,-9.923681020736694336e-01,5.629419715809707014e+01,1.365144252777099679e-02
3.097139999999999893e-01,1.903551398034891278e-05,1.688336018040858394e-02,9.942998290061950684e-01,-1.410037741684060965e-02,1.167289469372723154e-02,-2.038749814518773899e-03,8.594321520097621472e-03,3.489841925395108235e-03,-5.360392853617668152e-02,-3.190284599239537888e-01,1.188853787459048100e-01,6.534734104762270068e-02,-1.084135055541992076e-01,-6.001486538586360553e-02,-5.665723210366371138e-02,-2.084135055541992132e-01,-1.417797446250915472e-01,-5.116192102432250838e-02,5.180823257857645192e-01,8.568382263183593750e-02,-8.069974184036254883e-01,8.629064970964930126e+01,1.365144252777099679e-02
3.463399999999999812e-01,2.009955032669637730e-03,1.763752416585861321e-02,9.923081994056701660e-01,-2.650381170404363454e-02,1.770340144531057369e-02,-9.211656655680304246e-04,4.149075123751257144e-02,2.971423698008328340e-02,-7.633202522993087769e-02,-2.899254648325475525e-01,1.728567675482714783e-01,7.643350813200419647e-02,-9.723500609397886518e-02,2.502979040145875134e-02,-9.283569189714233061e-02,-1.972350060939788707e-01,-7.497020959854125421e-02,-9.093525409698485773e-02,5.164452610363516882e-01,-1.045541167259216309e-01,-9.673436880111694336e-01,9.465601268808163127e+01,1.365144252777099679e-02
3.808300000000000018e-01,3.746826797842814794e-03,1.860971897419192583e-02,9.903216361999511719e-01,-3.582032434842312429e-02,2.263333602191286431e-02,-6.446702362638497854e-05,3.591376594046632315e-02,3.632911825761333396e-02,-7.524874061346054077e-02,-3.007683671892206201e-01,1.432306387180709850e-01,3.557274255325915818e-02,-9.892157912254331831e-02,-3.413294553756712757e-02,-1.104689091915807692e-01,-1.989215791225433239e-01,-1.341329455375671331e-01,-1.114103078842163114e-01,5.149206517859760135e-01,-1.940220594406127930e-01,-1.447359681129455566e+00,8.978385433800394821e+01,-2.071812152862548967e-02
4.152279999999999860e-01,6.083621650624987040e-03,2.055929580684735455e-02,9.870128631591796875e-01,-4.770470234914318125e-02,2.814591169196578591e-02,1.705006920428119585e-03,3.539818384454290756e-02,5.085863637122313430e-02,-8.842918276786804199e-02,-2.311201914602165619e-01,8.845398571964277479e-02,6.607898218071744934e-02,-8.873939514160156250e-02,-3.319892883300779030e-02,-1.073365415411698665e-01,-1.887393951416015681e-01,-1.331989288330077958e-01,-1.139319777488708441e-01,5.146454752637072971e-01,-2.791905403137207031e-01,-9.334610700607299805e-01,1.243939323342651306e+02,-2.071812152862548967e-02
4.502700000000000036e-01,7.918766228440156374e-03,2.256468581175585450e-02,9.841083884239196777e-01,-5.555906710589865460e-02,3.115090568102130142e-02,2.897366420926059376e-03,6.678642978363678873e-02,7.375682494272424450e-02,-1.111423447728157043e-01,-2.478548725136741349e-01,1.145718375777346754e-01,-9.085952391918356713e-03,-4.085724353790282093e-02,1.733049154281617044e-02,-1.060149776214854012e-01,-1.408572435379028265e-01,-8.266950845718383512e-02,-1.166288495063781683e-01,5.145189879006955014e-01,-3.943676352500915527e-01,-1.044694781303405762e+00,1.017268635734997844e+02,-2.071812152862548967e-02
4.853040000000000131e-01,1.077714725456949997e-02,2.602671606832904910e-02,9.796629548072814941e-01,-6.341055160184320971e-02,3.370459247342427744e-02,4.811894508239894334e-03,7.091088965359236551e-02,9.334368836317315232e-02,-1.155546084046363831e-01,-1.655448782390952223e-01,4.279171580842811712e-02,1.076914508386966028e-02,2.853593826293945868e-02,4.316356182098389505e-02,-1.083074413305098321e-01,-7.146406173706054688e-02,-5.683643817901611051e-02,-1.247789382934570285e-01,5.151546008963302503e-01,-4.025931358337402344e-01,-8.408302068710327148e-01,9.298043068089410212e+01,-2.071812152862548967e-02
5.189629999999999521e-01,1.283979074352514099e-02,2.889629935785747311e-02,9.760867953300476074e-01,-6.682243521440731082e-02,3.496675053060904759e-02,6.475245866232351606e-03,7.963967917175318600e-02,1.117055140905026944e-01,-1.282411664724349976e-01,-8.732694396603246645e-02,1.682839538458964432e-02,8.909668360118108699e-02,1.346349000930786022e-01,9.950296878814697543e-02,-1.141088993146152364e-01,3.463490009307861051e-02,-4.970312118530273004e-04,-1.354929327964782548e-01,5.164020989721700428e-01,-4.082608819007873535e-01,-7.137635946273803711e-01,1.150506843421729002e+02,-2.071812152862548967e-02
5.540209999999999857e-01,1.455999878272259788e-02,3.172851999919531346e-02,9.722455143928527832e-01,-6.869771870683137605e-02,3.587121054158570743e-02,8.154190077324806676e-03,9.243929450710376694e-02,1.399719368927946073e-01,-1.460286676883697510e-01,-6.497613924667050567e-02,4.757907592890663756e-02,7.869966199366043580e-02,2.387189865112304688e-01,2.287672221660614069e-01,-1.187315785475214769e-01,1.387189865112304632e-01,1.287672221660614014e-01,-1.449021577835082897e-01,5.166774851636141141e-01,-4.888512492179870605e-01,-9.249507188796997070e-01,-5.168721065726137454e+01,-2.071812152862548967e-02
5.873429999999999485e-01,1.732689150327269487e-02,3.663716043644726916e-02,9.667584300041198730e-01,-7.149031754949118633e-02,3.669973561129369344e-02,1.107780634607091926e-02,9.502231670458681501e-02,1.624281618312618525e-01,-1.555429399013519287e-01,-7.451944959843299909e-02,-2.508961185548102060e-02,1.049310393487039306e-01,2.574963092803955189e-01,2.491170525550842341e-01,-1.306452732462225208e-01,1.574963092803955134e-01,1.491170525550842285e-01,-1.650960087776184027e-01,5.197924940089785339e-01,-3.909031748771667480e-01,-9.855591058731079102e-01,8.155689148272358580e+01,-2.071812152862548967e-02
6.221649999999999681e-01,1.966374970766852220e-02,4.135730316051490496e-02,9.623069763183593750e-01,-7.341514255867825911e-02,3.731438336754466789e-02,1.335443905693424992e-02,1.175266834830629298e-01,1.895014928097885909e-01,-1.668928414583206177e-01,-3.264730050831219851e-03,1.706292282945777797e-02,7.719457513431149387e-02,2.965948343276977317e-01,2.861957311630248801e-01,-1.025340789470260694e-01,1.965948343276977539e-01,1.861957311630249023e-01,-1.435157418251037653e-01,5.210777565651526499e-01,-3.961367607116699219e-01,-4.425799846649169922e-02,1.143985720311659406e+02,-8.851599693298340538e-03
6.586729999999999530e-01,2.292648560213956035e-02,4.928325944332351272e-02,9.560146927833557129e-01,-7.416083809583624842e-02,3.671499123578736423e-02,1.648784130414771010e-02,1.224765518081493004e-01,2.216483281729557109e-01,-1.794065833091735840e-01,5.519631349192945929e-02,-5.713596681651159602e-03,3.170431965705035326e-02,3.075711488723754661e-01,2.908514022827148326e-01,-8.151863071996612309e-02,2.075711488723754883e-01,1.908514022827148271e-01,-1.310288786888122448e-01,5.237636068223064933e-01,-3.381765484809875488e-01,-1.106322884559631348e+00,9.956858526747828364e+01,-8.851599693298340538e-03
6.914379999999999971e-01,2.574471849262640472e-02,5.596809048962896743e-02,9.511147141456604004e-01,-7.232504994078307881e-02,3.499898180911498180e-02,1.893589716216798405e-02,1.268907587467850984e-01,2.335237612812808006e-01,-1.792838573455810547e-01,1.063855394361928608e-01,-1.099613632909782479e-01,5.578424403193849718e-02,3.031786918640136941e-01,2.892476022243499756e-01,-1.054146745382377459e-01,2.031786918640136608e-01,1.892476022243499700e-01,-1.614858627319335771e-01,5.278198665874587192e-01,-1.486961841583251953e-01,-8.110283613204956055e-01,1.074774593829219782e+02,-8.851599693298340538e-03
7.259079999999999977e-01,2.960400558030291951e-02,6.550451154625601402e-02,9.443588256835937500e-01,-6.609247603858370290e-02,3.067180950863357403e-02,2.284406231451752492e-02,1.393770240498889146e-01,2.575760817593618079e-01,-1.899043619632720947e-01,2.288902125325067427e-01,-1.444225769520726121e-01,7.398027017889025059e-02,3.048123359680176003e-01,2.971224427223205788e-01,-7.820601659012491047e-02,2.048123359680175670e-01,1.971224427223205455e-01,-1.444199323654174749e-01,5.301889269325230636e-01,-1.026315689086914062e-01,-9.568630456924438477e-01,9.673116759190406810e+01,-8.851599693298340538e-03
7.593619999999999814e-01,3.248487086241293176e-02,7.309207394670820535e-02,9.391516447067260742e-01,-5.909682708487873359e-02,2.446155583664411104e-02,2.608030961703015557e-02,1.412664077945148255e-01,2.761638217045827015e-01,-2.048384100198745728e-01,2.152129916924283015e-01,-2.463862242642752276e-01,9.536435200923643052e-02,3.057018995285034069e-01,2.968610167503357156e-01,-6.180675059801304938e-02,2.057018995285034013e-01,1.968610167503356823e-01,-1.362572193145751842e-01,5.333593602451451865e-01,-2.304530143737792969e-02,-6.126409769058227539e-01,-1.199952768483985750e+02,-8.851599693298340538e-03
7.922219999999999818e-01,3.553929036668184577e-02,8.124252186821662169e-02,9.339185357093811035e-01,-5.080513491297857648e-02,1.651305576261896668e-02,2.974506580572248288e-02,1.420680031703996371e-01,2.998338827303668741e-01,-2.198582887649536133e-01,2.667152616453795089e-01,-2.502535599030784041e-01,1.577367606438767611e-01,3.078641533851623757e-01,2.994084537029266246e-01,-3.582600887234461962e-02,2.078641533851623424e-01,1.994084537029266191e-01,-1.197372436523437417e-01,5.361226274406104553e-01,3.271043300628662109e-02,-1.037222504615783691e+00,2.493825692395632743e+01,-8.851599693298340538e-03
8.255780000000000340e-01,4.013972048058668529e-02,9.275837543238268923e-02,9.266676306724548340e-01,-3.771965320439789326e-02,4.091672591662653957e-03,3.349246494358745774e-02,1.415058504327362798e-01,3.119972656952547108e-01,-2.217334210872650146e-01,3.271293650684808374e-01,-2.474150392639112572e-01,1.142696297736976313e-01,3.086801171302795410e-01,2.981748700141906849e-01,-3.056594378528799949e-02,2.086801171302795355e-01,1.981748700141906794e-01,-1.242816209793090737e-01,5.373618061042014782e-01,4.875910282135009766e-02,-8.627604246139526367e-01,9.142221864440406875e+01,-8.851599693298340538e-03
8.610830000000000428e-01,4.389656008815587956e-02,1.017796509037855596e-01,9.210475683212280273e-01,-2.637022652559500163e-02,-5.952549387956640459e-03,3.616343610989309482e-02,1.515020239582076378e-01,3.249131104352573352e-01,-2.239374369382858276e-01,4.287069109037607295e-01,-3.460583990556992395e-01,1.032750679314652087e-01,3.105560183525085671e-01,2.948856106014953182e-01,-2.389638423919676624e-02,2.105560183525085338e-01,2.008974909782409723e-01,-1.238963842391967718e-01,5.383251789814242905e-01,5.379307270050048828e-02,-7.975844144821166992e-01,2.206893201967440632e+01,-8.851599693298340538e-03
8.979340000000000099e-01,4.888211702955801152e-02,1.142853202511812660e-01,9.136219024658203125e-01,-1.141926201790597825e-02,-1.817959209657238340e-02,3.933582612604154261e-02,1.462436318127426083e-01,3.356186111632251667e-01,-2.256620377302169800e-01,3.842659963638557774e-01,-2.567593473723923103e-01,9.572379497820299177e-02,3.119708299636840820e-01,2.164264398863484651e-01,-2.440475225448607288e-02,2.119708299636840765e-01,2.021711289882659746e-01,-1.244047522544860784e-01,5.393417841743293195e-01,5.670058727264404297e-02,-9.369527101516723633e-01,9.606486897799098301e+01,-8.851599693298340538e-03
9.337210000000000232e-01,5.236354169485877424e-02,1.243395771280218637e-01,9.080408811569213867e-01,-8.583839750372696713e-04,-2.791388463602539893e-02,4.127468149235147266e-02,1.248643309357277964e-01,3.323293266614015806e-01,-2.183893024921417236e-01,3.841593037423893242e-01,-3.207943543089272764e-01,3.648529280046752810e-02,3.122683048248290905e-01,1.420311978604357206e-01,-2.396197319030760053e-02,2.122683048248290849e-01,2.025752842426299938e-01,-1.239619731903076061e-01,5.389747018232730058e-01,2.772974967956542969e-02,-7.917014360427856445e-01,1.065712845253580383e+02,-8.851599693298340538e-03
9.683490000000000153e-01,5.639830153616582492e-02,1.389825285012912526e-01,9.005158543586730957e-01,1.260323315658175118e-02,-4.144653393670316710e-02,4.335376214993358346e-02,1.292384835652219954e-01,3.435330338228261837e-01,-2.215308845043182373e-01,3.513770308336797155e-01,-3.049495324426068632e-01,1.744432066559738898e-02,3.137723803520202637e-01,1.040825784206390325e-01,-2.936272621154784046e-02,2.137723803520202581e-01,2.040825784206390381e-01,-1.293627262115478460e-01,5.404247358498824871e-01,4.711663722991943359e-02,-1.075919508934020996e+00,9.461318740198565536e+01,-8.851599693298340538e-03
1.002621999999999902e+00,5.904268486771684782e-02,1.498794600481492267e-01,8.950042724609375000e-01,2.292882445284651419e-02,-5.206676903349305441e-02,4.455603471200442894e-02,9.821782391839788129e-02,3.230969665067732755e-01,-2.181261926889419556e-01,3.323239795816386732e-01,-4.005389567595078470e-01,4.611239788007746865e-02,3.136581182479858398e-01,1.042477309703826738e-01,-1.804194450378417136e-02,2.136581182479858343e-01,2.042477309703826793e-01,-1.180419445037841769e-01,5.397037262420273374e-01,-1.510924100875854492e-02,-1.085456013679504395e+00,9.357353698766132766e+01,-8.851599693298340538e-03
1.040186999999999973e+00,6.255343678819033637e-02,1.648590898621692946e-01,8.882104158401489258e-01,3.753429335626307095e-02,-6.512842656657635843e-02,4.542359974373971071e-02,9.616390783007686127e-02,3.276566932624553896e-01,-2.105136364698410034e-01,3.433258717202567478e-01,-3.108469962691808863e-01,3.813403835050621637e-02,2.779751171643621288e-01,1.048808038234710638e-01,-2.669693231582639936e-02,2.153791308403014970e-01,2.048808038234710693e-01,-1.266969323158264049e-01,5.395219052325080922e-01,-4.059445858001708984e-02,-6.821006536483764648e-01,8.843679076951569584e+01,-8.851599693298340538e-03
1.079579000000000066e+00,6.579135766341988323e-02,1.800429228100148826e-01,8.819227218627929688e-01,5.169719988887311324e-02,-7.634555650665264537e-02,4.600609510260793289e-02,4.999096772286262813e-02,3.091629822262370042e-01,-2.026429921388626099e-01,3.005913842077502784e-01,-2.148008545060701435e-01,4.076802565178420240e-02,1.822837643348360070e-01,1.028627097606658880e-01,-2.047678232192992609e-02,2.152948737144470270e-01,2.028627097606658936e-01,-1.204767823219299316e-01,5.377485224897522453e-01,-1.468696594238281250e-01,-1.091522097587585449e+00,9.181468814430218117e+01,-8.851599693298340538e-03
1.119391999999999943e+00,6.798912662355684200e-02,1.944572417109756146e-01,8.758921623229980469e-01,6.513278219865087371e-02,-8.576992693704332815e-02,4.650044027190570334e-02,3.169598720809793657e-02,2.942473360477060318e-01,-1.956736445426940918e-01,3.290429271014370660e-01,-2.157917896199331442e-01,2.922790345896328357e-02,1.156401634216308594e-01,1.041886687278747448e-01,-1.811797618865965132e-02,2.156401634216308649e-01,2.041886687278747503e-01,-1.181179761886596569e-01,5.369242516518413222e-01,-2.047674655914306641e-01,-1.000561118125915527e+00,9.643478519324970932e+01,-8.851599693298340538e-03
1.159650000000000070e+00,6.979034110052817486e-02,2.096599194135611299e-01,8.708153367042541504e-01,7.836039672571229464e-02,-9.233740790388833553e-02,4.681205909794026315e-02,8.805392665189443885e-03,2.683322410898784649e-01,-1.859311014413833618e-01,3.214935073321902315e-01,-1.131403741079296393e-01,5.558504707084755900e-03,1.160407066345214844e-01,1.053589165210723766e-01,-1.245622634887694202e-02,2.160407066345214899e-01,2.053589165210723821e-01,-1.124562263488769476e-01,5.352624111394300721e-01,-2.925856709480285645e-01,-8.508194684982299805e-01,1.129637132110863433e+02,-8.851599693298340538e-03
1.201035999999999992e+00,7.029044244011531384e-02,2.201653236524710733e-01,8.674964308738708496e-01,8.907246182694177061e-02,-9.607559686524713705e-02,4.690263958750429119e-02,-2.079138297880046490e-02,2.548794722197810780e-01,-1.860912889242172241e-01,3.530898504780426439e-01,-1.188806974272704625e-01,5.103584921622738441e-02,1.164967536926269365e-01,1.047434747219085638e-01,-5.373263359069818668e-03,2.164967536926269420e-01,2.047434747219085693e-01,-1.053732633590698242e-01,5.343705566008275509e-01,-3.711966276168823242e-01,-1.444240808486938477e-01,-3.791697896971997039e+01,-8.851599693298340538e-03
1.241705000000000059e+00,6.975811927849542848e-02,2.362203464039729084e-01,8.627567291259765625e-01,1.057303782326309560e-01,-1.007107241928373309e-01,4.692215971048956102e-02,-5.248215341693442809e-02,2.144541771972023336e-01,-1.681904196739196777e-01,3.083417052349167742e-01,-4.798979424408943151e-02,-1.516942400366141225e-02,1.175188541412353349e-01,1.059530079364776611e-01,4.946410655975355675e-03,2.175188541412353405e-01,2.059530079364776667e-01,-9.505358934402464988e-02,5.310451353160792198e-01,-5.147504806518554688e-01,-1.179296374320983887e+00,9.971651350452241047e+01,-8.851599693298340538e-03
1.283241000000000076e+00,6.802117230999563113e-02,2.477521935289586918e-01,8.594867587089538574e-01,1.157702740219397758e-01,-1.042844126101261093e-01,4.699347732334380884e-02,-1.095054413273351818e-01,1.747086901278686322e-01,-1.572559326887130737e-01,2.392916776707398052e-01,-1.021805491456484472e-01,-1.412336139046507094e-02,1.169829845428466686e-01,1.021102070808410645e-01,3.418692350387574075e-02,2.169829845428466741e-01,2.021102070808410700e-01,-6.581307649612426480e-02,5.290759518309324783e-01,-6.052561402320861816e-01,-1.384832739830017090e+00,4.711844247992648604e+01,-8.851599693298340538e-03
1.323169000000000040e+00,6.471212774818353719e-02,2.574781459120772387e-01,8.564004302024841309e-01,1.226316134812311526e-01,-1.081547237590294586e-01,4.677400697091374515e-02,-1.323658868028587954e-01,1.358074183185880024e-01,-1.622520387172698975e-01,1.547760558866751457e-01,-1.146868500930783574e-01,-5.068299644561567036e-02,1.165024042129516602e-01,9.332892298698425293e-02,5.754860639572144387e-02,2.165024042129516657e-01,1.933289229869842585e-01,-4.245139360427856168e-02,5.296357623976805096e-01,-6.199787259101867676e-01,-1.253278613090515137e+00,9.234959440915172024e+01,-8.851599693298340538e-03
1.361486999999999892e+00,6.004179069397139884e-02,2.665943605936044181e-01,8.538370728492736816e-01,1.280187269781420389e-01,-1.116408067999721254e-01,4.629746156530901297e-02,-1.642740955773061284e-01,9.589649119443895142e-02,-1.567262113094329834e-01,1.325477694311429366e-01,-1.047451194043014372e-01,-4.315900004553605701e-02,1.150014042854309027e-01,5.162035822868346613e-02,6.966779232025147039e-02,2.150014042854309082e-01,1.516203582286834717e-01,-3.033220767974853516e-02,5.299604530883569309e-01,-6.041511893272399902e-01,-1.045151114463806152e+00,1.206675996891596157e+02,-8.851599693298340538e-03
1.403647000000000089e+00,5.380248834049926321e-02,2.740622989835171386e-01,8.511772155761718750e-01,1.321788556605268949e-01,-1.145903744480814002e-01,4.582929657295319037e-02,-2.030046896605134654e-01,5.236831988664784193e-02,-1.501678824424743652e-01,8.769522415690481076e-02,-5.752407475338697923e-02,-3.020251148319179346e-02,1.115934610366821067e-01,-1.641510009765624889e-01,1.439032912254333552e-01,2.115934610366821123e-01,-6.415100097656249722e-02,4.390329122543334961e-02,5.310587137528816060e-01,-5.422586202621459961e-01,-1.652299046516418457e+00,1.109984219000635477e+02,-8.851599693298340538e-03
1.436978000000000089e+00,4.596599945622177608e-02,2.794629893928376463e-01,8.481467962265014648e-01,1.352142339317484732e-01,-1.181988608695532239e-01,4.518759381874475761e-02,-2.543343839070052459e-01,7.876785659476614673e-03,-1.632299721240997314e-01,5.195633488391938198e-02,-1.227316575937348608e-01,-3.499617230377551763e-02,1.053556442260742132e-01,-2.830978155136108509e-01,2.002776384353637806e-01,2.053556442260742188e-01,-1.830978155136108454e-01,1.002776384353637612e-01,5.346477619475410448e-01,-4.238945841789245605e-01,-9.625533819198608398e-01,6.283642213760749939e+01,-8.851599693298340538e-03
1.473222000000000032e+00,3.919447729201003955e-02,2.822300056526267364e-01,8.456819057464599609e-01,1.373016755476625383e-01,-1.209355590177993989e-01,4.440167841525977793e-02,-2.659545738430114659e-01,-1.723453027858269301e-02,-1.762681454420089722e-01,1.823165461439820584e-02,-5.622808573485866407e-02,-4.260819372562184987e-02,1.006815910339355358e-01,-2.928146004676818737e-01,2.174194931983947643e-01,2.006815910339355413e-01,-1.928146004676818681e-01,1.174194931983947726e-01,5.368507562879585304e-01,-3.794803619384765625e-01,-1.061151146888732910e+00,5.597529562574917605e+01,-8.851599693298340538e-03
1.508091000000000070e+00,2.869878084461763637e-02,2.839462142517069076e-01,8.419934511184692383e-01,1.406204989960936902e-01,-1.246257344950898460e-01,4.276528436057219079e-02,-3.239984295312393625e-01,-7.462853638661062772e-02,-1.827551424503326416e-01,6.536799399692952428e-02,-1.091854987224089441e-01,-5.668764497964604715e-02,7.754635810852050781e-02,-3.065911054611206166e-01,2.107899487018585205e-01,1.775463581085205134e-01,-2.065911054611206110e-01,1.107899487018585150e-01,5.382956594899882541e-01,-3.573241233825683594e-01,-1.364845156669616699e+00,2.455035682061296143e+01,-8.851599693298340538e-03
1.544523000000000090e+00,1.967919735836691497e-02,2.835249937906265116e-01,8.389335274696350098e-01,1.434048109726948073e-01,-1.261460676279906323e-01,4.150904900031981287e-02,-3.337530475181034739e-01,-9.414289136863507323e-02,-1.897123903036117554e-01,3.912151644734358086e-02,4.834558265717103787e-03,1.306111777984999590e-02,6.717214584350583717e-02,-3.077188134193420410e-01,2.142331719398498646e-01,1.671721458435058427e-01,-2.077188134193420355e-01,1.142331719398498452e-01,5.393637462871310184e-01,-3.552132248878479004e-01,-1.417670607566833496e+00,8.820248113003840729e+01,-8.851599693298340538e-03
1.577342999999999940e+00,6.361391504138278960e-03,2.803752404994103720e-01,8.342894315719604492e-01,1.470569297922103280e-01,-1.246093935052232649e-01,3.879620929784197841e-02,-3.854994919254617347e-01,-1.535681279358985796e-01,-1.904963552951812744e-01,8.746463397601586531e-02,9.766749372414725017e-02,-2.745966735645229140e-02,-3.499319553375244973e-02,-3.115412473678588756e-01,2.134089827537536677e-01,6.500680446624755582e-02,-2.115412473678588701e-01,1.134089827537536621e-01,5.392629909286190681e-01,-4.020787477493286133e-01,-1.173486828804016113e+00,1.023569895055684782e+02,-8.851599693298340538e-03
1.615359999999999907e+00,-4.539604492009677826e-03,2.766401296152216083e-01,8.303189277648925781e-01,1.488055577218720671e-01,-1.188305243412166590e-01,3.631131322159090319e-02,-3.885276512467042420e-01,-1.851437324460446787e-01,-2.038707882165908813e-01,4.694583851092639509e-02,2.617834184661947949e-01,-1.068847235949327568e-01,-1.218710184097290122e-01,-3.104948282241821178e-01,1.934675276279449463e-01,-2.187101840972900321e-02,-2.104948282241821123e-01,9.346752762794494074e-02,5.404119618620267795e-01,-4.250081777572631836e-01,-1.295235514640808105e+00,8.780251891262079766e+01,-8.851599693298340538e-03
1.650180999999999898e+00,-2.021443294428534182e-02,2.696923573943612595e-01,8.243863582611083984e-01,1.510772751924615021e-01,-1.071110330776308128e-01,3.277077257486527007e-02,-4.375699529187149217e-01,-2.429760126003076837e-01,-2.063410431146621704e-01,5.163564774384615808e-02,3.124676957749696338e-01,-1.070653483307736215e-01,-1.397978663444519043e-01,-3.123430490493774303e-01,8.686504364013672430e-02,-3.979786634445190568e-02,-2.123430490493774248e-01,-1.313495635986328125e-02,5.393035264963846886e-01,-5.430712699890136719e-01,-1.505526900291442871e+00,1.089318388836494762e+02,-8.851599693298340538e-03
1.685052999999999912e+00,-3.275564018067476935e-02,2.629286788249043383e-01,8.196238875389099121e-01,1.532220548793734871e-01,-9.645663607431731457e-02,3.025118420897312740e-02,-4.504975540258131517e-01,-2.762408022197372914e-01,-2.075451463460922241e-01,3.376918750057213148e-02,4.248035951207942973e-01,-6.465601704140580552e-02,-1.567229449748993031e-01,-3.110350608825683816e-01,3.459254503250122625e-02,-5.672294497489929060e-02,-2.110350608825683483e-01,-6.540745496749877930e-02,5.394003022861221242e-01,-5.818843841552734375e-01,-8.246964216232299805e-01,5.216599667279550800e+01,-8.851599693298340538e-03
1.718155000000000099e+00,-5.054501144421028741e-02,2.519245861498115024e-01,8.132962584495544434e-01,1.557962341099594639e-01,-8.084425342493450906e-02,2.635456626659778145e-02,-4.783437599031541421e-01,-3.253690125442470493e-01,-2.127046287059783936e-01,2.879995386828051659e-02,3.872292402959912616e-01,-6.837600436790612635e-02,-1.618304967880249134e-01,-3.098335027694701926e-01,-1.444996595382688764e-02,-6.183049678802490096e-02,-2.098335027694702148e-01,-1.144499659538268932e-01,5.400555472393049339e-01,-6.150480508804321289e-01,-5.284909009933471680e-01,-1.218993150229446911e+02,-8.851599693298340538e-03
1.754596999999999962e+00,-6.485261847687349979e-02,2.421376753099411527e-01,8.083062171936035156e-01,1.560905506250372388e-01,-6.862778079452991342e-02,2.354058774635116660e-02,-5.027665446861547816e-01,-3.684679444363569978e-01,-2.090419977903366089e-01,-3.865604337014901665e-02,3.932464475553866246e-01,-4.870920960600716443e-02,-1.509400486946105846e-01,-3.088268160820007435e-01,-5.596842497280396511e-02,-5.094004869461059293e-02,-2.088268160820007380e-01,-1.466674804687500000e-01,5.404224831160298059e-01,-6.240668296813964844e-01,-6.223016977310180664e-01,-1.242684532214755322e+01,-8.851599693298340538e-03
1.787147000000000041e+00,-8.535619624083004564e-02,2.269583772358055307e-01,8.013898730278015137e-01,1.531273643509212246e-01,-5.281324122057662329e-02,1.983760092942811470e-02,-5.117955195035051030e-01,-4.061402422945822877e-01,-2.067566961050033569e-01,-1.087774624625979097e-01,3.853280432359242336e-01,-6.467540252453284066e-02,-1.489016771316528376e-01,-3.066946029663085715e-01,-8.734610779845838890e-02,-4.890167713165283203e-02,-2.066946029663085938e-01,-1.638184547424316462e-01,5.409661732139137147e-01,-6.360062360763549805e-01,-1.228234648704528809e+00,8.178024549877217453e+01,-8.851599693298340538e-03
1.820619999999999905e+00,-1.012332474596975562e-01,2.142228368645724690e-01,7.961325645446777344e-01,1.484474537823510243e-01,-4.154396478906963175e-02,1.765491164958551268e-02,-5.313072476896114615e-01,-4.487734682631574490e-01,-2.051726728677749634e-01,-1.112948857821093041e-01,3.481842470909110032e-01,-8.286038317953078880e-02,-9.406723976135254739e-02,-3.045705080032348744e-01,-1.062785126462060803e-01,5.932760238647460764e-03,-2.045705080032348688e-01,-1.737900853157043346e-01,5.413928275464735540e-01,-6.528008580207824707e-01,-1.266290783882141113e+00,8.118277470112531091e+01,-8.851599693298340538e-03
1.855642999999999931e+00,-1.180718234254921617e-01,1.999278832833610298e-01,7.908152937889099121e-01,1.427210776883382493e-01,-3.062033373884021081e-02,1.621601167085779532e-02,-5.311542719630227838e-01,-4.861831073563208649e-01,-1.982833743095397949e-01,-2.246976836635182773e-01,3.655575970982727907e-01,-5.123384428839578009e-02,-8.600555658340454379e-02,-3.018893003463745117e-01,-1.194318397399900811e-01,1.399444341659545829e-02,-2.018893003463745062e-01,-1.798810601234435980e-01,5.415537363700635431e-01,-6.614156365394592285e-01,-1.305564761161804199e+00,7.335961262957610529e+01,-8.851599693298340538e-03
1.887046999999999919e+00,-1.425371450417204644e-01,1.780758124160844447e-01,7.836189866065979004e-01,1.352081930812846777e-01,-1.609207692513070498e-02,1.583009705957648047e-02,-5.538080207091614637e-01,-5.292618612118654697e-01,-1.912542730569839478e-01,-1.716945492028788822e-01,3.741828804571620259e-01,1.929421763182554870e-03,-5.114735364913940846e-02,-3.031176805496215709e-01,-1.313553531571281519e-01,4.885264635086059709e-02,-2.031176805496215654e-01,-1.875932693481445201e-01,5.417341817333293230e-01,-6.814790964126586914e-01,-1.799374818801879883e-01,1.071202268289519708e+02,-8.851599693298340538e-03
1.920417999999999958e+00,-1.609278234987683021e-01,1.605750447097908096e-01,7.784746885299682617e-01,1.286017829843546234e-01,-4.938390102238177093e-03,1.611066846249485304e-02,-5.421714122129004387e-01,-5.617189224776878431e-01,-1.801779419183731079e-01,-2.392168379614272866e-01,3.788166314559718306e-01,-1.835432723741624653e-02,-6.221708059310913919e-02,-3.031074523925781361e-01,-1.385949572922208495e-01,3.778291940689086637e-02,-2.031074523925781306e-01,-1.929202795028686357e-01,5.415582830262710701e-01,-6.908619999885559082e-01,-1.173832774162292480e+00,-1.412161964863862806e+02,-8.851599693298340538e-03
1.955526000000000098e+00,-1.795751892207987643e-01,1.411695232481715301e-01,7.734069228172302246e-01,1.214774273828964635e-01,5.375040128519303906e-03,1.744525514395164900e-02,-5.448858828864318049e-01,-6.023143988192108944e-01,-1.755567044019699097e-01,-2.735940092437798565e-01,2.811409892132157862e-01,6.266221001247557210e-02,-9.764369726181031106e-02,-3.051964282989502175e-01,-1.413646544327019361e-01,2.356302738189697092e-03,-2.051964282989501842e-01,-1.972686409950256403e-01,5.418486022608690611e-01,-7.037959694862365723e-01,-1.071534037590026855e+00,9.662738286746572669e+01,-8.851599693298340538e-03
1.987001000000000017e+00,-2.050044922353781163e-01,1.114255104909520899e-01,7.666707634925842285e-01,1.128499396140830169e-01,1.844972754518137137e-02,1.961705326201997057e-02,-5.308280024254167229e-01,-6.319410232346324152e-01,-1.606611460447311401e-01,-2.248742812054683182e-01,3.101423092632908385e-01,2.980273184093960512e-02,-1.919817268848419411e-01,-3.076853036880493053e-01,-1.395391806032759419e-01,-9.198172688484192172e-02,-2.076853036880492998e-01,-1.991520166397094671e-01,5.415040546205284189e-01,-7.160411477088928223e-01,-1.062992453575134277e+00,9.262982341041900725e+01,-8.851599693298340538e-03
2.020417999999999825e+00,-2.236462246204893867e-01,8.827491170128248799e-02,7.617310285568237305e-01,1.073014496275471602e-01,2.766603294577985039e-02,2.170925973495027236e-02,-5.450582507307014657e-01,-6.744646329552947961e-01,-1.431991755962371826e-01,-1.572027831591676361e-01,2.734801538707828938e-01,4.025424733483570772e-02,-2.322084963321685847e-01,-3.097427010536193959e-01,-1.381638900562189021e-01,-1.322084963321685791e-01,-2.097427010536193903e-01,-2.023706674575805609e-01,5.408878526665910069e-01,-7.312860488891601562e-01,-1.426230549812316895e+00,-4.041313648869824249e+00,-8.851599693298340538e-03
2.053062000000000165e+00,-2.418545304460288092e-01,6.444872417129259012e-02,7.569943666458129883e-01,1.029840324968185200e-01,3.703706068190815159e-02,2.378995079218734418e-02,-5.162603135915395658e-01,-6.939123145343323307e-01,-1.432520151138305664e-01,-1.780684669594634895e-01,3.144788243496851599e-01,2.413485422157139043e-02,-2.658352792263031228e-01,-3.105837702751159668e-01,-1.374041191385283467e-01,-1.658352792263030895e-01,-2.105837702751159612e-01,-2.061768651008605846e-01,5.415054870215397775e-01,-7.366095185279846191e-01,-1.279130101203918457e+00,-9.136612230075076013e+01,-8.851599693298340538e-03
2.086448999999999998e+00,-2.656262441306743716e-01,2.796811895956818200e-02,7.507603168487548828e-01,9.879955970476130001e-02,5.007334524043027812e-02,2.697132926040184814e-02,-5.081061096102208463e-01,-7.397085637483019616e-01,-1.263875961303710938e-01,-1.161089117090403633e-01,3.067225636548566725e-01,4.071829134552203133e-02,-2.797468602657318115e-01,-3.137611508369445579e-01,-1.347614078214485756e-01,-1.797468602657318060e-01,-2.137611508369445801e-01,-2.112719893455505260e-01,5.411188597789645671e-01,-7.473075985908508301e-01,-1.365093350410461426e+00,1.291610765258538720e+02,-8.851599693298340538e-03
2.120395999999999948e+00,-2.826754870478047632e-01,8.529160950553227479e-05,7.464046478271484375e-01,9.563732469422354943e-02,5.974822775661858820e-02,2.979802636516665909e-02,-4.707550598783919460e-01,-7.670658974690177656e-01,-1.170680746436119080e-01,-1.275498421919720460e-01,2.606435924604594834e-01,7.914542394626004895e-02,-2.887171328067779652e-01,-2.871204811487773068e-01,-1.291935694133128087e-01,-1.887171328067779597e-01,-2.138474464416503795e-01,-2.128624677658081110e-01,5.411204115991027352e-01,-7.493680715560913086e-01,-1.186715483665466309e+00,9.667809702205308042e+01,-8.851599693298340538e-03
2.153398999999999841e+00,-2.989206868937857031e-01,-2.815111388015594310e-02,7.422752976417541504e-01,9.080574651519561502e-02,6.956531047493585973e-02,3.265340925344637629e-02,-4.698856156856716093e-01,-7.937976918147929828e-01,-1.108835041522979736e-01,-2.373221720199619467e-01,3.112924211757851500e-01,8.677923663870357185e-02,-2.905274987220763938e-01,-2.418989277715100361e-01,-1.234274306634098872e-01,-1.905274987220764160e-01,-2.154019117355346624e-01,-2.146987795829772838e-01,5.414516909925343180e-01,-7.517955303192138672e-01,-1.180648684501647949e+00,1.016241648491394614e+02,-8.851599693298340538e-03
2.186811000000000060e+00,-3.151027732789932201e-01,-5.912538512737252477e-02,7.380581498146057129e-01,8.425332521408027131e-02,7.857870385808118918e-02,3.582368571007120417e-02,-4.327813924722955230e-01,-8.079650956629588210e-01,-1.094309166073799133e-01,-3.027565263379162763e-01,2.642515776614036693e-01,1.128379919626590067e-01,-2.978242874145508035e-01,-1.696386523915501821e-01,-1.162265366519056320e-01,-1.978242874145507701e-01,-2.156096220016479326e-01,-2.161527872085571289e-01,5.420143645081337835e-01,-7.525367140769958496e-01,-6.304203271865844727e-01,-1.173323226947940014e+02,-8.851599693298340538e-03
2.225518999999999803e+00,-3.351052382812083064e-01,-1.007084793081319679e-01,7.325671315193176270e-01,7.378378084483601385e-02,9.068156472509802946e-02,3.980555152389156359e-02,-3.964459694067609674e-01,-8.287394173207354164e-01,-9.010980278253555298e-02,-3.039131843321371540e-01,2.912819928390255053e-01,7.639860229951565829e-02,-3.015506267547607422e-01,-1.148322105407714733e-01,-1.180166006088256836e-01,-2.015506267547607366e-01,-2.148322105407714788e-01,-2.180166006088256891e-01,5.414774360383078911e-01,-7.536930441856384277e-01,-1.292734265327453613e+00,-2.772386078448681701e+01,-8.851599693298340538e-03
2.258982000000000046e+00,-3.528519261388194383e-01,-1.424773360013034118e-01,7.273499369621276855e-01,6.228351832796794746e-02,1.031385632085337622e-01,4.371860507612906899e-02,-3.707891710142181552e-01,-8.575727490246026763e-01,-7.886711508035659790e-02,-2.529483383535667818e-01,3.021420203965062834e-01,7.882774880780224480e-02,-2.971985280513763650e-01,-1.138602495193481445e-01,-1.198195099830627330e-01,-1.971985280513763317e-01,-2.138602495193481501e-01,-2.198195099830627386e-01,5.415650822264134190e-01,-7.538880705833435059e-01,-1.016230225563049316e+00,1.186330229391962092e+02,-8.851599693298340538e-03
2.291615999999999875e+00,-3.638732723392408275e-01,-1.739506493360317707e-01,7.235017418861389160e-01,5.300384056460887700e-02,1.127654275130109962e-01,4.641519223606031808e-02,-3.156139584059166059e-01,-8.611043437770541376e-01,-7.095144689083099365e-02,-3.140041503611976093e-01,2.927444674938118330e-01,9.126659015689296550e-02,-3.002317488193512185e-01,-1.108790636062622070e-01,-1.202348232269286887e-01,-2.002317488193511852e-01,-2.108790636062622126e-01,-2.202348232269286943e-01,5.416002702841947736e-01,-7.529740333557128906e-01,-8.307858705520629883e-01,8.976025603442154477e+01,-8.851599693298340538e-03
2.326928999999999803e+00,-3.767945622867677757e-01,-2.157713082087950041e-01,7.186093926429748535e-01,3.944454274650294190e-02,1.247314276660265175e-01,5.020756109456266797e-02,-2.863180876286114396e-01,-8.841088643404615421e-01,-6.642125546932220459e-02,-3.360543199138096293e-01,2.580527914610679097e-01,1.468307472175468531e-01,-2.985086619853973278e-01,-1.051273345947265625e-01,-1.220351934432983287e-01,-1.985086619853973222e-01,-2.051273345947265681e-01,-2.220351934432983343e-01,5.421322323226761553e-01,-7.535740137100219727e-01,-7.291156053543090820e-01,6.299323645076182032e+01,-8.851599693298340538e-03
2.362239999999999895e+00,-3.851062303770391160e-01,-2.469266052223813845e-01,7.151537537574768066e-01,2.891203454749338014e-02,1.316339637903212179e-01,5.297542490163677925e-02,-2.288529783595740219e-01,-8.767020744542015631e-01,-6.266448646783828735e-02,-3.475110120317388973e-01,1.955366282247086585e-01,1.090172569210421522e-01,-3.023953437805175781e-01,-9.868080615997312788e-02,-1.218392848968505859e-01,-2.023953437805175726e-01,-1.986808061599731334e-01,-2.218392848968505915e-01,5.424056029629308329e-01,-7.524923086166381836e-01,-1.049888730049133301e+00,-9.567636098781149201e+01,-8.851599693298340538e-03
2.399211000000000205e+00,-3.942362608408653268e-01,-2.880194539342919580e-01,7.105729579925537109e-01,1.481244520951762074e-02,1.380892504608943749e-01,5.661580657348563167e-02,-1.854887000513526230e-01,-8.864877754276048183e-01,-5.576713755726814270e-02,-3.366225919113255971e-01,1.247715848735820587e-01,1.383383906861953838e-01,-3.042275249958038552e-01,-8.946917057037351295e-02,-1.222532749176025169e-01,-2.042275249958038219e-01,-1.894691705703735185e-01,-2.222532749176025224e-01,5.426915811238763876e-01,-7.525203824043273926e-01,-9.363461732864379883e-01,3.500999581744918032e+01,-8.851599693298340538e-03
2.435852000000000128e+00,-3.995304459912571438e-01,-3.183999957248150325e-01,7.073668837547302246e-01,4.929486234665733310e-03,1.413372366730445417e-01,5.931212191471854633e-02,-1.305240037174014711e-01,-8.816101091379384691e-01,-4.991120845079421997e-02,-2.992288805214672331e-01,5.272292638543853160e-02,1.567612205106689582e-01,-3.076557099819183239e-01,-8.186342716217040461e-02,-1.216330051422118974e-01,-2.076557099819183183e-01,-1.818634271621704102e-01,-2.216330051422119030e-01,5.428383294194623065e-01,-7.513486146926879883e-01,-7.893651723861694336e-01,9.115462549310130669e+01,-8.851599693298340538e-03
2.477545999999999804e+00,-4.038229800314728224e-01,-3.572946074693033602e-01,7.032178640365600586e-01,-8.134172530680687171e-03,1.459143616320828230e-01,6.264783319629925462e-02,-7.386060081358945817e-02,-8.711650056965517530e-01,-3.912917152047157288e-02,-3.323231377132793707e-01,1.260990708666989424e-01,1.803508928088887187e-01,-3.106556177139282449e-01,-7.467979192733764648e-02,-1.211587905883788896e-01,-2.106556177139282116e-01,-1.746797919273376520e-01,-2.211587905883788951e-01,5.427018396432048419e-01,-7.514035105705261230e-01,-8.112138509750366211e-01,9.644883489237243168e+01,-8.851599693298340538e-03
2.511528000000000205e+00,-4.038728129181492488e-01,-3.925563452540952736e-01,6.991479992866516113e-01,-2.153860436720478333e-02,1.508783809211609039e-01,6.578115266589587562e-02,-2.926171726877479715e-02,-8.533740129551600218e-01,-3.199655935168266296e-02,-3.393047407454348185e-01,1.223668338902079572e-01,1.795570628958362003e-01,-3.135488986968993919e-01,-7.033972740173338734e-02,-1.208178281784057506e-01,-2.135488986968994141e-01,-1.703397274017333929e-01,-2.208178281784057562e-01,5.427994783983886018e-01,-7.514170408248901367e-01,-2.721961736679077148e-01,-6.563732562187881570e+01,-8.851599693298340538e-03
2.546025999999999900e+00,-4.023657394990460268e-01,-4.182676961783785008e-01,6.959446072578430176e-01,-3.185512980901359509e-02,1.542917196717101813e-01,6.821449631331165386e-02,3.471755613430622944e-02,-8.259432395791717063e-01,-3.102878667414188385e-02,-3.403692749842182619e-01,1.253204889682818790e-01,1.474171205443385035e-01,-3.163394331932067871e-01,-6.076928377151488703e-02,-1.199790477752685491e-01,-2.163394331932067816e-01,-1.607692837715148926e-01,-2.199790477752685547e-01,5.431998810696356816e-01,-7.498840689659118652e-01,-9.661320447921752930e-01,7.756509670533635870e+01,-8.851599693298340538e-03
2.581182000000000087e+00,-3.981215616931262913e-01,-4.503773354063288492e-01,6.918695569038391113e-01,-4.510686378853340922e-02,1.574345690872014369e-01,7.165310080707557039e-02,7.954881011216256848e-02,-8.137726983992200624e-01,-1.914008706808090210e-02,-3.546531266903667490e-01,3.157438635448304304e-02,1.392429835166786312e-01,-3.178112149238586648e-01,-5.129572153091430109e-02,-1.193907856941223145e-01,-2.178112149238586315e-01,-1.512957215309143066e-01,-2.193907856941223200e-01,5.429946884932357332e-01,-7.500231862068176270e-01,-1.341781497001647949e+00,1.071657978510942968e+02,-8.851599693298340538e-03
2.614701000000000164e+00,-3.932482768452163491e-01,-4.727796541064637204e-01,6.889704465866088867e-01,-5.448177976567378233e-02,1.592010007881716760e-01,7.444403337037125423e-02,1.555056371053372133e-01,-7.713412071970547901e-01,-2.818974480032920837e-02,-3.512274106226983550e-01,6.361574775892349376e-02,1.666852662912739202e-01,-3.191107809543609619e-01,-4.538202285766601562e-02,-1.159211516380309892e-01,-2.191107809543609564e-01,-1.453820228576660212e-01,-2.159211516380309948e-01,5.440306393410979657e-01,-7.469781041145324707e-01,-6.834274530410766602e-01,-1.145979657436061245e+02,-8.851599693298340538e-03
2.648324000000000122e+00,-3.845591875649794766e-01,-5.013848424798758030e-01,6.851277351379394531e-01,-6.582362043779217686e-02,1.617203317657687212e-01,7.786622258848319156e-02,2.033904607914706897e-01,-7.488052043653655732e-01,-1.265705190598964691e-02,-3.318472557561195080e-01,4.896915373748715605e-02,1.516688256315393002e-01,-3.193634092807769997e-01,-3.541407585144040748e-02,-1.142643690109252930e-01,-2.193634092807769664e-01,-1.354140758514404130e-01,-2.142643690109252985e-01,5.435525347788181527e-01,-7.452316284179687500e-01,-8.791803121566772461e-01,8.135337233602471940e+01,-8.851599693298340538e-03
2.681742999999999988e+00,-3.763645754525610787e-01,-5.204925610463592145e-01,6.822085380554199219e-01,-7.410988896087479516e-02,1.642819136811186631e-01,8.050440122326463221e-02,2.617251494227786357e-01,-7.002860455481350055e-01,-2.671506814658641815e-02,-3.301828618312999120e-01,8.602083254787303013e-02,1.555631857702462484e-01,-3.192663848400115745e-01,-3.868397474288939875e-02,-1.112636566162109319e-01,-2.192663848400115967e-01,-1.386839747428894043e-01,-2.112636566162109375e-01,5.449832963251313167e-01,-7.407705187797546387e-01,-1.317904591560363770e+00,2.205178824485767208e+01,-8.851599693298340538e-03
2.717341999999999924e+00,-3.633609824010301526e-01,-5.436157259424705401e-01,6.781446337699890137e-01,-8.590796445304531292e-02,1.670436263523829012e-01,8.423684976051087903e-02,3.184617619300333380e-01,-6.563453257369187277e-01,-1.647065021097660065e-02,-3.486179336063268686e-01,5.046351543902093117e-02,1.446587576273079545e-01,-3.193717598915100098e-01,-2.225666046142577015e-02,-1.098080396652221513e-01,-2.193717598915100042e-01,-1.222566604614257757e-01,-2.098080396652221569e-01,5.448869979712203104e-01,-7.343204617500305176e-01,-3.907545804977416992e-01,1.240106904199357132e+02,-8.851599693298340538e-03
2.754103999999999886e+00,-3.520761180528881318e-01,-5.597211002466669916e-01,6.748690009117126465e-01,-9.492113336788415845e-02,1.679468175292766485e-01,8.718196308989058230e-02,3.686711471822113340e-01,-6.077009721465003178e-01,-4.055791720747947693e-02,-3.249354810022646589e-01,-3.105465855725434050e-03,1.567533183644316819e-01,-2.776743761665643184e-01,3.171603679656982699e-02,-1.068496704101562500e-01,-2.188266456127166693e-01,-6.828396320343017856e-02,-2.068496704101562556e-01,5.473197770770075188e-01,-7.174179553985595703e-01,-1.166239857673645020e+00,9.756638361418073657e+01,-8.851599693298340538e-03
2.788117999999999874e+00,-3.392374014028888829e-01,-5.752174046517977146e-01,6.716302037239074707e-01,-1.036912995157057149e-01,1.687557481838699580e-01,9.016461337827487432e-02,4.076844012107764814e-01,-5.767560436487649822e-01,-2.666832879185676575e-02,-2.970569408154269397e-01,8.930000736810939088e-03,1.882174441358488715e-01,-2.198131091937438331e-01,7.335500717163086215e-02,-1.069323539733886552e-01,-2.188461542129516435e-01,-2.664499282836913993e-02,-2.069323539733886608e-01,5.470334578056832431e-01,-7.079896330833435059e-01,-1.150118947029113770e+00,8.768637154578472348e+01,-8.851599693298340538e-03
2.828427000000000024e+00,-3.194952170158757987e-01,-5.953201481585659316e-01,6.673871278762817383e-01,-1.145822601086949749e-01,1.694395168558306963e-01,9.388005385560475868e-02,4.823794855530260661e-01,-5.100834889091842017e-01,-3.378925099968910217e-02,-3.056012487342155137e-01,-1.220598337866336987e-02,1.853036297451641501e-01,-1.223265344999523302e-01,2.030311226844787598e-01,-1.035695791244506669e-01,-2.180523633956909235e-01,1.030311226844787542e-01,-2.035695791244506725e-01,5.487756097721888660e-01,-6.645786762237548828e-01,-1.329244017601013184e+00,2.857869311005976343e+01,-8.851599693298340538e-03
2.865238999999999869e+00,-2.973655552762273224e-01,-6.131224733600438848e-01,6.631213426589965820e-01,-1.254229413936051030e-01,1.704294335390390547e-01,9.749699712075746150e-02,5.426457703573014379e-01,-4.479285416732092240e-01,-3.442048281431198120e-02,-3.447898411878382863e-01,2.354688473227268056e-02,1.539026365230612148e-01,-1.195085167884826494e-01,2.793368399143218994e-01,-1.011241912841796819e-01,-2.195085167884826549e-01,1.793368399143218939e-01,-2.011241912841796875e-01,5.495479416275533824e-01,-6.537316441535949707e-01,2.985175848007202148e-01,4.714631306683472189e+01,5.970351696014404574e-02
2.903862999999999861e+00,-2.716513685026989977e-01,-6.315960333132244475e-01,6.588578820228576660e-01,-1.362221863725605053e-01,1.705922222551796708e-01,1.015236938256529053e-01,5.976434390999437740e-01,-3.839457345137821109e-01,-2.568382211029529572e-02,-2.578464455812505829e-01,-8.552029167620414651e-02,1.432206065572311782e-01,-1.189749360084533525e-01,3.112323999404907338e-01,-1.015481233596801647e-01,-2.189749360084533580e-01,2.112323999404907282e-01,-2.015481233596801702e-01,5.511436418827937445e-01,-5.601062774658203125e-01,-1.225432991981506348e+00,1.021419273391722840e+02,5.970351696014404574e-02
2.940639000000000003e+00,-2.433351679593232786e-01,-6.483811124071497956e-01,6.546984910964965820e-01,-1.465143731869596178e-01,1.698142139882252710e-01,1.059669184920901952e-01,6.625135079716341080e-01,-3.096966586021585033e-01,-4.007866606116294861e-02,-2.327804347390858841e-01,-4.734440059763526248e-02,9.910203568963335541e-02,-1.162174284458160345e-01,3.192712843418121227e-01,-1.020066380500793402e-01,-2.162174284458160400e-01,2.192712843418121171e-01,-2.020066380500793457e-01,5.560820320226567137e-01,-3.680574893951416016e-01,-3.015649318695068359e-02,-1.226604644738617367e+01,5.970351696014404574e-02
2.977259000000000100e+00,-2.206996135049081598e-01,-6.591179432561464768e-01,6.517652273178100586e-01,-1.526523608636248253e-01,1.673422742352421722e-01,1.092857739038252812e-01,7.058100072814544879e-01,-2.697490955354002184e-01,-1.796624995768070221e-02,-1.188545369202947399e-01,-1.617886128297460202e-01,8.576602368619648531e-02,-1.150804221630096214e-01,3.209829092025756614e-01,-9.881770610809326172e-02,-2.150804221630096269e-01,2.209829092025756836e-01,-1.988177061080932673e-01,5.581119001885602726e-01,-1.964464783668518066e-01,-1.220894455909729004e+00,6.255518909853222453e+01,5.970351696014404574e-02
3.010968000000000089e+00,-1.868354258517875843e-01,-6.726303669785597128e-01,6.482712626457214355e-01,-1.571230773257243363e-01,1.617229199692462593e-01,1.139974624508416079e-01,7.683541010323454712e-01,-1.936117405463717855e-01,-2.748083882033824921e-02,-2.454939218171182241e-02,-1.871983972280285846e-01,7.918827338915655767e-02,-1.070204913616180364e-01,3.229543507099151833e-01,-7.996428012847900391e-02,-2.070204913616180420e-01,2.229543507099151500e-01,-1.799642801284790095e-01,5.628919622415914370e-01,9.529471397399902344e-03,-1.231015801429748535e+00,9.780974325430830163e+01,5.970351696014404574e-02
3.046606999999999843e+00,-1.601954987057758462e-01,-6.808055880535710536e-01,6.459388732910156250e-01,-1.584009139096882179e-01,1.549455682212905749e-01,1.178732537384382800e-01,8.082142069176243560e-01,-1.503505715223659722e-01,-1.567373238503932953e-02,1.894106042675859636e-02,-2.971072123448000868e-01,1.162056409048077693e-01,-1.068456292152404619e-01,3.236406385898590310e-01,-7.948377132415770929e-02,-2.068456292152404674e-01,2.236406385898589977e-01,-1.794837713241577148e-01,5.612868852721023538e-01,-6.578290462493896484e-02,-1.070579409599304199e+00,5.879185731869274889e+01,5.970351696014404574e-02
3.084198000000000217e+00,-1.231604931057356106e-01,-6.890839845032289412e-01,6.430599689483642578e-01,-1.601939865762867510e-01,1.431555650995242068e-01,1.236449436867186474e-01,8.625173670282777483e-01,-7.082006058716459884e-02,-1.820375956594944000e-02,2.741229702566361920e-02,-3.333899750957903252e-01,1.435146738160504587e-01,-1.056914925575256348e-01,3.243281960487365834e-01,-8.083109855651854359e-02,-2.056914925575256403e-01,2.243281960487365778e-01,-1.808310985565185491e-01,5.597132390310073369e-01,-1.950517296791076660e-01,-9.981387853622436523e-01,1.184215193013575913e+02,5.970351696014404574e-02
3.119280999999999970e+00,-8.421719982144697247e-02,-6.947592961166723091e-01,6.404574513435363770e-01,-1.623061581371748885e-01,1.280201203535720200e-01,1.301068116666984076e-01,8.945757274102925649e-01,-7.694632760562955358e-03,-1.430416200309991837e-02,4.992204057364953151e-02,-3.873281213494979558e-01,2.112221996300354121e-01,-9.678891897201535865e-02,3.246366858482360729e-01,-6.877145767211911842e-02,-1.967889189720153642e-01,2.246366858482360673e-01,-1.687714576721191240e-01,5.581191774160855212e-01,-3.008930683135986328e-01,-7.926484346389770508e-01,-5.466981083383337392e+01,5.970351696014404574e-02
3.153433999999999848e+00,-5.420843326650149480e-02,-6.968974426828707935e-01,6.386310458183288574e-01,-1.638672743771079354e-01,1.156793061948584445e-01,1.347953687262631872e-01,9.221273956301451191e-01,5.483671668057227278e-02,-1.179890241473913193e-02,3.579161736173603475e-02,-3.661574372651332232e-01,1.459135800670551542e-01,-8.178151249885556862e-02,3.246803164482116588e-01,-5.710356235504149280e-02,-1.817815124988555742e-01,2.246803164482116533e-01,-1.571035623550414984e-01,5.566812364464853724e-01,-3.992990851402282715e-01,-7.110239267349243164e-01,-1.754331356242106921e+01,5.970351696014404574e-02
3.187094999999999789e+00,-2.351022732671461876e-02,-6.972260179933488233e-01,6.371222734451293945e-01,-1.652280839879561036e-01,1.033492357804712825e-01,1.389726724367821020e-01,9.524210432750745969e-01,1.032237421941410993e-01,8.155214600265026093e-03,4.824633979444697268e-02,-4.140398429632690114e-01,1.185991328271773365e-01,-7.058926224708556019e-02,3.246834635734557883e-01,-4.240258932113646906e-02,-1.705892622470855657e-01,2.246834635734558105e-01,-1.424025893211364746e-01,5.540880058648938178e-01,-4.957391023635864258e-01,-1.178347229957580566e+00,-4.426648333160932225e+01,5.970351696014404574e-02
3.223786000000000040e+00,1.534873425759387608e-02,-6.941786945173689105e-01,6.355738639831542969e-01,-1.673788951913524614e-01,8.729167632713563663e-02,1.444890844543024189e-01,9.715980289180199403e-01,1.776277564510480578e-01,1.382927317172288895e-02,2.322836781469182071e-02,-3.741715190429537041e-01,1.412267327952645979e-01,-5.650081634521483820e-02,3.244024395942687877e-01,-3.621823787689207319e-02,-1.565008163452148438e-01,2.244024395942687822e-01,-1.362182378768920787e-01,5.524558038083746681e-01,-5.896579027175903320e-01,-1.355055570602416992e-01,-3.141590246486428484e+01,5.970351696014404574e-02
3.260232999999999937e+00,5.494812443578779571e-02,-6.878631004136365190e-01,6.349449753761291504e-01,-1.696955685843273831e-01,7.046596471062893663e-02,1.501617588578467444e-01,9.845866701171898105e-01,2.518073965736166708e-01,3.077856451272964478e-02,3.625665357820311713e-02,-4.175026681296615805e-01,1.877990637723392364e-01,-3.128944635391234241e-02,3.245627641677856223e-01,-4.537236690521240234e-02,-1.312894463539123480e-01,2.245627641677856445e-01,-1.453723669052124079e-01,5.506522077021122064e-01,-6.454167366027832031e-01,-1.103679299354553223e+00,-6.685038087885142488e+01,5.970351696014404574e-02
3.301791999999999838e+00,8.458920048588766671e-02,-6.809367579111034186e-01,6.349623203277587891e-01,-1.716325778826327531e-01,5.766652492407708941e-02,1.544676583155369654e-01,9.907848555333286233e-01,3.035561132592513034e-01,3.625010699033737183e-02,4.021513810674446493e-02,-3.794158688429087323e-01,1.427801687553090781e-01,5.520160198211670338e-02,3.247950255870818981e-01,-5.020005702972410444e-02,-4.479839801788330217e-02,2.247950255870818925e-01,-1.502000570297241100e-01,5.501143555097921523e-01,-6.726451516151428223e-01,-5.528603792190551758e-01,-2.406470988005754563e+01,5.970351696014404574e-02
3.342725999999999864e+00,1.333273624972664828e-01,-6.652923432218559308e-01,6.356403231620788574e-01,-1.736219571610581325e-01,3.543955372226581524e-02,1.614627707896181541e-01,9.974462778888382175e-01,3.988847019829619978e-01,5.923070758581161499e-02,2.726388990483325295e-02,-4.345178307719430033e-01,1.641757162276824000e-01,2.357056140899658203e-01,3.247105181217193604e-01,-1.478241682052611194e-02,1.357056140899658148e-01,2.247105181217193548e-01,-1.147824168205261175e-01,5.484279829733711420e-01,-6.919031143188476562e-01,-1.121506094932556152e+00,-2.379422414364128713e+01,5.970351696014404574e-02
3.378690000000000193e+00,1.722895891015834291e-01,-6.493121780433096513e-01,6.369161605834960938e-01,-1.735585306603597555e-01,1.817865756097059027e-02,1.662802051451991725e-01,9.921226468163513168e-01,4.658573320057714517e-01,6.648389250040054321e-02,3.151554200980529602e-02,-3.847231556295090948e-01,1.022908651043130529e-01,2.922076344490051047e-01,3.249444603919983132e-01,1.917842626571655829e-02,1.922076344490051270e-01,2.249444603919982799e-01,-8.082157373428344727e-02,5.481098221008392501e-01,-6.934319734573364258e-01,-6.334160566329956055e-01,-1.152719141693896177e+02,5.970351696014404574e-02
3.412650000000000183e+00,1.995847626131271313e-01,-6.356635675240865924e-01,6.381656527519226074e-01,-1.726483943963597056e-01,5.662815925238762205e-03,1.697730191995384386e-01,9.793968945122715208e-01,5.214225379523779180e-01,6.386205554008483887e-02,8.719925756346709467e-02,-3.845809804659552356e-01,1.467934558938867595e-01,2.971619248390197643e-01,3.248690724372863547e-01,5.401252508163453120e-02,1.971619248390197587e-01,2.248690724372863770e-01,-4.598747491836547435e-02,5.487644937404342338e-01,-6.774682402610778809e-01,-1.131352305412292480e+00,-9.152123589680174121e+01,5.970351696014404574e-02
