timestamp,x,y,z,roll,pitch,yaw,vx,vy,vz,p,q,r,psp,qsp,rsp,pres,qres,rres,thrust_sp, thrust_res
0.000000000000000000e+00,-3.351459483932737408e-03,-9.998961225102197953e-03,1.001033067703247070e+00,7.053775707037994100e-03,-1.037720043002043901e-02,-1.565071146845786743e-03,-6.799626562068430448e-03,-1.113297951878270547e-02,-4.752477630972862244e-03,-3.355382507507111145e-02,-4.559636532401707514e-03,-1.772217363764386905e-02,1.408585542500261911e-01,1.501036739355134653e-01,2.029993034891307835e-01,2.020053242224573997e-01,2.251694725420007870e-01,2.073054836582009786e-01,5.016157844311428526e-01,-5.615667700767517090e-01,1.014679074287414551e+00,-1.928949240486985062e+01,4.468449354171752930e-01
2.438200000000000089e-02,-3.289233082190985702e-03,-1.050410013762233599e-02,1.000915050506591797e+00,7.175654140788092182e-03,-1.062914737392772757e-02,-1.168086716010430237e-03,-1.957957071920875692e-03,-9.279210950825239265e-03,-4.055973142385482788e-03,2.043282564482684638e-02,-4.205382190505082413e-02,3.876235918748815318e-02,-2.705732756521390669e-01,1.514394979054081158e-01,-1.203842274065743678e-01,-2.113812147853958989e-01,2.232214604007497771e-01,-1.171946873717432946e-01,5.036286383110371023e-01,-4.536399841308593750e-01,-4.372795820236206055e-01,9.188433558326879336e+01,4.385917901992797963e-01
4.868200000000000305e-02,-3.186380975462318934e-03,-1.100920467243199016e-02,1.000754952430725098e+00,7.495373449914402228e-03,-1.050373019782702144e-02,-1.193160062569420532e-03,-1.176711279351348206e-02,-1.205493949264281085e-02,3.311398439109325409e-03,5.202938341669051392e-02,-1.757749336639345683e-02,-3.413961880191807019e-02,-2.891049484700567995e-01,1.460328144448580501e-01,-2.287365680063722928e-01,-2.248915526530466114e-01,2.256288589182625648e-01,-2.254833753509476735e-01,5.149749690529976665e-01,1.773236989974975586e-01,-1.878964900970458984e-02,9.186150226087343640e+01,4.385917901992797963e-01
7.615399999999999947e-02,-3.116998790897035528e-03,-1.126438190418513514e-02,1.000435233116149902e+00,7.112370305889527053e-03,-1.051981487286135497e-02,-5.125495170774652109e-04,-5.530631810538338966e-03,-6.793330989775887320e-03,-1.166834589093923569e-02,-7.358164634895696110e-02,1.507166944284192393e-03,2.752515876975839340e-02,1.557614241117684095e-01,1.504834588481325508e-01,2.163500076735036803e-01,2.130142121559894519e-01,2.236735999129396413e-01,2.176997551812277221e-01,5.097895998655567196e-01,-1.601822376251220703e-01,-2.400730848312377930e-01,9.753746459323491536e+01,4.385917901992797963e-01
9.764599999999999669e-02,-3.125110916832399884e-03,-1.121177550815512410e-02,1.000128626823425293e+00,5.828592434997875889e-03,-1.113268937817712967e-02,1.037502844002391456e-03,-7.204452521456097130e-03,5.622629612613489099e-03,-2.114393562078475952e-02,-5.067247244318882210e-02,-3.749435743445150848e-02,1.056258417975703828e-01,1.012594333007979935e-01,1.431097804851291788e-01,1.824069583380980852e-01,1.409451576692831443e-01,2.225663428169469549e-01,1.794069565022279045e-01,5.077742181296189816e-01,-3.067582845687866211e-01,-5.199179649353027344e-01,3.785507013508297547e+01,4.385917901992797963e-01
1.228739999999999971e-01,-3.268201624831829598e-03,-1.093900899760099493e-02,9.994823932647705078e-01,1.110198736347615218e-03,-1.311457778538760444e-02,3.501283540648936210e-03,-2.126199370852610571e-02,-1.432326568021350050e-03,-1.970912329852581024e-02,-1.711979909332405347e-01,-7.678315126034308824e-02,-6.020799189600208219e-03,1.972272096178565859e-01,1.188224284249794760e-01,2.247656509789354717e-01,2.136095078280365878e-01,2.188224284249794815e-01,2.149688330491825172e-01,5.097334967635290814e-01,-2.008072137832641602e-01,1.723493337631225586e-01,-5.544270479502825566e+01,4.385917901992797963e-01
1.480400000000000049e-01,-3.361140292336502102e-03,-1.081745597856816586e-02,9.990438818931579590e-01,-1.351124321386399253e-03,-1.565285315151410117e-02,3.523317122056557338e-03,-2.031960339586078631e-03,3.748082538325041031e-03,-2.570953220129013062e-02,-1.180242876038837124e-01,-1.111047594468722866e-01,-4.521213339201246573e-03,2.110344952606421909e-01,1.153169474680840467e-01,1.748120516643294486e-01,2.062264126446870793e-01,2.153169474680840523e-01,1.649901942732196480e-01,5.159949450087499834e-01,1.067032814025878906e-01,-4.589785337448120117e-01,6.470392563028320865e+01,4.385917901992797963e-01
1.730309999999999904e-01,-3.346436236575888595e-03,-1.010053603210003120e-02,9.982820153236389160e-01,-1.391059182104578424e-03,-2.052838306936233259e-02,1.775271281135859525e-03,-2.517517108349076951e-02,-3.181728188352443004e-03,-2.219504676759243011e-02,9.185549502530221400e-02,-1.637495914462284707e-01,-5.989298720762747941e-02,-2.221149066921533355e-01,1.242338805728346873e-01,-2.171667979907924151e-01,-2.213144024261283205e-01,2.242338805728346929e-01,-2.220399833452346705e-01,5.262335972324363453e-01,6.695287227630615234e-01,-4.982088804244995117e-01,6.776089973672748101e+01,4.385917901992797963e-01
1.978350000000000108e-01,-3.311902016138907300e-03,-9.494772418756852392e-03,9.977268576622009277e-01,2.834222100029236587e-04,-2.398892437017252632e-02,1.367193307522107659e-05,-1.347912138368446630e-02,-7.152713362885934623e-03,-3.698911890387535095e-02,8.784698304415708425e-02,-1.447813365932809349e-01,-9.569907094397514524e-02,-2.347648294880104458e-01,1.251219473922954295e-01,-2.246477206228460477e-01,-2.212897379886103466e-01,2.251219473922954351e-01,-2.246322986891270412e-01,5.273458069310453800e-01,6.676228046417236328e-01,1.312299966812133789e-01,2.307389873339339914e+01,4.385917901992797963e-01
2.238370000000000082e-01,-3.479102589620287466e-03,-8.556276789554740844e-03,9.966999292373657227e-01,4.539684793491618325e-03,-2.883938172812738898e-02,-8.730993730521330320e-04,-2.371847887070584887e-02,2.048515473621264488e-03,-5.112847313284873962e-02,1.201307312226074231e-01,-1.633664395308906114e-01,6.447044233900584009e-02,-2.491437078421689655e-01,4.551611703147726007e-02,-2.140270372714807301e-01,-2.165417237231183623e-01,1.455161170314772656e-01,-2.117636136441426176e-01,5.280911470970482968e-01,6.456315517425537109e-01,2.618539333343505859e-02,1.970394555163055657e+02,4.385917901992797963e-01
2.486569999999999891e-01,-3.714814105059807952e-03,-7.828724397494926310e-03,9.958966970443725586e-01,5.862064634132252081e-03,-3.127600696663401791e-02,3.391896923494730487e-04,-3.604204167768769451e-02,8.764031200956581488e-03,-4.559338092803955078e-02,2.163063419859970887e-02,-9.281173018561962584e-02,6.320792543281214537e-02,-1.604448828499854818e-01,-2.902349324378977191e-01,-3.767112236627113281e-02,-1.236913742185870718e-01,-1.902349324378977136e-01,-3.892344775324452916e-02,5.232508431107389946e-01,3.984183073043823242e-01,-3.629249334335327148e-01,7.583744816610581552e+01,4.385917901992797963e-01
2.721299999999999830e-01,-4.058213582238183632e-03,-6.977838411742209868e-03,9.949851632118225098e-01,4.787702373986091678e-03,-3.287765452880075934e-02,2.509303165586729278e-03,-2.851646022396994024e-02,1.849841233330527107e-02,-5.720539018511772156e-02,-1.424543358468069731e-01,-3.783855557816817594e-02,1.251067669705807628e-01,1.831914881410699469e-01,-2.242026807584985015e-01,2.225079239715412327e-01,2.057011086466515593e-01,-1.242026807584984960e-01,2.151735373918552408e-01,5.145925621712449383e-01,-1.204410195350646973e-01,3.796350955963134766e-02,7.319442450449933801e+01,4.385917901992797963e-01
2.996840000000000059e-01,-4.689527874569063629e-03,-5.977243650059642539e-03,9.936770200729370117e-01,1.927642850525348257e-04,-3.501771437470635462e-02,6.161232846159547805e-03,-3.318519322032894431e-02,2.132292897218830002e-02,-4.631352052092552185e-02,-1.685870222927629281e-01,-9.604594118869545782e-02,1.366100359037090428e-01,2.173434004073243608e-01,-2.979075830649612344e-01,2.059250747741566412e-01,2.085704571615678293e-01,-1.979075830649612289e-01,1.885794028617364948e-01,5.067341785696161116e-01,-5.033099651336669922e-01,-1.405888795852661133e-01,8.768167237563575611e+01,4.385917901992797963e-01
3.257590000000000208e-01,-5.396245011366619486e-03,-4.900607367570990539e-03,9.923717975616455078e-01,-6.186088911480915227e-03,-3.453512313714535154e-02,7.126467597146524113e-03,-3.156523324124670127e-02,1.748409683677822415e-02,-3.734082356095314026e-02,-1.688832757548079933e-01,6.884880490334166492e-02,-3.628366093106132756e-02,2.579828810547169504e-01,-1.977784936906171187e-01,2.426099089364405770e-01,2.105394297401658732e-01,-9.777849369061712703e-02,2.229287320885703916e-01,5.121600271486169698e-01,-1.871454119682312012e-01,2.816737890243530273e-01,6.143235381030631714e+01,4.385917901992797963e-01
3.466730000000000089e-01,-5.845742081001844247e-03,-4.252788476399239903e-03,9.914847016334533691e-01,-8.457773133797120979e-03,-3.265806167533358284e-02,5.812938905985554072e-03,-2.163156712957364086e-02,1.827391457559405727e-02,-4.955559596419334412e-02,-1.046440975341564050e-01,1.137572305303695130e-01,-6.978210093704562134e-02,2.674170717672275654e-01,8.377637036522531111e-02,2.439080897019661742e-01,2.035753772033061237e-01,1.837763703652253167e-01,2.279831517662198326e-01,5.222417920088167076e-01,2.998739480972290039e-01,3.499042987823486328e-02,1.058957514956871080e+02,4.385917901992797963e-01
3.731579999999999897e-01,-6.425290750921093703e-03,-3.563064352934125403e-03,9.900670051574707031e-01,-7.534702665632554176e-03,-2.773831247521796328e-02,3.690934128185663354e-03,-4.372780143154129245e-02,1.153451864315428385e-02,-4.564357921481132507e-02,1.056903803942982750e-01,1.643073250017800802e-01,-6.021732167791482571e-02,2.516305301623228963e-01,1.181853554229462255e-01,2.242280562109485176e-01,1.986540365805798125e-01,2.181853554229462311e-01,2.142175645756596303e-01,5.278994329440116484e-01,6.142629384994506836e-01,-1.134806871414184570e-01,1.021372008482666303e+02,4.385917901992797963e-01
4.013650000000000273e-01,-6.713219443412410392e-03,-3.367080648253743813e-03,9.890172481536865234e-01,-4.242898007830425700e-03,-2.395857147531810227e-02,1.574286074756070519e-03,-3.056158579453701826e-02,1.163245466385835064e-02,-5.316942557692527771e-02,1.660707106958733137e-01,1.948473241034462400e-01,-1.397467480461031808e-01,1.754258333584083895e-01,1.225297742926882705e-01,8.560180137502790970e-03,1.426258584495833925e-01,2.225297742926882760e-01,4.285060604787757459e-03,5.287021549481939475e-01,6.211926937103271484e-01,6.550228595733642578e-02,3.801844142984050734e+01,4.385917901992797963e-01
4.211810000000000276e-01,-7.151807688251787636e-03,-3.173749014671185288e-03,9.879601597785949707e-01,8.361022772815735957e-04,-2.130012364627820176e-02,-4.919369713252130794e-04,-3.809899882797301157e-02,1.047400406179864983e-02,-5.093687400221824646e-02,3.115547128796237186e-01,9.684061629724201314e-02,-8.256886582939883257e-02,-2.222992867249485305e-01,1.251770161717628560e-01,-2.263705925525089091e-01,-2.213307882117461767e-01,2.251770161717628616e-01,-2.250490795205050132e-01,5.249839350953247052e-01,4.199523925781250000e-01,-3.483563661575317383e-01,1.073016503136858404e+02,4.385917901992797963e-01
4.472809999999999842e-01,-8.023892864373532302e-03,-2.962255006251373127e-03,9.864344596862792969e-01,9.782052411874922471e-03,-2.074954907176018715e-02,-3.724228442548715989e-03,-5.538700095882002905e-02,1.150664777401736935e-02,-4.979966580867767334e-02,3.268784901386980746e-01,-3.762935430058326342e-02,-9.264758232951122996e-02,-2.794801522254772297e-01,1.241571454946666375e-01,-2.328761221670631321e-01,-2.214974638508884763e-01,2.241571454946666431e-01,-2.228617306316137137e-01,5.252709014647833907e-01,4.306274652481079102e-01,-2.134395837783813477e-01,1.440423101988841381e+02,4.385917901992797963e-01
4.729289999999999883e-01,-9.217295420541301784e-03,-2.675153422877634378e-03,9.849454164505004883e-01,1.771591463714412146e-02,-2.281634411383093308e-02,-4.206242836148232911e-03,-6.389158921476011110e-02,1.106012804954773811e-02,-4.306495562195777893e-02,1.864151706285793741e-01,-6.566656418142614859e-02,2.087999054587444045e-02,-3.204127719158014753e-01,1.208078880277942690e-01,-2.297716415165715065e-01,-2.204127719158014698e-01,2.208078880277942746e-01,-2.187889114392190526e-01,5.233311198385397489e-01,3.430168628692626953e-01,3.696268796920776367e-01,8.479311707374566254e+01,4.385917901992797963e-01
4.970629999999999771e-01,-9.944088510156399996e-03,-2.825801543909822744e-03,9.839398860931396484e-01,1.990811721930443867e-02,-2.417459337832461586e-02,-2.520789477983731430e-03,-5.863365438027324378e-02,2.815982947796118185e-02,-5.373362451791763306e-02,7.373452953242146113e-02,-8.468453261813384259e-02,1.098764109123500088e-01,-3.176737167180411769e-01,3.670789135732896447e-02,-1.998920541908173754e-01,-2.176737167180411714e-01,1.367078913573289700e-01,-1.938315925063340550e-01,5.279035074461816412e-01,5.421795845031738281e-01,2.223409414291381836e-01,-3.877468680493349495e+01,4.385917901992797963e-01
5.228899999999999659e-01,-1.121571381797776233e-02,-2.804398327778319724e-03,9.823625087738037109e-01,1.695804323216579257e-02,-2.625903246013394643e-02,9.977950038502214625e-04,-7.116747519788339804e-02,2.636018697403251509e-02,-5.621565878391265869e-02,-1.590573695536699195e-01,-1.119182795599971275e-01,1.216517328623742261e-01,4.972196046766513833e-02,-2.620630006210926677e-01,2.148323100247698236e-01,1.447993548953379617e-01,-1.620630006210926621e-01,2.110913657519859488e-01,5.131937849388796824e-01,-2.719831466674804688e-01,-9.943115711212158203e-02,1.145225399646016626e+02,4.385917901992797963e-01
5.483930000000000193e-01,-1.217261022700090629e-02,-2.709617883433566420e-03,9.813450574874877930e-01,1.214151180464729217e-02,-2.806944458210458571e-02,3.430603047662739158e-03,-7.005708845733932266e-02,2.795330834919215746e-02,-5.107460170984268188e-02,-3.078855383943140955e-01,-7.446047558328959537e-02,9.107373402522472849e-02,1.458322068907876579e-01,-2.447450439364788899e-01,2.276675249100996168e-01,2.079202483929441236e-01,-1.447450439364788843e-01,2.173074094383209975e-01,5.127465223891853885e-01,-2.830253243446350098e-01,6.134390830993652344e-03,-6.347104233415006291e+01,4.385917901992797963e-01
5.734430000000000360e-01,-1.372660387512775367e-02,-2.487604999866489548e-03,9.799195528030395508e-01,3.592432816859555695e-03,-3.078397868399296300e-02,5.690761576583103221e-03,-6.563765848591612828e-02,2.882972740250324545e-02,-4.637174680829048157e-02,-2.618745581095004993e-01,-9.080002309599127797e-02,-4.595763108545854701e-03,2.029399651035115881e-01,-2.473732740232999217e-01,2.141369159064617222e-01,2.087933694558913866e-01,-1.473732740232999161e-01,1.978605362680420088e-01,5.144328386646846996e-01,-1.832566261291503906e-01,-2.723184823989868164e-01,1.234316525953114230e+01,4.385917901992797963e-01
5.972629999999999884e-01,-1.472197093628981913e-02,-2.665491459201889922e-03,9.790180325508117676e-01,-2.623579449384043881e-04,-3.103196888479176074e-02,4.883280625000541164e-03,-7.160892719271398643e-02,1.626426502956057618e-02,-3.885762393474578857e-02,-1.269995864598335022e-01,-3.135228670682501610e-03,-7.146574403441709189e-02,2.164410934061273828e-01,-7.210023518307731583e-02,2.266425489735521548e-01,2.073641688109769399e-01,2.789976481692268973e-02,2.129211972064138647e-01,5.138051086026151903e-01,-1.937954425811767578e-01,-1.867154836654663086e-01,9.533580092560548280e+01,4.385917901992797963e-01
6.230430000000000135e-01,-1.610832446277443014e-02,-3.107296529201507111e-03,9.774870872497558594e-01,-1.834611309735594258e-03,-2.796350762406030199e-02,2.331964662945162914e-03,-5.885398768047145346e-02,1.532500724301056640e-02,-4.553288593888282776e-02,2.760999803434800379e-02,1.708467961731056639e-01,-1.173106211107158431e-01,7.202192759408371225e-02,1.191630831735260576e-01,2.264053763227815153e-01,5.191360491066592669e-02,2.191630831735260632e-01,2.199049173012430636e-01,5.313005300028733613e-01,7.180504798889160156e-01,6.746470928192138672e-02,8.742149680977163939e+01,4.385917901992797963e-01
6.467810000000000503e-01,-1.705720798970312285e-02,-3.450899329648391810e-03,9.764525890350341797e-01,-1.521660644504816199e-04,-2.469148311521207617e-02,4.778714860314003943e-04,-6.952580970988637976e-02,9.128016718675576596e-03,-5.096400529146194458e-02,1.327606244737885299e-01,1.288956094540430475e-01,-7.642896850500430217e-02,-1.841737894913660356e-01,1.241141931551248134e-01,-2.174438422901367740e-01,-1.883870182682198524e-01,2.241141931551248190e-01,-2.187982094213882511e-01,5.299723858249182351e-01,6.157464981079101562e-01,-1.091607809066772461e-01,9.611677841568308622e+01,4.385917901992797963e-01
6.724890000000000034e-01,-1.859011417182707127e-02,-4.011374963503682063e-03,9.749034047126770020e-01,4.800881015761241169e-03,-1.999545769543931151e-02,-2.911209593647212657e-03,-6.738533098278771949e-02,1.390839546966195564e-02,-5.630559474229812622e-02,1.629832673767588613e-01,1.577919522042532940e-01,-1.566861663310833153e-01,-2.449182338139552773e-01,1.261856497612220407e-01,-2.328607289290994531e-01,-2.212396320807070160e-01,2.261856497612220462e-01,-2.249523361583900816e-01,5.316269602641982006e-01,6.751992702484130859e-01,-2.541645765304565430e-01,6.931061501789001511e+01,4.385917901992797963e-01
6.965900000000000425e-01,-2.027378531967991351e-02,-4.287773675023808483e-03,9.738372564315795898e-01,8.133994349738975921e-03,-1.913413406639086212e-02,-3.764687331498040024e-03,-8.064520193836381690e-02,1.432722431213115551e-02,-6.241464242339134216e-02,1.169488308115132769e-01,7.477065074036193248e-02,4.122567089376887733e-02,-2.658812655827702542e-01,1.233093984833470991e-01,-2.307042293876341021e-01,-2.199833353138841430e-01,2.233093984833471046e-01,-2.205514483855735841e-01,5.297568019785727778e-01,5.395929813385009766e-01,5.145156383514404297e-02,4.109946804744697602e+01,4.385917901992797963e-01
7.263349999999999529e-01,-2.307469318699168631e-02,-4.474207628523671487e-03,9.723817110061645508e-01,1.026517837789654546e-02,-1.933147540945956422e-02,-2.195138842476351826e-03,-9.178195623545833126e-02,2.507219442281479957e-02,-4.849459230899810791e-02,4.981121341247279205e-02,-1.025149465206259478e-02,9.616532928604626385e-02,-2.660645286286665856e-01,1.040370990785711158e-01,-8.390625427322526142e-02,-2.147569060140761266e-01,2.040370990785711214e-01,-7.832084071417652615e-02,5.280553054329568674e-01,4.916758537292480469e-01,2.722419500350952148e-01,6.894566264261060340e+00,4.385917901992797963e-01
7.503499999999999615e-01,-2.405371461665030061e-02,-4.468993741987845394e-03,9.719306230545043945e-01,9.567797623522906331e-03,-1.982713374184430499e-02,-1.341875762900901492e-03,-9.415998079354095940e-02,1.966159587565693284e-02,-4.369184374809265137e-02,-6.131688360379452390e-02,-3.157322389597141954e-02,1.300732005060535601e-01,1.176702552965674109e-01,3.516700776831896413e-02,1.930396369069444507e-01,1.701745874969185779e-01,1.351670077683189697e-01,1.962953044944199810e-01,5.164610261316585627e-01,-1.223307251930236816e-01,-1.619924306869506836e-01,4.771668167385497838e+01,4.385917901992797963e-01
7.722229999999999928e-01,-2.606168451933508698e-02,-4.365957695552539347e-03,9.710476994514465332e-01,7.197503103589046256e-03,-2.088681191045949070e-02,7.628407144566473619e-04,-9.077099610344731284e-02,3.425087310569503718e-02,-4.497024044394493103e-02,-1.525090720884941520e-01,-4.705613539986699262e-02,8.896951105558691120e-02,1.831796037273420164e-01,-2.222443740246122790e-01,2.183671243479637369e-01,2.077324617062676626e-01,-1.222443740246122734e-01,2.157376958143325529e-01,5.135626075952877123e-01,-2.897994518280029297e-01,4.798424243927001953e-02,6.270311733557635847e+01,4.385917901992797963e-01
8.009549999999999725e-01,-2.914926125344244681e-02,-4.103349371757699336e-03,9.699642658233642578e-01,1.100504631719367984e-03,-2.359314487722485865e-02,3.338265261781270254e-03,-9.893665229194818778e-02,2.373505023547727369e-02,-3.302755951881408691e-02,-1.738558627467924056e-01,-1.505647031801335134e-01,3.939490724376895625e-02,2.149341965560625234e-01,-2.680584227671463093e-01,1.867157299024888306e-01,2.099244139591049940e-01,-1.680584227671462760e-01,1.772141942711026041e-01,5.101631473865964050e-01,-4.314898848533630371e-01,-5.611193180084228516e-02,8.447429750366781320e+01,4.385917901992797963e-01
8.263310000000000377e-01,-3.125360392697764528e-02,-3.627012034709664167e-03,9.692919850349426270e-01,-3.928699520836844046e-03,-2.579148362075089906e-02,3.566286389322215200e-03,-1.010812640613664853e-01,2.635108520162428997e-02,-3.157702088356018066e-02,-2.331089689568705825e-01,-1.129064460716224516e-01,-1.191773164965130929e-02,2.547251957485643925e-01,-2.465009976703258499e-01,2.093564859959881896e-01,2.130670368146908855e-01,-1.465009976703258443e-01,1.994530533303776332e-01,5.153041345186457622e-01,-1.573055982589721680e-01,-1.382887363433837891e-02,5.752226858595994941e+01,4.385917901992797963e-01
8.485219999999999985e-01,-3.338635132862594057e-02,-3.195124047227542331e-03,9.686060547828674316e-01,-6.700066920720580688e-03,-2.775378307656439780e-02,2.687298134905535818e-03,-8.566194768083269795e-02,2.494754161394033970e-02,-2.827264182269573212e-02,-7.499484143478993281e-02,-9.207462707586119843e-02,-7.865725384059638059e-02,2.701635856799650126e-01,-2.040649065061854728e-01,1.934774528791340098e-01,2.116999533484578977e-01,-1.040649065061854533e-01,1.862018959190168410e-01,5.134384020578786068e-01,-2.493482828140258789e-01,-1.326795816421508789e-01,1.100393267368103523e+02,4.385917901992797963e-01
8.735309999999999464e-01,-3.546213474188495557e-02,-2.844924310233057536e-03,9.678924083709716797e-01,-7.565127686494841491e-03,-2.868051169609864282e-02,1.185464850833151118e-03,-9.238107732183753473e-02,2.205316280706619975e-02,-3.011409193277359009e-02,1.764000197513069731e-02,-2.065662734811212625e-02,-5.704019074826374713e-02,-1.552887546683715259e-01,9.644800507137307743e-02,-2.060231936146606491e-01,-2.175256891171815088e-01,1.964480050713730830e-01,-2.090110459450889580e-01,5.301154644593478737e-01,6.391961574554443359e-01,4.947185516357421875e-05,9.507820034105846219e+01,4.385917901992797963e-01
9.010960000000000081e-01,-3.852303889445383989e-02,-2.354662580951859090e-03,9.667152762413024902e-01,-4.472799269403614393e-03,-2.608939715469338338e-02,-1.554524623681663442e-03,-8.871153270511940303e-02,1.626446912818092089e-02,-3.810642287135124207e-02,1.604224194221926802e-01,1.179225943975681229e-01,-8.463168183512319309e-02,-1.706997275202081499e-01,1.247210712373493235e-01,-2.199193242663466108e-01,-2.089279633939231939e-01,2.247210712373493291e-01,-2.153968428083279651e-01,5.289735019654149273e-01,5.370039939880371094e-01,5.857034921646118164e-01,8.429617983049222119e+01,4.188449144363403098e-01
9.251709999999999656e-01,-4.050149700911445660e-02,-2.133959527934597023e-03,9.658457040786743164e-01,-5.476225328864399401e-04,-2.267120570670244639e-02,-3.748109933831011986e-03,-8.185937110958640961e-02,2.337052748040532174e-02,-4.532670229673385620e-02,1.894387705502241226e-01,2.132729536586123742e-01,-1.139929705707033170e-01,-8.653477286159313997e-02,1.236852853334031443e-01,-1.830189950239852481e-01,-1.058089022265636808e-01,2.236852853334031499e-01,-1.726191321560706371e-01,5.307252026589592830e-01,5.970522165298461914e-01,2.318214178085327148e-01,1.092871453242735384e+02,4.188449144363403098e-01
9.482329999999999925e-01,-4.245791745794744859e-02,-2.017783089286027780e-03,9.649373888969421387e-01,4.541646015975870677e-03,-1.852960908833312104e-02,-5.430105162027576426e-03,-9.920395500039796977e-02,2.011513211564682629e-02,-3.889745101332664490e-02,2.996181754258236407e-01,1.507406839607772220e-01,-4.343133559572895375e-02,-2.368884171169656216e-01,1.240653901326849162e-01,-2.353139995661567840e-01,-2.194910801183114490e-01,2.240653901326849218e-01,-2.204184615487573828e-01,5.263990821565565081e-01,3.781602382659912109e-01,2.372630834579467773e-01,9.421183865616653463e+01,4.188449144363403098e-01
9.735679999999999890e-01,-4.452001408566622770e-02,-1.824182711233591700e-03,9.639445543289184570e-01,8.657369132371015019e-03,-1.449695244473558908e-02,-5.484436779688239838e-03,-1.037248097603728630e-01,1.809971734895242032e-02,-4.498902335762977600e-02,1.448023267949502257e-01,1.808247900750810377e-01,2.284199090812281258e-02,-2.527017383452069277e-01,1.240860454343291341e-01,-2.284893705808424547e-01,-2.075477701955261711e-01,2.240860454343291397e-01,-2.135788548851674240e-01,5.313733322355845834e-01,6.179163455963134766e-01,-6.163156032562255859e-02,6.748271296202203473e+01,4.188449144363403098e-01
9.975920000000000343e-01,-4.667797553750988038e-02,-1.487954699967834011e-03,9.629711508750915527e-01,1.128809687246440201e-02,-1.164611963278106010e-02,-3.747304224416048157e-03,-9.829280402339696243e-02,4.036356808181188610e-02,-5.220811069011688232e-02,1.051990914862871995e-01,1.566280712732056879e-01,1.067020601191622925e-01,-2.642395962325961301e-01,1.245172474280334118e-01,-2.271941548909059694e-01,-2.202003152127161578e-01,2.245172474280334174e-01,-2.173050446393149648e-01,5.329579411962303004e-01,6.681139469146728516e-01,1.077814936637878418e+00,-2.558703951774291241e+01,4.188449144363403098e-01
1.024124000000000034e+00,-4.897126923097106649e-02,-1.054798572137148225e-03,9.620143175125122070e-01,1.163651028985046403e-02,-1.110554088631010572e-02,-2.024587368945507393e-03,-1.159846287565851064e-01,2.794275519825936346e-02,-3.578938916325569153e-02,-4.705112349620997961e-03,-6.209929100534538476e-02,6.825368913524346159e-02,1.019526900443287198e-01,-1.997857198492088981e-01,1.446827919723856215e-01,1.607195409491186666e-01,-9.978571984920889260e-02,1.497671700460702915e-01,5.227294658804936267e-01,1.665707826614379883e-01,-8.284926414489746094e-03,7.445982633127093209e+01,4.188449144363403098e-01
1.050648000000000026e+00,-5.134727231029914685e-02,-3.364599353611093116e-04,9.611383080482482910e-01,1.026119821833012570e-02,-1.137207154244168628e-02,2.239414228821789976e-04,-1.248439082522610766e-01,4.203261833746551462e-02,-4.605318978428840637e-02,-9.947976989202209075e-02,3.338322474018628506e-03,1.492731238681362371e-01,1.261034707922958353e-01,-1.145820335392127159e-01,1.802632430756606896e-01,1.623497228764911038e-01,-1.458203353921271560e-02,1.789982938469069917e-01,5.218969188226039169e-01,7.278811931610107422e-02,1.893376111984252930e-01,8.696009704076976732e+01,4.188449144363403098e-01
1.077944000000000013e+00,-5.386407404880890620e-02,6.308604251056390728e-04,9.602424502372741699e-01,7.820585859418211633e-03,-1.333568360314663082e-02,2.483837508675978967e-03,-1.194464508722271612e-01,4.077350465922434386e-02,-3.287409991025924683e-02,-1.495382583622750228e-01,-9.305574386063704406e-02,7.343280218879048860e-02,1.850023146125967799e-01,-2.739731227656198032e-01,2.200342007906605224e-01,2.074201670290942157e-01,-1.739731227656197698e-01,2.125349669483296566e-01,5.101272677602819439e-01,-5.132934451103210449e-01,5.587927103042602539e-01,-1.847511016710901188e+01,4.188449144363403098e-01
1.111993000000000009e+00,-5.511116663787327813e-02,1.142618351279781281e-03,9.597917199134826660e-01,5.873341432575188148e-03,-1.454563051907786786e-02,3.942967832363031278e-03,-1.144488329663301135e-01,4.166965296526050494e-02,-2.966425195336341858e-02,-1.803974413611220406e-01,-1.134257663390252913e-01,1.417967581975361768e-01,1.989709926113947813e-01,-2.892876093368147439e-01,2.290091991728803733e-01,2.072678654009719734e-01,-1.892876093368147383e-01,2.174884793808233852e-01,5.113518316204012093e-01,-4.406648278236389160e-01,1.401389837265014648e-01,1.421140931546761692e+02,4.188449144363403098e-01
1.132416000000000089e+00,-5.639737404914444557e-02,1.678225342236527732e-03,9.593492150306701660e-01,3.648342202916810256e-03,-1.570575130086337978e-02,5.326790626038580001e-03,-1.104614648263360921e-01,4.700216018875309765e-02,-2.942888066172599792e-02,-2.497165735255782171e-01,-1.365559615529330362e-01,1.693389445663349424e-01,2.199036255885716551e-01,-2.842486232341608909e-01,2.290049819186387448e-01,2.090818080964406966e-01,-1.842486232341609131e-01,2.136673074962631980e-01,5.121753486535505218e-01,-4.011147022247314453e-01,-3.102272748947143555e-01,-5.462114573599703249e+01,4.188449144363403098e-01
1.154295000000000071e+00,-6.025481709135285802e-02,3.357773361882138933e-03,9.581258296966552734e-01,-4.300739401647424992e-03,-1.952388655961478925e-02,9.497359392340642970e-03,-1.296968450458958477e-01,4.340978545342161904e-02,-3.021298535168170929e-02,-3.056551778384317131e-01,-1.044366902660834456e-01,1.232257478263832362e-01,2.763014050022118973e-01,-2.737200712960706217e-01,2.380215713553197610e-01,2.158729423465411412e-01,-1.737200712960706162e-01,2.113960187822092052e-01,5.188210632341886397e-01,-5.752569437026977539e-02,6.014672517776489258e-01,7.053430487940032378e+01,4.188449144363403098e-01
1.173423000000000105e+00,-6.277458256238678536e-02,4.507296821332495984e-03,9.573308825492858887e-01,-8.921452836407843881e-03,-2.186736568839475758e-02,1.017775242030816152e-02,-1.127119236509495498e-01,5.210442731387288778e-02,-1.444104127585887909e-02,-1.539412177733400777e-01,-1.029890888635005414e-01,-4.198190406656125001e-02,3.150470471759485580e-01,-2.396463345955687496e-01,2.346345147446257662e-01,2.162849395129313734e-01,-1.396463345955687441e-01,2.062941357914709339e-01,5.162663171837791332e-01,-1.378991007804870605e-01,8.618739843368530273e-01,-1.435392257853776812e+02,4.188449144363403098e-01
1.203351999999999977e+00,-6.675983035563251566e-02,7.441090403346253129e-03,9.564002156257629395e-01,-1.238289101946607983e-02,-2.358155924700056083e-02,9.300679964942659694e-03,-1.211689431562232994e-01,4.099334749651002696e-02,-8.532480569556355476e-04,-1.801583388678947711e-02,-4.975637771815033528e-02,-7.228614804808165817e-02,3.136429519471566341e-01,-3.129846528979295939e-01,2.313397318291581517e-01,2.136429519471566008e-01,-2.129846528979295883e-01,2.057616241875146745e-01,5.123390918435820618e-01,-3.007529973983764648e-01,-2.925741672515869141e-02,-6.190329535357869162e+01,4.188449144363403098e-01
1.225614999999999899e+00,-6.945403457271737135e-02,9.775384435082261694e-03,9.559335112571716309e-01,-1.162930105203574017e-02,-2.242184177307304793e-02,7.900359382642330175e-03,-1.145873932481780988e-01,4.406210544263531453e-02,-1.018463075160980225e-02,8.770742414575045942e-02,9.648764064278064767e-02,-7.582011720131137666e-02,2.825325913273993850e-01,-1.516273568115306114e-02,2.344681266348667137e-01,1.825325913273993517e-01,8.483726431884694441e-02,2.126952869260524959e-01,5.289013975359537767e-01,5.523175001144409180e-01,-3.210457563400268555e-01,7.507633286613462076e+01,4.188449144363403098e-01
1.256183000000000050e+00,-7.332133866925602539e-02,1.317328366142779365e-02,9.550712108612060547e-01,-7.697233752158544155e-03,-1.780448364936648709e-02,4.811701356698616650e-03,-1.016739412780320040e-01,5.164132367823311837e-02,-2.240605093538761139e-02,1.551608621638234931e-01,1.928193185515437169e-01,-1.082806477303010356e-01,2.994616912303503797e-01,9.895430028261709143e-02,2.267521891343075857e-01,2.036380725327176233e-01,1.989543002826170970e-01,2.133159247313495543e-01,5.300427696718317261e-01,5.599302053451538086e-01,1.744507551193237305e-01,9.115490553085727754e+01,4.188449144363403098e-01
1.275414000000000048e+00,-7.583628057328219152e-02,1.546601293671599070e-02,9.544105529785156250e-01,-3.956834386901596917e-03,-1.311992653454208124e-02,2.568159762304622618e-03,-1.155417607262830826e-01,5.044833645801945904e-02,-2.770969830453395844e-02,2.095762782844451944e-01,2.181865775639801608e-01,-1.045848574471573700e-01,1.987193816326155993e-01,1.176587397087563436e-01,-2.394167179590042660e-02,1.277789893409878308e-01,2.176587397087563491e-01,-3.127622448964187396e-02,5.305358960317682060e-01,5.588823556900024414e-01,9.519934654235839844e-03,9.513129140147697171e+01,4.188449144363403098e-01
1.298450000000000104e+00,-7.948072860112601057e-02,1.881241810727243488e-02,9.530619382858276367e-01,2.629462153224773526e-03,-4.894170920022089533e-03,-9.724571681322125016e-04,-1.050969229324861531e-01,5.810812442629786911e-02,-3.321885690093040466e-02,2.502153638202655461e-01,3.243611476773209379e-01,-1.446685210757036044e-01,1.544792458296441462e-02,1.265980020088568192e-01,1.170565866383048159e-01,-2.079173435740341858e-02,2.265980020088568248e-01,1.193959503779564169e-01,5.334523010178843228e-01,6.881918907165527344e-01,1.763522624969482422e-02,9.686299024288531712e+01,4.188449144363403098e-01
1.325374999999999970e+00,-8.300725984455933903e-02,2.199691930206945298e-02,9.515027999877929688e-01,1.118003832163495109e-02,2.708180917474045657e-03,-4.884207949543251104e-03,-9.997963800175983795e-02,5.254162774867545543e-02,-3.672285377979278564e-02,3.035559931889708629e-01,2.325559842640389785e-01,-1.326763629110266907e-01,-2.463008454305737061e-01,1.258660295377828364e-01,-2.308138299492267509e-01,-2.231990619368166562e-01,2.258660295377828420e-01,-2.176064123354819191e-01,5.336895767788111256e-01,6.770541667938232422e-01,5.606997013092041016e-02,9.980502592597660794e+01,4.188449144363403098e-01
1.347391000000000005e+00,-8.527649583808728784e-02,2.404037499915245846e-02,9.504318237304687500e-01,1.779457138786712592e-02,8.171694526515560497e-03,-7.612611816829373268e-03,-1.041242109106341740e-01,4.613272700067722054e-02,-3.680201247334480286e-02,3.707575577029912917e-01,2.553977577949688715e-01,-1.538539870989877600e-01,-2.948657605489183320e-01,1.396919608021502668e-01,-2.408636337083773782e-01,-2.256180771507957095e-01,2.253783294852123587e-01,-2.200125641488270278e-01,5.333705555029496503e-01,6.503435373306274414e-01,2.330287694931030273e-01,1.175471321441908970e+02,4.188449144363403098e-01
1.373685000000000045e+00,-8.851163003034376309e-02,2.694809596849704822e-02,9.486315250396728516e-01,2.815148160656510273e-02,1.521620026726577812e-02,-1.177661282611031091e-02,-8.886958738955856585e-02,4.527451059000242584e-02,-4.283294826745986938e-02,3.331410422357418133e-01,1.796514636961754063e-01,-1.860115609051365693e-01,-3.273115293714798923e-01,1.942480949332578699e-01,-2.562524297478071533e-01,-2.273115293714799146e-01,2.243755918709758601e-01,-2.235132799478502241e-01,5.328937964753882595e-01,5.890076160430908203e-01,-1.608186960220336914e-01,1.075439990858162389e+02,4.188449144363403098e-01
1.399475000000000025e+00,-9.254094790561392947e-02,2.932424613356744703e-02,9.468334317207336426e-01,3.814206289088681312e-02,1.839439437353340701e-02,-1.505954441067691718e-02,-9.834114313775772775e-02,4.281311955686047804e-02,-4.133051633834838867e-02,3.221380612128896814e-01,4.190860589331319580e-02,-4.066254368515617723e-02,-3.274291056254714505e-01,1.999994570945403394e-01,-2.667024801805433221e-01,-2.274291056254714449e-01,2.225928423548935164e-01,-2.247642993683211243e-01,5.284332621834135768e-01,3.379175662994384766e-01,-7.192909717559814453e-02,6.774068920697341412e+01,4.188449144363403098e-01
1.425060999999999911e+00,-9.645467759047290923e-02,3.152170852178633881e-02,9.451473355293273926e-01,4.660484656320597330e-02,1.785685428269490060e-02,-1.709905370737341279e-02,-9.395622589730028007e-02,3.668050830757890041e-02,-3.955328837037086487e-02,2.485684263119629922e-01,-3.936720404384461136e-02,-6.460417804898498095e-02,-3.274217595955805082e-01,1.965122867884978586e-01,-2.732852021659004649e-01,-2.274217595955805304e-01,2.211720622654634871e-01,-2.256999668014672833e-01,5.225793689480567883e-01,1.532316207885742188e-02,1.307418227195739746e+00,-6.436739537968751534e+00,4.614836454391479381e-01
1.449573000000000000e+00,-9.897610173860035832e-02,3.283751480088465541e-02,9.441283345222473145e-01,5.005435494273809127e-02,1.609227757507536438e-02,-1.813292877508354550e-02,-8.240293397269185527e-02,3.430153928852453654e-02,-3.165785595774650574e-02,1.137708956715255126e-01,-8.513309545471815787e-02,-5.244787713108577804e-02,-3.271492757175239463e-01,1.903322377778258745e-01,-2.776310693165453536e-01,-2.271492757175239130e-01,2.205723654256543653e-01,-2.272372540222381554e-01,5.192990201788560967e-01,-1.387473344802856445e-01,1.653343439102172852e-01,6.439314519285846927e+01,4.614836454391479381e-01
1.473603999999999914e+00,-1.025934815253670140e-01,3.479787692282957506e-02,9.427705407142639160e-01,4.989644621013780701e-02,1.367092646087098018e-02,-1.679110900947855534e-02,-8.006499383365905942e-02,3.563876100921276741e-02,-3.224147856235504150e-02,-1.308542582992978931e-01,-9.182564256532196878e-02,8.080811815823814304e-02,-3.162119305421749460e-01,1.714640911894319830e-01,-2.243640938436662902e-01,-2.162119305421749405e-01,2.198988627645817595e-01,-1.779528172241806594e-01,5.120917308098124066e-01,-5.374166369438171387e-01,1.607835292816162109e-02,8.724782558974571600e+01,4.614836454391479381e-01
1.501451000000000091e+00,-1.069383935401092833e-01,3.740688603127493433e-02,9.416043758392333984e-01,4.410207629570248727e-02,1.096872755603461869e-02,-1.396921775683668265e-02,-8.995118017921960307e-02,2.673544469031065643e-02,-2.205667272210121155e-02,-2.818172045787139535e-01,-1.167274944190885150e-01,1.316037098428740615e-01,-9.059175553263246194e-02,1.341648746923639335e-01,-1.584092794123968528e-01,9.408244467367541872e-03,2.113396858460647454e-01,-1.201448836112568586e-01,5.092853271537749471e-01,-6.557042002677917480e-01,8.715689182281494141e-02,-5.190540446539201724e+01,4.614836454391479381e-01
1.523771999999999904e+00,-1.097240733917835553e-01,3.902492965075727432e-02,9.409794211387634277e-01,3.843083590316204862e-02,8.274108653669731694e-03,-1.152244225432164093e-02,-8.327126468472580145e-02,3.736787375337809886e-02,-2.286053076386451721e-02,-2.838220034382111789e-01,-1.236227811962587048e-01,1.159367710615033936e-01,9.207770198873832523e-02,1.174121010262739323e-01,-6.158202039014721435e-02,1.920777019887383308e-01,2.075106837381540670e-01,-3.023035956680970165e-02,5.095277104396130907e-01,-6.525343656539916992e-01,-5.385686159133911133e-01,9.870680663951942790e+01,4.614836454391479381e-01
1.545123999999999942e+00,-1.124680615674599343e-01,4.049896209812423736e-02,9.404736757278442383e-01,3.195530874854028008e-02,4.179531882713805047e-03,-9.085320349574876886e-03,-8.045457419460809445e-02,2.385978536617023096e-02,-9.661047719419002533e-03,-3.301734957783223345e-01,-2.327968250177825105e-01,1.180681430672797516e-01,9.314956741454039069e-02,1.157541095523853258e-01,-1.066785295350922008e-01,1.931495674145403962e-01,2.157541095523853314e-01,-8.222326795234317920e-02,5.109433252940090986e-01,-5.304433703422546387e-01,5.452212095260620117e-01,9.952555507570720295e+01,4.614836454391479381e-01
1.572740000000000027e+00,-1.164453963477455611e-01,4.250402398100219803e-02,9.399309158325195312e-01,2.175649160043913524e-02,-2.324548241285251393e-03,-5.067236368165639604e-03,-8.614619489558582310e-02,2.145369189059704099e-02,1.014933921396732330e-03,-3.511249761378920087e-01,-2.187333175220959325e-01,1.120973740694278381e-01,1.109821915935202824e-01,9.590954534562112777e-02,9.921729925458272481e-02,2.073053867442338771e-01,1.959095453456211333e-01,1.123640215683692212e-01,5.104216129579830508e-01,-5.216724276542663574e-01,-7.066302299499511719e-01,1.008848105318639341e+02,4.614836454391479381e-01
1.597274000000000083e+00,-1.195469216123715150e-01,4.326818488323608269e-02,9.394277334213256836e-01,1.116923370642152261e-02,-9.059857200751864070e-03,-8.897019260778460392e-04,-7.691043791880063096e-02,1.937522870591290927e-02,-6.614861544221639633e-03,-3.667894258279531527e-01,-2.193220166152942407e-01,1.152016365563512251e-01,1.811618001968484659e-01,4.917864841682439980e-02,1.844399606208048659e-01,2.088682352555794874e-01,1.491786484168244054e-01,1.861298824323122103e-01,5.105001578246567417e-01,-5.526052713394165039e-01,-3.187311887741088867e-01,-2.910248324203511672e+01,4.614836454391479381e-01
1.624295999999999962e+00,-1.225486449892846247e-01,4.395710828771363932e-02,9.388036131858825684e-01,1.493327312719398793e-03,-1.528150048142173922e-02,2.584063105887324241e-03,-8.242023619433440362e-02,1.549820737039703245e-02,-2.772475127130746841e-03,-3.121405034194660311e-01,-2.121989079300059255e-01,7.777269876120143643e-02,2.399215738792144226e-01,2.604164544342105203e-02,1.838048718693661709e-01,2.065007663372872282e-01,1.260416454434210576e-01,1.761265496855172752e-01,5.098396327273063688e-01,-5.786958336830139160e-01,-1.285644769668579102e-01,7.313974201000422681e+01,4.614836454391479381e-01
1.646163999999999961e+00,-1.245158890710397204e-01,4.428954517547556424e-02,9.384124875068664551e-01,-2.488989016542290586e-03,-1.970582139049770198e-02,4.464225499808627262e-03,-7.277794346360019762e-02,1.957785603462922422e-02,-7.996808737516403198e-03,-1.127922341016594776e-01,-2.257761266760674734e-01,9.398223493933578754e-02,2.815874931184410013e-01,-1.700835909922586708e-01,1.375800923686550971e-02,2.180332884693797491e-01,-7.008359099225865141e-02,9.760554262492012779e-04,5.132283643266924988e-01,-4.235035181045532227e-01,8.277356624603271484e-02,1.074640039102570483e+02,4.614836454391479381e-01
1.671465999999999896e+00,-1.274898369068827308e-01,4.467695531394072495e-02,9.378404021263122559e-01,-4.634128539691162799e-03,-2.598736098720366705e-02,6.724449686833722239e-03,-9.183586349690898987e-02,9.811969274812057037e-03,-9.074732661247253418e-03,-1.855995538373510223e-02,-1.479704097006623864e-01,5.350582439899831400e-03,2.782828384602666350e-01,-3.040632307261129652e-01,-3.726896245669028551e-02,2.084109707894560848e-01,-2.040632307261129319e-01,-5.619775589416745043e-02,5.188528858297111190e-01,-1.330790519714355469e-01,-3.918377161026000977e-01,5.847228642780618912e+01,4.614836454391479381e-01
1.699969000000000063e+00,-1.300451008058540747e-01,4.518900526669270001e-02,9.370864629745483398e-01,-2.547819210769404746e-03,-3.132766616307702812e-02,6.837076596321933764e-03,-7.554959406808393896e-02,-8.514486006102304789e-04,-1.886246353387832642e-02,9.439743406481959642e-02,-1.864798664055256627e-01,-3.934481679702109963e-02,-1.494160206861384066e-01,-2.838477330930661013e-01,-1.939539791202782304e-01,-1.990370502476136172e-01,-1.838477330930660958e-01,-2.132868258245488313e-01,5.342630529816330132e-01,6.616992950439453125e-01,2.873903512954711914e-01,8.579100088129536061e+01,4.614836454391479381e-01
1.720882000000000023e+00,-1.317051639178328515e-01,4.547763202904375052e-02,9.364018440246582031e-01,2.948202500107190157e-05,-3.367691605770595231e-02,5.803849259335747135e-03,-8.575425807335172734e-02,8.067125356372293514e-04,-2.098519727587699890e-02,1.809046109512559286e-01,-9.750352259230653240e-02,-7.280560204681331415e-02,-1.838283569060313316e-01,1.174865721756350179e-01,-1.952374132492663561e-01,-2.197904157352378596e-01,2.174865721756350234e-01,-2.119447061567992230e-01,5.333979036282412434e-01,5.978740453720092773e-01,1.070793867111206055e-01,7.232479798918414815e+01,4.614836454391479381e-01
1.750663000000000080e+00,-1.351921078499213891e-01,4.604514274163584719e-02,9.346944689750671387e-01,7.633723724742001032e-03,-3.662543153767550130e-02,4.333272172627911090e-03,-8.795683178522573087e-02,6.164583966835866964e-03,-4.793218523263931274e-02,2.353379902572493576e-01,-2.382804260709019475e-02,-2.928812184386573106e-02,-2.282941337794431869e-01,1.181376947309687175e-01,-1.967509606127481603e-01,-2.189631147288529089e-01,2.181376947309687231e-01,-2.100864203072214664e-01,5.275004776936412787e-01,1.556546688079833984e-01,-6.292283535003662109e-02,6.945801050017888656e+01,4.614836454391479381e-01
1.771041000000000087e+00,-1.366875687860272803e-01,4.608424762528570001e-02,9.336218833923339844e-01,1.205994588463085888e-02,-3.590502219057523092e-02,4.552953841518991851e-03,-9.554894727243230801e-02,3.732886454547947389e-03,-5.856520682573318481e-02,1.978719194287173466e-01,1.077009788291057174e-01,5.535482460071104033e-02,-2.612587496410821442e-01,5.677206774917822885e-02,-7.690478957296607854e-02,-2.206691903275294353e-01,1.567720677491782344e-01,-9.121537969206953977e-02,5.249051601575366321e-01,-3.861725330352783203e-02,-1.811922788619995117e-01,8.523391699221077999e+01,4.614836454391479381e-01
1.801072000000000006e+00,-1.391241603069881538e-01,4.578740126175637193e-02,9.311328530311584473e-01,2.032411646429135854e-02,-2.856784958385727435e-02,6.963200463800944817e-03,-9.879470759073782915e-02,9.861356398533896797e-03,-5.813114345073699951e-02,1.333370307659061393e-01,2.302855755904181512e-01,1.296739451151281142e-01,-3.108255949586942180e-01,7.512674968858445990e-02,-3.385505147819874855e-02,-2.219141968439763135e-01,1.751267496885844654e-01,-5.545226588673237561e-02,5.261798719085901688e-01,1.588439941406250000e-02,-2.555500268936157227e-01,4.264216189414273828e+01,4.614836454391479381e-01
1.821741999999999972e+00,-1.404800387248551496e-01,4.572131540731810134e-02,9.298955798149108887e-01,2.146831416064128029e-02,-2.435369560189792892e-02,8.856572525806294394e-03,-1.035454485508493089e-01,6.117441022015888616e-03,-5.823996290564537048e-02,6.919333352273958869e-03,2.245789948039850492e-01,6.893232917636681056e-02,-3.213188534576042477e-01,-6.430839633470691874e-02,2.050898807458567397e-01,-2.215813840261641743e-01,3.569160366529307987e-02,1.782799702603659886e-01,5.154613882835668015e-01,-5.751089453697204590e-01,1.208494901657104492e-01,1.073327549951660842e+02,4.614836454391479381e-01
1.848333000000000004e+00,-1.427836204772673645e-01,4.565970201150284374e-02,9.282501339912414551e-01,2.011728411375277373e-02,-2.174409183828229786e-02,1.223514729559416203e-02,-9.139533014970675773e-02,6.318712047704806017e-03,-4.213885217905044556e-02,-1.123319929874374845e-01,-1.029733170726997507e-02,8.083754929582788462e-02,1.255227255107768392e-01,-2.957223407098820145e-01,1.297277375270390887e-01,2.152214354567068832e-01,-1.957223407098820089e-01,9.368465138748788279e-02,5.143078503937854595e-01,-5.848790407180786133e-01,-1.500523090362548828e-02,6.192280237384824915e+01,4.614836454391479381e-01
1.872867000000000060e+00,-1.449521109311534550e-01,4.560488993170982996e-02,9.267839193344116211e-01,1.498913273047381561e-02,-2.216113013238540930e-02,1.491157342112203743e-02,-1.141242017742874898e-01,8.170489529819790001e-03,-4.524039849638938904e-02,-2.458970256200394000e-01,-4.281741072460021336e-02,7.874802040769092459e-02,1.619185085607911523e-01,-2.404633134417328011e-01,1.165850099770128628e-01,2.162701840497728012e-01,-1.404633134417327955e-01,7.327135635421198889e-02,5.154384252921930809e-01,-5.500763654708862305e-01,3.943240642547607422e-02,8.269130394159266473e+01,4.614836454391479381e-01
1.897775999999999907e+00,-1.472474127175150138e-01,4.555134482596802370e-02,9.254453778266906738e-01,7.852400099776413525e-03,-2.381954939328689846e-02,1.589133199026293575e-02,-1.059468418143426488e-01,8.866226730256715829e-03,-4.856001585721969604e-02,-2.821836796899333533e-01,2.739782308950311149e-03,3.813299718718650162e-03,2.094504640183647015e-01,-2.259346551923845370e-01,1.523639261101598086e-01,2.170825620640546572e-01,-1.259346551923845314e-01,1.068148669733531286e-01,5.140845824704671774e-01,-6.464818716049194336e-01,-8.565866947174072266e-02,6.228401692810437851e+01,4.614836454391479381e-01
1.923489000000000004e+00,-1.494835863870642989e-01,4.549162198328062651e-02,9.239590167999267578e-01,3.403227198048679983e-04,-2.387342159358318838e-02,1.453091500686554127e-02,-9.782916969001144436e-02,9.006949419831853515e-03,-5.126749724149703979e-02,-1.576422960383891403e-01,1.290339702340408297e-02,-6.536125773552721452e-02,2.520502717215680755e-01,-1.648365586390201920e-01,2.278248690775587504e-01,2.109759018267456931e-01,-6.483655863902020033e-02,1.866431133090268035e-01,5.166204804503287118e-01,-5.333095788955688477e-01,-4.381126165390014648e-01,4.980796265430782199e+01,4.614836454391479381e-01
1.949122999999999939e+00,-1.516879618500788507e-01,4.521332010178148730e-02,9.224831461906433105e-01,-3.825861101116978351e-03,-2.041329072231712338e-02,1.324414962994557854e-02,-1.082512716903787503e-01,-4.694828157822399095e-03,-5.553686618804931641e-02,-1.109526767583431384e-01,1.361626819906027464e-01,-5.283785310525602325e-02,2.522776098575416071e-01,2.580784616256728836e-03,2.491188354229280089e-01,1.947964292924411478e-01,1.025807846162567344e-01,2.119691631540978061e-01,5.181879181904320841e-01,-4.791945219039916992e-01,1.934007406234741211e-01,-1.905813340711400983e+01,4.614836454391479381e-01
1.971435000000000048e+00,-1.530916548972292845e-01,4.476549640598659341e-02,9.214719533920288086e-01,-3.312809229647262470e-03,-1.672001982471282844e-02,1.258737370017182222e-02,-9.382947010671258137e-02,1.372170293506344476e-03,-5.271431803703308105e-02,7.964946405438919075e-02,2.091692905902255983e-01,-4.983387180174012054e-02,-6.807796521764097886e-02,-4.234439663101858403e-02,2.406356718710598308e-01,-1.286040498619594741e-01,5.765560336898142152e-02,2.052361713084932537e-01,5.300487275443821478e-01,1.660096645355224609e-01,4.226744174957275391e-02,7.343049633278249644e+01,4.614836454391479381e-01
1.997360999999999942e+00,-1.551868411898906508e-01,4.395083366547651582e-02,9.199325442314147949e-01,9.200762555643436993e-04,-1.108899921661166132e-02,1.018368938191205331e-02,-1.049700711880375420e-01,-1.024374403800297657e-02,-4.837558045983314514e-02,2.053039640392265719e-01,1.985095244991381958e-01,-1.222651430326786026e-01,-2.013028810576269478e-01,1.225213492196567666e-01,-1.755047163195370130e-01,-2.240306281114997355e-01,2.225213492196567722e-01,-2.043160959352577910e-01,5.380121777236744895e-01,6.083203554153442383e-01,2.139424085617065430e-01,1.205067623945841433e+02,4.614836454391479381e-01
2.022041999999999895e+00,-1.572910167966572459e-01,4.300806461159786820e-02,9.185295104980468750e-01,7.982751019893092118e-03,-5.749844573835760642e-03,7.043428791949857271e-03,-8.910178192718416768e-02,-1.194275143248477167e-02,-5.955529212951660156e-02,2.341862694042190773e-01,1.589380358349472000e-01,-1.079560781901970634e-01,-2.497865932763689290e-01,1.229524620168984672e-01,-1.993246185593054165e-01,-2.259457863973655112e-01,2.229524620168984728e-01,-2.196303134127036982e-01,5.394311820650253830e-01,6.312708854675292969e-01,1.151294112205505371e+00,-9.492317724501397436e+00,4.614836454391479381e-01
2.046139000000000152e+00,-1.593820124871617450e-01,4.194988772362288204e-02,9.170361161231994629e-01,1.409173060567886840e-02,-1.927027961095451047e-03,4.476620922840401917e-03,-9.632425397112569232e-02,1.453263871331223638e-04,-6.066861748695373535e-02,1.435161623840644496e-01,8.546785931865925889e-02,6.376112844339262321e-03,-2.793612259712760504e-01,1.219397895153727651e-01,-1.998803664196613927e-01,-2.245349746565674376e-01,2.219397895153727707e-01,-2.132962920791090511e-01,5.400921172437822548e-01,6.495528221130371094e-01,-6.080814599990844727e-01,9.815000278819081814e+01,4.614836454391479381e-01
2.071841000000000044e+00,-1.608638764800968679e-01,4.128711255286365844e-02,9.161104559898376465e-01,1.526571416090108380e-02,-5.341011978221565926e-05,4.819959210424551443e-03,-1.018139642551248447e-01,7.597981986464439176e-04,-5.723932012915611267e-02,-7.385995836661872829e-03,4.074667062016109481e-02,3.120106983390858943e-02,-2.328339336298742845e-01,1.247008240913117794e-01,1.045744358305906035e-01,-1.689852918282589433e-01,2.247008240913117849e-01,9.018682237481649711e-02,5.365930595465852049e-01,4.580389261245727539e-01,5.602371692657470703e-02,3.788990409985004248e+01,4.614836454391479381e-01
2.096872999999999987e+00,-1.631702956056320375e-01,4.054993156891572442e-02,9.149079918861389160e-01,1.256330116592370080e-02,8.325530369259759311e-04,7.534115113802197783e-03,-9.783507025316791339e-02,1.980521086372872836e-04,-4.916575923562049866e-02,-1.707837280936493340e-01,-2.898046075810898833e-02,1.038043314315364729e-01,1.702445371501542515e-01,-1.037334211540344026e-01,9.052562053598915692e-02,2.168887238117904182e-01,-3.733421154034391801e-03,6.868928429205149733e-02,5.322482987544553401e-01,2.391718626022338867e-01,8.108508586883544922e-02,5.866563542283090982e+01,4.614836454391479381e-01
2.121096999999999788e+00,-1.647442652835795218e-01,4.012977533587630541e-02,9.144043922424316406e-01,8.737579736826111068e-03,7.525673768826734999e-05,9.698633961136682302e-03,-9.803347956782104689e-02,7.059697530360598515e-03,-4.103580862283706665e-02,-1.851100500701053919e-01,-1.344649302310983209e-02,8.363770365219937164e-02,2.012254756094415953e-01,-3.147563665231717378e-02,1.119077423645484654e-01,2.173382889217540803e-01,6.852436334768283177e-02,8.411281391759077575e-02,5.236319085324662170e-01,-2.076992988586425781e-01,3.652545213699340820e-01,6.735299400930514935e+01,4.614836454391479381e-01
2.148677000000000170e+00,-1.673334354611288044e-01,3.928308282662088674e-02,9.139862656593322754e-01,2.180916167336423121e-03,-3.001161472360402982e-03,9.807962418794113901e-03,-9.360202711171008993e-02,5.600611712559900972e-03,-1.295271608978509903e-02,-1.248119456642782232e-01,-1.111449740648590145e-01,-4.193279723932387404e-02,2.336354141408882035e-01,-5.017219587722500374e-02,3.530102220470743291e-02,2.094007671946619131e-01,4.982780412277500182e-02,7.465406501847073398e-03,5.171241044075529647e-01,-4.545729160308837891e-01,8.440693616867065430e-01,1.377513234827088695e+02,4.614836454391479381e-01
2.173545999999999978e+00,-1.698283490222186332e-01,3.817034493400394551e-02,9.141342639923095703e-01,-8.800991443601341620e-04,-5.277965266929474097e-03,8.710396978381274025e-03,-9.014492293833668846e-02,-1.570926203389194295e-02,1.922070165164768696e-03,-2.679741906137082103e-02,-1.034205887606275687e-01,-8.864970760049810383e-02,-1.295468282928563530e-01,1.112296792785256727e-01,-1.933210859935182158e-01,-1.566384962150045024e-01,2.112296792785256783e-01,-2.178211229966185436e-01,5.318406409305237448e-01,3.999564647674560547e-01,5.246986150741577148e-01,2.223499782405950853e+01,4.614836454391479381e-01
2.203348000000000084e+00,-1.714277699553428125e-01,3.736437769469454218e-02,9.144473671913146973e-01,4.566321805803814465e-05,-5.365878020046510599e-03,8.462427345761192043e-03,-8.133491303757907354e-02,-6.500688310604931658e-03,1.672670478001236916e-03,8.883403965978295402e-02,7.978373823049177138e-02,2.038325028584540670e-03,-1.890617867227539217e-01,1.195879518726277180e-01,-1.832274188782181401e-01,-2.198614170323149319e-01,2.195879518726277235e-01,-2.071540403189598978e-01,5.327725632875985884e-01,4.475039243698120117e-01,-2.233358621597290039e-01,8.976391701581667348e+01,4.614836454391479381e-01
2.226513000000000186e+00,-1.729877219740977301e-01,3.651996919331937375e-02,9.148902893066406250e-01,3.141512646485396416e-03,-5.256063710888048135e-03,8.068342898378988437e-03,-7.395969534007881818e-02,-1.391438688912977235e-02,5.194671452045440674e-03,1.748262991427574631e-01,-9.745944787047803107e-03,-8.143746737737428756e-03,-2.239493342585133218e-01,1.221918152152206560e-01,-1.890365032065709772e-01,-2.270703246391832242e-01,2.221918152152206616e-01,-2.119531357249032355e-01,5.284995404907032457e-01,2.253009080886840820e-01,5.068385601043701172e-02,-2.924678806372455853e+01,4.614836454391479381e-01
2.246786000000000172e+00,-1.745727796541610144e-01,3.571552389537906158e-02,9.154171943664550781e-01,6.238975642315152358e-03,-4.491683952648983791e-03,9.305719959705749389e-03,-9.245648142342102749e-02,-7.529356147176691910e-03,1.586768310517072678e-03,1.162119778365791611e-01,5.100600552851838193e-02,9.368567041732349387e-02,-2.341903952410299972e-01,1.148919092245401508e-01,-1.600936746039898773e-01,-2.231010076664403929e-01,2.148919092245401563e-01,-1.866982381041378258e-01,5.350618872243944057e-01,5.676379203796386719e-01,-1.720319986343383789e-01,7.176773459066707517e+01,4.614836454391479381e-01
2.272019999999999929e+00,-1.766879276846570479e-01,3.386014217377340818e-02,9.163205623626708984e-01,8.209093013598978486e-03,-3.960358495627591680e-03,1.239436632743662337e-02,-7.795100694095913330e-02,2.637943893840863970e-03,9.442174807190895081e-03,1.383615726644797997e-02,2.702653102898658344e-02,1.197023807745568602e-01,-4.241838687911701072e-03,-2.774103626659289723e-02,1.526363227507931269e-02,1.319912368539151101e-02,7.225896373340710832e-02,-2.009700154341465678e-02,5.328675469013740562e-01,4.786393642425537109e-01,1.580822467803955078e-02,4.527115976228859040e+01,5.140121698379516157e-01
2.301806000000000019e+00,-1.788655504152003861e-01,3.226734301909635338e-02,9.173995852470397949e-01,6.226534287948964734e-03,-4.967842274324008045e-03,1.575866354990851370e-02,-8.135759240082991728e-02,-3.687684220931417359e-03,2.264963835477828979e-02,-9.006965661618923646e-02,-1.007740812744271908e-01,1.168716685474107259e-01,1.970276983498508994e-01,4.291424007520858175e-02,9.139383571413670082e-02,2.081547874667439291e-01,1.429142400752085873e-01,4.673405819933854760e-02,5.227612286249223583e-01,-2.004826068878173828e-02,-9.837901592254638672e-02,9.439910195264077686e+01,5.140121698379516157e-01
2.327303000000000122e+00,-1.803013585959754306e-01,3.130578088277076454e-02,9.183737635612487793e-01,2.973666729423030466e-03,-6.108547895961491392e-03,1.769456418399406594e-02,-8.499217343214318654e-02,-8.874580812918807108e-04,2.615099772810935974e-02,-1.892374825269017569e-01,-4.469688449975007388e-02,6.300175455018688919e-02,2.227957939998625458e-01,6.950910895634040965e-02,-1.205824554939156218e-02,2.098196658228931311e-01,1.695091089563404152e-01,-6.200876881183137873e-02,5.107616673144020902e-01,-6.497812867164611816e-01,1.042780995368957520e+00,-4.547168728613099375e+01,5.140121698379516157e-01
2.350481999999999960e+00,-1.816909453942550379e-01,3.035931652067130546e-02,9.194171428680419922e-01,-5.256255093276996818e-05,-7.511238780741225085e-03,1.884775146378681043e-02,-7.538836542234594873e-02,-6.745968844763877530e-03,3.346515074372291565e-02,-1.264397694221397472e-01,-9.028855553395669087e-02,5.739027295316582317e-02,2.331031516149369986e-01,1.096877471272861837e-01,1.635907727161526465e-02,2.058343932970459478e-01,2.096877471272861893e-01,-3.661239695562198276e-02,5.107587812888080281e-01,-6.186583638191223145e-01,-2.624417543411254883e-01,9.803507802521619396e+01,5.140121698379516157e-01
2.372129999999999850e+00,-1.831018057250408670e-01,2.961366787044823062e-02,9.206485152244567871e-01,-1.931765643985355494e-03,-8.553414678002191351e-03,1.910929781104386826e-02,-7.064392845245556773e-02,-7.370973771047712939e-03,4.728097841143608093e-02,-7.167727445627229688e-02,-5.406242108054357121e-02,-2.959065063430569437e-02,2.383740867425324650e-01,1.194949976759087928e-01,-1.025613824712689748e-01,1.988371334495217524e-01,2.194949976759087984e-01,-1.561644531792007740e-01,5.091759132280838651e-01,-6.449139714241027832e-01,-3.233884572982788086e-01,6.411769049382101571e+01,5.140121698379516157e-01
2.399157999999999902e+00,-1.851920664470218247e-01,2.836288271077578096e-02,9.226537942886352539e-01,-7.149888726303768724e-04,-1.052284908302092425e-02,1.963452475598037594e-02,-7.797760490376687281e-02,-1.638677594701277995e-02,4.875813052058219910e-02,1.048429534356342813e-01,-1.269434188336638902e-01,3.127988199819564663e-02,-2.031403579280656735e-01,1.098238377957186651e-01,-1.550262955472555548e-01,-2.272321803729002720e-01,2.098238377957186707e-01,-2.101102960801470854e-01,5.276923866400283769e-01,3.632717132568359375e-01,-6.544649600982666016e-02,7.044209049541598233e+01,5.140121698379516157e-01
2.424271000000000065e+00,-1.873369219978001654e-01,2.704775906636600405e-02,9.247112870216369629e-01,4.763711241779117027e-03,-1.304738370038971418e-02,2.078220856366375102e-02,-7.923012502494777842e-02,-1.151980846022677279e-02,4.238339141011238098e-02,2.071044248331062043e-01,-5.554832119067864421e-02,7.588284829173957968e-02,-2.346929951434562067e-01,1.138274429038827751e-01,-1.347933904543687778e-01,-2.276730242922113123e-01,2.138274429038827806e-01,-1.935003424627700364e-01,5.268451328030228087e-01,2.981436252593994141e-01,-5.725610256195068359e-01,6.120144560503569409e+01,5.140121698379516157e-01
