timestamp,x,y,z,roll,pitch,yaw,vx,vy,vz,p,q,r,psp,qsp,rsp,pres,qres,rres,thrust_sp, thrust_res
0.000000000000000000e+00,1.383280821107857848e-02,3.947462548920729723e-03,9.959728717803955078e-01,1.223753795093880832e-02,-1.117598771718575357e-02,2.296229835141883058e-03,-4.661167864789758815e-03,2.371920718675432551e-03,4.717270843684673309e-03,3.291813283976129795e-02,-7.763318809712741256e-03,2.520728088554084756e-02,-2.966875195939260856e-01,1.544068641568183964e-01,-2.092699104376757602e-01,-2.215122400636968525e-01,2.220649791481460467e-01,-2.158874558919860742e-01,5.054221852021718586e-01,-3.435815572738647461e-01
2.556999999999999898e-02,1.374917269110080553e-02,4.011173577441472932e-03,9.963123798370361328e-01,1.209350835565189963e-02,-1.129990536405478530e-02,2.105686967234898788e-03,-4.179582195988345607e-03,4.871255242898568996e-03,1.075315847992897034e-02,2.123160958303709281e-02,2.729171186584446185e-02,-4.091667088312121031e-02,-3.001236026019246661e-01,1.619377845270054128e-01,2.212837001548039750e-01,-2.276344172969119173e-01,2.293379357824124054e-01,2.151985681509250292e-01,5.078568636834013272e-01,-1.893257498741149902e-01
5.231899999999999745e-02,1.367825896546153580e-02,4.063410338298822054e-03,9.965295195579528809e-01,1.168020518524601550e-02,-1.158331095499187668e-02,2.211276532875006140e-03,1.781149824866433288e-03,-1.647505633872387585e-03,1.348080928437411785e-03,-3.685989901819157477e-02,-3.630683305083549917e-02,3.758418024506623989e-02,-2.010943850474690708e-01,1.567106969797198435e-01,8.354701347052348459e-02,-1.256820941512730994e-01,2.212272966158109477e-01,7.719208252023598837e-02,5.014139292340940024e-01,-5.653431415557861328e-01
7.450600000000000278e-02,1.361341089965169109e-02,4.134174735011757196e-03,9.967361092567443848e-01,1.167084071764431207e-02,-1.147998308460396188e-02,1.871580265592864833e-03,-7.905196864869528176e-03,4.259752415166914198e-03,1.093360129743814468e-02,3.791360481547077083e-02,-2.475247559290333094e-03,-6.092351001142358446e-02,-2.943036373981363640e-01,1.515335607768319992e-01,-2.209171414806581357e-01,-2.247878544804068623e-01,2.240841933021196497e-01,-2.263551754421863349e-01,5.035669922454414360e-01,-4.131488800048828125e-01
9.948099999999999998e-02,1.340924192311211162e-02,4.236433585287188892e-03,9.969024658203125000e-01,8.871701797238262452e-03,-1.308761865475949193e-02,-4.629953085188986961e-04,-2.126988969833458563e-03,2.075768312781693745e-03,-4.273673694115132093e-04,-1.476803003679608706e-01,-1.059669912358507105e-01,-1.266658811991234479e-01,8.782321781462945620e-02,1.433683316686686915e-01,-6.101748026407725206e-02,1.416613257145669935e-01,2.204236109066796678e-01,-5.987810423806187027e-02,5.001136659488609748e-01,-6.388002634048461914e-01
1.240160000000000012e-01,1.283447247273876435e-02,4.573986912637940418e-03,9.968254566192626953e-01,3.433614454790794197e-03,-1.619311339144835493e-02,-9.470465699008556726e-04,-1.752122238155694525e-02,1.449260577563396372e-02,-1.109445281326770782e-02,-2.295125046350591225e-01,-9.278571428980932068e-02,6.410502644402729655e-02,2.044665514111759230e-01,1.100749815254025432e-01,2.153640901449011547e-01,2.123721245661326085e-01,2.100749815254025488e-01,2.178808673167200727e-01,5.100076564131227341e-01,-1.601305603981018066e-01
1.491310000000000136e-01,1.232945026734663142e-02,4.899883806673659137e-03,9.966946244239807129e-01,-6.672150347559140495e-04,-1.885714572221797170e-02,1.173165028944822552e-05,-1.181400722545116258e-02,2.174238765065757487e-02,-1.117820013314485550e-02,-1.504529181036842189e-01,-1.729140171370736334e-01,1.248090947452180216e-02,2.229550081730693745e-01,1.030585898231680120e-01,1.272256692645307441e-01,1.999187150621539455e-01,2.030585898231680175e-01,1.271349280813881821e-01,5.154295809249567206e-01,1.275955438613891602e-01
1.739259999999999973e-01,1.152887343729458967e-02,5.354796848277017414e-03,9.963831901550292969e-01,-5.080712545520096358e-03,-2.342082104665488274e-02,1.329087335788514679e-05,-2.289337848073902740e-02,1.139069026728023980e-02,-7.640479132533073425e-03,-1.045515330351125954e-01,-1.594997595685472280e-01,-8.604883066664584246e-02,2.480812671916924617e-01,1.059029590655223840e-01,1.015016898357322395e-01,2.054022097349609277e-01,2.059029590655223896e-01,1.015895922369449977e-01,5.111331647170752612e-01,-8.964532613754272461e-02
2.007740000000000080e-01,1.103198357801674773e-02,5.443463818846800209e-03,9.961726665496826172e-01,-5.124913129618672604e-03,-2.672623841031240843e-02,-1.224287665011036808e-03,-1.313215428305617924e-02,1.057485777723595963e-02,-1.908233389258384705e-02,2.887704444132388470e-02,-1.502861050256821540e-01,-3.132366778124361095e-02,1.780138718807285914e-01,5.610586018341912062e-02,5.546814902905561340e-02,1.340523238209334334e-01,1.561058601834191262e-01,5.902667558546109694e-02,5.236532881284874374e-01,5.360002517700195312e-01
2.258370000000000100e-01,1.029466106084286903e-02,5.321381383698722128e-03,9.957805275917053223e-01,-1.007496665607278364e-03,-3.141827462746871191e-02,-3.280777551784908042e-03,-3.248747009418035542e-02,8.793448516497399253e-03,-1.586333662271499634e-02,2.133613687953125060e-01,-1.323692025119927174e-01,-4.715858559794912364e-02,-2.020324047092808828e-01,1.217322542369529692e-01,-2.293230167671281572e-01,-2.179578160758944283e-01,2.217322542369529748e-01,-2.201578704327390168e-01,5.244823388978877565e-01,5.910987854003906250e-01
2.506939999999999724e-01,9.711425689407396714e-03,5.271825718660555493e-03,9.955829381942749023e-01,3.198061855848649635e-03,-3.408232944227229666e-02,-4.523512208165492154e-03,-1.899410019459408724e-02,8.269415365031619961e-03,-1.479041762650012970e-02,1.715235870660222761e-01,-1.316761585509320376e-01,-7.203035533571949811e-02,-2.289163711725297479e-01,1.187665960166637280e-01,-2.339110144995747431e-01,-2.174753196567432434e-01,2.187665960166637336e-01,-2.214710708194894129e-01,5.255654506497148271e-01,6.525278091430664062e-01
2.740310000000000246e-01,9.048108216515082791e-03,5.221850586666125504e-03,9.952446222305297852e-01,7.744900994504663391e-03,-3.579785417470016107e-02,-5.043885489144805945e-03,-3.129453508658094907e-02,1.356037706161656968e-02,-1.325325947254896164e-02,2.494769945083059881e-01,-9.251896000098919215e-02,2.702381749995541246e-02,-2.535038804502989795e-01,1.145370260228041615e-01,-2.299696401995281747e-01,-2.168746488387032489e-01,2.145370260228041670e-01,-2.163767037201085597e-01,5.197948017797051623e-01,3.437284231185913086e-01
3.001159999999999939e-01,7.834256880675603135e-03,5.450823511929766413e-03,9.948171973228454590e-01,1.103285647633547341e-02,-3.734238327476657737e-02,-3.503442426476155447e-03,-4.964849464348378150e-02,2.452983284356943794e-02,-8.220714516937732697e-03,3.265624689826709254e-02,-5.477589643423706051e-02,4.104662970227498930e-02,-2.547573775166591670e-01,-3.035631791834666471e-01,-1.793854736995717167e-02,-2.049939213890503709e-01,-2.035631791834666415e-01,-8.977796236000059465e-03,5.214655975563788903e-01,4.512692689895629883e-01
3.279139999999999833e-01,6.701125969546401981e-03,5.289940425969802754e-03,9.945747852325439453e-01,9.999571406852793276e-03,-3.814547273998791788e-02,-1.461405408121452254e-03,-4.300323696916905775e-02,2.903111622053205013e-02,-5.493840202689170837e-03,-1.423366352227367904e-01,-3.443651535232205435e-02,1.151169005146984309e-01,1.534427827138520051e-01,-2.594590237980882730e-01,2.160744844249728180e-01,1.944951256398692041e-01,-1.594590237980882952e-01,2.193664836601888213e-01,5.044184335301520328e-01,-4.493675827980041504e-01
3.507390000000000230e-01,5.430586610144391008e-03,5.254842965093964834e-03,9.943862557411193848e-01,7.342487191511326734e-03,-3.909157094270887534e-02,6.619207685516492745e-04,-5.757670515319366494e-02,3.256920350206644194e-02,-1.980209257453680038e-03,-1.311508246555737334e-01,-1.901317501864324688e-02,9.709062556018108192e-02,1.743337436993757372e-01,-2.524693084594535897e-01,2.187041351473044959e-01,1.958673842983125746e-01,-1.524693084594536119e-01,2.161376420830316836e-01,5.046104501596448966e-01,-4.266921281814575195e-01
3.794000000000000150e-01,3.484260435098542573e-03,5.339731287034490265e-03,9.941875934600830078e-01,6.093568104177794591e-04,-3.870999641057126794e-02,1.649362470804272007e-03,-5.813801337845918293e-02,3.766899355356301271e-02,1.179714919999241829e-03,-2.253532283410199510e-01,6.493586137215535958e-02,-5.421201456365603438e-02,2.314660929470686579e-01,-2.739520056237153556e-01,2.249936321921692239e-01,2.054665575888867390e-01,-1.739520056237153500e-01,2.200513379800688174e-01,5.017024437249555380e-01,-5.682035684585571289e-01
4.052569999999999784e-01,2.239681697666316088e-03,5.458253598310829416e-03,9.941263794898986816e-01,-4.116736758613051030e-03,-3.602300131696689611e-02,1.070794281515574653e-03,-5.762048495402773834e-02,3.266062818302879062e-02,-3.310864558443427086e-03,-2.205279154462440605e-01,1.650383002520124098e-01,-4.031615823945706306e-02,2.534096165941476242e-01,-1.362897031529222147e-01,2.271698900710222568e-01,2.012857171880036988e-01,-3.628970315292222304e-02,2.241842400950017911e-01,5.027163381989498969e-01,-5.333516597747802734e-01
4.284410000000000163e-01,1.132887143302535810e-03,5.930248138087292412e-03,9.940731525421142578e-01,-5.657452959313536908e-03,-3.256513494221002780e-02,-7.321482104216681108e-04,-5.091459167812783376e-02,2.796364723702501540e-02,9.785076603293418884e-03,1.019307078464159154e-02,1.693573369230152725e-01,-1.134373505760883777e-01,2.580654712693339903e-01,-3.691569352207149657e-02,2.292320784152505342e-01,1.984507883912902948e-01,6.308430647792850898e-02,2.313948876514517472e-01,5.240473501161572178e-01,6.578421592712402344e-01
4.498429999999999929e-01,1.321511424425207259e-04,6.774301101782174636e-03,9.941461086273193359e-01,-5.053638291476707407e-03,-2.788105829079312592e-02,-3.056773334302098633e-03,-6.698879258707729489e-02,2.158903906154900285e-02,1.199872116558253765e-03,9.517890607866530406e-02,2.593745870235710238e-01,-9.773423418608583046e-02,2.561352887315956339e-01,9.405230125865315927e-02,2.177209066854441932e-01,2.043102389630822024e-01,1.940523012586531648e-01,2.263846506086176769e-01,5.219317559158697106e-01,5.091290473937988281e-01
4.742390000000000216e-01,-1.408047770820474234e-03,7.957721252640518814e-03,9.941662549972534180e-01,-3.668019269632241024e-04,-2.047464091586137513e-02,-6.694284249538551279e-03,-4.934881727502610921e-02,2.968152055156176444e-02,-2.967608626931905746e-03,2.051045757378126555e-01,2.474529079465873915e-01,-1.017637755343328010e-01,2.269045821082990022e-01,1.187643174941649948e-01,-1.688741202493066473e-01,1.972060608392888770e-01,2.187643174941650004e-01,-1.502672781252239465e-01,5.162031681163177232e-01,1.838715076446533203e-01
5.008989999999999831e-01,-3.077895850888667881e-03,9.095243759377279191e-03,9.941546916961669922e-01,7.090115829565013170e-03,-1.379628481294425946e-02,-1.077786796733470887e-02,-6.922585346009842155e-02,2.818158230210442150e-02,-6.142617203295230865e-03,2.857034407974824441e-01,1.910508833263685480e-01,-1.616979064464292570e-01,-2.397019805790278901e-01,1.268720724802583077e-01,-2.548448091682893324e-01,-2.191103974539231336e-01,2.268720724802583133e-01,-2.250050250345206060e-01,5.197234467970444083e-01,3.596839904785156250e-01
5.255570000000000519e-01,-5.303621900294287587e-03,1.028014064004703979e-02,9.941471219062805176e-01,1.538370926378142441e-02,-1.093650652426747527e-02,-1.440918754746922659e-02,-7.586134497769919660e-02,1.604863780440395765e-02,3.689100965857505798e-03,2.557144059968955441e-01,1.282549913757238119e-02,-9.526734913824472240e-02,-3.040085813185138264e-01,1.256462051872367369e-01,-2.645639719407395507e-01,-2.206626263883237626e-01,2.256462051872367425e-01,-2.247146238595748857e-01,5.127536833749125611e-01,2.447259426116943359e-02
5.591939999999999689e-01,-8.027792852793830952e-03,1.150163224917329780e-02,9.942823648452758789e-01,2.394381122246191582e-02,-1.147444836674593738e-02,-1.424535886189159939e-02,-8.033956113169644919e-02,3.162050224119237335e-02,7.099253591150045395e-03,2.230257767245047429e-01,-2.612002532582270026e-02,6.300909678381960699e-02,-3.197580882185479534e-01,1.224256894033926013e-01,-2.538860589411065516e-01,-2.197580882185479478e-01,2.224256894033926069e-01,-2.148487982118764128e-01,5.108059817619717835e-01,-6.551158428192138672e-02
5.752260000000000151e-01,-8.985304466992367900e-03,1.194646442638549154e-02,9.943547844886779785e-01,2.615671721127255447e-02,-1.200098744530819772e-02,-1.361257106015623108e-02,-7.632705841722242646e-02,3.070699390858194766e-02,1.112136710435152054e-02,1.884591263021216934e-01,-8.309731903750244841e-02,4.449965968036848768e-02,-3.200571623535277688e-01,1.216791243879156992e-01,-2.536730062498150362e-01,-2.200571623535277910e-01,2.216791243879157047e-01,-2.164642887150587391e-01,5.084841273906063330e-01,-1.722798347473144531e-01
5.995669999999999611e-01,-1.189310073728606920e-02,1.342402772706080029e-02,9.947267174720764160e-01,2.678786410820796840e-02,-1.358146086435785271e-02,-1.051452392730256591e-02,-9.293173405478968863e-02,3.749747641091273620e-02,1.125850714743137360e-02,-1.046585424096529854e-01,-6.168875911649062543e-02,9.875546871908735813e-02,-1.947776668182578941e-01,9.169044052432973047e-02,1.141036540273244193e-01,-9.477766681825788853e-02,1.916904405243297360e-01,1.424047566148073374e-01,5.006456564905220619e-01,-5.836366415023803711e-01
6.248540000000000205e-01,-1.486368103438449016e-02,1.485295996900715988e-02,9.951294660568237305e-01,2.133579623175406101e-02,-1.550207359629740544e-02,-6.757972739404038975e-03,-8.920994423572309318e-02,3.858319915117015136e-02,7.494140416383743286e-03,-2.624421799075085660e-01,-4.581128017490293525e-02,1.251335810675143767e-01,9.812777582443446556e-02,5.593653230331938064e-02,1.958489753892197760e-01,1.981277758244344711e-01,1.559365323033193862e-01,2.137660538350678874e-01,5.001318078012713109e-01,-6.236096620559692383e-01
6.502440000000000442e-01,-1.792548654704685315e-02,1.584837462112335948e-02,9.956324696540832520e-01,1.261977091211391976e-02,-1.825945926626104665e-02,-3.724280869228824287e-03,-9.248100828325125922e-02,4.702789498707182769e-02,5.913023836910724640e-03,-3.149459649337750244e-01,-7.707810826615525690e-02,5.692550853912611147e-02,1.689081450490972081e-01,-1.214178597528254022e-01,2.096108900153383081e-01,2.061059326348821941e-01,-2.141785975282539320e-02,2.192164299408672357e-01,5.010060822052176954e-01,-5.822926163673400879e-01
6.754510000000000236e-01,-2.094156607524842034e-02,1.676087836891924227e-02,9.961056709289550781e-01,4.428710118125911595e-03,-2.222773659779764266e-02,-4.002824380103797708e-03,-9.092844039522261779e-02,3.497300203927333068e-02,5.986015312373638153e-03,-2.211914180542275676e-01,-1.232654977758845527e-01,-4.201309348448512004e-02,2.080031427285746470e-01,-2.357331276560614419e-01,1.995159497463993292e-01,2.021658045973107887e-01,-1.357331276560614364e-01,2.102569035586326074e-01,5.010136566595140284e-01,-5.794819593429565430e-01
7.020199999999999774e-01,-2.299659521463829140e-02,1.723065812589777424e-02,9.964130520820617676e-01,1.713019540434746954e-03,-2.487248245216067133e-02,-5.711377802555928085e-03,-8.507294729713096859e-02,2.932635546488283895e-02,4.414287395775318146e-03,-9.330160242847436447e-02,-1.037603207714462850e-01,-1.232284978567156769e-01,2.233390182826408832e-01,-8.751492265651024394e-02,1.839312322027757685e-01,2.021972826540429091e-01,1.248507734348975814e-02,1.995820342352378762e-01,5.013443794507688178e-01,-5.669722557067871094e-01
7.257109999999999950e-01,-2.587211576485075673e-02,1.814543354177849607e-02,9.968002438545227051e-01,1.797077149032326416e-03,-2.630582000909331697e-02,-8.366549707995218910e-03,-9.566731003158307489e-02,2.557729169341427591e-02,-1.265356503427028656e-02,2.762859258954561414e-02,-3.266816695465538534e-03,-6.479047762370411523e-02,-2.001103238202723011e-01,1.235633456119076545e-01,-2.427997887537712285e-01,-2.190074260134216022e-01,2.235633456119076601e-01,-2.197356910089852122e-01,5.225156326071987989e-01,4.943645000457763672e-01
7.494889999999999608e-01,-2.772380756842772118e-02,1.883427921432268351e-02,9.969150424003601074e-01,4.267288401657616179e-03,-2.476192593713166801e-02,-1.054146691344071129e-02,-8.543856691066709086e-02,2.822839010166943927e-02,-1.331210322678089142e-02,1.278779325583155047e-01,1.187907361917946714e-01,-1.562424140402929595e-01,-2.095230224114543460e-01,1.252325131099153999e-01,-2.487427454275232819e-01,-2.156221070586403776e-01,2.252325131099154054e-01,-2.197162392219182414e-01,5.245123273541123510e-01,5.999155044555664062e-01
7.742999999999999883e-01,-3.056348759904289891e-02,1.983639952810815205e-02,9.968526959419250488e-01,9.083641197783383359e-03,-2.142879657184670883e-02,-1.189607417136162582e-02,-1.026434427530682203e-01,2.611221498267229935e-02,-1.617447845637798309e-02,1.329648339489483966e-01,9.091665014898317465e-02,4.536605220551661460e-02,-2.417209713363960566e-01,1.148894784788424273e-01,-2.423979369116605054e-01,-2.149461546220370056e-01,2.148894784788424328e-01,-2.098028949476769545e-01,5.197540193869001346e-01,3.292632102966308594e-01
8.006870000000000376e-01,-3.263618415204854600e-02,2.061884864795760983e-02,9.968528151512145996e-01,1.122278521721739933e-02,-1.949905817470520830e-02,-1.075028718105475178e-02,-1.041233175665169930e-01,4.097943077167590792e-02,-2.493335865437984467e-02,8.089546295154059763e-02,1.074096562062166610e-01,7.359121088365831731e-02,-2.439794674005484332e-01,1.229624416929805952e-01,-2.440217735287526779e-01,-2.161867179846982401e-01,2.229624416929806008e-01,-2.147948065023502495e-01,5.254415551281943486e-01,6.010544300079345703e-01
8.236869999999999470e-01,-3.483543457992618192e-02,2.146187854137865045e-02,9.969101548194885254e-01,1.126803086490795781e-02,-1.893251961097930369e-02,-8.710240704089988739e-03,-1.019453142608190560e-01,4.032827143505179901e-02,-1.179436966776847839e-02,-6.172322050182160041e-02,-4.903913720125752194e-04,9.669335496209233161e-02,1.362652472744312615e-01,-5.570018314714877267e-02,1.688586001111407608e-01,1.660877139075144227e-01,4.429981685285123288e-02,1.923985990113876998e-01,5.134196617610878866e-01,4.467487335205078125e-03
8.509970000000000034e-01,-3.832106105324092210e-02,2.279140537912022896e-02,9.971485733985900879e-01,7.432415007401800035e-03,-1.968168017279148252e-02,-5.020554315518621635e-03,-1.154346757803684370e-01,5.261763535853587748e-02,-1.082228496670722961e-02,-1.866042975656100333e-01,-3.684026581800574351e-02,1.266393197909849722e-01,2.111947769000685760e-01,-2.832781737162898827e-01,2.056246318362359438e-01,2.048767449300979149e-01,-1.832781737162898772e-01,2.188701322306381980e-01,5.084642759152879776e-01,-2.559782862663269043e-01
8.760790000000000521e-01,-4.193791855566136179e-02,2.421913796061445773e-02,9.975681900978088379e-01,1.565724392921784627e-03,-2.201216977102204986e-02,-2.793862640522615237e-03,-1.167837693702542395e-01,4.161014479734938265e-02,3.589416388422250748e-03,-1.975355799072495977e-01,-2.937640085709632837e-02,-3.273374078915260160e-05,2.463531284114700293e-01,-2.707739829147899346e-01,2.109267177314244901e-01,2.111532109297545035e-01,-1.707739829147899291e-01,2.182791801557165401e-01,5.043291094676103370e-01,-4.157892465591430664e-01
8.986290000000000111e-01,-4.427432711972822260e-02,2.509703302476993733e-02,9.980241656303405762e-01,-3.124415760836786980e-04,-2.311530880080359118e-02,-3.607070426554725984e-03,-1.027848469943425935e-01,4.525897667992228451e-02,3.961060720030218363e-04,-5.849715020212319094e-02,-2.704251188997885275e-02,-6.403602767197358325e-02,2.539940801439352080e-01,-2.553247814573401664e-01,2.072085124149282975e-01,2.012670422862829767e-01,-1.553247814573401331e-01,2.168997625125536899e-01,5.015113426264815599e-01,-5.744997859001159668e-01
9.255999999999999783e-01,-4.763490105026407795e-02,2.643359432031763129e-02,9.986685514450073242e-01,3.126953232016859417e-04,-2.152059457089205985e-02,-6.297344188009201815e-03,-1.141320635497723585e-01,3.549992191452606971e-02,8.564984425902366638e-03,1.190144694318631124e-01,1.039249010002409740e-01,-1.402808018256120892e-01,-1.718696822975094851e-01,1.157070032410572324e-01,-2.154657634665169130e-01,-2.130646664838515836e-01,2.157070032410572380e-01,-1.982207221300553157e-01,5.222445655834859757e-01,5.651288032531738281e-01
9.525439999999999463e-01,-5.092796306557802882e-02,2.805029482047136785e-02,9.993342161178588867e-01,5.203007525681956243e-03,-1.597502802182959591e-02,-9.236063971673313944e-03,-9.409842800127779516e-02,3.759471353590947834e-02,-1.056442037224769592e-02,1.800571488806053666e-01,2.252062962308964411e-01,-9.520491376369939751e-02,-1.225917751065984662e-01,1.249950480265820674e-01,-2.006696931942476558e-01,-1.360534802329340098e-01,2.249950480265820729e-01,-1.753620456031467767e-01,5.241941163048700059e-01,5.979334115982055664e-01
9.756909999999999750e-01,-5.314861677936410372e-02,2.908524985903414295e-02,9.996310472488403320e-01,9.883339467162452485e-03,-1.171355976686738742e-02,-9.882718634212306341e-03,-1.125862395727685872e-01,4.062015290062379047e-02,2.660918515175580978e-03,2.587912698080298002e-01,1.915289997148348355e-01,-8.762552361585504435e-03,-2.308478386786358416e-01,1.241058675432060721e-01,-2.434744780026987521e-01,-2.168158775896051882e-01,2.241058675432060776e-01,-2.165557089727417062e-01,5.226039508475651685e-01,5.642501115798950195e-01
1.001609999999999889e+00,-5.544262917942981844e-02,3.027290959382393509e-02,9.999979734420776367e-01,1.282683525567810887e-02,-8.101698040318794369e-03,-8.651149226290621996e-03,-1.212536319348550135e-01,4.405681588826171335e-02,-2.753357635810971260e-03,1.020664878585838820e-01,1.320508144589105926e-01,1.145095217440298130e-01,-2.485975333014758815e-01,1.249776736426689017e-01,-2.381148839965547270e-01,-2.187205274498791874e-01,2.249776736426689072e-01,-2.147124013798101805e-01,5.241729839776753108e-01,6.288518905639648438e-01
1.030737999999999932e+00,-5.787908126070280546e-02,3.154005448374627013e-02,1.000367164611816406e+00,1.425910155064933141e-02,-6.205152098227140200e-03,-6.795086882340539702e-03,-1.146085467055005802e-01,5.790055529136196866e-02,-3.351997816935181618e-03,5.294581106447417140e-02,8.306049972310959595e-02,8.197986117361565073e-02,-2.472711710204960056e-01,1.244692797090633518e-01,-2.349356868230905449e-01,-2.200129684168133370e-01,2.244692797090633574e-01,-2.167671887846610856e-01,5.239705353202218641e-01,6.167464256286621094e-01
1.054747000000000101e+00,-5.999481984068185531e-02,3.215850594615873859e-02,1.000838518142700195e+00,1.333563833641819053e-02,-6.517673235977960999e-03,-4.683843116408237250e-03,-1.203722016445619575e-01,4.748652454026087294e-02,1.475357543677091599e-02,-9.898362118359754769e-02,-5.145078891701197060e-02,1.009153702368288802e-01,1.595188775200577225e-01,-2.066392385557550559e-01,1.969265428939967477e-01,1.901333612830300723e-01,-1.066392385557550643e-01,2.092197001136057999e-01,5.005633400479884143e-01,-5.574532151222229004e-01
1.079466999999999954e+00,-6.220190077184077626e-02,3.281770284846406011e-02,1.001389384269714355e+00,1.083837443167220103e-02,-7.438379138013706537e-03,-2.075472351153795358e-03,-1.219818478502513459e-01,6.661526729853298190e-02,5.752184428274631500e-03,-1.538304635277468468e-01,-4.830802794692735241e-02,1.592633907203427346e-01,2.015543504034614519e-01,-2.563094854585504789e-01,2.076790365669843041e-01,1.980467819171770893e-01,-1.563094854585504734e-01,2.126217781421189390e-01,5.055735122302286166e-01,-3.276321887969970703e-01
1.104017000000000026e+00,-6.444754824491018275e-02,3.360955882138224465e-02,1.002063274383544922e+00,6.800721760976649773e-03,-9.544601693039611590e-03,4.573238401313073354e-04,-1.251118885750355236e-01,5.740650980276826992e-02,2.266165241599082947e-02,-1.848883107717364527e-01,-1.469266902654487728e-01,1.261215680516527549e-01,2.268784632615836738e-01,-2.967527245988234030e-01,2.180403831909752677e-01,2.060624510083737537e-01,-1.967527245988234252e-01,2.160371005656690768e-01,5.004251452854833193e-01,-5.276295542716979980e-01
1.134249000000000063e+00,-6.667976221033078410e-02,3.443751601912050514e-02,1.002763628959655762e+00,1.619761556266118181e-03,-1.156031572803462026e-02,2.817177581933894004e-03,-1.198194709550513271e-01,6.053156529344837222e-02,2.194966934621334076e-02,-3.206406292476582931e-01,-6.279774862816900338e-02,5.564803608504641924e-02,2.749933245384065805e-01,-2.513986062262349996e-01,2.240777287422286435e-01,2.155311219195459038e-01,-1.513986062262350218e-01,2.156306614465374749e-01,5.012846153507587443e-01,-4.813805818557739258e-01
1.154295000000000071e+00,-6.775507539828155845e-02,3.484536514853553424e-02,1.003124833106994629e+00,-4.597417540421606897e-04,-1.274304583794338974e-02,3.019293835830216821e-03,-1.131730214493203712e-01,6.861923592010685247e-02,2.337633818387985229e-02,-2.595788431893185644e-01,-8.386759514691494166e-02,-2.748121075915943567e-02,2.948930265984023302e-01,-2.244850339964920560e-01,2.230906281154168003e-01,2.151477808581811479e-01,-1.244850339964920366e-01,2.141137271320652791e-01,5.010745430937365574e-01,-4.840332269668579102e-01
1.176349000000000089e+00,-7.007972113154466165e-02,3.555393807927371280e-02,1.003946185111999512e+00,-3.237055920141452582e-03,-1.382174783923550976e-02,2.419797419622060630e-03,-1.104912678715465613e-01,5.683539616861353616e-02,1.866293512284755707e-02,-9.627368557038185060e-02,-2.765674180041819905e-02,-3.485607132661041468e-02,3.030580395109798153e-01,-1.243804034716629453e-01,2.221670361741093780e-01,2.153480595921938856e-01,-2.438040347166294322e-02,2.150566318932214394e-01,5.018589202128344029e-01,-4.568827152252197266e-01
1.203343999999999969e+00,-7.364179692147868050e-02,3.643910991265986860e-02,1.005052924156188965e+00,-2.635839123572100966e-03,-1.171664400649619076e-02,-6.733459485963599889e-05,-1.067923293353938707e-01,4.897949600259410979e-02,2.557363919913768768e-02,1.040444528843107175e-01,1.444190604219011131e-01,-9.050895067220364465e-02,2.415695059784588872e-01,1.220782170108438980e-01,2.107183066149928563e-01,1.616141915269987128e-01,2.220782170108439035e-01,2.105896863096972660e-01,5.209262804277439152e-01,5.918180942535400391e-01
1.229970000000000008e+00,-7.586459019229407907e-02,3.701556341962284474e-02,1.005676984786987305e+00,7.844435579831922952e-05,-7.928583492139429367e-03,-2.068940616106074160e-03,-9.107150962449542253e-02,4.635772672620672857e-02,1.688309572637081146e-02,1.187885957732605635e-01,2.128020666234001212e-01,-9.906673675976282456e-02,1.892965029230431473e-01,1.246498550452125598e-01,2.109392765360287580e-01,1.275554219803318179e-01,2.246498550452125653e-01,2.163684575816668121e-01,5.214894119885671309e-01,5.920755863189697266e-01
1.252517000000000102e+00,-7.696344580146532999e-02,3.729472279922269040e-02,1.005928993225097656e+00,2.187827193370613186e-03,-5.661428421480874107e-03,-3.269839742917834968e-03,-9.620150818339021082e-02,4.344775331241321203e-02,2.098275907337665558e-02,2.038699614452133824e-01,2.254950249886432112e-01,-1.476573273337440650e-01,-7.668368126499650050e-02,1.264395947695606537e-01,-9.697264303704397626e-02,-1.231428583316452746e-01,2.264395947695606592e-01,-8.823516104405113025e-02,5.224671983429777233e-01,6.631381511688232422e-01
1.274507999999999974e+00,-7.908672889642219539e-02,3.785286601253246702e-02,1.006326675415039062e+00,7.070223426197553424e-03,-6.626816675094904241e-04,-5.259862040394525096e-03,-1.025036318402687413e-01,4.729922358829113938e-02,1.393296197056770325e-02,3.211369381047912697e-01,2.461156529718003805e-01,-9.196708649153477466e-02,-1.560805521108916682e-01,1.253321900215624285e-01,-2.298241004528481235e-01,-1.746780809700663184e-01,2.253321900215624340e-01,-2.156176714115056736e-01,5.217376505372725015e-01,5.979375839233398438e-01
1.298758000000000079e+00,-8.231028070110897599e-02,3.858243635745257916e-02,1.006711959838867188e+00,1.557393296580899741e-02,6.524755553815486664e-03,-8.886454187222003753e-03,-8.758846842852839598e-02,4.266539951988598117e-02,5.680472822859883308e-04,2.958301043709482547e-01,2.401904433357919533e-01,-1.691047879396569975e-01,-2.653495350595665991e-01,1.416991170973080916e-01,-2.430493912815161750e-01,-2.245218309632304454e-01,2.261188633076613719e-01,-2.186228747549216755e-01,5.230551108596915855e-01,6.190346479415893555e-01
1.328738999999999892e+00,-8.564703465217686496e-02,3.915305554479499989e-02,1.006971359252929688e+00,2.501070560503407259e-02,1.131604916326200971e-02,-1.225957594441018372e-02,-9.536341169723880351e-02,3.453728126377445667e-02,3.124516806565225124e-04,2.768827721739886005e-01,8.250268645575015158e-02,-1.037551251226850740e-01,-3.260303554254743164e-01,1.597032028706248941e-01,-2.578888333076062578e-01,-2.260303554254742830e-01,2.245543976242793949e-01,-2.240343672268599595e-01,5.198234819579697907e-01,4.442119598388671875e-01
1.354033999999999960e+00,-8.788507475406363845e-02,3.949435507975274789e-02,1.007128477096557617e+00,3.091736642104186625e-02,1.229449998133147481e-02,-1.445220781355227579e-02,-9.103645388127649951e-02,3.761482715097391044e-02,1.991260214708745480e-04,3.128332797531088172e-01,-3.833172690214057057e-03,-1.005001921304187612e-01,-3.262576600624362833e-01,1.672422615193330242e-01,-2.631310999587770927e-01,-2.262576600624363055e-01,2.234803950179806153e-01,-2.231542417021096236e-01,5.099380909030286624e-01,-8.442193269729614258e-02
1.372870000000000035e+00,-9.009706263484240640e-02,3.986121908836710859e-02,1.007201433181762695e+00,3.551674298485994058e-02,1.120787712216131382e-02,-1.595005163955520722e-02,-9.515188277647428083e-02,4.126809166730785461e-02,-3.854746697470545769e-03,1.885460452784690211e-01,-6.130293954230700559e-02,-5.544109099266243679e-02,-3.262465744731442574e-01,1.535118111479262248e-01,-2.683150552483386519e-01,-2.262465744731442518e-01,2.229773461588202277e-01,-2.243340788324900137e-01,5.077076193638255797e-01,-2.187198996543884277e-01
1.406802000000000108e+00,-9.344879430649279117e-02,4.034447063500113534e-02,1.007380485534667969e+00,3.862709173724421241e-02,8.946384657262607121e-03,-1.481450241306303539e-02,-9.833050163380942232e-02,3.497973098170646666e-02,-3.578689182177186012e-03,-4.931519428397971271e-03,-6.968082902960948122e-02,9.114946769090383205e-02,-3.131493148136017535e-01,1.289099529163321711e-01,-5.159059663121122463e-02,-2.131493148136017757e-01,2.177334555105078784e-01,-1.102212420682634371e-02,5.027736230235709813e-01,-4.772024154663085938e-01
1.427457999999999894e+00,-9.566897449057050473e-02,4.059996063206112310e-02,1.007629036903381348e+00,3.785629130330131487e-02,7.179199716791595520e-03,-1.307931763468239694e-02,-8.567586735590379532e-02,4.736722168723510318e-02,9.961348958313465118e-03,-5.890247296872101052e-02,-7.430845640637129268e-02,8.982709462997619243e-02,-8.748141530404685007e-02,1.256231701629710873e-01,8.232337568677690343e-02,1.251858469595315028e-02,2.176549847944157234e-01,1.179822678179581336e-01,4.984005056815867807e-01,-6.507520079612731934e-01
1.456882999999999928e+00,-9.894471698041089336e-02,4.099750788247413791e-02,1.008148431777954102e+00,3.223658473352463555e-02,3.938639869020432727e-03,-9.447879550235738222e-03,-1.039249532255300951e-01,3.342144246333514368e-02,2.227335609495639801e-02,-1.847932894919216418e-01,-1.523196738677832229e-01,9.393636098096962150e-02,7.587767623242358539e-02,9.011005549619868771e-02,1.120127151472670446e-02,1.758776762324235909e-01,1.901100554961986933e-01,3.648315357353708321e-02,4.983931633678356787e-01,-5.998033285140991211e-01
1.481557999999999931e+00,-1.010729151256032493e-01,4.123580961616592211e-02,1.008672595024108887e+00,2.629350771109043375e-02,9.316555947556093287e-04,-6.813150789890753956e-03,-8.209593629004721671e-02,3.428486209303258786e-02,1.014804653823375702e-02,-3.672707398826106640e-01,-1.351915198181563582e-01,1.231039888272755650e-01,1.073353246000115502e-01,-3.704235750831254281e-02,1.754440470629780036e-01,2.073353246000115557e-01,6.295764249168746274e-02,1.935020486971706366e-01,4.984420237755639027e-01,-6.410702466964721680e-01
1.502458999999999989e+00,-1.031817043856535360e-01,4.148934660889876114e-02,1.009244441986083984e+00,2.026040920933505282e-02,-2.515596731138103337e-03,-3.713381429240270037e-03,-8.386796301844123835e-02,3.601087461517936406e-02,1.964361220598220825e-02,-2.974710510065903257e-01,-1.794525079104230536e-01,1.742700654723762788e-01,1.334423208695516005e-01,-9.305840940782467152e-02,1.845315669197819530e-01,2.032384394912034875e-01,6.941590592175328825e-03,1.938875579062177001e-01,4.986552088650787473e-01,-5.891755819320678711e-01
1.527298000000000044e+00,-1.063744330640995217e-01,4.216587772453881527e-02,1.010020375251770020e+00,9.794232990527234825e-03,-7.683224184137360524e-03,1.858696854086794303e-04,-9.057250938956713793e-02,4.036653766641586094e-02,1.698630116879940033e-02,-3.204949593234234784e-01,-1.641475269427991046e-01,6.768109732358820740e-02,2.138131529520461704e-01,-2.255800717135039990e-01,2.064821221718378397e-01,2.111717713198193458e-01,-1.255800717135039934e-01,2.050868444388004030e-01,4.988219538098526140e-01,-5.871413946151733398e-01
1.551493000000000011e+00,-1.094105584787711388e-01,4.279951032285470025e-02,1.010698676109313965e+00,-6.536778150491137813e-04,-1.330738934767761172e-02,1.548774178780965016e-03,-7.898273359909106783e-02,2.455676994952714354e-02,1.922830380499362946e-02,-3.363832941706580981e-01,-2.044132795724354079e-01,-2.855823249297862951e-02,2.697522513673133449e-01,-1.516355245353671055e-01,2.032978289949003703e-01,2.118880384719617482e-01,-5.163552453536708609e-02,1.985828578888726714e-01,4.981604134903518943e-01,-6.078532934188842773e-01
1.575420999999999960e+00,-1.124210123622608609e-01,4.333931518705672059e-02,1.011306285858154297e+00,-6.965412225370170261e-03,-1.903218747555657231e-02,2.080450439344128100e-03,-8.838752746421128792e-02,2.374649549141686494e-02,9.152589365839958191e-03,-1.729656454053693782e-01,-2.042752704581513312e-01,6.103978653694053236e-03,3.104031295195732176e-01,-2.221238292612275345e-01,1.820421811008074708e-01,2.104031295195732121e-01,-1.221238292612275289e-01,1.761206534983284777e-01,4.977011284083058262e-01,-6.689831018447875977e-01
1.601979000000000042e+00,-1.152981658204535187e-01,4.381259838369064297e-02,1.011760115623474121e+00,-8.190197132096246890e-03,-2.310449392362223797e-02,1.171074617086320657e-03,-7.715733492743097333e-02,3.031357553897947796e-02,-2.950211521238088608e-03,-2.721045960971230429e-02,-9.026225043365905532e-02,-4.955802743736140853e-02,3.132857910432462756e-01,-3.131794899639348539e-01,1.400154518611555765e-01,2.132857910432462700e-01,-2.131794899639348484e-01,1.366548678127526284e-01,4.984832452272073278e-01,-6.733656525611877441e-01
1.625995000000000079e+00,-1.180012320842064172e-01,4.428438605574399473e-02,1.011915802955627441e+00,-6.495381083545031728e-03,-2.420293624040770197e-02,-9.310952254157900398e-04,-9.049047955353545225e-02,2.547124117062166820e-02,-4.424003884196281433e-03,1.518026776516648579e-01,2.277087967942870508e-02,-8.528298620332995517e-02,-1.208262395891897961e-01,1.218773981337686885e-01,-2.176034786713203217e-01,-2.200428247398230619e-01,2.218773981337686940e-01,-2.151547917855197445e-01,5.176133652194946366e-01,3.345572948455810547e-01
1.651227999999999918e+00,-1.205890376373952716e-01,4.483296624003683256e-02,1.011751055717468262e+00,-2.219596438088822059e-03,-2.167934066303711660e-02,-3.820625564818991293e-03,-6.955458581807009988e-02,2.476862808711037187e-02,-2.359465509653091431e-02,1.416010485985018386e-01,1.345931817326291302e-01,-1.173188156477007194e-01,-1.314885527662924269e-01,8.729511667829201182e-02,-1.914603782905889562e-01,-2.031890939923774453e-01,1.872951166782920174e-01,-1.811737967311604913e-01,5.172163394391114943e-01,2.373335361480712891e-01
1.675653000000000059e+00,-1.230956185355532445e-01,4.534630237983622997e-02,1.011209011077880859e+00,5.250709602788060891e-03,-1.714918464117998198e-02,-6.505318151336592081e-03,-8.336652982548602153e-02,3.148733943105651994e-02,-3.147313371300697327e-02,3.215770250357010696e-01,1.494737297566688106e-01,-5.160044724197713345e-02,-1.898670352867155020e-01,1.158091956698229785e-01,-2.179693889509794480e-01,-2.186624435263755939e-01,2.158091956698229841e-01,-2.006426053406273891e-01,5.152796367730962945e-01,9.795284271240234375e-02
1.700668000000000069e+00,-1.255096853327842543e-01,4.538875084123436543e-02,1.010317087173461914e+00,1.401694699343390346e-02,-1.067206570541756605e-02,-8.761655816005298192e-03,-7.597010224413011659e-02,2.620391669101588758e-02,-4.828526079654693604e-02,2.772428828653521471e-01,2.483019840598892081e-01,-7.268838238975780519e-02,-2.540436156953043145e-01,1.246925962886319406e-01,-2.446524210558082835e-01,-2.204166409059529208e-01,2.246925962886319461e-01,-2.212397017904829954e-01,5.242583761764696426e-01,5.108742713928222656e-01
1.724512000000000045e+00,-1.280131678908010273e-01,4.560011835103023464e-02,1.009132266044616699e+00,2.080525857483460361e-02,-4.803386979090440434e-03,-7.329398279967369589e-03,-7.874227027942207191e-02,3.096670633147287355e-02,-5.409215018153190613e-02,1.458183520030709446e-01,1.317018699370896551e-01,8.062492345751695599e-02,-2.939258473143912531e-01,1.235314853413041480e-01,-2.340193521719615699e-01,-2.211191127404335266e-01,2.235314853413041536e-01,-2.147685905335066092e-01,5.263524320387518163e-01,5.943818092346191406e-01
1.751031999999999922e+00,-1.306986501151221614e-01,4.602566262504752259e-02,1.007820606231689453e+00,2.299920659870352893e-02,-1.937620950337004544e-03,-4.486496227583902652e-03,-9.686464060824509503e-02,3.102502457070543257e-02,-5.131094157695770264e-02,-2.775418357310834722e-02,7.616898886134185198e-02,1.431354200875311899e-01,-2.578914356316526213e-01,1.183745813410034542e-01,-1.518132000228419876e-01,-1.709893227297479279e-01,2.183745813410034597e-01,-1.405977950507765750e-01,5.246159822392839622e-01,5.023841857910156250e-01
1.774772000000000016e+00,-1.335590349662025833e-01,4.671538727417681031e-02,1.006511211395263672e+00,2.033373270683330736e-02,-2.512884991878738816e-03,-7.555471563749360797e-04,-8.742318247191421809e-02,4.766228651725692295e-02,-5.809321627020835876e-02,-1.705122765185488054e-01,-2.800288548450644011e-02,1.588084479792147286e-01,1.563528399858330475e-01,-2.669347167101775442e-01,1.812316101459714446e-01,2.115199763194127447e-01,-1.669347167101775109e-01,1.820535439609224371e-01,5.155162877962163881e-01,-2.295351028442382812e-02
1.797981000000000051e+00,-1.365385493172426301e-01,4.766461933321917976e-02,1.005366444587707520e+00,1.385471033610499725e-02,-5.528236876139125400e-03,3.329941816400561194e-03,-1.003377019309439622e-01,4.442393798899829660e-02,-4.884305223822593689e-02,-2.277954048634081019e-01,-1.081417134200256119e-01,1.362330852311919582e-01,1.985336096871036515e-01,-2.761304876038476186e-01,1.995943181081213658e-01,2.150057248404500798e-01,-1.761304876038476130e-01,1.890782837780123626e-01,5.115012512312075987e-01,-2.085742354393005371e-01
1.825350000000000028e+00,-1.403786365386736346e-01,4.894308973700683962e-02,1.004130601882934570e+00,3.175950652474246374e-03,-9.799079039724434281e-03,5.975728349582931642e-03,-8.674344838095165988e-02,3.821999571853879757e-02,-3.462040051817893982e-02,-2.555281186584154041e-01,-5.639362226627690766e-02,3.041848555576688162e-03,2.689179553470500972e-01,-2.649589959295942654e-01,1.937235761546803325e-01,2.188960768014044933e-01,-1.649589959295942876e-01,1.762739771864204608e-01,5.061197275062545575e-01,-4.434660673141479492e-01
1.851915999999999896e+00,-1.420952421387767506e-01,4.951540438975297886e-02,1.003658771514892578e+00,4.582536364558096502e-04,-9.915351797180393945e-03,5.178645867677245107e-03,-8.335485249000175456e-02,3.655810293334823408e-02,-2.041609212756156921e-02,-3.960640209994052696e-02,4.368752028313283714e-02,-7.293867929956436569e-02,2.483179727984337337e-01,-5.568727131793864416e-02,1.954200353443150684e-01,1.802813058589492201e-01,4.431272868206136140e-02,1.803327223792507428e-01,5.013109252729442966e-01,-6.432932615280151367e-01
1.878414000000000028e+00,-1.446035158926350095e-01,5.037583217843179251e-02,1.002962350845336914e+00,1.362253927901793497e-03,-6.417490415439708329e-03,2.743854286253011310e-03,-6.707491766937200006e-02,2.268634271502402780e-02,-2.441387809813022614e-02,7.652774046043327172e-02,1.751154514216672065e-01,-1.206131312729777499e-01,-1.067901564613010085e-01,1.240066272376130485e-01,1.536728244509648900e-01,-1.584703258817588833e-01,2.240066272376130541e-01,1.455129268353494154e-01,5.253174921432104405e-01,6.202926635742187500e-01
1.901699999999999946e+00,-1.461402331684704403e-01,5.087568834546912083e-02,1.002421975135803223e+00,4.968314849151975882e-03,-2.250525256914936989e-03,1.114636998264195711e-03,-5.887343743177826660e-02,2.985626301926045181e-02,-2.657558582723140717e-02,2.387075024824646674e-01,2.414337825482834321e-01,-7.957015894601503214e-02,-1.828146111124337447e-01,1.247157033823513561e-01,-2.163274232425324295e-01,-2.192038446997507939e-01,2.247157033823513617e-01,-2.200462129346793805e-01,5.246489229765732842e-01,5.720283985137939453e-01
1.925643999999999911e+00,-1.483604092680702313e-01,5.163247834540449915e-02,1.001699209213256836e+00,1.217459630733956806e-02,3.166791680341285442e-03,-1.849498546537153842e-03,-7.148820029751573601e-02,2.398131258246698552e-02,-2.276876941323280334e-02,2.088754216359027527e-01,9.928849859563199098e-02,-1.285500941742314107e-01,-2.430100609685534596e-01,1.249854425859106555e-01,-2.282340988586800401e-01,-2.271712423351949228e-01,2.249854425859106610e-01,-2.238005480489637933e-01,5.254135191511588587e-01,6.238806247711181641e-01
1.949186000000000085e+00,-1.499207274491026476e-01,5.220193456637262086e-02,1.001139760017395020e+00,1.530954402355452076e-02,5.027180345692494612e-03,-2.438042437668652695e-03,-7.582691396759708158e-02,3.062139511720030072e-02,-2.834538370370864868e-02,1.356696492528022546e-01,1.078102961935038101e-01,2.858866981106573599e-02,-2.535964429686654587e-01,1.237233706060480720e-01,-2.223344318554827670e-01,-2.240195396789854965e-01,2.237233706060480776e-01,-2.163445792864057970e-01,5.261183300147695974e-01,6.361954212188720703e-01
1.973492999999999942e+00,-1.517098985169191006e-01,5.325414302157149837e-02,1.000699996948242188e+00,1.633137150459581730e-02,5.363434096722130562e-03,-1.652290476143347675e-03,-6.773258239795500180e-02,3.971141613145437455e-02,-2.102218195796012878e-02,-3.688879576501997992e-02,-2.551640619843329599e-02,2.836953346827418912e-02,1.859267939224993060e-01,-4.735345110407793157e-02,1.705042491384898828e-01,2.146112633938331848e-01,5.264654889592207399e-02,1.742689026644055894e-01,5.097937738725579759e-01,-2.154620289802551270e-01
1.999147000000000007e+00,-1.544118105265906704e-01,5.506869366311776398e-02,1.000201702117919922e+00,1.332993613888507761e-02,3.817687525768498347e-03,1.470868773305378241e-03,-7.398248592233343246e-02,4.327926498996649551e-02,-5.310661159455776215e-03,-1.718918898209094159e-01,-1.209060569004935665e-01,1.112518928475502156e-01,2.089628086051557310e-01,-1.175749601362669344e-01,1.756949114374280474e-01,2.143932045784309737e-01,-1.757496013626693235e-02,1.706851002469801926e-01,5.052038804849512399e-01,-3.994067907333374023e-01
2.027700999999999976e+00,-1.569718658911839759e-01,5.693536423178187367e-02,9.998729228973388672e-01,7.321007932714604372e-03,9.117668520386423836e-04,2.996083082270839526e-03,-6.696151102354618023e-02,4.194935176243371616e-02,-4.273202735930681229e-03,-1.913398203458226698e-01,-1.111630809551807236e-01,-4.124744583988600166e-02,2.488646160741329050e-01,-4.496512249418912338e-02,1.535585447887280186e-01,2.150958465003292852e-01,5.503487750581088217e-02,1.444240082231209310e-01,5.031197957061146475e-01,-5.062793493270874023e-01
2.050122000000000000e+00,-1.585295217767671572e-01,5.804852240479069225e-02,9.997999072074890137e-01,5.791939542686872291e-03,-7.235561716676386368e-04,2.221728492897590002e-03,-5.579019445383442966e-02,3.927998380491986435e-02,5.602451274171471596e-04,-3.198097116277488772e-02,-8.396961053949916765e-02,-4.340883884604869458e-02,2.525248099270167024e-01,-6.734158746764090653e-02,-1.561590072440512678e-01,2.097685246400715076e-01,3.265841253235909208e-02,-1.630811965157658305e-01,4.996372159243074318e-01,-6.696259379386901855e-01
2.073253999999999930e+00,-1.601248867202650084e-01,5.900344209506257903e-02,9.997324943542480469e-01,6.273206026127266070e-03,-1.622669038371160610e-03,6.898371949684012350e-04,-5.527609217954534276e-02,3.238928852229134431e-02,7.205267320387065411e-04,4.750266742303332207e-02,-2.491062840569719522e-02,-1.119594897956970730e-01,-1.915145124383977326e-01,1.205603269641299657e-01,-2.194372137109784349e-01,-2.266986352232374380e-01,2.205603269641299713e-01,-2.220982045016414441e-01,5.213947585155080944e-01,4.878337383270263672e-01
2.099924000000000124e+00,-1.625232187953539742e-01,6.030192650221189582e-02,9.996447563171386719e-01,1.059738720218336011e-02,-1.605688750137224119e-03,-6.615775145313307348e-05,-6.348841190131636336e-02,2.676722387577213161e-02,-4.362522158771753311e-03,1.704663330219606532e-01,1.933208222441944527e-02,4.993362567002897212e-02,-2.205821337980580776e-01,1.226707878401471496e-01,-2.121453868346186988e-01,-2.250787352348019299e-01,2.226707878401471552e-01,-2.128910086535528712e-01,5.190647523177641665e-01,3.408290147781372070e-01
2.125573999999999852e+00,-1.648841237156678241e-01,6.156543539195946657e-02,9.995092749595642090e-01,1.653171702247469010e-02,-5.962278993614233968e-04,1.850644848926163988e-03,-5.181678577293724608e-02,4.328127038940185467e-02,-7.187965326011180878e-03,1.604736311896171053e-01,6.550408838452954907e-02,1.165898122866269038e-01,-2.435186511379421048e-01,1.221793346430043725e-01,-2.020870486793133192e-01,-2.249430605688872986e-01,2.221793346430043781e-01,-2.084529410456945064e-01,5.242241625599380894e-01,6.078981161117553711e-01
2.152080999999999911e+00,-1.664645887868347052e-01,6.253104606289436318e-02,9.994525909423828125e-01,1.774005817846153674e-02,-6.057890760333695113e-04,3.806627506208970502e-03,-5.926136146008607192e-02,3.836114582888510566e-02,-2.884312067180871964e-03,3.814850204394258648e-02,-5.480174039648183504e-02,7.167012331293598493e-02,-2.338232468854865853e-01,8.352830972235636420e-02,-9.133445765357646462e-02,-2.023507727674220547e-01,1.835283097223563697e-01,-1.032549808819843290e-01,5.133485952549893261e-01,3.831148147583007812e-02
2.177089000000000052e+00,-1.680729219110992656e-01,6.349992375868125649e-02,9.993889331817626953e-01,1.643158541206748632e-02,-7.889399478759884232e-04,6.184573087514078082e-03,-6.925840496235345645e-02,4.850346909840843462e-02,-1.333740539848804474e-02,-1.173616428091447533e-01,3.811030108842053399e-03,1.461470138209591263e-01,1.960169300318997110e-01,-2.444656621247865702e-01,1.435787784555547231e-01,2.089253662714319060e-01,-1.444656621247865647e-01,1.249311943020734311e-01,5.043365625167683941e-01,-4.830595850944519043e-01
2.200447000000000042e+00,-1.705107504786155248e-01,6.493229857320190201e-02,9.995341300964355469e-01,1.157157282089360355e-02,-3.133281553893363380e-03,9.367162984238897039e-03,-5.666267379498143852e-02,4.650157910148249030e-02,-5.570710636675357819e-04,-1.623205751839270905e-01,-7.078324914728317818e-02,1.158930769936772076e-01,2.341223436925566337e-01,-1.828501554409180940e-01,2.117666852115347442e-01,2.165954438099963186e-01,-8.285015544091808848e-02,1.843936685495475292e-01,5.020550597383486302e-01,-5.512606501579284668e-01
2.223212000000000188e+00,-1.720677231286076858e-01,6.588499941047526454e-02,9.996598362922668457e-01,7.049164237282493257e-03,-5.217593097510686562e-03,1.051639348997146506e-02,-5.011377518136714282e-02,5.018866198021496028e-02,5.080786999315023422e-03,-2.351748569746655859e-01,-1.199347313367237350e-01,3.411106418008883270e-03,2.659121610005362735e-01,-5.478984480638070947e-02,1.606583447117974628e-01,2.144737028511219112e-01,4.521015519361929608e-02,1.301824538190634595e-01,5.017626983226709525e-01,-5.436530113220214844e-01
2.249369999999999870e+00,-1.741287828414147809e-01,6.724900517143286849e-02,9.999449253082275391e-01,2.791932663416655386e-03,-6.175139055434097912e-03,9.885530780577633791e-03,-4.638244880644071949e-02,3.933065317885951762e-02,3.029863873962312937e-04,-1.055232548391251135e-01,1.185194472614255028e-02,-7.058728809357735223e-02,2.794132015991399598e-01,2.568520024687018233e-02,1.486463343667943637e-01,2.085684180650538844e-01,1.256852002468701879e-01,1.201760536418370467e-01,5.003545010378965818e-01,-6.348919868469238281e-01
2.275617000000000001e+00,-1.753786680900663031e-01,6.783890989681384820e-02,1.000080823898315430e+00,3.229294219469847852e-03,-5.378064923706515899e-03,8.644272416661769043e-03,-3.609632942162980390e-02,3.958920959617884955e-02,-3.677281085401773453e-03,6.904549802925379065e-02,4.905080602035296472e-02,-7.302784498952852310e-02,-1.569479194839100977e-01,1.233852413523832126e-01,-1.987608243748216763e-01,-2.272289483527579201e-01,2.233852413523832181e-01,-2.237533027272413655e-01,5.190185888983055440e-01,3.415151834487915039e-01
2.301079000000000097e+00,-1.771034761243663602e-01,6.825544586324668039e-02,1.000212788581848145e+00,8.377939038144710526e-03,-3.627746651852614690e-03,6.474915482330256822e-03,-5.058414279839438393e-02,2.504980952153875937e-02,6.853878498077392578e-03,2.642947402589449490e-01,5.072895357539396188e-02,-1.148964544664541204e-01,-2.015924000060437260e-01,1.226585356422985051e-01,-2.023303065373720233e-01,-2.272540415581036644e-01,2.226585356422985107e-01,-2.214269541759279758e-01,5.188668288038035259e-01,3.750050067901611328e-01
2.324355000000000171e+00,-1.782452240169302149e-01,6.847753055985066062e-02,1.000200152397155762e+00,1.349813383020231905e-02,-2.708275022373918262e-03,5.702905851549644467e-03,-4.362732462978571174e-02,3.127984444828801891e-02,-8.777847513556480408e-03,2.732416383810467031e-01,4.041178189047140573e-02,1.852779261872184585e-02,-2.267557420552759051e-01,1.213615813812065070e-01,-1.992825278965300317e-01,-2.263684965716814268e-01,2.213615813812065125e-01,-2.164377785523685926e-01,5.172027829470151605e-01,2.235406637191772461e-01
2.349882000000000026e+00,-1.800549172589167857e-01,6.900614194969820203e-02,9.999729394912719727e-01,1.905052473050504111e-02,-2.359022651953202043e-03,7.229748426657689464e-03,-3.995510516733694062e-02,4.287713226327279081e-02,-1.180187705904245377e-02,1.580132225773455967e-01,-5.689311479907784366e-03,7.510576898663644252e-02,-2.546424677417000182e-01,1.203334373512948419e-01,-1.958854851141539344e-01,-2.274636152331308281e-01,2.203334373512948474e-01,-2.176046662835727230e-01,5.205870418235439834e-01,3.920390605926513672e-01
2.374584000000000028e+00,-1.812354475547128807e-01,6.952226723127129249e-02,9.997423887252807617e-01,1.936794123060218975e-02,-2.773094836612699510e-03,9.089176429312839645e-03,-5.011391698456939964e-02,3.913098949212748950e-02,-1.675060018897056580e-02,-5.518738361060123582e-02,-4.958344590579272237e-02,1.165548975389030378e-01,1.778639214792775425e-01,-2.007097430918080572e-01,2.216960180492477117e-01,2.108861733513351655e-01,-1.007097430918080655e-01,1.946941600222500401e-01,5.169064931777941352e-01,1.718823909759521484e-01
2.400586999999999804e+00,-1.829550824515173701e-01,7.029448299643031861e-02,9.993949532508850098e-01,1.600237063029347900e-02,-4.466981372973188869e-03,1.246896485784354525e-02,-4.636103189191709967e-02,5.129614106158619097e-02,-2.397664450109004974e-02,-2.082779592482596476e-01,-3.767438450051615456e-02,1.613127741777259927e-01,2.196398985904185197e-01,-2.436076959945047138e-01,1.975006065282712553e-01,2.192893463451083547e-01,-1.436076959945047082e-01,1.610591984065183058e-01,5.062537953501666799e-01,-4.269505143165588379e-01
2.423535000000000217e+00,-1.840791226778038525e-01,7.089862100153222768e-02,9.991323351860046387e-01,1.218297154330179669e-02,-6.279780955046110336e-03,1.377652656682060162e-02,-4.925113222407260377e-02,4.514240592220036125e-02,-4.348325077444314957e-03,-1.732355489684143102e-01,-1.193267131287736732e-01,-2.573211056919080721e-03,2.289704210827607500e-01,3.028519375100813260e-02,1.521974039928813693e-01,2.090936084829436437e-01,1.302851937510081382e-01,1.122202032348265932e-01,5.023923649599761898e-01,-5.543183684349060059e-01
2.450051999999999897e+00,-1.854840092233543125e-01,7.162986128849133105e-02,9.989354014396667480e-01,8.552936644981877501e-03,-7.566027645043327254e-03,1.261654027261327471e-02,-3.397143351064854655e-02,3.125813080083672535e-02,-8.128986693918704987e-03,-5.065552834399901505e-02,-3.910450800784815578e-02,-9.856397612413415887e-02,1.990947311290586774e-01,6.732777581638199615e-02,-1.721521041265563490e-01,1.654589251294759089e-01,1.673277758163820017e-01,-2.086050491858475464e-01,5.018992214741992974e-01,-5.951071977615356445e-01
2.474572000000000216e+00,-1.862547769635966854e-01,7.197597964397076109e-02,9.988492131233215332e-01,9.463788467935635440e-03,-6.184706504280601536e-03,1.133855388548044019e-02,-3.021623164104481063e-02,3.518029664717826910e-02,-1.346334535628557205e-02,1.073332559391425578e-01,9.026030875757719285e-02,-7.993806084198153139e-02,-1.940842101857603308e-01,1.220386755603976026e-01,-1.904665073398927877e-01,-2.273201177986463040e-01,2.220386755603976081e-01,-2.233877539709284155e-01,5.222176961979319021e-01,4.656479358673095703e-01
2.498801999999999968e+00,-1.873702871364377465e-01,7.145790694876093252e-02,9.987298250198364258e-01,1.472425446749218297e-02,-4.355867873225394149e-03,1.039337849269239555e-02,-3.484418201064027470e-02,2.885559778885783341e-02,-1.559599186293780804e-04,2.562379286476977880e-01,1.464377941098260298e-02,3.539999776068728649e-02,-2.335648398321649444e-01,1.199991989513404800e-01,-1.857371776120044504e-01,-2.271967975505616577e-01,2.199991989513404855e-01,-2.161965902419487329e-01,5.160939580749690503e-01,1.874450445175170898e-01
2.525586999999999804e+00,-1.885814234460665428e-01,7.104970875432302380e-02,9.986317753791809082e-01,2.063169951282068509e-02,-3.871707657710832251e-03,1.222070848482559313e-02,-3.929633470635555959e-02,2.498624842663548298e-02,-3.572109388187527657e-03,1.253911581317203316e-01,1.494067944715095179e-02,1.972679541225968655e-02,-2.739173055708077897e-01,1.188365329522351466e-01,-1.772686248097161132e-01,-2.273107657561636297e-01,2.188365329522351521e-01,-2.131194419353238945e-01,5.170991437540185531e-01,2.269829511642456055e-01
2.551454000000000111e+00,-1.894224484503237438e-01,7.089778329870791151e-02,9.985227584838867188e-01,2.167150986811357607e-02,-4.478883997775628956e-03,1.439977594032959551e-02,-2.751562238883419748e-02,3.635696299568371564e-02,-2.092057466506958008e-02,-3.947351462861535543e-02,-4.669144439543573485e-03,1.411180523052459335e-01,1.509935214776927381e-01,-1.935064938564062809e-01,1.697673884066345229e-01,1.945196737249813013e-01,-9.350649385640627531e-02,1.277388043340586532e-01,5.113188493491853670e-01,-1.518487334251403809e-01
2.574488000000000110e+00,-1.902611084710615352e-01,7.087381209061363596e-02,9.984014034271240234e-01,2.082002083005166787e-02,-5.632503230574625874e-03,1.643678113267910135e-02,-4.655187148202115377e-02,3.469764025255719225e-02,-3.966672345995903015e-03,-5.293221925698504693e-02,-7.243540295098147008e-02,7.802134425834998666e-02,1.710888345474372296e-01,-9.351148645285387029e-02,2.403240313962780317e-01,2.108585879895655268e-01,6.488513547146130926e-03,1.924490613017455776e-01,5.163732278248207574e-01,1.830523014068603516e-01
2.598453999999999819e+00,-1.909544905892767430e-01,6.999709008357252182e-02,9.982779026031494141e-01,1.566539504587315806e-02,-7.659865713686153654e-03,1.841651806097166499e-02,-3.486420975807615757e-02,3.126805604764246183e-02,-1.082830317318439484e-02,-2.063954185191422819e-01,-9.891988549066757508e-02,-5.092270229624786676e-02,2.017358667300350739e-01,2.193100376304696342e-02,1.683880193747766540e-01,2.107621646056722919e-01,1.219310037630469690e-01,1.152522770169106953e-01,5.034042678469987653e-01,-5.331947207450866699e-01
2.627441999999999833e+00,-1.914232627458542224e-01,6.910274182645244345e-02,9.981244802474975586e-01,1.126803415903233040e-02,-8.534597967214008207e-03,1.730099125692086126e-02,-2.460139844822534921e-02,2.419887187481282662e-02,-1.177717372775077820e-02,-1.241411407864857069e-01,-3.901886150202585422e-03,-4.337103591510699935e-02,2.249937275494157674e-01,6.949731947482734595e-02,1.884715001875216303e-02,2.111301790231676911e-01,1.694973194748273515e-01,-3.088894317636690576e-02,5.016887608628742834e-01,-6.277176141738891602e-01
2.650307000000000190e+00,-1.916991371027943203e-01,6.840952742824932264e-02,9.980791807174682617e-01,1.180601633522512968e-02,-8.513545895647789408e-03,1.582701839609246264e-02,-2.563799104297139961e-02,2.021048342122045219e-02,-1.466940739192068577e-03,1.124049248055284667e-01,4.426870860475021381e-03,-9.306005513035585375e-02,-2.209776357279904513e-01,1.203983741228060178e-01,-1.787629477665396982e-01,-2.290900263932227898e-01,2.203983741228060234e-01,-2.244026857188120283e-01,5.198764100322027515e-01,3.801333904266357422e-01
2.673471000000000153e+00,-1.919729307209888103e-01,6.766046616799029079e-02,9.980912208557128906e-01,1.381094462610423131e-02,-8.371047272527354366e-03,1.450855176986842743e-02,-3.562143944805264834e-02,9.242397070304175094e-03,-1.305814739316701889e-02,1.288623013709610798e-01,1.787753009684764013e-02,-2.638794087014260589e-02,-2.413269370785341705e-01,1.196414917735429961e-01,-1.722459969796398260e-01,-2.276890181589437956e-01,2.196414917735430017e-01,-2.142708099703665159e-01,5.163540311948360273e-01,1.437155008316040039e-01
2.700919999999999987e+00,-1.929944655720182978e-01,6.822367444023466621e-02,9.980449080467224121e-01,1.930193348983723356e-02,-9.049455491026758835e-03,1.460592217926515168e-02,-2.443616455281581376e-02,1.924395890267036058e-02,-1.572331972420215607e-02,1.781761788929004109e-01,-4.131184334066773794e-02,6.487708143314264986e-02,-2.672438322333353655e-01,1.183042818623820103e-01,-1.715731221520535310e-01,-2.280672885034612241e-01,2.183042818623820158e-01,-2.142306092428797049e-01,5.187257617623002304e-01,2.600259780883789062e-01
2.726093999999999795e+00,-1.943862508864216687e-01,6.975414835587305518e-02,9.978194832801818848e-01,2.063578015883125658e-02,-1.023712464548265366e-02,1.702834405972564191e-02,-3.687600361864271786e-02,2.442799042377152841e-02,-6.815572269260883331e-03,1.836732066129577803e-02,-8.635362585882466746e-02,9.885996984155916156e-02,-2.413868586701767849e-01,1.105453923846573261e-01,8.792135806773973550e-02,-1.981894355854874890e-01,2.105453923846573316e-01,3.821754744156199285e-02,5.234827339246663769e-01,5.496270656585693359e-01
2.748631000000000046e+00,-1.953509157166909982e-01,7.087173093183603279e-02,9.976394176483154297e-01,1.812333144523256556e-02,-1.141081650409692116e-02,1.880054887232662786e-02,-3.508426851533193169e-02,2.812974962332047760e-02,-1.878258585929870605e-02,-1.796034894626779288e-01,-3.917315578646550500e-02,8.385962541124841740e-02,1.915662769183952563e-01,-8.990988745648784142e-03,-1.511377540515616846e-02,2.152312376772678171e-01,9.100901125435122141e-02,-6.969424380926413087e-02,5.023864091127957510e-01,-6.254377961158752441e-01
2.776555999999999802e+00,-1.962737282809471073e-01,7.203471791405535729e-02,9.974573254585266113e-01,1.414662885013109710e-02,-1.313329917010763737e-02,2.041012259280727825e-02,-3.226168622798878532e-02,2.809752257718632629e-02,-1.657017879188060760e-02,-2.076622210313028849e-01,-9.387345632500933290e-02,5.710771014290843411e-02,2.135282589294840438e-01,6.497107865694898288e-02,2.143607487732297756e-03,2.106316318185235126e-01,1.649710786569489884e-01,-5.677412105015360727e-02,5.016662942185903251e-01,-6.561495661735534668e-01
