timestamp,x,y,z,roll,pitch,yaw,vx,vy,vz,p,q,r,psp,qsp,rsp,pres,qres,rres,thrust_sp, thrust_res
0.000000000000000000e+00,-6.525431346279747004e-03,-2.154043097298507028e-02,9.999566078186035156e-01,7.201125861227277054e-03,-7.270504725758630826e-03,-7.784882920378648208e-03,9.163642300080921538e-03,-2.031952162762085470e-02,-6.283096037805080414e-03,-8.207343491764888810e-02,-9.155620776669278968e-03,8.751545838832542820e-03,-2.734822252822666222e-01,-8.947000316588384072e-02,-2.162402428745829330e-01,-1.967743992805481013e-01,-4.562855958938598355e-02,-1.944672346115112194e-01,5.025410846852089719e-01,-5.235419273376464844e-01,5.328023433685302734e-02,9.885883982025474381e+01,2.086974859237670787e-01
2.231800000000000103e-02,-6.576662044735732092e-03,-2.188367045158485721e-02,9.997818470001220703e-01,7.161031469984383870e-03,-7.210654501978774888e-03,-7.709689466191375039e-03,9.096100750495115031e-03,-2.855205964955013446e-03,-1.184780802577733994e-02,-2.667222408270977785e-02,3.867011727468791515e-02,-3.774569218607621429e-02,-2.765055058837893598e-01,1.535281077581009124e-01,1.007048069406312196e-01,-2.168266832828521784e-01,1.985097706317901500e-01,1.222420334815979004e-01,5.009693991235977251e-01,-6.291428208351135254e-01,8.720278739929199219e-03,9.170760443849471244e+01,2.086974859237670787e-01
5.289399999999999658e-02,-6.557834798711405407e-03,-2.269143190874446658e-02,9.992587566375732422e-01,6.834395388506532554e-03,-7.490777809949111798e-03,-7.147104138300467910e-03,8.711390336036154911e-03,-1.695150353755077097e-02,-3.831334644928574562e-03,-1.020315706969035334e-02,-5.090530199177969312e-02,3.255229936597298784e-02,1.190742605122302594e-01,-1.504320955959488892e-01,-2.443256443319835325e-01,1.912382841110229492e-01,-1.034384965896606445e-01,-2.243398189544677790e-01,5.026480112905693520e-01,-5.117992162704467773e-01,1.630996465682983398e-01,8.954191537722374505e+01,2.086974859237670787e-01
7.635200000000000320e-02,-6.398876476132019618e-03,-2.289221606626174604e-02,9.989032745361328125e-01,5.931888102061525642e-03,-6.848541660310791812e-03,-6.651618753360310533e-03,2.480200009980795383e-03,-6.332019789634644492e-03,-1.129739359021186829e-02,-3.558821391467812539e-02,3.277781427705985656e-02,1.479242051377778998e-02,-2.478107332834082743e-01,1.462732202749247590e-01,1.018283654838228747e-01,-1.919129133224487249e-01,1.940185546874999833e-01,1.204192578792571966e-01,5.036526254255383472e-01,-4.903836250305175781e-01,1.776326894760131836e-01,1.140811184989220806e+02,2.086974859237670787e-01
9.875399999999999456e-02,-6.222511016182565718e-03,-2.306321508044984273e-02,9.985598325729370117e-01,4.638901929376068253e-03,-6.911139714241398835e-03,-6.910170973200442310e-03,1.426124483653152392e-02,-5.838779736788964579e-03,-7.303798105567693710e-03,-1.073184731113897283e-01,-2.440839905787541703e-02,-4.902761162428589947e-02,-2.183182750590748344e-01,-1.437518855933310191e-01,-1.938558014573441568e-01,-1.694966733455657848e-01,-1.061630845069885254e-01,-1.745216846466064453e-01,5.008304909663415794e-01,-6.246340870857238770e-01,7.718588113784790039e-01,1.031522352608222377e+02,2.086974859237670787e-01
1.247849999999999931e-01,-6.055622120121969751e-03,-2.316069244784150008e-02,9.979494214057922363e-01,9.415264681771508401e-04,-8.671388809414981580e-03,-6.684275319973664690e-03,9.710814836509657887e-04,4.860420281332521360e-03,-1.512489654123783112e-02,-1.279147697677777418e-01,-5.196880882622283149e-02,7.329460567522382008e-02,1.093620469779619520e-01,-1.742751268540455867e-02,-2.411018438715780976e-01,1.257634162902832031e-01,4.395276904106139998e-02,-2.223774433135986273e-01,4.998749098056369800e-01,-7.087798714637756348e-01,-6.207056045532226562e-01,9.318537733712950910e+01,2.278719663619995228e-01
1.533410000000000051e-01,-5.979310171021990673e-03,-2.313710093464051848e-02,9.975244998931884766e-01,-1.322495058566583578e-03,-9.585131047923356462e-03,-5.941802247663228835e-03,8.392483583404679662e-03,1.376065833247653593e-04,-8.526764810085296631e-03,-9.532430236767933107e-02,-7.225379041169990857e-02,9.186075963555981674e-03,1.861097412505806348e-03,-1.116964662275297254e-01,-2.380967828444937040e-01,8.961188793182372353e-03,-5.239348411560058177e-02,-2.214119911193847545e-01,4.992187109363274145e-01,-7.192916870117187500e-01,-2.046191692352294922e-02,8.631678201341377132e+01,2.278719663619995228e-01
1.740810000000000135e-01,-6.152042478557952741e-03,-2.300320408241888701e-02,9.973050355911254883e-01,-2.566719600621556688e-03,-1.021265474730270739e-02,-5.831930854336385417e-03,6.860436720300684688e-03,-2.248614601513805687e-03,-1.730327866971492767e-02,-1.150172332327170921e-01,-6.767668845137057854e-02,2.706393567083373308e-02,1.329040143029604770e-01,-1.357316006170402600e-01,-2.396886826433952677e-01,1.331206798553466741e-01,-6.993477344512939731e-02,-2.232860326766967773e-01,4.998625680732302623e-01,-7.221584320068359375e-01,-1.438599824905395508e-01,8.105141650300761569e+01,2.278719663619995228e-01
1.996699999999999864e-01,-6.568298304707409670e-03,-2.264297008466698360e-02,9.967966079711914062e-01,-5.816147784451082027e-03,-1.113643348723836191e-02,-5.283086043178607596e-03,7.834184680567211206e-03,9.167944558203331568e-03,-1.980598084628582001e-02,-1.630606779460835876e-01,-3.105603587359406434e-02,2.589279369890359547e-02,1.960222528919479401e-01,-1.804396476660865417e-02,-2.346838906540548997e-01,1.654124736785888561e-01,5.303079485893249373e-02,-2.197852849960326982e-01,5.008483140817927559e-01,-6.835343241691589355e-01,4.022699594497680664e-01,8.111765567757841211e+01,2.278719663619995228e-01
2.226249999999999896e-01,-6.979568997277567181e-03,-2.218572030981112372e-02,9.962373375892639160e-01,-9.975425386985405096e-03,-1.103395630498238411e-02,-3.411008041623986471e-03,-2.128707909833815087e-04,9.389404494805769774e-03,-2.396840788424015045e-02,-1.623341086357975305e-01,1.316020699068927793e-04,1.375321274062933086e-01,2.540614969783194232e-01,8.809769736003168761e-02,-2.302325676420802214e-01,1.977117776870727373e-01,1.653850615024566595e-01,-2.204939603805541881e-01,5.007598097554792904e-01,-7.082198858261108398e-01,1.866730451583862305e-01,8.782380861226371849e+01,2.278719663619995228e-01
2.507849999999999802e-01,-7.587798152506514994e-03,-2.140736633664622884e-02,9.954925179481506348e-01,-1.322768675253693620e-02,-1.015107033923201563e-02,-5.573411026973232226e-05,4.994729278770090181e-03,2.855423095642823164e-02,-3.115086629986763000e-02,-3.955892468284415153e-02,6.075191220861330538e-02,1.363378922259097237e-01,-9.929812516787502041e-02,1.519915126880669320e-01,2.060672331667876833e-01,-1.925825357437133678e-01,2.186430573463439830e-01,2.063970386981963945e-01,5.062275404087019925e-01,-4.536008834838867188e-01,-9.032166004180908203e-02,1.602313475130534073e+02,2.278719663619995228e-01
2.741350000000000176e-01,-8.025749024443902188e-03,-2.084454834522794092e-02,9.950868487358093262e-01,-1.345253163901519340e-02,-9.789325534615311852e-03,2.324644821794732367e-03,-6.743826435107613641e-03,4.641947439419668621e-03,-1.134780328720808029e-02,3.816533918440220829e-02,-2.679189946797412222e-02,9.964613102220841456e-02,-3.836036082824766102e-02,-2.735861514422441298e-02,7.335239312206884299e-02,-1.113917112350463895e-01,4.753768444061279297e-02,6.709613800048827570e-02,5.212459592939584496e-01,4.247820377349853516e-01,1.044472455978393555e-01,9.924345460260732921e+01,2.278719663619995228e-01
3.007540000000000213e-01,-7.938022588491272513e-03,-2.046685061966240990e-02,9.944450259208679199e-01,-1.207429758268478183e-02,-7.541856492296439285e-03,6.363172441070517188e-03,1.327256882578621393e-02,2.117765307455815246e-02,-2.255051583051681519e-02,3.294955923801309861e-02,8.904263133982373568e-02,1.415859011498663556e-01,-1.422263075872828297e-01,1.711246526556990943e-01,2.347680386631600669e-01,-2.232447981834411455e-01,2.135719478130340410e-01,2.170580685138702448e-01,5.097905039545321815e-01,-2.372114658355712891e-01,5.384517908096313477e-01,7.415658642268986966e+01,2.278719663619995228e-01
3.231620000000000048e-01,-7.894110001026178464e-03,-2.021205520051079160e-02,9.940429925918579102e-01,-8.641370827685030537e-03,-6.557710371358771440e-03,8.886529997707138043e-03,-9.549125012861212417e-03,9.432480134734896882e-03,-1.616692729294300079e-02,2.199323830472313945e-01,5.284612832871924369e-03,1.331272432318605925e-01,-5.618173876406604844e-02,1.661419049689218941e-01,-1.510588559207616810e-01,-1.032852888107299721e-01,2.235411822795867753e-01,-1.758170127868652344e-01,5.092323854688534102e-01,-2.443796396255493164e-01,-2.616584300994873047e-02,-9.274035636175732122e+01,2.278719663619995228e-01
3.503399999999999848e-01,-7.825484903862197500e-03,-1.982097784442726079e-02,9.935722351074218750e-01,-2.322876262914571818e-03,-6.752656060586392783e-03,1.090053842747294895e-02,1.566908025732007340e-02,2.280499684669328245e-02,-1.678714714944362640e-02,2.296908334187059697e-01,-5.720140524461116843e-02,1.162200402751577440e-02,2.212840373374929670e-01,1.834019866826005485e-01,-1.831781877353569343e-01,2.027413487434387152e-01,2.182518839836120605e-01,-2.136861562728881725e-01,5.062685394130510552e-01,-4.067767858505249023e-01,4.791855812072753906e-03,3.373698515994220770e+01,2.278719663619995228e-01
3.723369999999999735e-01,-7.770844410709736895e-03,-1.948142505628569845e-02,9.931879639625549316e-01,5.497626875228666266e-04,-8.394146645964051245e-03,1.027868548604587463e-02,-3.931246925822065932e-03,2.083018643919989921e-02,-1.847301051020622253e-02,9.772029349714886348e-02,-9.102809184761796735e-02,-2.410889859580016628e-02,2.145703329072032040e-01,1.457170543409161134e-01,-1.765638879129778904e-01,2.178797721862792969e-01,2.106409907341003362e-01,-2.053523540496826061e-01,5.028347019512854343e-01,-5.971968173980712891e-01,6.936737298965454102e-01,1.568463877226651277e+02,2.278719663619995228e-01
3.998260000000000147e-01,-7.391096935143931686e-03,-1.879267408498395617e-02,9.925347566604614258e-01,1.787642709255913859e-03,-1.013946575031354769e-02,8.625193350357645422e-03,7.076760126935412350e-03,3.024296846024586080e-02,-2.409365400671958923e-02,3.897852337323224736e-03,-6.174327231452062664e-02,-5.639265392446033559e-02,2.035360983832448789e-01,1.583571807091985195e-01,-1.067181489053341259e-01,2.066901326179504395e-01,2.226261556148529108e-01,-1.309114336967468206e-01,5.104654341636430948e-01,-2.200924158096313477e-01,3.446233272552490234e-02,9.062857798360526829e+01,2.278719663619995228e-01
4.271739999999999982e-01,-6.980478876720605866e-03,-1.776685090997966870e-02,9.918290972709655762e-01,5.458826535941461739e-04,-1.267917323463851886e-02,8.398245024902488420e-03,-4.537110354912935427e-03,4.814237778636212134e-02,-2.231365442276000977e-02,-3.927946113892630958e-02,-9.934494411628520816e-02,9.448365225985574239e-03,1.302514600402988332e-01,-2.262998163655877970e-01,-2.003816631350321953e-01,1.115815401077270425e-01,-1.349029898643493708e-01,-2.239747524261474498e-01,5.016210962567777543e-01,-6.846711635589599609e-01,6.581810712814331055e-01,9.567973510126148540e+01,2.278719663619995228e-01
4.489299999999999957e-01,-6.873104693890326813e-03,-1.702761031347228143e-02,9.914425015449523926e-01,-2.754750519470709541e-04,-1.561562097140178906e-02,9.766669759507184967e-03,-5.428781805554993081e-03,3.853926414921520632e-02,-1.064492575824260712e-02,-1.239616064331504515e-02,-1.713017338436633175e-01,1.095282262912786325e-01,2.292452650563188421e-01,-2.470654487609863226e-01,-1.974236232648239886e-01,2.150335907936096191e-01,-1.470654487609863170e-01,-2.248087406158447155e-01,5.018518153580231456e-01,-6.288842558860778809e-01,3.489983081817626953e-02,1.052080334085368634e+02,2.278719663619995228e-01
4.756619999999999737e-01,-6.860658427879006913e-03,-1.598050960060945838e-02,9.910840392112731934e-01,1.707636846352254779e-03,-2.097902869239409718e-02,1.218573346013712352e-02,-2.143766956925198183e-02,3.929910206201592260e-02,-1.824366487562656403e-02,6.171189599864997793e-02,-1.346145576883024109e-01,1.064080514765180091e-01,2.173544802670918374e-01,-2.267271518707275335e-01,-1.845173881795260096e-01,2.133077144622802790e-01,-1.267271518707275280e-01,-2.187735915184020885e-01,5.051615118251284731e-01,-4.876124858856201172e-01,-9.035944938659667969e-03,9.647901066812553950e+01,2.278719663619995228e-01
4.989190000000000014e-01,-7.132442489346885184e-03,-1.521480473603841962e-02,9.908850193023681641e-01,4.821270418681031580e-03,-2.498234470215976444e-02,1.355976725148815877e-02,-8.123702618363256439e-03,3.150053902254444649e-02,-1.405387534759938717e-03,2.175648619251841775e-01,-2.223562891115404838e-01,6.717322281310605936e-02,1.972654647862993049e-01,-1.336374759674072155e-01,-1.778027520278710749e-01,2.194681406021118109e-01,-3.363747596740722379e-02,-2.159980773925781194e-01,5.012433056012171040e-01,-6.283835172653198242e-01,-2.633534669876098633e-01,7.529500137241257107e+01,2.278719663619995228e-01
5.260249999999999648e-01,-7.602058449296633831e-03,-1.410411794927961260e-02,9.906261563301086426e-01,9.214426051205829027e-03,-2.898263825898972357e-02,1.593673317780834597e-02,-2.141363908677197669e-02,3.417435236500809131e-02,1.889846520498394966e-03,1.356774020580470419e-01,-6.258363510502010230e-02,7.222804899561174885e-02,1.668979158010542863e-01,-2.923010826110840066e-01,-1.649963701162473206e-01,2.135650634765624833e-01,-1.923010826110839733e-01,-2.101251125335693304e-01,4.999689493837090604e-01,-6.836225390434265137e-01,2.607921361923217773e-01,7.489107081508718977e+01,2.278719663619995228e-01
5.491549999999999487e-01,-7.908266097291973690e-03,-1.333375702386526036e-02,9.904661774635314941e-01,1.224414154638785862e-02,-2.843135599063884023e-02,1.796352666908573523e-02,-1.453652986739360775e-02,3.782109970334567028e-02,-1.303248759359121323e-02,1.357973359952683590e-01,1.084238227939257754e-01,1.473186174977054452e-01,-2.873132480564031255e-01,8.792380690574644331e-02,2.654291516523634709e-01,-2.238770842552184892e-01,1.879238069057464489e-01,2.145033180713653564e-01,5.054220921238727904e-01,-4.577062129974365234e-01,-5.811818838119506836e-01,8.958278722921710369e+01,2.278719663619995228e-01
5.754160000000000386e-01,-8.271059578337257301e-03,-1.212178744887316105e-02,9.902531504631042480e-01,1.811028891884392325e-02,-2.409977110631977837e-02,2.097940766485785827e-02,-1.682775254396014220e-02,4.035314217200965808e-02,-6.937997415661811829e-03,2.053355332796955313e-01,1.981872534471760539e-01,1.038723878805574291e-01,-3.212285436713979148e-01,6.016757488250731867e-02,2.763399922012816923e-01,-2.221384763717651201e-01,1.601675748825073242e-01,2.168170273303985651e-01,5.017567699703456841e-01,-6.282393336296081543e-01,-2.853950262069702148e-01,-1.839719649169938620e+01,2.278719663619995228e-01
5.972889999999999588e-01,-8.524360074821137057e-03,-1.184103039122290021e-02,9.901341199874877930e-01,2.257597982745569026e-02,-2.024327132361847248e-02,2.291556060382455781e-02,-1.646695539803190791e-02,2.443086016484577114e-02,4.463461693376302719e-03,2.481362158734485845e-01,1.812753420852076247e-01,1.043020174203446726e-01,-3.233398914337158314e-01,7.926672697067260742e-02,2.780708285321631390e-01,-2.233398914337158259e-01,1.792667269706726130e-01,2.131628930568695013e-01,5.008249022730378863e-01,-6.327413916587829590e-01,-5.578263998031616211e-01,1.011178907372906082e+02,2.278719663619995228e-01
6.258669999999999511e-01,-8.963518684936545161e-03,-1.156031717306085782e-02,9.898867607116699219e-01,2.887444642981494905e-02,-1.359164847677662991e-02,2.551531278640799955e-02,-1.867930825253902305e-02,2.460028270396873856e-02,-3.597813891246914864e-03,1.366918374914486700e-01,2.541063520884411786e-01,3.129739675518076331e-02,-3.205761790275573619e-01,-2.187569141387940563e-02,2.774531067359335412e-01,-2.205761790275573564e-01,7.812430858612059992e-02,2.053210437297821045e-01,5.038258873551122452e-01,-5.086457133293151855e-01,8.605567216873168945e-01,-2.881451905153279425e-01,2.278719663619995228e-01
6.475400000000000045e-01,-9.219485637070506945e-03,-1.148831256139263256e-02,9.896546006202697754e-01,3.152312745014387851e-02,-9.524441299213481926e-03,2.506382249957879449e-02,-1.144389093004433318e-02,1.864522914751053084e-02,-6.261132191866636276e-03,9.588518266063600359e-02,1.571508966246189520e-01,-5.336614210451065543e-02,-3.224458932876587136e-01,9.052557716774171925e-02,2.842202026173745177e-01,-2.224458932876586803e-01,1.643124461174011175e-01,2.135322868824005016e-01,5.048884751887298128e-01,-4.648749828338623047e-01,5.471721887588500977e-01,-9.103720771107961696e+01,2.278719663619995228e-01
6.750220000000000109e-01,-9.628413798498497086e-03,-1.129860951685616142e-02,9.891174435615539551e-01,3.035225441530072649e-02,-6.324612776646754142e-03,2.165379793650732548e-02,-2.480640883380119677e-02,2.647071541289682320e-02,-1.899701729416847229e-02,-1.161534374786650919e-01,3.622791468923626523e-02,-1.446850846341013186e-01,-3.204003691673278920e-01,1.024722383339126131e-01,3.317120786581654462e-02,-2.204003691673278864e-01,1.676237761974334606e-01,-2.790949344635009627e-02,5.023340699889901062e-01,-6.533518433570861816e-01,-2.106177806854248047e-02,7.150837181731418468e+01,2.278719663619995228e-01
6.973340000000000094e-01,-1.013814972218615718e-02,-1.055046596404703683e-02,9.885841012001037598e-01,2.675618186584925035e-02,-5.995209796604950014e-03,1.911012096273652372e-02,-2.990819492469933005e-02,2.556111930600405216e-02,-2.277570962905883789e-02,-1.830995736764782500e-01,-4.573316342080655655e-02,-1.338822718857398952e-01,-3.228854715824127086e-01,1.346121362989989023e-01,1.970914121420404286e-01,-2.228854715824127031e-01,2.004326283931732178e-01,1.431822001934051347e-01,5.036160795538833224e-01,-6.047126054763793945e-01,1.773182153701782227e-01,9.273312319142627302e+01,2.278719663619995228e-01
7.236289999999999667e-01,-1.116009061753539013e-02,-8.633278172426322658e-03,9.876052737236022949e-01,1.851201001826884712e-02,-6.749762009293114318e-03,1.461046010473610393e-02,-1.894982486609619876e-02,3.029921493819434999e-02,-3.545290604233741760e-02,-3.222795507694031225e-01,-4.744912427880418337e-02,-1.909057202715878643e-01,-3.188023090362548939e-01,9.861180498508045900e-02,1.915328506844674594e-01,-2.188023090362548884e-01,1.608274161815643200e-01,1.503441631793975830e-01,5.038039412090886682e-01,-6.510989665985107422e-01,3.403910398483276367e-01,-1.022633271214800885e+02,2.278719663619995228e-01
7.502079999999999860e-01,-1.216550271587968184e-02,-6.668808832750130165e-03,9.862806200981140137e-01,7.530466857826515967e-03,-8.031086240027685008e-03,1.014024397044972423e-02,-2.449726231267419091e-02,3.627917658011837326e-02,-5.042958259582519531e-02,-4.361822873089717945e-01,-4.546900875383146773e-02,-9.676367017488095301e-02,-2.057045850638571094e-01,-1.390711491726173143e-01,-1.058611662802347309e-01,-1.773126840591430498e-01,-6.157071590423583707e-02,-1.344322443008422741e-01,5.040680148762414214e-01,-7.048957347869873047e-01,-2.658184766769409180e-01,1.059943247857887201e+02,2.278719663619995228e-01
7.760289999999999688e-01,-1.329411634622176472e-02,-4.758357359738634232e-03,9.847406148910522461e-01,-3.528460731772029013e-03,-1.027891383825041416e-02,6.797553981081010284e-03,-2.859085862113712462e-02,3.323938606884589003e-02,-4.297832399606704712e-02,-2.707697448583061828e-01,-1.237422306605241440e-01,-1.354098355359355244e-01,2.137220708875663400e-01,-2.705247296288799674e-01,-2.036552802973886078e-01,1.722450256347656250e-01,-1.748838186264038141e-01,-2.226742386817932018e-01,5.034048529511150338e-01,-7.193875312805175781e-01,2.077385187149047852e-01,6.770825263860501764e+01,2.278719663619995228e-01
7.988349999999999618e-01,-1.439889708734721531e-02,-3.358417577099256663e-03,9.837059974670410156e-01,-1.104597530738734602e-02,-1.208990868977921629e-02,4.323448885551287382e-03,-3.556419077558832520e-02,3.554212190091590728e-02,-4.421712830662727356e-02,-4.000155252760362323e-01,-1.107504336220581087e-01,-1.245554629293549459e-01,2.987845130836835894e-01,-2.862545967102050892e-01,-2.113314495861596254e-01,2.052216768264770452e-01,-1.862545967102050837e-01,-2.232490181922912598e-01,5.032468750521790213e-01,-7.398093342781066895e-01,1.164115667343139648e-01,4.664478593645902293e+01,2.278719663619995228e-01
8.257060000000000510e-01,-1.553304196988659729e-02,-1.837709951544651754e-03,9.825979471206665039e-01,-1.768703270284683465e-02,-1.428508791780247478e-02,1.927817505889289299e-03,-2.263082047639824665e-02,4.968652996890583068e-02,-4.555817320942878723e-02,-3.108423545270444510e-01,-1.135958004421495082e-01,-1.194974426910992565e-01,3.189475417137145885e-01,-2.941898226737976185e-01,-2.199196044644787795e-01,2.189475417137145830e-01,-1.941898226737976130e-01,-2.250021457672118919e-01,5.036144356044719439e-01,-7.333031296730041504e-01,4.489527940750122070e-01,7.979898520546989005e+01,2.278719663619995228e-01
8.507149999999999990e-01,-1.668748136608090224e-02,-2.000066163386614185e-04,9.814755320549011230e-01,-2.445324291070209710e-02,-1.564531997005103037e-02,1.074763498458010825e-03,-3.562877115822217500e-02,5.008647962944597770e-02,-4.719219729304313660e-02,-3.172058587801910856e-01,-4.394252267090452413e-02,-1.211328544473497595e-02,3.216837167739868275e-01,-1.542652368545532338e-01,-2.233613995270323505e-01,2.216837167739868220e-01,-5.426523685455322127e-02,-2.257912874221801591e-01,5.037881814732251273e-01,-7.384945154190063477e-01,2.151910066604614258e-01,1.009726877457253096e+02,2.278719663619995228e-01
8.764269999999999561e-01,-1.782402326144088417e-02,1.580105373948615831e-03,9.804573655128479004e-01,-2.991203993782760515e-02,-1.542209568996133484e-02,1.056595451691854292e-03,-3.304651252056874100e-02,5.981633631593338135e-02,-4.306799173355102539e-02,-2.009083512386494186e-01,3.255462692672602548e-02,1.808865459831422370e-02,3.237180829048156849e-01,1.129018425941467063e-01,-2.237558014497460224e-01,2.237180829048156794e-01,2.129018425941467119e-01,-2.260354399681091253e-01,5.034409747021365567e-01,-7.477266192436218262e-01,2.886050939559936523e-01,9.746267402182327544e+01,2.278719663619995228e-01
9.008119999999999461e-01,-1.893599694191887631e-02,3.371473381009599569e-03,9.796153306961059570e-01,-3.238680277714942740e-02,-1.363124060080278532e-02,1.573483204978998271e-03,-2.686467735221073974e-02,6.204946161048981862e-02,-3.851693868637084961e-02,-1.124408776665733328e-01,1.370137123480427155e-01,1.833304177745145175e-02,3.168666124343871848e-01,1.177176237106323242e-01,-2.166397701484847615e-01,2.168666124343872070e-01,2.177176237106323298e-01,-2.203870654106140081e-01,5.033061713357498412e-01,-7.430937290191650391e-01,-5.072915554046630859e-02,9.240835452658134841e+01,2.278719663619995228e-01
9.253500000000000059e-01,-2.022498347187303216e-02,5.052025435779999678e-03,9.788563847541809082e-01,-3.174070052605224707e-02,-1.053748035492141355e-02,2.840033950243316379e-03,-4.366522425739766122e-02,5.583624252409780803e-02,-2.991886250674724579e-02,1.017331394173385944e-01,1.548845805400039244e-01,1.060703627139744087e-01,-4.120371341705320045e-02,1.146992802619933860e-01,2.264136872188242666e-01,-1.412037134170532060e-01,2.146992802619933915e-01,2.190929532051086315e-01,5.035606017612467289e-01,-7.014732956886291504e-01,1.223906278610229492e-01,1.024982719685501849e+02,2.278719663619995228e-01
9.488790000000000280e-01,-2.149280900860085775e-02,6.719006758179497073e-03,9.782472252845764160e-01,-2.840797323854571399e-02,-6.339518052561832206e-03,3.883684622686156204e-03,-3.146955300115261700e-02,7.115055056512742393e-02,-2.861370705068111420e-02,1.957268080476393113e-01,2.496289354665011673e-01,2.653759614167049141e-02,1.620736479759216364e-01,1.384054690811279964e-01,2.254509568298448119e-01,6.207364797592163086e-02,2.143475711345672607e-01,2.149051487445831354e-01,5.033093898721436865e-01,-7.145562767982482910e-01,2.171026468276977539e-01,9.023993338964237410e+01,2.278719663619995228e-01
9.732370000000000188e-01,-2.270845210249967591e-02,8.390938284431388727e-03,9.777756929397583008e-01,-2.343090219893924700e-02,-1.874144045686643167e-03,5.333967221182549928e-03,-3.810795821866652666e-02,5.185936765645680208e-02,-1.394983008503913879e-02,2.754200068278028213e-01,2.237113923733897169e-01,9.511836400903832256e-02,3.365459442138672708e-02,1.672520085312731719e-01,2.370660114535691199e-01,-6.634540557861327847e-02,2.223430395126342607e-01,2.223398745059967097e-01,5.037195424131116761e-01,-6.385374665260314941e-01,-8.625233173370361328e-02,1.711429845234989671e+02,2.278719663619995228e-01
1.003181000000000100e+00,-2.448418611712186235e-02,1.094888459568161415e-02,9.773866534233093262e-01,-1.243322479247994071e-02,4.406367191289728424e-03,7.601607824559956580e-03,-3.113749188969263532e-02,7.423262866767603441e-02,-1.711863279342651367e-02,3.748683268048147443e-01,1.811923262700646797e-01,9.979973388321708438e-02,8.716428875923157293e-02,2.156009319852780215e-01,2.423650155796797934e-01,-1.283571124076843262e-02,2.243579328060150146e-01,2.210868358612060602e-01,5.059482488323557847e-01,-5.374463796615600586e-01,-2.483588457107543945e-01,6.381171167938278899e+01,2.278719663619995228e-01
1.023978999999999973e+00,-2.509402712865799190e-02,1.184488495795303978e-02,9.773252606391906738e-01,-8.001894430453097493e-03,5.304618913384961942e-03,8.432165256212839285e-03,-3.915612514478630790e-02,6.718789969730594447e-02,5.411436315625905991e-03,4.628093358109892641e-01,7.869851362753965685e-02,7.406451165143132509e-02,2.772820353507995383e-01,2.136442598987352837e-01,1.587078692468213981e-01,1.772820353507995605e-01,2.247752130031585582e-01,1.350979506969451904e-01,5.049624362916952380e-01,-5.015398859977722168e-01,2.801154851913452148e-01,9.068126606286274694e+01,2.278719663619995228e-01
1.054057000000000022e+00,-2.616834139932575076e-02,1.322355332720810510e-02,9.772396683692932129e-01,-3.523342835833372783e-05,6.680519401277784652e-03,1.012438984296457935e-02,-4.276152929201394032e-02,7.029175847015754763e-02,-2.109000086784362793e-02,3.317705184038023947e-01,8.598713973479189809e-02,5.336645925793077894e-02,1.024248071733381282e-01,2.206362824340113993e-01,2.207197755453789434e-01,4.453117847442626676e-02,2.249643445014953558e-01,1.923634529113769365e-01,5.066082938915240641e-01,-5.219984650611877441e-01,3.009988069534301758e-01,9.338248976638689669e+01,2.278719663619995228e-01
1.077823999999999893e+00,-2.701360935458612528e-02,1.422879615590798286e-02,9.772254228591918945e-01,7.188655833510372226e-03,5.985113366717031980e-03,9.388429073068148972e-03,-3.127881938364466402e-02,7.651901554630402558e-02,-8.912377990782260895e-03,3.566338634787740158e-01,-5.385078985025418957e-02,-8.217411481380024196e-02,2.260040388065202854e-01,2.252196144924753229e-01,-9.900994615961553058e-02,2.095550179481506237e-01,2.251296758651733232e-01,-1.252978205680847223e-01,5.062224310707695851e-01,-4.959077239036560059e-01,7.887965440750122070e-01,1.241910757159157441e+02,2.278719663619995228e-01
1.100713000000000052e+00,-2.780580113254876862e-02,1.530740337130459365e-02,9.771497249603271484e-01,1.194655768498267129e-02,4.513753261005781781e-03,7.380692760201525322e-03,-2.886346199513706995e-02,7.494533796035227069e-02,-1.714537851512432098e-02,2.050035920670857659e-01,-1.013625341399985585e-01,-7.137912723485673183e-02,2.045294628949109739e-01,2.083995769173307422e-01,-1.783247979157865371e-01,2.203875660896301159e-01,2.183118581771850419e-01,-1.990371823310851940e-01,5.042940518279637185e-01,-6.324437856674194336e-01,6.013303995132446289e-01,-2.698048519333743123e+00,2.278719663619995228e-01
1.128182000000000018e+00,-2.893508831099658382e-02,1.707133665241231460e-02,9.769438505172729492e-01,1.727876448591467856e-02,1.011643307446741247e-03,3.624050456373698569e-03,-3.659406448106970744e-02,7.684433721338848611e-02,-1.917985081672668457e-02,1.841403352433770013e-01,-1.356409193146173031e-01,-1.227915028897163391e-01,1.709615515680391606e-01,1.754773355597804563e-01,-1.389084427372588304e-01,2.184830546379089300e-01,2.157735407352447399e-01,-1.492926478385925293e-01,5.049042268667905953e-01,-6.114646792411804199e-01,-1.309500932693481445e-01,3.517528981045807512e+01,2.278719663619995228e-01
1.150678000000000090e+00,-2.965227942769437658e-02,1.830897466751455621e-02,9.766857028007507324e-01,1.925346287480127205e-02,-1.970921813928327992e-03,6.663576939405586787e-04,-2.293209819012570830e-02,7.902215533914291878e-02,-2.641475945711135864e-02,4.295363540594463597e-02,-1.416014504955141751e-01,-1.481632464054229159e-01,1.591406751516173390e-01,1.719608301247591842e-01,-9.145033462061752383e-02,2.171652317047119141e-01,2.204236865043640026e-01,-9.362500905990600586e-02,5.080346484977128485e-01,-4.779504537582397461e-01,-2.494227886199951172e-02,4.958327675137108059e+01,2.278719663619995228e-01
1.181718999999999964e+00,-3.102208648298751884e-02,2.097679263634278854e-02,9.762805700302124023e-01,2.313131582673815662e-02,-7.806686010436880707e-03,-3.374346042532228463e-03,-3.544516553255306485e-02,7.335083416516413601e-02,-2.141767181456089020e-02,1.853549324230627793e-01,-2.029720217595941123e-01,-8.526047771164652067e-02,1.327302542421404663e-01,9.768667745477763176e-02,-2.085231045378873327e-01,2.188443303108215388e-01,1.974632084369659368e-01,-1.997840166091919001e-01,5.044294829488606968e-01,-6.527175903320312500e-01,1.998411417007446289e-01,-5.749658707468069707e+01,2.278719663619995228e-01
1.204920999999999909e+00,-3.194796335029456702e-02,2.263331912356001882e-02,9.760981202125549316e-01,2.640756925393812973e-02,-1.245433629051007074e-02,-6.586029415867824741e-03,-3.821008139590459374e-02,6.619827237972825129e-02,-1.780535653233528137e-02,1.677924372824701194e-01,-2.303426300446645703e-01,-1.751067429694285749e-01,1.160043001174926591e-01,5.545681118965148371e-02,-2.023457228147632347e-01,2.160043001174926647e-01,1.554568111896514893e-01,-1.849165678024291826e-01,5.050970819940263645e-01,-6.059912443161010742e-01,1.715441942214965820e-01,1.036536735987387203e+02,2.278719663619995228e-01
1.226979000000000042e+00,-3.293238096741325782e-02,2.417425546577542730e-02,9.758902788162231445e-01,2.949977791305282565e-02,-1.702005581958676572e-02,-8.475266136649804716e-03,-3.724222665751510120e-02,6.651559586679628433e-02,-2.841234579682350159e-02,1.440488094220729598e-01,-2.216218122574377392e-01,-6.080136188178032752e-02,1.165096998214721624e-01,-1.041969060897827148e-01,-2.185919270962937977e-01,2.165096998214721680e-01,-4.196906089782714497e-03,-1.962193965911865068e-01,5.045299555252598100e-01,-6.812950372695922852e-01,-2.963436841964721680e-01,-1.376542938153596651e+02,2.278719663619995228e-01
1.251273999999999997e+00,-3.455896615573658681e-02,2.638381601874223437e-02,9.756423234939575195e-01,3.475562178098158539e-02,-2.404775866753827707e-02,-9.022298779778149813e-03,-4.181274820068951042e-02,6.672785038389707213e-02,-2.109606191515922546e-02,2.012576688445711082e-01,-2.216273958975658875e-01,5.059089137931962327e-02,7.366716861724853516e-02,-2.912871003150939719e-01,-2.053542170341711437e-01,1.736671686172485407e-01,-1.912871003150939941e-01,-1.821335792541503851e-01,5.035599430668559195e-01,-7.068946361541748047e-01,4.987442493438720703e-02,5.733022415706669506e+01,2.278719663619995228e-01
1.276237999999999984e+00,-3.543497871652157016e-02,2.757062152525540169e-02,9.755895137786865234e-01,3.913638024832419293e-02,-2.855438218909056580e-02,-9.099087043484029372e-03,-5.695793177951175013e-02,4.946336768825389252e-02,-1.802150858566164970e-03,2.312220938851426710e-01,-2.406792931340965003e-01,-2.094130714843167249e-02,-7.384341955184936523e-02,-3.062982082366943470e-01,-1.754944002377442080e-01,2.615658044815063338e-02,-2.062982082366943415e-01,-1.525965929031372070e-01,5.019771590941962680e-01,-7.153986692428588867e-01,8.235806226730346680e-01,-6.453978935433863917e+00,2.278719663619995228e-01
1.304251000000000049e+00,-3.736292678633874181e-02,2.961686800892353658e-02,9.755247235298156738e-01,4.688288749370526920e-02,-3.588178904997096907e-02,-8.666799532712876619e-03,-5.658015120256485592e-02,4.948146234579326591e-02,-9.279124438762664795e-03,2.154361500938469232e-01,-1.896998228296119804e-01,-1.565218322349143029e-02,-3.012800276279449241e-01,-3.144670724868774414e-01,1.767091202312958131e-01,-2.012800276279449463e-01,-2.144670724868774359e-01,1.973813474178314209e-01,5.027108250292475766e-01,-7.084036469459533691e-01,7.874978780746459961e-01,-6.646355994539692347e+01,2.174614191055297963e-01
1.328591000000000077e+00,-3.790400313154976275e-02,3.005140880784263127e-02,9.755169749259948730e-01,4.835925597229734363e-02,-3.758430627714903771e-02,-8.251794126669462909e-03,-7.164799942706671920e-02,3.481331362673364266e-02,-7.676338776946067810e-03,2.008964965751091902e-01,-1.956873171261786226e-01,6.435451586191409667e-02,-3.119970798492431863e-01,-3.129904985427856556e-01,1.387751393567976110e-01,-2.119970798492431530e-01,-2.129904985427856501e-01,1.580172121524810736e-01,5.025628253775831222e-01,-7.116396427154541016e-01,9.239140748977661133e-01,-6.664102192041218586e+01,2.174614191055297963e-01
1.349185000000000079e+00,-3.974684339258698768e-02,3.117688864702250137e-02,9.755513072013854980e-01,5.268344677911369900e-02,-4.185162000931086368e-02,-6.875892127421488927e-03,-5.744712204518365867e-02,4.329773414873252374e-02,-1.182403694838285446e-02,1.706761722693604377e-01,-1.065065501691944833e-01,6.561193261406483845e-02,-3.196057558059692272e-01,-3.181954860687256081e-01,2.109919336014366709e-01,-2.196057558059692216e-01,-2.181954860687255748e-01,2.257689177989959661e-01,5.023842354516342423e-01,-7.389212250709533691e-01,3.615367412567138672e-02,7.257472827129325310e+01,2.174614191055297963e-01
1.375237999999999960e+00,-4.154473507996758741e-02,3.259933696352421834e-02,9.757279157638549805e-01,5.656817518269580819e-02,-4.431122764538253378e-02,-4.966906338970487195e-03,-7.769179540044253429e-02,1.837078899316159711e-02,2.547539537772536278e-03,1.563880358596608511e-01,-7.532269129651254780e-02,3.814694855979141458e-02,-3.217763066291808860e-01,-3.191130876541137806e-01,2.183935745553426955e-01,-2.217763066291809082e-01,-2.191130876541137751e-01,2.272882819175719993e-01,5.011651954628886241e-01,-7.467802166938781738e-01,-3.313437700271606445e-01,1.093574006500762863e+02,2.174614191055297963e-01
1.401062999999999947e+00,-4.275703980192854803e-02,3.352093119440320568e-02,9.758782982826232910e-01,5.800913617799857702e-02,-4.364712814670324015e-02,-3.261298105675991110e-03,-7.233138989256250595e-02,1.328943853968486515e-02,-7.461058907210826874e-03,4.786902954251699704e-02,8.592414572816702012e-02,1.202930754186550266e-01,-3.258145153522491455e-01,-2.883196115493774636e-01,2.145573289721647015e-01,-2.258145153522491400e-01,-1.883196115493774303e-01,2.187042653560638261e-01,5.023077980383777730e-01,-7.271252870559692383e-01,1.973116397857666016e-02,1.259593980316537056e+02,2.174614191055297963e-01
1.424506000000000050e+00,-4.464283114589328444e-02,3.467703438861748089e-02,9.760274887084960938e-01,5.871106693807418703e-02,-3.848229688217297273e-02,-8.157123395588660635e-04,-8.416722252995445519e-02,1.082837836204701178e-02,-2.015076018869876862e-02,-5.578531615338518795e-02,2.923525812403918733e-01,8.834183867343851915e-02,-3.209217011928558461e-01,-9.838312864303588867e-02,1.622866125833628825e-01,-2.209217011928558405e-01,1.616871356964111241e-03,1.598442256450653132e-01,5.048149526957824706e-01,-6.473517417907714844e-01,2.878397703170776367e-01,1.173187989202373842e+02,2.174614191055297963e-01
1.449597000000000024e+00,-4.590223893693023277e-02,3.520143758001521850e-02,9.760971665382385254e-01,5.814097877350424270e-02,-3.291137790262310681e-02,-4.780728199215285258e-04,-7.049636406646808684e-02,-2.784707941208087144e-03,-1.445013284683227539e-02,-6.511004519502902599e-02,3.078472598178803032e-01,-2.947802098618171329e-02,-3.196516215801238903e-01,-6.110031604766846119e-02,1.486174512104977696e-01,-2.196516215801238847e-01,3.889968395233154436e-02,1.460197985172271562e-01,5.040657493767833897e-01,-6.654121875762939453e-01,-9.260761737823486328e-02,1.184463128880447442e+02,2.174614191055297963e-01
1.474107000000000056e+00,-4.749034838710671641e-02,3.569564449961731833e-02,9.759766459465026855e-01,5.334631160484016449e-02,-2.263607262610678461e-02,-2.181001967385150404e-03,-8.125494648667230813e-02,-1.260556735286488990e-02,-2.286628261208534241e-02,-2.453303930845788516e-01,3.414110019536266694e-01,-7.496903514019399861e-02,-3.181721508502960427e-01,2.054637670516966386e-02,6.668495336689286845e-02,-2.181721508502960094e-01,1.205463767051696694e-01,6.987892985343932550e-02,5.040893729447132321e-01,-7.006176710128784180e-01,1.871174573898315430e-01,6.784848325245455669e+01,2.174614191055297963e-01
1.498439999999999994e+00,-4.852254495314668736e-02,3.591364003131973515e-02,9.757765531539916992e-01,4.852916792940900614e-02,-1.543750947319577627e-02,-4.073222087874919621e-03,-6.799994423831080825e-02,-1.375985096112229862e-02,-2.241307869553565979e-02,-2.379316655428458382e-01,3.310441616545091725e-01,-1.273230104077898162e-01,-3.181961119174957497e-01,6.404054164886471834e-03,4.916579050793293271e-02,-2.181961119174957164e-01,1.064040541648864774e-01,5.854293107986449640e-02,5.049576685443214474e-01,-6.557872295379638672e-01,3.141950368881225586e-01,8.992398932920509935e+01,2.174614191055297963e-01
1.522844000000000086e+00,-5.010638706177194396e-02,3.600113655208048158e-02,9.753379821777343750e-01,3.973441932777273949e-02,-5.243050620510558701e-03,-7.775506057684618971e-03,-8.721489926008237081e-02,-2.378188810854801882e-02,-2.305211685597896576e-02,-2.780204633797637159e-01,3.110117042900186202e-01,-1.420172079474799620e-01,-3.182484686374664196e-01,3.008767366409301203e-02,6.208944541945365936e-02,-2.182484686374664140e-01,1.300876736640930176e-01,8.265048265457153320e-02,5.043313982629743508e-01,-6.961057186126708984e-01,1.226485967636108398e-01,8.972426776768475065e+01,2.174614191055297963e-01
1.552786000000000000e+00,-5.170210171597833249e-02,3.586714030353001931e-02,9.745839238166809082e-01,2.932250395847427887e-02,5.307001630702190553e-03,-1.162261222242587898e-02,-7.162974363922162968e-02,-1.954135826851541649e-02,-5.568085238337516785e-02,-3.995443539136862565e-01,4.083401199709206786e-01,-1.057960415946816723e-01,-3.193243920803069957e-01,1.463875532737798357e-01,1.164700278194298055e-01,-2.193243920803069902e-01,1.983529865741729681e-01,1.486541748046874833e-01,5.069413166540134297e-01,-6.937160491943359375e-01,3.268691301345825195e-01,8.860348153620985556e+01,2.174614191055297963e-01
1.577631000000000006e+00,-5.307177653393078953e-02,3.571842342978581719e-02,9.740541577339172363e-01,2.240981751045774059e-02,1.059030761779533591e-02,-1.411505954118775878e-02,-7.701538575022717770e-02,-2.664845016764172403e-02,-4.378276318311691284e-02,-3.386199754970434239e-01,2.527976349077020735e-01,-1.211414718823022041e-01,-3.191748857498168945e-01,1.828476266246559234e-01,7.357894902145978300e-02,-2.191748857498168890e-01,2.083969116210937500e-01,1.129653453826904297e-01,5.057426720959018462e-01,-7.159084677696228027e-01,-3.220556974411010742e-01,1.115721168092096036e+02,2.174614191055297963e-01
1.602368999999999932e+00,-5.511989206960418025e-02,3.538354607685477438e-02,9.732547402381896973e-01,1.223009575134101877e-02,1.607378284307214855e-02,-1.779027019314319974e-02,-8.036737113536666921e-02,-3.184350852046389374e-02,-3.306203335523605347e-02,-3.250289858676793098e-01,1.267459613247312877e-01,-1.355120419972090096e-01,-2.894519707587578372e-01,2.222362715216984197e-01,-5.542683570574760687e-03,-2.159587562084197832e-01,2.157880067825317383e-01,4.428262710571288785e-02,5.048413341303933377e-01,-7.274053096771240234e-01,2.407549619674682617e-01,9.223278451396616617e+01,2.174614191055297963e-01
1.627418999999999949e+00,-5.649487136683990773e-02,3.511538079745429863e-02,9.726699590682983398e-01,5.659564799356148722e-03,1.806028885694255237e-02,-1.942445705784239668e-02,-8.052721091619269300e-02,-2.914117992818577099e-02,-3.167477622628211975e-02,-2.912499826868781838e-01,6.876066852146044128e-02,-4.434071550937874334e-02,-2.261176419769068136e-01,2.373544248282800639e-01,-7.647950532313839422e-03,-1.978406846523284857e-01,2.188660204410552979e-01,4.676195383071899553e-02,5.051031204605677116e-01,-7.134310603141784668e-01,6.800934076309204102e-01,-1.305491622104972160e+00,2.174614191055297963e-01
1.651793999999999984e+00,-5.849985262399742814e-02,3.483034645881979280e-02,9.718855023384094238e-01,-4.419265465445715302e-03,1.920957812960977229e-02,-2.175076704619818141e-02,-5.655185683127648272e-02,-1.788458670117954244e-02,-3.265217691659927368e-02,-2.754227347523575120e-01,-2.931588507347906991e-02,-8.720914806829026256e-02,1.130788813424172534e-01,2.609402925857224886e-01,-2.361965804669312330e-01,6.743663549423217773e-02,2.174545884132385309e-01,-1.753165483474731501e-01,5.051345985070491151e-01,-7.211554646492004395e-01,3.537237644195556641e-02,1.400317050805226700e+02,2.174614191055297963e-01
1.677238999999999924e+00,-5.989277837608388694e-02,3.460096883581303961e-02,9.713906049728393555e-01,-1.140795189931849939e-02,1.910975523410129995e-02,-2.338334225637367716e-02,-7.348570886847573258e-02,-3.092151570116553547e-02,-3.214759379625320435e-02,-3.708230088892064402e-01,-2.110789182207755549e-02,-7.471183425913698051e-02,2.803453489083881367e-01,2.453852670083522258e-01,-2.803299136606305919e-01,2.018252491950988659e-01,2.202704250812530518e-01,-2.149228334426879772e-01,5.051400026383224828e-01,-7.245028614997863770e-01,2.306872606277465820e-01,1.122334293850285718e+02,2.174614191055297963e-01
1.702263999999999999e+00,-6.184155907497151244e-02,3.440520340800894139e-02,9.706200957298278809e-01,-2.163524732207653192e-02,1.764025110771405558e-02,-2.614453394865479813e-02,-5.610936321561859480e-02,-3.422257553391532849e-03,-4.967857152223587036e-02,-4.075695626158737928e-01,1.503103660776237104e-02,-7.177008210101590291e-02,3.204991102218627819e-01,2.550022464770715924e-01,-2.960834415832972466e-01,2.204991102218627763e-01,2.245857238769531083e-01,-2.230008602142334040e-01,5.063804639473696856e-01,-7.348573207855224609e-01,-1.775318384170532227e-01,1.093873441993976172e+02,2.174614191055297963e-01
1.725946999999999898e+00,-6.305980682050715824e-02,3.442304225857346217e-02,9.701156020164489746e-01,-2.847536415519019704e-02,1.525542835446347389e-02,-2.772891718065362970e-02,-6.094967152681262518e-02,-3.946984393909721417e-03,-2.984397485852241516e-02,-3.168174966940527360e-01,-1.435845345598278366e-01,-8.201257385984718484e-02,3.188454389572143444e-01,7.596315468981441887e-02,-3.026850859814559924e-01,2.188454389572143388e-01,6.854159832000732144e-02,-2.250949501991271751e-01,5.048950499262766511e-01,-7.401458621025085449e-01,7.888714075088500977e-01,-5.358211686888718361e+01,2.174614191055297963e-01
1.750863000000000058e+00,-6.484806036913522143e-02,3.475874235131154455e-02,9.694036841392517090e-01,-3.884552345799310857e-02,1.010398303961723698e-02,-2.958342981278511488e-02,-6.215985910300718398e-02,6.554796622840991342e-03,-2.195189334452152252e-02,-3.136589316977359543e-01,-1.825156604402455307e-01,-8.539927889504457525e-02,3.232820987701415794e-01,-1.687436187726654713e-01,-3.090289733623866053e-01,2.232820987701416016e-01,-1.410072684288024847e-01,-2.260079383850097656e-01,5.045666465834366399e-01,-7.319126129150390625e-01,2.925714254379272461e-01,9.157057718336591279e+01,2.174614191055297963e-01
1.773708000000000062e+00,-6.615457245690480048e-02,3.528926884806268816e-02,9.689671993255615234e-01,-4.560498447610214501e-02,5.946685061355427848e-03,-3.000880874631301626e-02,-5.584778067168177235e-02,2.368037862620079106e-02,-3.851693123579025269e-02,-3.719168541870860878e-01,-1.612316616789910284e-01,1.725960444372217489e-02,3.256227016448974831e-01,4.427626963864336740e-02,-3.118879795756560047e-01,2.256227016448974498e-01,9.474154114723205844e-02,-2.274601221084594505e-01,5.058551389550978161e-01,-7.346265316009521484e-01,2.320851087570190430e-01,1.157260807680604415e+02,2.174614191055297963e-01
1.799400000000000110e+00,-6.765257374991362482e-02,3.605445898094850748e-02,9.686177372932434082e-01,-5.014215462331878675e-02,5.293249490401219504e-04,-2.940943698391344785e-02,-5.454950065269174170e-02,3.189873837985755106e-02,-1.063694898039102554e-02,-1.774221569312461333e-01,-3.202728793811165930e-01,3.592676781790446472e-02,3.250004649162292480e-01,-2.893032526768890000e-01,-3.107187792222136369e-01,2.250004649162292425e-01,-2.019025683403015137e-01,-2.275932312011718639e-01,5.041320070958115185e-01,-7.190205454826354980e-01,5.888761281967163086e-01,-6.468907594525395766e+00,2.174614191055297963e-01
1.823422000000000098e+00,-6.996391069702784238e-02,3.747847639514484408e-02,9.684218168258666992e-01,-5.269716672952882291e-02,-8.568979100039841867e-03,-2.655492485420563042e-02,-5.911020437071134309e-02,4.917822038979736271e-02,6.571383681148290634e-03,2.715680221897591798e-02,-3.380668009148389275e-01,1.028475168375803800e-01,3.257513761520385298e-01,-3.100345969200134499e-01,-3.023207627429932431e-01,2.257513761520385520e-01,-2.100345969200134166e-01,-2.265800714492797741e-01,5.032766796996294145e-01,-6.986760497093200684e-01,1.224337816238403320e-01,9.854490383543344478e+01,2.174614191055297963e-01
1.847830000000000084e+00,-7.155513600327370605e-02,3.854270232207723801e-02,9.685756564140319824e-01,-5.106073996239067492e-02,-1.530697684982729179e-02,-2.434747493529327428e-02,-7.334712160619639987e-02,3.513460646384170688e-02,1.066535059362649918e-02,1.128805227681752565e-01,-3.518401687907486419e-01,9.588471008804334839e-02,3.254840135574340598e-01,-3.098250627517700195e-01,-2.950675533859173361e-01,2.254840135574340820e-01,-2.098250627517700140e-01,-2.249785065650939941e-01,5.034593886347775715e-01,-6.735367774963378906e-01,2.686632871627807617e-01,6.467432359042037149e+01,2.174614191055297963e-01
1.873367000000000004e+00,-7.375883506555630520e-02,4.007665616056543811e-02,9.689993858337402344e-01,-4.546554307769615222e-02,-2.394437890389444767e-02,-2.030194631324904950e-02,-5.494107673052797680e-02,5.740920119109493153e-02,1.612149365246295929e-02,1.727506426851068422e-01,-2.612721839663071921e-01,1.238915672048873790e-01,3.254837274551391491e-01,-3.072560787200927512e-01,-2.827366074272773533e-01,2.254837274551391435e-01,-2.072560787200927734e-01,-2.240651607513427790e-01,5.033387612229728303e-01,-6.573301553726196289e-01,-2.396510839462280273e-01,-1.131915614916087947e+02,2.174614191055297963e-01
1.898106000000000071e+00,-7.494685580402686564e-02,4.090148868238244889e-02,9.693540930747985840e-01,-4.046863987798212520e-02,-2.715674177570992498e-02,-1.736384434602328622e-02,-7.184361316050534574e-02,6.029776820772708018e-02,1.587445661425590515e-02,2.645086244315347779e-01,-1.066997047424318723e-01,1.666663459941000736e-01,3.248304486274719016e-01,-2.954552173614501953e-01,-2.637669161602579915e-01,2.248304486274719238e-01,-1.954552173614501898e-01,-2.133492708206176647e-01,5.031831240388399129e-01,-6.665923595428466797e-01,1.115063428878784180e-01,1.007598249002418669e+02,2.174614191055297963e-01
1.929640999999999940e+00,-7.731769021788595375e-02,4.316198985169309582e-02,9.702847599983215332e-01,-2.835270447499911931e-02,-2.822964828937912785e-02,-1.171360294679976016e-02,-7.020848780080710116e-02,7.700734907879154545e-02,2.837239392101764679e-02,3.227387935741850566e-01,5.972105230034614742e-02,1.681816611093986391e-01,3.219179987907409557e-01,-5.231978297233582514e-02,-1.566862941551207256e-01,2.219179987907409501e-01,4.768021702766418041e-02,-1.229658365249633734e-01,5.014496271581163622e-01,-7.051059603691101074e-01,1.486076116561889648e-01,8.790102390083072237e+01,2.174614191055297963e-01
1.948603000000000085e+00,-7.791559907487434489e-02,4.385053011622528502e-02,9.705703258514404297e-01,-2.486816300452696082e-02,-2.769286795974323923e-02,-1.033458283552583963e-02,-5.755018593791869086e-02,8.607460435736399851e-02,3.101431578397750854e-02,3.336454428821429841e-01,5.688677930893763085e-02,1.433114147171229424e-01,3.228082418441772239e-01,-3.987789154052748253e-03,-1.329270288061104588e-01,2.228082418441772461e-01,9.601221084594725730e-02,-1.033721566200256348e-01,5.009991050308192362e-01,-7.169058322906494141e-01,3.661502599716186523e-01,9.820473309401013751e+01,2.174614191055297963e-01
1.974334000000000033e+00,-7.955911236628071537e-02,4.624701136456207951e-02,9.713957309722900391e-01,-1.495160894836919385e-02,-2.241775602159723491e-02,-5.856865626448560722e-03,-6.726774631070751853e-02,8.996363818464905848e-02,3.960644453763961792e-02,3.191125718806374079e-01,2.022446370643011526e-01,1.555186347546037573e-01,2.809904575347900169e-01,1.216352760791778453e-01,2.050959486086756656e-01,1.809904575347900391e-01,2.216352760791778509e-01,2.214758455753326472e-01,5.018594183843178014e-01,-6.347024440765380859e-01,3.892461061477661133e-01,9.245109785040727957e+01,2.174614191055297963e-01
1.998166000000000109e+00,-8.048793910335003132e-02,4.822845111622587472e-02,9.719405174255371094e-01,-8.896558444748774858e-03,-1.677989029765791784e-02,-2.750430571321326075e-03,-6.718208725717790541e-02,9.722254941696165109e-02,1.587881520390510559e-02,2.850419648378360038e-01,3.303447490066126480e-01,1.668030260054707836e-01,1.482833743095398060e-01,1.100036442279815618e-01,2.087919405751198776e-01,4.828337430953979353e-02,2.100036442279815674e-01,2.161399662494659368e-01,5.023651977954117775e-01,-7.005850076675415039e-01,1.585739850997924805e-01,8.660221561882860897e+01,2.174614191055297963e-01
2.029212999999999933e+00,-8.233315922425865629e-02,5.233476586028285721e-02,9.732422828674316406e-01,5.445168601061895798e-03,-4.731354181192859443e-03,3.246945880554811571e-03,-6.143555777685891922e-02,9.526067322566610096e-02,3.127432614564895630e-02,3.425659480749793095e-01,3.213399958736665174e-01,1.269490131973690372e-01,-3.507081573347120562e-02,1.173309564590453991e-01,2.279699500022094871e-01,-1.066773176193237249e-01,2.173309564590454046e-01,2.182156026363372692e-01,5.026026946734890588e-01,-6.218288540840148926e-01,-4.399430751800537109e-02,6.652151410050447566e+01,2.174614191055297963e-01
2.048722999999999850e+00,-8.278189543958325292e-02,5.336447834653201827e-02,9.736117124557495117e-01,9.102667821792181230e-03,-1.511018397800212298e-03,4.902075453005820017e-03,-6.337881555170438164e-02,1.007205955167421035e-01,2.563923038542270660e-02,3.546691105518356424e-01,3.488257740430924514e-01,1.329202673703090143e-01,-9.704905574840366755e-02,1.124174356460571067e-01,2.317659900117684524e-01,-1.507710278034210261e-01,2.124174356460571123e-01,2.173420965671539196e-01,5.030820914389947385e-01,-6.178796291351318359e-01,1.014437794685363770e+00,1.311783319160821009e+02,2.174614191055297963e-01
2.073751000000000122e+00,-8.373459948085983096e-02,5.612775452040364571e-02,9.746774435043334961e-01,2.047563526090703107e-02,7.114383718629602171e-03,8.791389168255593634e-03,-5.881631314519828596e-02,9.920111097220757346e-02,4.831352084875106812e-02,4.160908725513813855e-01,2.103869112561443377e-01,7.397340503592697569e-02,-1.327148135647769622e-01,1.596737040247313555e-01,2.454231715869241159e-01,-1.138020157814025879e-01,2.233587741851806585e-01,2.202849984169006348e-01,5.034265267792301657e-01,-5.047468543052673340e-01,-2.460275888442993164e-01,4.872134102906132114e+01,2.174614191055297963e-01
2.098793000000000131e+00,-8.394947347087447498e-02,5.749979225946535294e-02,9.754261374473571777e-01,2.756041621977477207e-02,1.142473009213129664e-02,1.113376366053239058e-02,-6.648909164069037592e-02,8.724779566527068875e-02,2.016267552971839905e-02,3.079376435139234425e-01,2.151736768488420881e-01,1.317289189887931034e-01,-2.920147744758644359e-01,1.745693947403936241e-01,2.517532187122902831e-01,-2.187446236610412487e-01,2.167217910289764293e-01,2.201804101467132457e-01,5.025809584566758303e-01,-6.576271653175354004e-01,1.111232042312622070e-01,2.918478019134460055e+01,2.174614191055297963e-01
2.124159999999999826e+00,-8.420328253965514431e-02,5.937030359068085766e-02,9.764590859413146973e-01,3.858524416553545111e-02,1.361784582554159684e-02,1.093365051978591705e-02,-4.407651481267869237e-02,9.290015070426918542e-02,2.615298144519329071e-02,3.813657807118185361e-01,2.172014017755884152e-02,-3.123167312987721114e-02,-3.147500276565551869e-01,2.114017489457526711e-01,2.523235395551912674e-01,-2.147500276565551813e-01,2.208136439323425126e-01,2.215922892093658281e-01,5.028170670982399226e-01,-6.168756484985351562e-01,3.033567667007446289e-01,8.562418034100696218e+01,2.174614191055297963e-01
2.148766999999999872e+00,-8.431153455771593641e-02,6.054393260682629924e-02,9.770696759223937988e-01,4.428289932377671434e-02,1.317040227911414618e-02,9.520898805290353359e-03,-6.096429347042784525e-02,7.022140674504198654e-02,3.158216178417205811e-02,2.567518739109881931e-01,-7.778058452929795252e-02,-8.642484117390669685e-02,-3.165723919868469460e-01,1.801617764729591953e-01,2.441687098408111267e-01,-2.165723919868469127e-01,2.102836847305297741e-01,2.171261787414550670e-01,5.012240927849980210e-01,-6.762368679046630859e-01,-6.163954734802246094e-03,5.037979975199962723e+01,2.174614191055297963e-01
2.175670000000000215e+00,-8.449314721707645859e-02,6.221685537631124058e-02,9.776073098182678223e-01,4.975131579900173018e-02,1.130802876747249996e-02,7.023433618498394794e-03,-3.779800283454669979e-02,8.089825761710488228e-02,3.611024469137191772e-03,9.469123146434524352e-02,-3.988970655380949526e-02,-8.376140340770012183e-02,-3.183465123176574818e-01,1.478917466506006750e-01,2.428719846717665998e-01,-2.183465123176574763e-01,1.692394673824310358e-01,2.228982388973236028e-01,5.037915039151603658e-01,-6.502768397331237793e-01,1.427589654922485352e-01,1.031879161690463746e+02,2.174614191055297963e-01
2.203113000000000099e+00,-8.527868963033390093e-02,6.303314659496971062e-02,9.778102040290832520e-01,5.120898244367926705e-02,9.409945115238071978e-03,4.747185998035570106e-03,-4.228959051398367003e-02,6.850875236423817349e-02,1.497368887066841125e-02,2.161454820590105047e-02,-1.035185310679784254e-01,-1.463585555868198718e-01,-2.880067765712738259e-01,1.741945053011106914e-01,-1.557768337861357155e-01,-1.880067765712737926e-01,2.164088845252990778e-01,-1.696729660034179688e-01,5.066401007255678657e-01,-4.545595645904541016e-01,4.805310964584350586e-01,9.494554440699846509e+01,2.174614191055297963e-01
2.228286000000000211e+00,-8.634954873616744464e-02,6.414910003689393292e-02,9.776484370231628418e-01,4.950249297752065680e-02,6.505201181172814984e-03,1.221001722419420062e-03,-2.862848108152844101e-02,7.080562818614079268e-02,-1.241420209407806396e-02,-1.177907505708448294e-01,-1.006806006707037793e-01,-9.836686702154638640e-02,-3.124334394931793102e-01,1.687404889954526865e-01,-1.866229728293903045e-01,-2.124334394931793046e-01,2.192740917205810436e-01,-1.907518029212951494e-01,5.056215329222691901e-01,-6.186714768409729004e-01,2.302500009536743164e-01,9.343142124160087292e+01,2.174614191055297963e-01
2.248308999999999891e+00,-8.705060801125154291e-02,6.486923359053760330e-02,9.773985147476196289e-01,4.645499045948454225e-02,3.816596799554705655e-03,-1.585879031652209824e-03,-4.421852091570913079e-02,6.072051096312177515e-02,-5.687925964593887329e-03,-1.936933021191532822e-01,-1.298009286552168629e-01,-1.543504523850047216e-01,-3.180488407611846702e-01,1.003500782603274355e-01,-1.661381510032756970e-01,-2.180488407611846924e-01,1.841600060462951494e-01,-1.627983570098876787e-01,5.039234168069367525e-01,-6.843782663345336914e-01,1.683918237686157227e-01,1.030764474817917744e+02,2.028875589370727484e-01
2.277522999999999964e+00,-8.846897135774477172e-02,6.618565233497561429e-02,9.766495227813720703e-01,3.617236781129892081e-02,-3.005128473490659147e-03,-7.758273407908960508e-03,-3.018357157227034501e-02,4.978713243804860911e-02,-1.695409789681434631e-02,-2.929465132590827747e-01,-1.692579297891631251e-01,-1.961981826661741979e-01,-3.129205644130707009e-01,-6.194653511047364114e-02,-1.745127758606038193e-01,-2.129205644130706676e-01,3.805346488952636441e-02,-1.540349721908569336e-01,5.053914024559164053e-01,-6.557033658027648926e-01,2.531539201736450195e-01,9.253627713954651313e+01,2.028875589370727484e-01
2.302058999999999855e+00,-8.940238777808512394e-02,6.690918190383339514e-02,9.761440753936767578e-01,2.947650640886223181e-02,-7.078879520550973581e-03,-1.069497043780005645e-02,-3.347070512587122654e-02,6.010769779512423194e-02,-1.633726619184017181e-02,-3.205242834225774939e-01,-2.250551993111745142e-01,-1.220828893392136433e-01,-2.990589831193845027e-01,-2.061154842376708984e-01,-2.461559387661620690e-01,-2.057210862636566218e-01,-1.061154842376708929e-01,-2.176394104957580511e-01,5.045893397035441374e-01,-7.002338767051696777e-01,1.314924955368041992e-01,4.456306722084419647e+01,2.028875589370727484e-01
2.328878000000000004e+00,-9.034650193939731955e-02,6.764859021797939298e-02,9.756255149841308594e-01,2.223645544390889794e-02,-1.088845694992657265e-02,-1.385239872000369223e-02,-3.830779450107513889e-02,5.031269212897188092e-02,-2.004324458539485931e-02,-3.819609623399773390e-01,-2.152904853061560486e-01,-1.435261099945957242e-01,-2.323581659849295045e-01,-2.605717658996581920e-01,-2.591432390056717106e-01,-1.773995339870452770e-01,-1.605717658996581865e-01,-2.217390775680541937e-01,5.049042471883125049e-01,-7.023913264274597168e-01,-1.653277873992919922e-02,8.252296709930853069e+01,2.028875589370727484e-01
2.357223999999999986e+00,-9.132077687360143359e-02,6.839866281465022124e-02,9.750159382820129395e-01,1.490154933868698996e-02,-1.472085685715884829e-02,-1.505692433779814293e-02,-4.849679723472873072e-02,5.541802731707396595e-02,-2.369644306600093842e-02,-3.348870131097098080e-01,-1.662023734915023809e-01,-2.775927709948985966e-02,-2.308897555974136380e-03,-3.039573192596435325e-01,-2.652162337874709452e-01,-1.177132129669189453e-03,-2.039573192596435547e-01,-2.244084119796752874e-01,5.048573811052102789e-01,-7.247790694236755371e-01,-2.481142282485961914e-01,1.024593262299027714e+02,2.028875589370727484e-01
2.381505000000000205e+00,-9.293410690361132709e-02,6.958492719401784821e-02,9.743258357048034668e-01,4.202631326329996087e-03,-2.007714779137148575e-02,-1.482089915482828237e-02,-3.218116743982418065e-02,5.915203970303602177e-02,-2.408309839665889740e-02,-3.084750318663030955e-01,-1.919791584609853996e-01,3.858045445927204414e-02,2.715568592803807024e-01,-3.061093091964721680e-01,-2.670781275902447405e-01,1.995215177536010798e-01,-2.061093091964721624e-01,-2.265603303909301536e-01,5.052097472308513249e-01,-7.124817371368408203e-01,1.482242345809936523e-01,9.103259733338985882e+01,2.028875589370727484e-01
2.405215000000000103e+00,-9.382043768699935282e-02,7.010213386763254617e-02,9.739744663238525391e-01,-3.058135255360177034e-03,-2.341565838197201543e-02,-1.413437936488248781e-02,-5.638665510987452001e-02,4.925792430147338946e-02,-1.600006246007978916e-03,-3.700549582186328235e-01,-1.892853788520466041e-01,8.782862616157462513e-03,3.186528205871582142e-01,-3.071766853332519309e-01,-2.655924323351069871e-01,2.186528205871582087e-01,-2.071766853332519531e-01,-2.266864299774169755e-01,5.033193461435272464e-01,-7.268238067626953125e-01,-4.152163267135620117e-01,1.009462685740157042e+02,2.028875589370727484e-01
2.429603000000000179e+00,-9.479036406063474918e-02,7.069496115377547907e-02,9.736412763595581055e-01,-1.053334548100311185e-02,-2.589266283737767793e-02,-1.286476717305033712e-02,-3.354183250486553886e-02,6.869089993057796162e-02,-2.668441087007522583e-02,-3.888117051409935576e-01,-8.939319173187149081e-02,1.025676952040719403e-01,3.219756841659545676e-01,-2.969818592071533092e-01,-2.625737903960171926e-01,2.219756841659545898e-01,-1.969818592071533037e-01,-2.269270420074462891e-01,5.053775524118434559e-01,-7.211739420890808105e-01,6.946240663528442383e-01,1.184414907744907168e+02,2.028875589370727484e-01
