timestamp,x,y,z,roll,pitch,yaw,vx,vy,vz,p,q,r,psp,qsp,rsp,pres,qres,rres,thrust_sp, thrust_res
0.000000000000000000e+00,-1.569582149590860801e-02,-5.188292544948956003e-02,1.003516316413879395e+00,6.329010828271081426e-03,-7.958722402551465791e-03,-1.000753260364325298e-02,2.335474444667825708e-03,2.234944020530643324e-02,1.085476204752922058e-02,5.959691467852908098e-02,-8.078622742120018796e-03,3.020603463276685247e-02,-2.768747159050667372e-01,1.165670206428058853e-01,-6.984095812593205110e-02,-2.211648702621459850e-01,1.762950181961059626e-01,-4.187260866165160716e-02,5.247289394309389010e-01,7.449924945831298828e-01,-1.248418688774108887e+00,1.011094691140439892e+02,0.000000000000000000e+00
1.458899999999999954e-02,-1.569582149590860801e-02,-5.188292544948956003e-02,1.003516316413879395e+00,6.329010828271081426e-03,-7.958722402551465791e-03,-1.000753260364325298e-02,2.335474444667825708e-03,2.234944020530643324e-02,1.085476204752922058e-02,5.959691467852908098e-02,-8.078622742120018796e-03,3.020603463276685247e-02,-2.802828581015557319e-01,1.162015762301738531e-01,-6.984741698249408159e-02,-2.211648702621459850e-01,1.762950181961059626e-01,-4.187260866165160716e-02,5.247161636323443012e-01,7.449924945831298828e-01,-1.254986882209777832e+00,7.681240302861178293e+01,0.000000000000000000e+00
3.039299999999999988e-02,-1.576422260462635727e-02,-5.164907379441819463e-02,1.003766775131225586e+00,6.443262068753277325e-03,-7.769836836293064763e-03,-9.984113874161995583e-03,-4.351615712162019978e-03,2.475654988859371172e-02,2.500723348930478096e-03,-1.203860337192817417e-02,3.227086459597609813e-02,1.834338574338539515e-02,-2.839079222155426185e-01,1.557534267270216100e-01,1.282580534582067333e-01,-2.260364055633544700e-01,2.201400876045226940e-01,1.561581194400787354e-01,5.250526691874199958e-01,7.315714359283447266e-01,-1.053890585899353027e+00,8.871451992154675281e+01,0.000000000000000000e+00
4.725700000000000039e-02,-1.582564055305266809e-02,-5.140340795705600208e-02,1.003970026969909668e+00,6.551802645050408720e-03,-7.765720815648746722e-03,-9.940826295634471593e-03,3.381724581200340040e-03,2.218592588742377900e-02,1.353998668491840363e-03,-2.076938023120806359e-02,4.045430094758632050e-02,-7.606808483986642055e-03,-2.800941323599057675e-01,1.602097380722646847e-01,-1.865077310456465798e-02,-2.191993117332458330e-01,2.173962235450744573e-01,9.137374162673949154e-03,5.249256958996644240e-01,7.212238311767578125e-01,-1.336889147758483887e+00,1.010255602400903854e+02,0.000000000000000000e+00
7.246099999999999763e-02,-1.598017093192604515e-02,-5.066705056422686482e-02,1.004616141319274902e+00,7.194973746714967977e-03,-8.123424915020382997e-03,-9.562464441435835488e-03,8.424069643298240373e-03,2.262467232276581253e-02,6.934202741831541061e-03,3.065506822815037419e-02,-3.073436973066448127e-02,2.032871531041603036e-02,-2.694728880163020923e-01,9.743823551414707018e-02,5.460743494670776410e-02,-2.054983019828796331e-01,1.541631102561950573e-01,8.132661581039428433e-02,5.249954152604799917e-01,7.501987218856811523e-01,-1.360947012901306152e+00,1.125273734061492377e+02,0.000000000000000000e+00
9.844200000000000172e-02,-1.604085283850297666e-02,-5.002163563855323292e-02,1.005161643028259277e+00,7.739462607394237241e-03,-8.364990464149846261e-03,-9.188120770036512994e-03,-2.146697221064207232e-03,2.513795500078011558e-02,1.587961218319833279e-03,2.655838313851521457e-02,-1.489358336510918437e-02,1.621364291149083106e-02,-2.743972511993237884e-01,7.837934412054917144e-02,9.338338407218704784e-03,-2.091238081455230602e-01,1.460862100124359075e-01,3.498557209968566895e-02,5.252604596478019916e-01,7.459628582000732422e-01,-9.076558351516723633e-01,1.043917916517744828e+02,0.000000000000000000e+00
1.188179999999999931e-01,-1.593254567219814719e-02,-4.965723347969297485e-02,1.005488276481628418e+00,7.281115852375868135e-03,-8.664432706736224787e-03,-9.068058565800155360e-03,-2.136587431076755143e-03,2.511479097900319590e-02,-1.878708368167281151e-03,-7.282282585505220340e-02,-2.621996491870808368e-02,-2.982204973116555236e-03,-5.291239419038566011e-02,1.455627552463546470e-01,-2.452011845615260643e-01,9.598946571350098003e-03,2.136274337768554743e-01,-2.198833107948303112e-01,5.256308572450441030e-01,7.538914680480957031e-01,-1.029565691947937012e+00,5.724664654728783830e+01,0.000000000000000000e+00
1.459660000000000124e-01,-1.580465760746070994e-02,-4.897965069529221227e-02,1.005817413330078125e+00,3.404769550610863092e-03,-1.004289963343030223e-02,-9.599967195309382431e-03,-7.085054229546838486e-03,3.488942796123932488e-02,-5.883833509869873524e-04,-1.747315037279390804e-01,-6.239098451742572382e-02,-1.919445372373301123e-02,-2.373224513762640236e-02,1.346650784339593621e-01,-2.461899883882421591e-01,5.315387248992919575e-03,2.157044827938079667e-01,-2.193511247634887529e-01,5.254950352145576487e-01,7.531769275665283203e-01,-1.484212994575500488e+00,6.746206530016108616e+01,0.000000000000000000e+00
1.726459999999999939e-01,-1.579677046043171870e-02,-4.803987105574675232e-02,1.006285190582275391e+00,-3.265316857608893068e-03,-1.331264362716155780e-02,-1.011261396331833602e-02,-3.248195844029918167e-03,4.113640445548951557e-02,1.089153811335563660e-03,-2.820902981196622972e-01,-1.044642052393828097e-01,-4.169677728183990989e-02,1.222021450801527749e-02,1.189275582353605254e-01,-2.459618656114091750e-01,-6.339275836944579731e-03,2.173957943916320634e-01,-2.175687789916992132e-01,5.252943410133078528e-01,7.511357069015502930e-01,-5.344475507736206055e-01,-3.364210700218156092e+01,0.000000000000000000e+00
1.939009999999999900e-01,-1.577956224970857371e-02,-4.724221332537507229e-02,1.006554007530212402e+00,-8.601039187354653920e-03,-1.623544924074660223e-02,-1.027659114703197325e-02,-8.945893864073097695e-03,4.238601320722223259e-02,9.181733243167400360e-03,-2.587278900486086886e-01,-1.667581838802228156e-01,-3.339865943006629185e-04,8.422068668116100554e-02,-4.403647780418396690e-02,-1.135051544987687178e-01,3.040716648101806502e-02,5.596352219581603865e-02,-8.449527025222777765e-02,5.240261709726284911e-01,7.160277366638183594e-01,-1.176374554634094238e+00,7.375488933722307650e+01,0.000000000000000000e+00
2.202189999999999981e-01,-1.585988664746255591e-02,-4.571070525083117259e-02,1.007112383842468262e+00,-1.589188832951295496e-02,-2.063792111961193498e-02,-9.026320293619846322e-03,-1.456818110503770719e-02,4.596051009440633300e-02,1.007353421300649643e-02,-1.735286977706850253e-01,-1.417719121684176964e-01,4.786248571620146941e-02,2.220126152038574274e-01,-2.906639337539672630e-01,1.704206908048673530e-01,1.220126152038574219e-01,-1.906639337539672852e-01,1.962165176868438665e-01,5.233909184762719491e-01,6.881246566772460938e-01,-5.619093179702758789e-01,-3.693360589906197333e+01,0.000000000000000000e+00
2.464610000000000134e-01,-1.612586724603857352e-02,-4.409537563492828965e-02,1.007928490638732910e+00,-2.002545284350036592e-02,-2.551682928654375182e-02,-5.930358660043038611e-03,-1.709353324161710583e-02,4.499737235349730857e-02,1.868391223251819611e-02,-1.248601265505669133e-01,-1.683120003065893266e-01,1.009068354984668653e-01,2.559979200363159402e-01,-3.146752834320068470e-01,1.972013443505656605e-01,1.559979200363159069e-01,-2.146752834320068415e-01,2.146102130413055364e-01,5.228979561003334053e-01,6.999571323394775391e-01,-1.351835370063781738e+00,8.690247756493153020e+01,0.000000000000000000e+00
2.710659999999999736e-01,-1.658449516629352527e-02,-4.237351129653194048e-02,1.009089827537536621e+00,-2.126985278564274065e-02,-3.015394852037367457e-02,-2.398049099766402358e-03,-2.165245123094839547e-02,5.738994775666180631e-02,2.659486606717109680e-02,-2.868594142426897711e-02,-1.573149095209458170e-01,1.447688446086992653e-01,2.277419209480285589e-01,-3.164860248565674050e-01,1.405234039805514368e-01,1.277419209480285534e-01,-2.164860248565673717e-01,1.481635093688964677e-01,5.226713891531522549e-01,7.252321243286132812e-01,-1.284674048423767090e+00,4.394238744039763134e+01,0.000000000000000000e+00
2.972380000000000022e-01,-1.648824614477222006e-02,-4.094870892681339719e-02,1.010299324989318848e+00,-2.026423132896318022e-02,-3.218054766431865943e-02,-8.959322126325968598e-04,-2.302296880025527306e-02,5.296521765692914496e-02,3.610151633620262146e-02,9.436428997101975469e-02,-5.785608462628473100e-03,-2.304676408116299383e-02,1.588070392608650905e-03,-5.996264815330506343e-02,-3.097339126593963085e-02,-9.841192960739135465e-02,4.003735184669494213e-02,-2.749757766723632743e-02,5.217903396580496622e-01,7.222051620483398438e-01,-1.072878479957580566e+00,8.218972899989277892e+01,0.000000000000000000e+00
3.223219999999999974e-01,-1.624742619519265949e-02,-3.947646971081245071e-02,1.011403679847717285e+00,-1.651698077010222213e-02,-3.005413208424734250e-02,-2.828606738930290222e-03,-8.921740901343906682e-03,5.736009869062657501e-02,3.456382080912590027e-02,1.612705488587783120e-01,1.291739205805645385e-01,-1.019185001806664215e-01,2.078476905822753962e-01,7.218903899192807838e-02,-1.588506382884878054e-01,1.078476905822753906e-01,1.721890389919280839e-01,-1.502754449844360407e-01,5.209186977981786759e-01,6.757535934448242188e-01,9.997737407684326172e-02,-4.505212840221097359e+00,0.000000000000000000e+00
3.470860000000000056e-01,-1.601692430700720621e-02,-3.795279350729687667e-02,1.012551665306091309e+00,-9.315328001672886979e-03,-2.330239070634276821e-02,-5.318357271586895453e-03,-2.135015171519160856e-02,6.395707869812200519e-02,3.850150108337402344e-02,2.862455141735110731e-01,2.438451901904382935e-01,-4.718943244655527530e-02,1.475507759546054176e-01,9.588592648506163996e-02,-1.892820879698164094e-01,6.774426698684692105e-02,1.958859264850616455e-01,-1.741461396217346136e-01,5.209074048305554205e-01,6.976368427276611328e-01,-9.998246431350708008e-01,1.249075625598500778e+02,0.000000000000000000e+00
3.721590000000000176e-01,-1.613746067102947435e-02,-3.671989066850280675e-02,1.013718485832214355e+00,-1.483742843961182107e-03,-1.533903940097536278e-02,-6.742193191322227649e-03,-2.555791336819987838e-02,6.168487378837861357e-02,4.100849479436874390e-02,2.736309867172629917e-01,2.599911704950400582e-01,-5.205056601832064311e-02,1.422550879584398853e-01,1.161896228790283148e-01,-2.237878761665152705e-01,1.153532981872558566e-01,2.161896228790283203e-01,-2.049426555633544755e-01,5.205628175209022768e-01,6.962678432464599609e-01,-1.216191887855529785e+00,1.311189639118163655e+02,0.000000000000000000e+00
3.981970000000000232e-01,-1.661920962152469219e-02,-3.552381950505520414e-02,1.014849543571472168e+00,5.713626883060094960e-03,-9.718516961503498308e-03,-5.427734864801635715e-03,-2.560405890851946004e-02,6.416446646998442971e-02,4.600945115089416504e-02,2.287730248621275830e-01,1.105140823070557554e-01,7.189319414771276617e-02,-2.257643819863328627e-01,1.142222802115437919e-01,-1.809288575503198715e-01,-2.091188013553619274e-01,2.068991303443908636e-01,-1.659082889556884599e-01,5.207309019169760189e-01,7.325847148895263672e-01,-1.319342494010925293e+00,7.694031881138778317e+01,0.000000000000000000e+00
4.229289999999999994e-01,-1.740305708781940408e-02,-3.427025586484497288e-02,1.016154408454895020e+00,1.287261028551892235e-02,-8.790276681295283723e-03,-2.742279218335212567e-03,-4.129066170274026115e-02,6.942946929368623565e-02,4.966130107641220093e-02,2.336474498890290241e-01,-1.078386097030815255e-02,1.568683457187962926e-01,-2.721373865946625781e-01,3.694375753402709406e-02,-2.744575058895741895e-02,-2.138646304607391413e-01,1.369437575340270996e-01,-2.012969255447387765e-02,5.205553154600623955e-01,7.457245588302612305e-01,-7.178806066513061523e-01,7.835301366761068209e+01,0.000000000000000000e+00
4.463420000000000165e-01,-1.804723868191474706e-02,-3.336798056578543781e-02,1.017050266265869141e+00,1.679199164813078432e-02,-9.888861127760106839e-03,-7.603337432022692303e-04,-4.862093432237470786e-02,6.022352280113924677e-02,5.549818277359008789e-02,1.930626926641081653e-01,-9.775321704486421293e-02,6.929064717999110223e-02,-2.754818912446676538e-01,-1.450023889541625921e-01,3.415418923906853033e-02,-1.841511547565460039e-01,-4.500238895416259349e-02,3.581319451332092008e-02,5.197488283618538762e-01,7.324153184890747070e-01,-5.397986173629760742e-01,-1.578025219989131145e+01,0.000000000000000000e+00
4.706949999999999745e-01,-1.964728434857214781e-02,-3.215542603906695884e-02,1.018357157707214355e+00,1.852713130687306739e-02,-1.224534252737430329e-02,1.782924774634560457e-03,-3.707379165107763108e-02,7.054503968445968720e-02,4.042482376098632812e-02,-6.564189540327532157e-02,-8.542384190955036594e-02,6.545899029108498413e-02,-1.386461425739722031e-01,-1.852028727531433161e-01,-3.964776720420119804e-02,-4.678015708923339427e-02,-8.520287275314331055e-02,-4.521961212158202847e-02,5.203814958320710504e-01,7.151737213134765625e-01,-1.280829310417175293e+00,9.253137306372244097e+01,0.000000000000000000e+00
4.958679999999999755e-01,-2.083412910475069407e-02,-3.130062073566764608e-02,1.018930435180664062e+00,1.697703161331081886e-02,-1.322883542658814804e-02,2.464451379315581430e-03,-4.574050064035452279e-02,7.495220052337950301e-02,4.116480797529220581e-02,-1.047033663832991346e-01,-7.599162739227040275e-03,-1.201581265270511636e-02,-1.077023366799166743e-01,2.893986701965331476e-02,-1.914484286104126409e-01,-2.873121500015258720e-02,1.289398670196533203e-01,-1.989763498306274248e-01,5.206679851223513511e-01,7.386257648468017578e-01,-1.059315800666809082e+00,1.296501863723184726e+02,0.000000000000000000e+00
5.222689999999999833e-01,-2.253981234302073616e-02,-2.995587138458046320e-02,1.019635558128356934e+00,1.142260532411476862e-02,-1.298803904726208991e-02,3.009214694991811569e-03,-2.970747191101875961e-02,7.382841902501564857e-02,2.852129377424716949e-02,-2.037233989545207680e-01,3.162933040491963665e-02,3.592411529657310587e-02,-2.454791247300250612e-01,1.185254693031310980e-01,-4.408445696409230702e-02,-2.019516885280609186e-01,2.185254693031311035e-01,-5.292348861694335521e-02,5.216367698598617375e-01,7.464616298675537109e-01,-1.180994629859924316e+00,5.172193875409629982e+01,0.000000000000000000e+00
5.450559999999999850e-01,-2.363657463720864743e-02,-2.902969334084162453e-02,1.020130276679992676e+00,7.546938181323322239e-03,-1.113109116174881841e-02,3.765483849974257235e-03,-4.462073881837068379e-02,6.884887660117942898e-02,3.033785335719585419e-02,-1.633007530573478694e-01,1.293527682449976124e-01,4.735931644939522789e-02,-2.157731516294961183e-01,1.163570821285247747e-01,1.071053839335827790e-01,-1.943551003932952881e-01,2.163570821285247803e-01,9.625146389007567527e-02,5.206945502730430109e-01,7.069623470306396484e-01,-1.100342869758605957e+00,1.300056413695569901e+01,0.000000000000000000e+00
5.722169999999999757e-01,-2.504067423524936054e-02,-2.719285618550100828e-02,1.020808100700378418e+00,2.607571944242068149e-03,-8.646914276418060652e-03,5.719757509194390438e-03,-3.212183205487420534e-02,6.709870250782141998e-02,2.619423717260360718e-02,-1.987840884048573398e-01,4.453517421822461575e-02,2.165946634838806020e-02,-1.767368010414287205e-01,1.239592915704007398e-01,1.537167020407759488e-01,-1.880510330200195201e-01,2.187253117561340221e-01,1.375596284866333063e-01,5.207443113055698625e-01,6.985106468200683594e-01,-1.314855813980102539e-01,-7.947917525796238181e+01,0.000000000000000000e+00
5.965110000000000134e-01,-2.594966776583726431e-02,-2.578888409864328254e-02,1.021198272705078125e+00,-5.556798189864650206e-04,-8.231868620516058499e-03,6.587138097019606953e-03,-3.820500257562597229e-02,7.226496296674057851e-02,3.943145275115966797e-02,-1.480316754955384451e-01,-6.494164876721292973e-03,4.442476297948994360e-03,3.772649421124833757e-02,1.094154576965620657e-01,-8.769073628829110456e-02,1.282811164855956923e-04,2.092634439468383789e-01,-1.062347888946533203e-01,5.203455652285005062e-01,7.336342334747314453e-01,-1.560189127922058105e+00,2.972871255118231915e+01,0.000000000000000000e+00
6.215180000000000149e-01,-2.736421229713121087e-02,-2.360358459127401623e-02,1.021786212921142578e+00,-5.995222582621947786e-03,-1.027898149950079443e-02,5.933576084065595065e-03,-4.173817391675136573e-02,7.156086714486566136e-02,3.551124036312103271e-02,-1.820114123306848797e-01,-1.341629065762262596e-01,-7.500338398791295269e-02,2.119871822613318413e-01,-2.117592096328735352e-01,6.493866686236685060e-02,1.388500928878784180e-01,-1.117592096328735296e-01,4.834374189376831193e-02,5.197113152634672550e-01,6.890541315078735352e-01,-1.087254643440246582e+00,1.006026007757373435e+02,0.000000000000000000e+00
6.442809999999999926e-01,-2.837254631227415294e-02,-2.210498661461576808e-02,1.022003650665283203e+00,-9.396366255432974865e-03,-1.271447805507119888e-02,5.459843246386182972e-03,-4.436244972290438043e-02,7.965360793851068710e-02,3.146782517433166504e-02,-1.035433524728530674e-01,-1.233388898348953128e-01,2.894903071969440710e-03,2.109904170036315807e-01,-2.780898809432983398e-01,1.520653397286962638e-01,1.109904170036315890e-01,-1.780898809432983343e-01,1.368634343147277777e-01,5.194759123558898573e-01,6.637475490570068359e-01,-9.233161211013793945e-01,9.607124837467577549e+01,0.000000000000000000e+00
6.748079999999999634e-01,-2.939337831370760629e-02,-2.048784233444947769e-02,1.022314667701721191e+00,-1.175654744104419336e-02,-1.529101246420361271e-02,5.534518662217092350e-03,-5.481651112051644931e-02,7.298031013817841972e-02,3.256037458777427673e-02,-1.117970434680515129e-01,-1.532198227730192930e-01,9.958695113258768730e-03,2.380557298660278265e-01,-3.058948040008545033e-01,1.941212726272555644e-01,1.380557298660278209e-01,-2.058948040008544977e-01,1.788373947143554743e-01,5.191720201213884112e-01,6.555321216583251953e-01,-1.106835246086120605e+00,9.124087029175106522e+01,0.000000000000000000e+00
7.002359999999999696e-01,-3.030650958383037524e-02,-1.884156057929955649e-02,1.022555708885192871e+00,-1.191480344369179496e-02,-1.687821183361104538e-02,5.124415705868560870e-03,-5.437434744291842759e-02,7.433293168025198461e-02,3.469356149435043335e-02,6.973642180297061344e-02,-3.533897886125044602e-02,-5.735086788084831771e-02,1.338146805763244518e-01,-1.487108469009399414e-01,1.420435701160408237e-01,3.381468057632446012e-02,-4.871084690093994279e-02,1.279070198535919023e-01,5.190147411931507193e-01,6.592717170715332031e-01,-1.388950228691101074e+00,1.015141236714213875e+02,0.000000000000000000e+00
7.232420000000000515e-01,-3.113333544635472558e-02,-1.723025303087421037e-02,1.022818088531494141e+00,-1.045823416142698838e-02,-1.616712035624034982e-02,4.115490821604002140e-03,-3.957397791326498770e-02,7.590824652598050781e-02,2.821565419435501099e-02,6.341616950118672547e-02,1.203055775941543754e-01,-3.820562775898690006e-02,2.963831901550292858e-01,1.153120756149291770e-01,-1.720259687804822635e-01,1.963831901550292802e-01,2.153120756149291826e-01,-1.834174275398254284e-01,5.209717483035858354e-01,7.430620193481445312e-01,-1.259821772575378418e+00,8.181221761427700301e+01,0.000000000000000000e+00
7.456690000000000262e-01,-3.186483828290168768e-02,-1.563258638457848751e-02,1.022974014282226562e+00,-7.309608728565441908e-03,-1.326946951029750466e-02,2.232385097993081022e-03,-2.727782020354075146e-02,6.713847684318695330e-02,3.111872263252735138e-02,1.785364388670046543e-01,1.577230786604597035e-01,-1.103635678001282372e-01,2.051716914738084263e-01,1.048536062240600364e-01,-1.365241012892208783e-01,1.216518402099609347e-01,2.048536062240600419e-01,-1.427258133888244518e-01,5.194411051013386738e-01,6.754826307296752930e-01,-1.223685383796691895e+00,8.162922318603402516e+01,0.000000000000000000e+00
7.745900000000000007e-01,-3.280160380596511965e-02,-1.321969755727331851e-02,1.023165106773376465e+00,-1.165820709140201993e-03,-5.778575889874071336e-03,-6.404343639240911131e-04,-4.139688201884567792e-02,7.640795698742229580e-02,2.934692241251468658e-02,2.220906850441005664e-01,2.659471098643848008e-01,-7.395411991820920183e-02,2.508412699569597115e-01,1.279316248790845489e-01,-2.031876207522663458e-01,1.966305971145629883e-01,2.215786278247833252e-01,-2.015156507492065485e-01,5.204004514901207079e-01,7.231442928314208984e-01,-1.262314438819885254e+00,-6.319240476695939179e+01,0.000000000000000000e+00
8.010460000000000358e-01,-3.327385192466669056e-02,-1.156382020426071147e-02,1.023219585418701172e+00,3.066377643596453380e-03,-9.400366327656506371e-04,-1.755185160012627749e-03,-3.810619773420206857e-02,6.727165905472717866e-02,2.293902821838855743e-02,2.057901993616529090e-01,2.086049572743799707e-01,-2.719973297045067892e-02,2.192525877767267373e-01,1.655821536935460081e-01,-2.211714730981385879e-01,2.002576231956481878e-01,2.235017180442810114e-01,-2.163700103759765569e-01,5.209328212277238856e-01,7.293343544006347656e-01,-9.964524507522583008e-01,1.040173333607177000e+02,0.000000000000000000e+00
8.239279999999999937e-01,-3.385609618731206388e-02,-9.934427472424570832e-03,1.023342490196228027e+00,8.207157757253370767e-03,2.073629479408145571e-03,-1.149649207031650270e-03,-4.243294798532768614e-02,7.937781892839156084e-02,2.607805654406547546e-02,2.887207089257145531e-01,1.097723444332566883e-01,3.073632052101180762e-02,-2.196154492150500237e-01,1.743401108233590402e-01,-1.517493070587734028e-01,-2.178260743618011530e-01,2.174006938934326116e-01,-1.486799955368041937e-01,5.207329097592570122e-01,7.335522174835205078e-01,-1.169950842857360840e+00,6.221683518742813135e+01,0.000000000000000000e+00
8.488299999999999734e-01,-3.485495190095493079e-02,-7.518350222414784539e-03,1.023624062538146973e+00,1.671783192573527560e-02,2.893169542183660070e-03,2.822720892527087093e-04,-4.321750440635502288e-02,6.793749183656275226e-02,3.530044853687286377e-02,3.203904630116014007e-01,-5.309542039267416136e-02,6.054575905581233847e-02,-2.853223226131612611e-01,1.336959187595903598e-01,7.985191106507250058e-03,-2.189625263214111384e-01,1.724040627479553056e-01,7.001191377639770508e-03,5.203136372177299407e-01,7.515604496002197266e-01,-6.422621011734008789e-01,8.535077469872052802e+01,0.000000000000000000e+00
8.695599999999999996e-01,-3.558363529213083576e-02,-5.985068070206988299e-03,1.023909449577331543e+00,2.210680227289301553e-02,2.130899232934968524e-03,1.879427741840856893e-03,-5.296927821512402434e-02,6.920045307874757301e-02,3.650590777397155762e-02,2.797963013952660116e-01,-5.967419472406924885e-02,9.448590225572658929e-02,-3.141297811554023545e-01,1.074627991753383249e-01,3.128458434944429711e-02,-2.168246090412139782e-01,1.597271025180816706e-01,2.569304108619690011e-02,5.200821217975089006e-01,7.476835250854492188e-01,5.625689029693603516e-02,-3.058330240503973130e+01,0.000000000000000000e+00
8.941620000000000124e-01,-3.687286464717820511e-02,-3.660379567032905936e-03,1.024471163749694824e+00,2.968369553895528964e-02,-9.239396649807218864e-04,4.509208236218104765e-03,-4.584273516616185762e-02,6.183350806212942891e-02,3.241151198744773865e-02,2.152318216455492150e-01,-1.267099726489905598e-01,8.952969559113495290e-02,-3.089325487613677756e-01,2.899862644867974570e-02,1.200812588986638341e-01,-2.089325487613677979e-01,9.467961788177489679e-02,1.069443225860595703e-01,5.201879783064313756e-01,7.425284385681152344e-01,-1.075815796852111816e+00,6.308303294777997650e+01,0.000000000000000000e+00
9.190720000000000001e-01,-3.845662360791080037e-02,-1.166120830676317102e-03,1.024884223937988281e+00,3.147783476392032598e-02,-3.934985827616532816e-03,6.173350942709688281e-03,-4.083001749688255910e-02,7.623097274704944415e-02,2.397439628839492798e-02,-3.232888760339561185e-02,-9.483604812330441447e-02,8.168352806987499645e-03,-2.046589374542236439e-01,-1.504600592099200607e-01,-1.095777217762116534e-03,-1.046589374542236245e-01,-6.726651191711426059e-02,-1.910190582275390556e-02,5.201696718802191199e-01,7.120349407196044922e-01,-1.502474546432495117e+00,9.361027657520682510e+01,0.000000000000000000e+00
9.460410000000000208e-01,-3.996361371869475848e-02,1.450784497240486083e-03,1.025128960609436035e+00,2.651508758178558814e-02,-7.139927852948257936e-03,6.285997768038048723e-03,-4.489941974483051962e-02,7.171207889413386272e-02,2.116448059678077698e-02,-2.466290679733100788e-01,-8.984242376675563579e-02,8.970477600677486188e-03,-9.475427865982055664e-02,-7.805716991424571649e-03,-1.665284761135884806e-01,5.245721340179442839e-03,9.219428300857543390e-02,-1.849453210830688532e-01,5.208545691431699654e-01,7.411484718322753906e-01,-1.390956759452819824e+00,9.135358207343460890e+01,0.000000000000000000e+00
9.704810000000000381e-01,-4.141851717486968315e-02,4.049409165840354811e-03,1.025456666946411133e+00,1.762937791702584925e-02,-1.023232388232542256e-02,5.490752408163560895e-03,-3.875373153592426290e-02,7.894998414538825782e-02,1.506747398525476456e-02,-2.774271702590940802e-01,-1.037090326352012870e-01,-2.567284519388749950e-02,4.726579158042316930e-03,-6.860873103141784668e-02,-1.686971875694124046e-01,5.816187858581542414e-02,3.139126896858215193e-02,-1.847999811172485185e-01,5.210436255906349956e-01,7.305128574371337891e-01,1.266342401504516602e-01,1.019927423473208705e+02,0.000000000000000000e+00
9.961799999999999544e-01,-4.261541847477447187e-02,7.776378898800363586e-03,1.025805354118347168e+00,8.486918528684612995e-03,-1.131776154777441867e-02,5.266405614353066728e-03,-5.052392724375823208e-02,6.776876458773115064e-02,2.204629033803939819e-02,-2.660110286027500548e-01,-1.062097795959137878e-02,3.995384815643557297e-03,-8.006541408623100986e-02,8.107764720916746382e-02,-1.730765200988212682e-01,-7.859930992126464011e-02,1.810776472091674694e-01,-1.883415699005126787e-01,5.205609645629061255e-01,7.356441020965576172e-01,-6.138111352920532227e-01,7.073550176178139282e+01,0.000000000000000000e+00
1.022629999999999928e+00,-4.387857244947898638e-02,1.135473050662206759e-02,1.026502609252929688e+00,2.255945230281958952e-03,-1.081484864272352908e-02,6.969737959156732492e-03,-3.912239078838414957e-02,7.352712272111554259e-02,2.214102819561958313e-02,-1.737633506035596298e-01,4.206672238223998356e-02,6.749260803754347782e-02,-1.473597005483379685e-01,1.159618318080901933e-01,2.114768031253483893e-01,-1.954143762588500810e-01,2.159618318080901989e-01,1.916267573833465576e-01,5.200967474984825589e-01,7.162046432495117188e-01,-1.111067414283752441e+00,-1.171059155841864197e+02,0.000000000000000000e+00
1.052300000000000013e+00,-4.471970724517983220e-02,1.364061385080063415e-02,1.027053594589233398e+00,7.966982105237516241e-05,-1.028072911391952893e-02,8.558984374156475283e-03,-4.906500131640783441e-02,6.997645318800786718e-02,3.715140745043754578e-02,-5.072924888331491883e-02,-2.163684884646346895e-02,8.812880232110756329e-02,1.204568975425046873e-01,1.486247181892394464e-02,1.614450671249935965e-01,5.990910530090332031e-02,1.148624718189239502e-01,1.371989607810974177e-01,5.188410983691945644e-01,7.129486799240112305e-01,-1.029467940330505371e+00,6.420362110376895259e+01,0.000000000000000000e+00
1.074648999999999965e+00,-4.557681630727277583e-02,1.590820611564140383e-02,1.027717590332031250e+00,-1.855624056908169745e-03,-9.596756526183636282e-03,9.619348199189962922e-03,-5.518357890196198129e-02,6.876830217168876380e-02,3.379018232226371765e-02,-9.319134591595654160e-02,3.735025911494936623e-02,1.389528492974384521e-02,-7.297160316558973236e-02,1.153624117374419944e-01,1.784948644839383924e-01,-1.474598407745361384e-01,2.153624117374419999e-01,1.513316452503204179e-01,5.179335171551672223e-01,6.563589572906494141e-01,-9.127379655838012695e-01,1.348019111953139486e+02,0.000000000000000000e+00
1.098764999999999992e+00,-4.652348299516019525e-02,1.858609048486339205e-02,1.028387784957885742e+00,-3.603881532487245888e-03,-1.011380614481938167e-02,8.798745475434301480e-03,-4.321266797604057797e-02,7.622387937024330262e-02,2.948750182986259460e-02,-7.040237945546273801e-02,-3.823481553711036152e-02,-8.451210982461160315e-02,2.737443611538586397e-01,-5.942379236221314448e-02,-9.103368003076124648e-02,1.796743154525756725e-01,4.057620763778686107e-02,-1.158752202987670815e-01,5.194894716560476411e-01,7.287445068359375000e-01,-1.542675375938415527e+00,4.988172869734395931e+01,0.000000000000000000e+00
1.126519999999999966e+00,-4.749832934421963776e-02,2.133741604772150871e-02,1.029143929481506348e+00,-5.486025223482671014e-03,-1.120002479414394791e-02,7.382565937883645533e-03,-3.920778620727616293e-02,7.637882911261124896e-02,3.111945651471614838e-02,-1.141964766839737716e-01,-6.924077112531584755e-02,-6.138565834985840186e-02,2.565422654151916504e-01,-2.119736075401306152e-01,5.133740334706557440e-02,1.565422654151916448e-01,-1.119736075401306097e-01,3.050168752670287878e-02,5.185644431291939194e-01,6.913409233093261719e-01,1.820362806320190430e-01,-8.957268025679278267e+00,0.000000000000000000e+00
1.151105999999999963e+00,-4.849262793691733880e-02,2.409271290747982269e-02,1.029863715171813965e+00,-6.656957437774691302e-03,-1.280342362488662289e-02,5.602939661168196070e-03,-4.787955497140124195e-02,7.571773999279592104e-02,3.913381695747375488e-02,-3.153729648294310850e-02,-5.890320427958509186e-02,-1.192533701582336458e-01,2.571344256401061901e-01,-2.410257577896118275e-01,9.206925383259616236e-02,1.571344256401061845e-01,-1.410257577896118220e-01,7.622433900833129605e-02,5.181196383228915403e-01,7.050518989562988281e-01,-4.479187726974487305e-01,-3.009797136073342649e+00,0.000000000000000000e+00
1.171783999999999937e+00,-4.953895830430855157e-02,2.679275568036934910e-02,1.030603766441345215e+00,-7.384781311116439886e-03,-1.475181187282159634e-02,4.468571268612352154e-03,-5.115329761302084277e-02,8.584555760655063206e-02,3.599520027637481689e-02,2.630269321634220309e-03,-1.049207497776691728e-01,-1.274298847252362983e-02,2.348672628402709850e-01,-3.042508602142334206e-01,8.344780501907243797e-02,1.348672628402709794e-01,-2.042508602142333873e-01,7.073072791099548062e-02,5.181276630976019426e-01,6.989246606826782227e-01,-1.312021136283874512e+00,-3.628080715404341561e+01,0.000000000000000000e+00
1.193850999999999996e+00,-5.061240233719440512e-02,2.949895817009972471e-02,1.031391501426696777e+00,-6.706867805842879442e-03,-1.614072823651979682e-02,3.915250381149240969e-03,-4.649289853311628501e-02,8.215516977728183623e-02,3.599432483315467834e-02,6.230638453671773908e-02,-1.013316618251920709e-01,-2.639696917197619994e-02,1.957643389701843317e-01,-2.962429285049438255e-01,1.070700875327602747e-01,9.576433897018432617e-02,-1.962429285049438477e-01,9.588353633880615512e-02,5.181279679404652283e-01,7.056007385253906250e-01,-1.212393641471862793e+00,6.490629047501235505e+01,0.000000000000000000e+00
1.219462000000000046e+00,-5.257245649834185741e-02,3.418277049060669537e-02,1.032735943794250488e+00,-2.657522954193202586e-03,-1.595813326237127683e-02,3.000581747877278330e-03,-4.700321879413053155e-02,8.396775819439110389e-02,3.837917372584342957e-02,1.362089238371909372e-01,7.212981662840484143e-02,-1.482576021166059389e-02,1.050539970397949274e-01,5.991283655166623756e-02,-2.421563374572198446e-02,5.053997039794921875e-03,1.599128365516662431e-01,-3.303380012512206754e-02,5.175298966084719288e-01,6.914513111114501953e-01,-1.524944305419921875e+00,9.037027388957372409e+01,0.000000000000000000e+00
1.244990999999999959e+00,-5.442634052616509427e-02,3.878344960638807626e-02,1.033972859382629395e+00,3.497960757213242240e-03,-1.209917116628789202e-02,1.198794075273168112e-03,-4.724131239055807951e-02,8.678750158367695700e-02,3.706397116184234619e-02,2.648472331552247927e-01,1.863978202561602793e-01,-6.626805747659426926e-02,6.648408000396530126e-02,9.044844508171079323e-02,-7.548106812262452003e-02,-3.295218944549560460e-03,1.904484450817107988e-01,-7.943694591522217074e-02,5.176437375575265731e-01,7.005592584609985352e-01,-1.183010220527648926e+00,8.074027406555686071e+01,0.000000000000000000e+00
1.269017999999999979e+00,-5.613239311960879080e-02,4.330849251857789989e-02,1.035053491592407227e+00,1.020559648793972936e-02,-4.961410370291519101e-03,-7.341720597252820698e-04,-4.398146866830926482e-02,8.354749807859085386e-02,2.741809189319610596e-02,1.889221530695017748e-01,2.642315248599638733e-01,-6.082006022511071003e-02,2.192752443440781629e-01,1.237774491310119629e-01,-1.241645579542330347e-01,1.930808186531066950e-01,2.237774491310119684e-01,-1.226841688156127819e-01,5.189157286243145650e-01,7.383301258087158203e-01,-6.647840738296508789e-01,-4.716008272820146630e+01,0.000000000000000000e+00
1.296270000000000033e+00,-5.778518879927444646e-02,4.757259849582860106e-02,1.036086678504943848e+00,1.661323086873894156e-02,2.236823885475747176e-03,-1.742102580714820128e-03,-4.519518791661295692e-02,9.224228550663159110e-02,3.151724115014076233e-02,2.243090508011766349e-01,2.229058752397901633e-01,2.532259237958366365e-03,1.764262278742320389e-01,1.579869949117011507e-01,-1.319115986509031280e-01,1.809215426445007213e-01,2.236388146877288652e-01,-1.274935483932495006e-01,5.183869019472814310e-01,7.329761981964111328e-01,-1.220203042030334473e+00,9.493038138704103801e+01,0.000000000000000000e+00
1.325679999999999970e+00,-5.953769983471584454e-02,5.153741158656641175e-02,1.037218332290649414e+00,2.225792559199131493e-02,5.272904692248836511e-03,-1.716446168960434997e-03,-4.868029096992956134e-02,8.790464561727455439e-02,3.209638968110084534e-02,1.929387752024252778e-01,2.207141028728821369e-02,6.630144944066198838e-04,-2.649725515201621362e-01,1.585608148253477567e-01,-3.102866746089317715e-02,-2.220008790493011308e-01,2.087502837181091364e-01,-2.663211822509765556e-02,5.184106100652240423e-01,7.444090843200683594e-01,-1.271830201148986816e+00,9.618266925060619599e+01,0.000000000000000000e+00
1.346165000000000056e+00,-6.075529710146887474e-02,5.405455598930544725e-02,1.038032293319702148e+00,2.571088329198898195e-02,5.310257378462468481e-03,-9.914705340253154430e-04,-6.320671453773908655e-02,8.280862883699621757e-02,2.982643432915210724e-02,1.735623606551161824e-01,7.531656103859692836e-03,7.520908653747808426e-02,-2.876883207468932113e-01,1.267545542683454485e-01,-6.591439639861247646e-02,-2.208678603172302135e-01,1.893132269382476751e-01,-6.369255781173706332e-02,5.184967172734457064e-01,7.462753057479858398e-01,-1.049047589302062988e+00,1.121884184383981875e+02,0.000000000000000000e+00
1.372840999999999978e+00,-6.259617967068110966e-02,5.762620064426912658e-02,1.039367675781250000e+00,3.172009460463304925e-02,2.883823598392787346e-03,3.046774959029357845e-05,-4.810850389654218462e-02,8.103093581481214669e-02,3.492456302046775818e-02,2.085950375298736004e-01,-1.013729204560687713e-01,3.708738932004924937e-02,-2.985394179821014293e-01,-2.627662532705064141e-02,6.126780939652650554e-02,-1.985394179821014238e-01,3.900765180587768138e-02,6.051433682441711287e-02,5.177463827146663311e-01,7.354261875152587891e-01,-5.207957029342651367e-01,-3.817552809678798731e+00,0.000000000000000000e+00
1.393861999999999934e+00,-6.394930722145500401e-02,6.004233595226514397e-02,1.040266394615173340e+00,3.401466539458131155e-02,5.138313293509000346e-04,3.571415563121734123e-04,-4.964794118321008698e-02,7.880781857074733998e-02,4.037839919328689575e-02,4.381923952179389570e-02,-1.123542245864215805e-01,8.112074631244761691e-03,-1.744412243366241511e-01,-2.666433552260278339e-01,1.709487522405506209e-03,-7.444122433662414551e-02,-1.810111284255981334e-01,-2.112865447998046712e-04,5.167718883558726217e-01,7.119967937469482422e-01,-1.040017962455749512e+00,5.538664260232079073e+01,0.000000000000000000e+00
1.421492999999999896e+00,-6.614445986051156745e-02,6.388085843001573005e-02,1.041365504264831543e+00,3.224157990860186673e-02,-2.671686750909119112e-03,8.773059668710792838e-04,-5.066571308414483110e-02,8.990520541251666164e-02,2.875147014856338501e-02,-1.254733944924983913e-01,-9.788969761751552257e-02,1.515898401323187775e-02,-1.011171467366888815e-01,-1.605648159980773981e-01,-1.077763771778809110e-01,-7.255983352661132639e-03,-6.056481599807739258e-02,-1.114026904106140137e-01,5.175858553411969432e-01,7.170040607452392578e-01,-9.279886484146118164e-01,1.062380395957531221e+02,0.000000000000000000e+00
1.447162999999999977e+00,-6.817303049334755283e-02,6.769749916609740792e-02,1.042216420173645020e+00,2.510597527693185158e-02,-4.560163684854900978e-03,1.882936379622296148e-04,-4.998608492022158650e-02,7.991605524077997902e-02,2.445470727980136871e-02,-2.694492669959702158e-01,-1.600496443536648591e-02,-3.667618909740787136e-02,-1.261636446343975815e-01,-4.303871393203736323e-02,-1.828462400810151600e-01,-7.163482904434204102e-02,5.696128606796264232e-02,-1.844711065292358454e-01,5.178742854556223074e-01,7.225154638290405273e-01,-1.438497185707092285e+00,6.477263733333353457e+01,0.000000000000000000e+00
1.472572999999999910e+00,-6.997727782269419494e-02,7.134053290342103060e-02,1.043036341667175293e+00,1.655029645225736257e-02,-3.047983857525915496e-03,1.863416787463482939e-04,-4.038427455384521747e-02,8.377245496806408342e-02,2.022046409547328949e-02,-2.785763618188893953e-01,1.143117473157469893e-01,3.014734950907745070e-02,-1.609071683744751069e-01,1.186276078224182129e-01,-3.877750889332107903e-02,-1.695125162601471003e-01,2.186276078224182184e-01,-4.008307456970214983e-02,5.170540244296166765e-01,6.679898500442504883e-01,-3.366843461990356445e-01,4.634546314136697021e+01,0.000000000000000000e+00
1.496316999999999897e+00,-7.115679735157290353e-02,7.377024538912207996e-02,1.043639302253723145e+00,1.240974704428704327e-02,-7.937975271412600620e-04,6.986858093474488654e-04,-3.384726493883853660e-02,7.554344274776511603e-02,2.308193780481815338e-02,-1.464869550971015788e-01,9.013239437263319276e-02,3.102116603006058182e-02,-1.433849759448538874e-01,1.330935156408387665e-01,-1.312934270115212465e-02,-1.737761557102203425e-01,2.213682353496551347e-01,-1.564657688140869141e-02,5.169948368252422766e-01,6.821687221527099609e-01,-1.092033028602600098e+00,1.050462945289909555e+02,0.000000000000000000e+00
1.522397000000000000e+00,-7.282045306583340150e-02,7.723418193168837820e-02,1.044686198234558105e+00,7.630127463024519337e-03,2.784358243783424669e-03,1.858146063679566150e-03,-4.238747252920924136e-02,7.362512202575634268e-02,3.124843351542949677e-02,-1.397237891967555157e-01,7.500836187068699035e-02,1.986162956228560827e-03,-9.674701323248652285e-02,1.477614784531385561e-01,-1.962907626836007426e-03,-1.609974861145019587e-01,2.224174082279205267e-01,-7.570123672485351042e-03,5.160680471629224275e-01,6.721556186676025391e-01,-1.074824929237365723e+00,2.331071846739066800e+01,0.000000000000000000e+00
1.545784999999999965e+00,-7.394383092129044877e-02,7.942641562491781215e-02,1.045432209968566895e+00,4.852420258057362455e-03,3.819764374018097541e-03,2.258041822849614529e-03,-3.723824176381633488e-02,7.602425272658915045e-02,3.238544985651969910e-02,-1.301368494192077785e-01,-1.788258789795839007e-02,1.464869652729485633e-02,2.323406412290488499e-01,1.393820119641960287e-01,-7.220591558304047253e-02,1.456722736358642412e-01,2.029011905193328913e-01,-7.884374856948851706e-02,5.168204778510862019e-01,7.238206863403320312e-01,-1.181759953498840332e+00,9.155809842775231289e+01,0.000000000000000000e+00
1.570807999999999982e+00,-7.563484718694439557e-02,8.279249523604613470e-02,1.046713113784790039e+00,-1.265520230468814781e-04,2.520272392416256224e-03,2.466621535918893469e-03,-4.155338388456813331e-02,8.453522453505896150e-02,2.857373841106891632e-02,-1.635665648647169623e-01,-7.543181090859257809e-02,-1.444691559982014435e-02,2.600090026855468861e-01,4.595181525869695971e-02,-1.329169277894711731e-01,1.600090026855468806e-01,1.237336814403533908e-01,-1.401503562927245983e-01,5.170251946862253201e-01,7.278921604156494141e-01,-9.937919378280639648e-01,-1.503713957102497289e+01,0.000000000000000000e+00
1.594430000000000014e+00,-7.688925448511949035e-02,8.484649488989927379e-02,1.047602653503417969e+00,-3.303734940976525009e-03,8.548551080678201686e-05,2.829309862518648421e-03,-4.099350193175247542e-02,8.133509166282656966e-02,2.664222009479999542e-02,-1.605085826104192814e-01,-1.467401400424101499e-01,4.876176524686478414e-02,2.178325176239013783e-01,-1.195491147330582093e-01,4.372573167096836105e-02,1.178325176239013589e-01,-2.584125995635986120e-02,3.548031449317932268e-02,5.166266231149081456e-01,7.061870098114013672e-01,-1.090218901634216309e+00,9.891944408876027239e+01,0.000000000000000000e+00
1.623985999999999930e+00,-7.887288257316420192e-02,8.763566221246379961e-02,1.049109101295471191e+00,-4.215976611723328861e-03,-5.028628965054071642e-03,3.670789050605692636e-03,-5.548505793785644263e-02,7.836001719328171411e-02,4.319793730974197388e-02,3.496393414171453801e-02,-1.417466804786170764e-01,5.739656405080764690e-02,2.464496850967407282e-01,-2.846919059753417747e-01,5.505332898767927030e-02,1.464496850967407227e-01,-1.846919059753417969e-01,4.431105852127074918e-02,5.150729870356489659e-01,6.982336044311523438e-01,-4.578779935836791992e-01,1.181049263729491656e+02,0.000000000000000000e+00
1.647858999999999963e+00,-8.016088342439244008e-02,8.939131554272340685e-02,1.050210833549499512e+00,-2.584553363844499085e-03,-8.452675425077105231e-03,4.048244930918607279e-03,-3.076857575473094727e-02,7.595628056536081474e-02,4.363503307104110718e-02,9.676083990696039694e-02,-1.610712261329013406e-01,-1.323565336117001404e-02,2.204203844070434515e-01,-2.628405570983886608e-01,6.930390031623065439e-02,1.204203844070434459e-01,-1.628405570983886552e-01,5.745080709457397322e-02,5.149945347584191646e-01,7.056453227996826172e-01,-1.222414135932922363e+00,1.016784033813385406e+02,0.000000000000000000e+00
1.671980999999999939e+00,-8.191559173409025674e-02,9.194456225996784637e-02,1.051871895790100098e+00,2.359706387970748886e-03,-1.010819440796684177e-02,3.573538154659747917e-03,-4.291285274167727648e-02,7.400191085505712640e-02,4.217171669006347656e-02,1.604744972061677155e-01,7.891303473257397366e-03,5.002860056894988536e-04,3.073390126228332797e-02,2.390729188919066273e-02,3.101094057270343748e-02,-6.926609873771667758e-02,1.239072918891906683e-01,2.020626068115234306e-02,5.150615292824884950e-01,7.140674591064453125e-01,-1.347219586372375488e+00,7.302823917180376156e+01,0.000000000000000000e+00
1.695240999999999998e+00,-8.286332965022930042e-02,9.369778418830769506e-02,1.052835226058959961e+00,6.517642336063921189e-03,-8.122277187985194047e-03,2.457192863976699615e-03,-3.006157657784289811e-02,6.602063393161053395e-02,4.801252484321594238e-02,2.091368433288628981e-01,1.566436274863941269e-01,-7.468612076025939184e-02,6.040914614569883878e-02,9.819251894950864479e-02,-9.941121801718558193e-02,-2.074708342552184989e-02,1.981925189495086503e-01,-1.070834040641784612e-01,5.139223325441769630e-01,6.857130527496337891e-01,-1.011412262916564941e+00,9.221350288993922106e+01,0.000000000000000000e+00
1.719864000000000059e+00,-8.406508010020530275e-02,9.636676843245374491e-02,1.054230451583862305e+00,1.232388556421067094e-02,-2.148328270760613279e-03,8.874325038643040772e-04,-2.548817773315511723e-02,7.804020473661472945e-02,3.062155656516551971e-02,1.361495256811800225e-01,2.263935681113891374e-01,-1.872809738956499742e-02,2.272901912714349049e-01,1.240458488464355469e-01,-1.550418630683759458e-01,1.708155870437622070e-01,2.240458488464355524e-01,-1.582764744758606013e-01,5.160216152487758778e-01,7.385017871856689453e-01,-1.292164683341979980e+00,8.054876239141887595e+01,0.000000000000000000e+00
1.745999999999999996e+00,-8.488138959767367597e-02,9.813608813314393664e-02,1.055126190185546875e+00,1.561310489426856983e-02,1.151445760607661128e-03,3.387269155766587281e-04,-3.192044169547419985e-02,7.270128316234920895e-02,4.382463172078132629e-02,1.524596272123145690e-01,1.175285882941562304e-01,-2.741442452010396311e-02,-1.128643954437768271e-01,1.311256874757849022e-01,-1.903200713937608923e-01,-1.439005136489868164e-01,2.214817821979522539e-01,-1.919692754745483398e-01,5.143132639408259932e-01,7.076011896133422852e-01,-7.746111154556274414e-01,1.362241068446723489e+02,0.000000000000000000e+00
1.769371000000000027e+00,-8.576448940959950640e-02,9.996871097144553742e-02,1.056059002876281738e+00,1.800894407169370548e-02,3.035832095825474752e-03,7.748081532152375746e-04,-4.621068425198645441e-02,7.641289520583305350e-02,3.822744637727737427e-02,1.209309697089611252e-01,8.096683530925265215e-02,4.248318071393418494e-02,-1.681807047562723367e-01,1.293425092852217295e-01,-1.861442075773070415e-01,-1.893232941627502330e-01,2.193029165267944280e-01,-1.890748143196105957e-01,5.150245306644315457e-01,7.311444282531738281e-01,-2.629911899566650391e-02,4.126167821004560921e+01,0.000000000000000000e+00
1.796021000000000090e+00,-8.715516304357914801e-02,1.024301659765384787e-01,1.057696461677551270e+00,2.186642170245289840e-02,1.746763047275612379e-03,2.274875112186711731e-03,-3.375442412673056169e-02,7.833106106641148092e-02,4.403145238757133484e-02,1.120924660162732622e-01,-9.424824007358612032e-02,6.219169544228947411e-02,-3.186490843961281572e-02,-1.963297976354789476e-01,1.754543749645402079e-02,-3.163200616836547852e-02,-1.092309236526489286e-01,1.035516858100891079e-02,5.142002602638420239e-01,7.217886447906494141e-01,-9.828654527664184570e-01,8.913419406490901054e+01,0.000000000000000000e+00
1.819217000000000084e+00,-8.804385583563775763e-02,1.038424477321164413e-01,1.058785319328308105e+00,2.315412324303177047e-02,3.988400987586793178e-05,3.510195721587809712e-03,-4.311376361639523286e-02,7.178257890304831634e-02,4.355372861027717590e-02,-5.900444343437105926e-04,-8.330700878090545325e-02,5.748689088591994734e-02,1.408817090733846880e-02,-2.685903549194336160e-01,2.839917075709231381e-03,2.670582532882690222e-02,-1.685903549194335826e-01,-8.029747009277343056e-03,5.134852247798181724e-01,6.908802986145019531e-01,-1.302840352058410645e+00,-3.178657683112087540e+01,0.000000000000000000e+00
1.846854999999999913e+00,-8.928361084584190976e-02,1.060028988919392845e-01,1.060299992561340332e+00,2.208738233874390708e-02,-2.798728382524817704e-03,5.158529653203735264e-03,-3.627411633275295227e-02,7.284473537484661976e-02,3.755190968513488770e-02,-1.050239797695427940e-01,-7.731095570246282467e-02,2.920157136597143280e-02,-2.012777302895887854e-02,-2.249472379684448187e-01,-2.944164005478231566e-03,-1.838947534561157296e-02,-1.249472379684448131e-01,-1.853492259979247839e-02,5.137482496792968867e-01,6.921381950378417969e-01,-1.414106011390686035e+00,1.527047659156444865e+02,0.000000000000000000e+00
1.871250999999999998e+00,-8.996525571708860469e-02,1.074316000053047171e-01,1.061179280281066895e+00,2.019857876565410437e-02,-2.925641356627428635e-03,5.317563729424329075e-03,-3.375610149397977738e-02,7.549679311922556646e-02,4.338385537266731262e-02,-1.131830781094706334e-01,5.152943233972327730e-02,-2.236726025979688184e-02,-1.112160023466208514e-01,1.092367649078369030e-01,-7.754049009139588056e-02,-1.256917834281921220e-01,2.092367649078369085e-01,-9.355076551437377375e-02,5.124676285281941635e-01,6.552834510803222656e-01,-1.186605334281921387e+00,7.750755919176816633e+01,0.000000000000000000e+00
1.896849000000000007e+00,-9.061073036781511214e-02,1.094691498887343378e-01,1.062364935874938965e+00,1.694405536423354910e-02,1.820326358148438572e-04,5.173309176671248878e-03,-1.980981260873122471e-02,7.335655981992522667e-02,2.894789911806583405e-02,-1.039981815026573136e-01,1.394891143164503633e-01,1.895809048230646943e-02,-1.782433711008765964e-01,1.277908016191450224e-01,-4.773376331896801716e-02,-2.132369220256805364e-01,2.188515186309814287e-01,-6.299107074737549106e-02,5.144078181428380914e-01,7.115967273712158203e-01,-1.067463040351867676e+00,1.066534517010732941e+02,0.000000000000000000e+00
1.920712999999999893e+00,-9.077507104350755751e-02,1.114192718994301834e-01,1.063416481018066406e+00,1.447381559927667094e-02,5.070011968790311130e-03,5.367482266228324785e-03,-2.800883496483180107e-02,6.332026022389497522e-02,3.960017859935760498e-02,-3.765857685153733980e-02,1.200473001071120371e-01,2.277508306217996409e-02,-1.793518549293232067e-01,1.502285163922497668e-01,6.379472447446747629e-02,-2.247676670551299882e-01,2.193600296974182184e-01,4.822958707809447965e-02,5.140124810885779993e-01,7.417924404144287109e-01,-6.546691656112670898e-01,1.363068887374129190e+02,0.000000000000000000e+00
1.944128000000000078e+00,-9.090370914882318909e-02,1.126977106707561516e-01,1.064189672470092773e+00,1.306677712673782500e-02,6.763246063030692312e-03,5.702192089000947262e-03,-1.439081397546419783e-02,6.950920270110683141e-02,2.701408788561820984e-02,-9.390272591698071991e-02,5.326452050416921602e-02,1.207798813481146712e-02,-1.082095226558463796e-01,1.783995358719728253e-01,6.625643044775496315e-02,-1.706143856048583929e-01,2.240544140338897594e-01,4.993708133697509488e-02,5.138770780339543265e-01,6.924684047698974609e-01,-4.115849733352661133e-01,5.201965303963881837e+01,0.000000000000000000e+00
1.972426999999999930e+00,-9.111102028221408633e-02,1.145411410974066929e-01,1.065222144126892090e+00,1.008534461453546027e-02,6.310350420460686394e-03,5.763851097014211292e-03,-2.945110337607747056e-02,6.642878628401296948e-02,3.480656072497367859e-02,-9.913146311323303705e-02,-6.966989795871186830e-02,2.572643101375754471e-02,1.874410118411322101e-01,-3.618135470926675534e-02,-2.954986341836641356e-02,1.069020867347717230e-01,2.791242599487304618e-02,-4.613910913467406810e-02,5.137095129160402784e-01,7.228524684906005859e-01,-1.170949816703796387e+00,9.724763234599458883e+01,0.000000000000000000e+00
1.996105999999999936e+00,-9.125428590284194452e-02,1.158318659293586239e-01,1.065920829772949219e+00,7.225863733929863836e-03,4.737251659964414330e-03,4.868338425135619249e-03,-1.909387923336346854e-02,6.747682930062241791e-02,2.598764561116695404e-02,-1.813934032583863765e-01,-1.125730127379556966e-01,-5.776912474865789071e-02,2.580342888832092285e-01,2.219886756958566743e-02,-1.281565162468505381e-01,1.580342888832092230e-01,8.601619005203246793e-02,-1.422024250030517467e-01,5.143424925031627737e-01,7.294809818267822266e-01,-8.447564840316772461e-01,8.365861582241737437e+01,0.000000000000000000e+00
2.018962000000000145e+00,-9.116318776216265907e-02,1.162671171968257394e-01,1.066634535789489746e+00,4.441363221346134385e-03,2.139090853559011407e-03,4.285939748090264977e-03,-2.229321324620742867e-02,6.858854422592504385e-02,4.033471643924713135e-02,-1.080350168875702926e-01,-1.330641793309639553e-01,-4.431777610585053290e-02,2.029543757438659890e-01,-1.440630310524310953e-01,2.538896981696790039e-02,1.029543757438659696e-01,-5.828640460968017439e-02,1.287689208984374965e-02,5.123885815469326754e-01,6.896438598632812500e-01,-8.058182001113891602e-01,9.667173128574661689e+01,0.000000000000000000e+00
2.046553999999999984e+00,-9.101804936333583729e-02,1.169807484399157521e-01,1.067712068557739258e+00,2.043106026131410232e-03,-1.993239787734468749e-03,4.392707585419033597e-03,-1.578023415868731044e-02,6.252596371520766083e-02,4.247950389981269836e-02,-2.552817570465338790e-02,-1.395349237870283921e-01,9.822693332370086711e-03,2.235617160797119252e-01,-2.209161639213562123e-01,3.149216530490415999e-02,1.235617160797119057e-01,-1.209161639213561928e-01,1.862381100654602120e-02,5.122282502807887772e-01,6.997920274734497070e-01,-6.056336164474487305e-01,-2.446450134274590127e+01,0.000000000000000000e+00
2.072286000000000072e+00,-9.085143586362427748e-02,1.175930670481813434e-01,1.068796515464782715e+00,3.345402265775128826e-03,-4.856566640284221137e-03,4.953141405951768175e-03,-2.328308082850634106e-02,5.677789910248750432e-02,3.179071843624114990e-02,6.595570716119204813e-02,-6.097692929596484207e-02,1.866516626234179105e-02,1.892211794853210505e-01,-1.987218499183655007e-01,8.510138236393791078e-02,8.922117948532104492e-02,-9.872184991836548129e-02,7.050254344940184992e-02,5.128486250730223128e-01,6.998567581176757812e-01,-5.293799638748168945e-01,9.164850964179576920e+01,0.000000000000000000e+00
2.096125999999999934e+00,-9.067487992588518786e-02,1.179956898202223631e-01,1.069567203521728516e+00,5.983971371688119774e-03,-5.261055777972867276e-03,4.766967212053335387e-03,-3.968464961441443492e-03,5.494032225096367322e-02,3.662915900349617004e-02,1.169090821369156985e-01,1.376110288215839396e-02,-4.310336300203186644e-02,-4.680699110031119603e-03,8.496234416961667701e-02,-1.140729293380249310e-02,-1.046806991100311252e-01,1.849623441696166826e-01,-2.547597885131835938e-02,5.124811784284527549e-01,7.083368301391601562e-01,-9.485276937484741211e-01,1.276652377768643873e+02,0.000000000000000000e+00
2.118504999999999860e+00,-9.057375907475291588e-02,1.187631291714229265e-01,1.070255637168884277e+00,9.532851323920685585e-03,-4.159587387388308244e-03,4.589948343387941290e-03,-2.713777977721163696e-03,5.653947336987157068e-02,3.781569749116897583e-02,2.257530783810498820e-01,9.743389579327489669e-02,4.002179037303332104e-03,-7.761302936968901556e-02,1.047258794307708574e-01,-7.042898188780150059e-02,-1.627048015594482477e-01,2.047258794307708629e-01,-8.407026529312133789e-02,5.123590558386974525e-01,7.143912315368652344e-01,-7.548166513442993164e-01,1.289621131153313911e+02,0.000000000000000000e+00
2.143774000000000068e+00,-9.028905845529093532e-02,1.199126904387863846e-01,1.071245789527893066e+00,1.536602160532006198e-02,-1.230288895472941846e-04,3.275881327065212605e-03,-2.943916108669500896e-04,4.890481867178740616e-02,2.546408958733081818e-02,1.804084257769281718e-01,1.613884743905398267e-01,-5.052404511579021429e-02,-2.672579298640063300e-02,1.361989892437942273e-01,-1.918756096116826793e-01,-6.821783781051635187e-02,2.220168471336364802e-01,-2.017352700233459306e-01,5.126694825628359542e-01,6.912858486175537109e-01,-7.988923788070678711e-01,1.248815941806256973e+02,0.000000000000000000e+00
2.174317999999999973e+00,-9.004591237873635357e-02,1.211182454467012032e-01,1.072169542312622070e+00,1.992703810182667665e-02,2.890920945171959744e-03,3.111068320340636649e-03,-2.959304487806926204e-03,5.468454639711321785e-02,2.883621491491794586e-02,8.131884219736056074e-02,6.994835245951437630e-02,1.485086354046868257e-02,-1.365977936712515495e-01,1.538994535389933416e-01,-2.040991774467931230e-01,-1.560875594615936113e-01,2.230096936225891002e-01,-2.134494781494140625e-01,5.128275190622474389e-01,7.211996316909790039e-01,-1.679148495197296143e+00,1.468214185495139361e+02,0.000000000000000000e+00
2.195929000000000020e+00,-9.001178443541590912e-02,1.215384078918972932e-01,1.072411060333251953e+00,2.087256603342085154e-02,3.065526717456856787e-03,3.312783759894726704e-03,-9.484217977363384317e-03,5.235744198490791673e-02,3.725542873144149780e-02,8.046899225158159197e-02,-8.883205729522714728e-03,1.677869472564347958e-02,-1.987379587421292115e-01,8.753259818031547401e-02,3.229388248825105188e-03,-2.105342566967010332e-01,1.611060798168182373e-01,-6.738102436065673308e-03,5.124047539363855153e-01,7.382390499114990234e-01,-1.066717267036437988e+00,9.843648824273783760e+01,0.000000000000000000e+00
2.221820000000000128e+00,-9.012624272141471493e-02,1.227436877498603446e-01,1.073190689086914062e+00,2.132947003970610961e-02,1.761188939341185034e-03,5.338287519524369425e-03,-1.547032538421113518e-02,5.651900407653293740e-02,2.797444351017475128e-02,-1.798956472027765999e-02,-9.892335062341409135e-02,7.599952512076432742e-02,4.636572229662003913e-02,-1.915479368538959282e-01,-2.365735483270348105e-03,3.232179880142211498e-02,-1.054892778396606390e-01,-1.814603805541992188e-02,5.123142874494605037e-01,7.044112682342529297e-01,-5.091899633407592773e-01,-1.113757369177406886e+01,0.000000000000000000e+00
2.246382000000000101e+00,-9.037237915644547037e-02,1.239250298506450187e-01,1.073834419250488281e+00,1.919694112590717913e-02,-2.351955153904183859e-03,7.628188879374685205e-03,-2.561435280319936461e-03,6.422699963037503679e-02,2.622329816222190857e-02,-1.088258251837711799e-01,-1.554794336382430142e-01,6.040868393091611277e-02,7.626236067829830767e-02,-2.017760276794433594e-01,1.353317500277180334e-02,4.097700119018554688e-02,-1.017760276794433538e-01,-8.784663677215575131e-03,5.120294362103412489e-01,6.898139715194702148e-01,-2.385131120681762695e-01,1.487612195945542339e+02,0.000000000000000000e+00
2.269518000000000146e+00,-9.054243796583451298e-02,1.247089063503139111e-01,1.074240684509277344e+00,1.648961838858476608e-02,-5.540421158604313945e-03,8.011602572644063724e-03,-7.229416139889147802e-03,5.694189496286733432e-02,2.632674388587474823e-02,-1.452833040594309344e-01,-1.605777387923798816e-01,7.370065337416980937e-03,6.263271747476277518e-02,-2.467434763908386286e-01,2.654845492733065582e-02,1.576888561248779297e-02,-1.467434763908386230e-01,3.002196550369262695e-03,5.112332231418722506e-01,6.545891761779785156e-01,-1.002044081687927246e+00,6.002228174672469407e+01,0.000000000000000000e+00
2.293963000000000196e+00,-9.064882592995195110e-02,1.258693658211642030e-01,1.074796438217163086e+00,1.290885645732480283e-02,-8.127780424527886183e-03,8.088326217199848234e-03,-3.303590469834904401e-03,4.931519195511629983e-02,2.026254311203956604e-02,-1.172402923440228895e-01,-2.482524751976993363e-02,-3.348456966830000263e-03,2.613607967172549423e-02,-1.440623283386230358e-01,-3.867616172000258590e-02,-3.992283940315246443e-02,-4.406232833862304410e-02,-6.242258548736571988e-02,5.120675152701065214e-01,6.824055910110473633e-01,-7.509242296218872070e-01,-3.000513030689273464e+01,0.000000000000000000e+00
2.322248999999999786e+00,-9.065866740459958828e-02,1.271360787211806287e-01,1.075262188911437988e+00,1.187935672778187186e-02,-6.583982723272763238e-03,7.566607426914704476e-03,5.512877209385006957e-03,4.844017427970271489e-02,1.981094107031822205e-02,8.012945683507914814e-04,1.222161173699399112e-01,-3.913687770045744946e-02,-1.476461553562838647e-01,1.229680299758910966e-01,-1.687700249074588488e-01,-2.222938120365142711e-01,2.229680299758911022e-01,-1.909086585044860729e-01,5.128322019563886780e-01,7.281115055084228516e-01,-9.319547414779663086e-01,6.222049616882326006e+01,0.000000000000000000e+00
2.345040000000000013e+00,-9.059829742949514209e-02,1.279346119582515373e-01,1.075584173202514648e+00,1.197839881255811055e-02,-3.874503865577194617e-03,7.394214175147887161e-03,1.452489064648959747e-03,4.487251646877934291e-02,1.836744695901870728e-02,1.438503919428286634e-02,1.301545960241352329e-01,1.592077267869673046e-02,-1.497719095720899674e-01,1.216944634914398082e-01,-9.876913015964156051e-02,-2.221210956573486384e-01,2.216944634914398138e-01,-1.203258633613586426e-01,5.127263374449507749e-01,7.226585149765014648e-01,-1.094110608100891113e+00,9.326563889006632735e+01,0.000000000000000000e+00
2.371983999999999870e+00,-9.051096845860279183e-02,1.291752379526835970e-01,1.076024770736694336e+00,1.270464434758619005e-02,9.510418763998274017e-04,8.077797784761274469e-03,5.176099603031559561e-03,5.069591838963753705e-02,1.639116182923316956e-02,3.274822773561433809e-02,1.517581588464935460e-01,3.344926948243589354e-02,-1.417681001049966305e-01,1.439205214086581031e-01,-1.864827861760721961e-01,-2.163627862930297685e-01,2.214551031589508112e-01,-2.097199201583862249e-01,5.123803635225794295e-01,7.024536132812500000e-01,-7.599245309829711914e-01,1.073157068429977272e+02,0.000000000000000000e+00
2.394994000000000067e+00,-9.053980973208268501e-02,1.300239348620310098e-01,1.076374292373657227e+00,1.232884029885280251e-02,2.389835073153712131e-03,9.022861968225260459e-03,5.051432693212064805e-03,4.805710450850429749e-02,9.444444440305233002e-03,-4.298012956100352722e-02,2.119941197811218980e-02,6.742035520319354658e-02,-1.469168343448968572e-01,1.475071319721175112e-01,2.087032264189376540e-01,-2.219465196132659746e-01,2.164729893207550104e-01,1.828980088233947698e-01,5.126420265841094004e-01,6.947361230850219727e-01,-8.053044080734252930e-01,9.499594437288399718e+01,0.000000000000000000e+00
