timestamp,x,y,z,roll,pitch,yaw,vx,vy,vz,p,q,r,psp,qsp,rsp,pres,qres,rres,thrust_sp, thrust_res
0.000000000000000000e+00,1.762628940485987464e-02,-2.125584697215362334e-02,9.844403266906738281e-01,1.164593325112340053e-03,-1.314426324482931285e-02,-3.336229007743218844e-03,8.007343616930675048e-03,-4.027616142687762135e-02,1.563704386353492737e-02,2.522408213579016567e-02,1.702396361452040291e-02,-2.584420861525332097e-02,-2.837216329847174201e-01,1.615428268390894928e-01,2.131182105096888491e-01,-2.302162772422629844e-01,2.292665828799044514e-01,2.225458033353440446e-01,5.116201009793185372e-01,-1.789629459381103516e-02,-1.261528372764587402e+00,1.247895368909922666e+02,-4.937434196472167622e-03
2.826000000000000040e-02,1.828697492612488956e-02,-2.270783185347698477e-02,9.846262335777282715e-01,9.173684380470557712e-04,-1.349920936716730857e-02,-3.164207572517341305e-03,1.118821401994205163e-02,-4.628089492753347661e-02,1.361666340380907059e-02,-1.555242379210066035e-02,-3.043336590481812362e-02,4.689776172990187814e-02,-2.822733268874414447e-01,1.610368409013691604e-01,2.134184972714384954e-01,-2.303257084138609911e-01,2.291746182404039711e-01,2.223686886686073449e-01,5.115284692121914167e-01,-3.012734651565551758e-02,-3.622714281082153320e-01,-1.698996851888815627e+02,-4.937434196472167622e-03
5.265100000000000335e-02,1.892210067372425072e-02,-2.405954269277672461e-02,9.847829937934875488e-01,8.876457499309210221e-04,-1.338348372763165095e-02,-3.219432647429743000e-03,5.966179277062124385e-04,-4.279374812995839078e-02,1.905999891459941864e-02,3.369944040059027340e-02,2.762017709274168335e-03,-3.082339789447745629e-02,-2.794981293318142823e-01,1.532472149258763683e-01,2.129925705164190664e-01,-2.302773455334672370e-01,2.291692840436337641e-01,2.221018414983450540e-01,5.131800253875403728e-01,8.036863803863525391e-02,-1.169260144233703613e+00,1.107170181062590189e+02,-4.937434196472167622e-03
7.553400000000000392e-02,1.951942959271370584e-02,-2.536773038539118924e-02,9.849265813827514648e-01,5.988497694325270633e-04,-1.371464708825276269e-02,-3.372682046827168989e-03,1.249217102310319800e-02,-3.961834013053245479e-02,1.112742442637681961e-02,-4.127670990680009505e-02,-2.776284322735670610e-03,-5.388153003934077583e-03,-2.765767784023016040e-01,1.627038096298931147e-01,2.130138764211459701e-01,-2.303392028288342719e-01,2.291556383347226056e-01,2.225420811849268266e-01,5.110027980092928246e-01,-6.672799587249755859e-02,-1.179790377616882324e+00,9.749900379801856332e+01,-4.937434196472167622e-03
1.000219999999999998e-01,2.048693938723399055e-02,-2.706847616039923660e-02,9.850231409072875977e-01,1.505558481662289257e-04,-1.399971527430410312e-02,-4.282979004574638537e-03,8.473763385961084749e-03,-3.844662685569673333e-02,1.959592849016189575e-02,-5.814734019283308679e-03,-3.273180221316905614e-02,-6.373200068412714081e-02,-2.743957322054089154e-01,1.567355386559016184e-01,2.105073599269846885e-01,-2.301854923314865797e-01,2.292524321822399236e-01,2.226012982646440597e-01,5.110799067748081903e-01,-2.853989601135253906e-02,-1.098728537559509277e+00,1.166848207614768000e+02,-4.937434196472167622e-03
1.230590000000000017e-01,2.142953035552694341e-02,-2.864467324588808664e-02,9.851347208023071289e-01,-2.106310187090074462e-03,-1.502089632843151001e-02,-5.854606092393854766e-03,3.539947636971772955e-03,-3.037464306412908030e-02,5.257267970591783524e-03,-1.485889216722442174e-01,-7.301052023911448752e-02,-5.746462732883994562e-02,-2.543111392778760194e-01,1.472469295667216127e-01,2.063889686549049696e-01,-2.300880599167430263e-01,2.291171335358994643e-01,2.229219673796816181e-01,5.128643175442730850e-01,1.000201702117919922e-02,-6.655002832412719727e-01,6.025228836702487456e+01,-4.937434196472167622e-03
1.519830000000000070e-01,2.265157906734679288e-02,-3.072401978246748142e-02,9.851450324058532715e-01,-7.434467225521814923e-03,-1.802271935387178559e-02,-9.028068554162604897e-03,6.280593998091282262e-04,-2.792774460520522709e-02,3.454518504440784454e-03,-1.898930529177441096e-01,-1.099352059217019451e-01,-1.117741820527967112e-01,-2.201895518822054587e-01,1.286490792197347854e-01,1.977987361514255138e-01,-2.300250754474125192e-01,2.286490792197347910e-01,2.233709952919084585e-01,5.136449242826220951e-01,4.403316974639892578e-02,-1.255748867988586426e+00,1.271811959307639341e+02,-4.937434196472167622e-03
1.757690000000000086e-01,2.339132124012027053e-02,-3.194486389776059893e-02,9.851842522621154785e-01,-1.218403598784243390e-02,-2.078859212046824112e-02,-1.132619323310235515e-02,8.698616320510825723e-04,-2.370471048235346309e-02,9.356522001326084137e-03,-3.030472857736707382e-01,-1.277955106671715135e-01,-1.325780708590884316e-01,-1.872445458784426919e-01,1.281051676779204895e-01,1.921048067623330469e-01,-2.301170402265583503e-01,2.281051676779204951e-01,2.242726044227206783e-01,5.126668064328639973e-01,1.502478122711181641e-02,-1.430251479148864746e+00,1.113579220768379940e+02,-4.937434196472167622e-03
1.995580000000000132e-01,2.400075123568303284e-02,-3.296874183516336487e-02,9.852156043052673340e-01,-1.721760338909881019e-02,-2.395957934598169636e-02,-1.368363093739444203e-02,6.714348711190164243e-03,-1.092691865889100847e-02,3.493642434477806091e-03,-2.476767072342053178e-01,-1.658351991050136531e-01,-1.368154871098349046e-01,-1.455650089216206089e-01,1.275239198963797616e-01,1.860610156238877710e-01,-2.302807070030689074e-01,2.275239198963797671e-01,2.249928918156826607e-01,5.112207102736435749e-01,-8.556938171386718750e-02,-8.689237833023071289e-01,1.112922156570224814e+02,-4.937434196472167622e-03
2.234530000000000127e-01,2.449758044168218532e-02,-3.383747878993534353e-02,9.852863550186157227e-01,-2.244094584959684113e-02,-2.737353147486198957e-02,-1.592539250175617482e-02,-4.894829233035489190e-03,-8.109216406883551845e-03,8.116261102259159088e-03,-2.671036169413233408e-01,-1.805938748232689683e-01,-1.071701385126036105e-01,-1.305430833275308955e-01,1.268592894193952825e-01,1.800218202809175938e-01,-2.305430833275309010e-01,2.268592894193952880e-01,2.255651207094923338e-01,5.136378287347647120e-01,6.162691116333007812e-02,-1.301450133323669434e+00,1.035449574777196204e+02,-4.937434196472167622e-03
2.524029999999999885e-01,2.507945911281426327e-02,-3.484270518357040353e-02,9.854214787483215332e-01,-3.006141339080628180e-02,-3.232535718970019900e-02,-1.946276703685856369e-02,-1.799898437007824148e-02,-2.897825901878823933e-03,9.724849835038185120e-03,-2.398498434954031699e-01,-1.407835684073694416e-01,-1.124007043348462936e-01,-1.308383362460245058e-01,1.259692028672983466e-01,1.701699894680706315e-01,-2.308383362460245114e-01,2.259692028672983521e-01,2.261653161912283994e-01,5.169066126080267276e-01,2.434295415878295898e-01,-1.376054167747497559e+00,1.238427907097584608e+02,-4.937434196472167622e-03
2.762600000000000056e-01,2.534925637677262061e-02,-3.528953851561993788e-02,9.856046438217163086e-01,-3.456493167816676593e-02,-3.552856200758136573e-02,-2.199829830692889843e-02,-1.132228058183101273e-02,4.891463204932232182e-03,1.219264138489961624e-02,-2.333211740253113842e-01,-1.324730411934925134e-01,-1.670266094811685420e-01,-1.309566843252623347e-01,1.255301929186778132e-01,1.633666987083154110e-01,-2.309566843252623403e-01,2.255301929186778187e-01,2.267287105660894808e-01,5.146996906247702785e-01,1.355057954788208008e-01,-1.006270527839660645e+00,6.407642932104496936e+01,-4.937434196472167622e-03
3.005349999999999966e-01,2.551191157956351693e-02,-3.557413417004500616e-02,9.858314394950866699e-01,-3.841450097386208545e-02,-3.879999605681594410e-02,-2.429690688477115224e-02,-9.056364217562506980e-03,1.650719310030017775e-02,1.375823095440864563e-02,-1.701777590325092571e-01,-1.954781900320433918e-01,-1.113568472411262666e-01,-1.311417987289844878e-01,1.252000239572314266e-01,1.569109987410276241e-01,-2.311417987289844933e-01,2.252000239572314322e-01,2.270030414850571499e-01,5.133628056026752207e-01,7.113492488861083984e-02,-2.957385778427124023e-01,8.501221588194133005e+01,-4.937434196472167622e-03
3.235109999999999930e-01,2.565806373530409371e-02,-3.586585176830219684e-02,9.861534833908081055e-01,-4.177249298527694471e-02,-4.177786068476985193e-02,-2.671629009990361681e-02,-2.901201493638606507e-02,2.229650090171057461e-02,1.884750835597515106e-02,-1.456393674900340329e-01,-1.862815808267848927e-01,-1.403167128155504151e-01,-1.312786831286658629e-01,1.250048311477065521e-01,1.499677076993315983e-01,-2.312786831286658684e-01,2.250048311477065577e-01,2.273133203233398958e-01,5.181977203477103888e-01,3.519834280014038086e-01,-1.419753432273864746e+00,1.466981063142385153e+02,-4.937434196472167622e-03
3.518939999999999846e-01,2.560809276599746928e-02,-3.589415285303627912e-02,9.867100715637207031e-01,-4.614429861725985460e-02,-4.609397265210612993e-02,-3.014757340437013156e-02,-3.565775783376574221e-02,3.642774368976885863e-02,1.251072622835636139e-02,-1.560241443744801171e-01,-1.013783683004978731e-01,-1.250735215020280788e-01,-1.314350521105978331e-01,1.248313647615549582e-01,1.400725112884534940e-01,-2.314350521105978387e-01,2.248313647615549637e-01,2.274810406073066726e-01,5.205748373037276666e-01,4.572467803955078125e-01,-1.217378258705139160e+00,1.346188894463142844e+02,-4.937434196472167622e-03
3.767750000000000266e-01,2.540825047014758781e-02,-3.561959208471187494e-02,9.871436953544616699e-01,-4.836593659993673050e-02,-4.895781320994840868e-02,-3.258392646387608949e-02,-3.504037937910262079e-02,5.308164016027504262e-02,1.946744695305824280e-02,-1.115407069828628639e-01,-1.092114272207113518e-01,-1.449429671058340141e-01,-1.315171917103835075e-01,1.248860519578605666e-01,1.331541906326845770e-01,-2.315171917103835131e-01,2.248860519578605721e-01,2.275787852388767574e-01,5.182806341240631109e-01,3.630778789520263672e-01,-1.238310217857360840e+00,1.175994240724765234e+02,-4.937434196472167622e-03
4.009409999999999918e-01,2.500417682618258711e-02,-3.509382962750053070e-02,9.877218604087829590e-01,-5.077404261276216579e-02,-5.163782449285903020e-02,-3.479809605655770355e-02,-4.495311551643727671e-02,6.104735757469653690e-02,2.053374610841274261e-02,-1.321529264061892250e-01,-1.592476651237619001e-01,-9.120506974677819456e-02,-1.315522696958937587e-01,1.248354404227118852e-01,1.275266262931308014e-01,-2.315522696958937643e-01,2.248354404227118908e-01,2.275266262931308070e-01,5.210483775622578584e-01,5.191607475280761719e-01,2.124656438827514648e-01,-9.590251538141979282e+00,4.249312877655029436e-02
4.234809999999999963e-01,2.444130203102519092e-02,-3.427933200021088950e-02,9.883372783660888672e-01,-5.281709435411392761e-02,-5.419092926387336639e-02,-3.717148806039904940e-02,-6.512259668043640648e-02,7.031519476148544168e-02,3.045171685516834259e-02,-6.973747240538065439e-02,-1.263523048645545654e-01,-1.226008792897463617e-01,-1.314873662540337051e-01,1.249699913862698797e-01,1.271026231829722186e-01,-2.314873662540337107e-01,2.249699913862698852e-01,2.271026231829722242e-01,5.217052335472780467e-01,5.970124006271362305e-01,-1.169940590858459473e+00,1.161461920435295951e+02,4.249312877655029436e-02
4.519389999999999796e-01,2.338808448764475439e-02,-3.284883952842643229e-02,9.893774986267089844e-01,-5.625015230231323465e-02,-5.797619555263544555e-02,-4.059270827474303900e-02,-6.196099208958830151e-02,9.089006358207005198e-02,2.681942842900753021e-02,-1.270524472089611390e-01,-1.063903967896995956e-01,-1.746137299310145385e-01,-1.316057320110119722e-01,1.249491559110695316e-01,1.276307233074045200e-01,-2.316057320110119777e-01,2.249491559110695371e-01,2.276307233074045255e-01,5.206235961346578067e-01,5.289635658264160156e-01,-1.267621159553527832e+00,1.015453991076308853e+02,4.249312877655029436e-02
4.763049999999999784e-01,2.242618592496165020e-02,-3.151705403343953854e-02,9.902550578117370605e-01,-5.830380700481570255e-02,-6.062316629945274649e-02,-4.255978780853064691e-02,-7.344202681157327439e-02,1.080724452629341359e-01,3.491391614079475403e-02,-9.549589830882744546e-02,-1.276630650223355978e-01,-8.690014335678028501e-02,-1.317377179329732306e-01,1.249504261069455391e-01,1.276302000811816439e-01,-2.317377179329732362e-01,2.249504261069455446e-01,2.276302000811816495e-01,5.201071136086402591e-01,5.374145507812500000e-01,-1.454916596412658691e+00,1.013640370945995386e+02,4.249312877655029436e-02
4.997559999999999780e-01,2.125813793170987925e-02,-2.991126295328802240e-02,9.912393093109130859e-01,-6.026335188001079313e-02,-6.323233886207346721e-02,-4.500092703243430137e-02,-9.123857170884976109e-02,1.129190049686041447e-01,4.641380161046981812e-02,-7.417431355005003890e-02,-1.750445216771238932e-01,-1.430892308151466008e-01,-1.317194066083864912e-01,1.250764218869482025e-01,1.273477519431266969e-01,-2.317194066083864967e-01,2.250764218869482081e-01,2.273477519431267024e-01,5.194351196258492065e-01,5.520610809326171875e-01,-1.373659968376159668e+00,1.132245991166241481e+02,4.249312877655029436e-02
5.230650000000000022e-01,1.984684442179522959e-02,-2.796888220016709864e-02,9.923871755599975586e-01,-6.254106620059665667e-02,-6.548578384605208136e-02,-4.690705418081919653e-02,-1.050670220255310872e-01,1.304952101731488290e-01,4.578299820423126221e-02,-9.562961886260264166e-02,-1.015104208719098261e-01,-7.897386043221764351e-02,-1.317350331966853638e-01,1.250256373139434218e-01,1.275645357204567842e-01,-2.317350331966853694e-01,2.250256373139434274e-01,2.275645357204567898e-01,5.210425660545451310e-01,6.421403884887695312e-01,-1.161150097846984863e+00,9.893649907111779385e+01,4.249312877655029436e-02
5.507050000000000001e-01,1.734606846861591611e-02,-2.482570032733740981e-02,9.943345785140991211e-01,-6.558450783802752260e-02,-6.928003409022398529e-02,-4.998067505944292499e-02,-1.096825975269720699e-01,1.582490435427524600e-01,5.817634612321853638e-02,-7.010764134658480085e-02,-1.086989965085461834e-01,-1.368609432877758991e-01,-1.318482302947810714e-01,1.250449857186929081e-01,1.276950252988354739e-01,-2.318482302947810769e-01,2.250449857186929137e-01,2.276950252988354795e-01,5.198533964836985488e-01,6.363518238067626953e-01,-9.567104578018188477e-01,5.347885465392034376e+01,4.249312877655029436e-02
5.744320000000000537e-01,1.541385883731209716e-02,-2.249634479428643669e-02,9.957745671272277832e-01,-6.768293966056122823e-02,-7.203060407172734436e-02,-5.213338950879675693e-02,-1.213883142512511698e-01,1.626207669355719254e-01,5.913691967725753784e-02,-1.509762137410294858e-01,-1.505758776456594117e-01,-1.034754911083566181e-01,-1.319272984563471252e-01,1.250744125370178428e-01,1.275672944065195658e-01,-2.319272984563471307e-01,2.250744125370178483e-01,2.275672944065195713e-01,5.200445509841635783e-01,6.585357189178466797e-01,-9.697228670120239258e-01,1.024388288322035692e+02,4.249312877655029436e-02
5.976770000000000138e-01,1.322062785425949169e-02,-1.976123508804342177e-02,9.973758459091186523e-01,-6.941866235401170093e-02,-7.413359439647915217e-02,-5.415746345150052043e-02,-1.422311593335066349e-01,1.864259608346674479e-01,6.402047723531723022e-02,-7.019248866332986059e-02,-1.001331273346640072e-01,-1.088512395334170352e-01,-1.319305025029239853e-01,1.251499855096140645e-01,1.276356108768391950e-01,-2.319305025029239908e-01,2.251499855096140701e-01,2.276356108768392006e-01,5.200508509850642058e-01,6.860466003417968750e-01,-1.251910328865051270e+00,9.688177326310285764e+01,4.249312877655029436e-02
6.224709999999999965e-01,9.447169231900602940e-03,-1.505466522499319254e-02,1.000010609626770020e+00,-7.232446883732723819e-02,-7.786890489401865345e-02,-5.735206723643804239e-02,-1.507721703936102109e-01,2.051732876072498712e-01,7.081562280654907227e-02,-9.089411737583860673e-02,-1.251397126692491424e-01,-1.463554899597262204e-01,-1.319702148225606331e-01,1.252333346213462262e-01,1.275719011641464895e-01,-2.319702148225606386e-01,2.252333346213462317e-01,2.275719011641464951e-01,5.194754119304934026e-01,6.947331428527832031e-01,-1.055483222007751465e+00,9.079639573151249010e+01,4.249312877655029436e-02
6.492639999999999523e-01,5.372435536744988790e-03,-9.799826075728445413e-03,1.003014683723449707e+00,-7.525972982988185511e-02,-8.170196474674606968e-02,-6.038082165970903858e-02,-1.733083923381998626e-01,2.290458449333023228e-01,8.671163767576217651e-02,-1.147863479715824642e-01,-1.465689585990879173e-01,-1.189638007343515186e-01,-1.320709266766343648e-01,1.252797523057127826e-01,1.274400614231313011e-01,-2.320709266766343704e-01,2.252797523057127882e-01,2.274400614231313067e-01,5.182338283892422570e-01,7.048345804214477539e-01,-8.852032423019409180e-01,9.803128044003766206e+01,4.249312877655029436e-02
6.736050000000000093e-01,7.981994263733395000e-04,-3.847260483502382578e-03,1.006339788436889648e+00,-7.805798957574859587e-02,-8.521817270827058977e-02,-6.371539430201633714e-02,-1.906696047377715586e-01,2.544143468466499303e-01,8.670135587453842163e-02,-9.942112442082857993e-02,-1.209025515982306287e-01,-1.049986149661163159e-01,-1.320509498770837120e-01,1.253875033788183768e-01,1.275179262239360956e-01,-2.320509498770837176e-01,2.253875033788183824e-01,2.275179262239361011e-01,5.181998267293714822e-01,7.184994220733642578e-01,-9.913278818130493164e-01,8.436889402439616958e+01,4.249312877655029436e-02
6.978839999999999488e-01,-4.444677543429209794e-03,2.977485130687704349e-03,1.009826779365539551e+00,-8.109567077152440850e-02,-8.872454751488279001e-02,-6.683418341551927710e-02,-2.132895006003913130e-01,2.812769205134575956e-01,8.504951000213623047e-02,-1.312984462641540728e-01,-8.250190985012088862e-02,-1.042309738397135532e-01,-1.320684695038399636e-01,1.254285323211401793e-01,1.276501132604575262e-01,-2.320684695038399692e-01,2.254285323211401848e-01,2.276501132604575317e-01,5.184363497953375921e-01,7.401950359344482422e-01,-9.488695859909057617e-01,9.630121401384094781e+01,4.249312877655029436e-02
7.229879999999999640e-01,-1.034894377652027971e-02,1.069354701141504195e-02,1.013560533523559570e+00,-8.380868578794944956e-02,-9.236397250215833132e-02,-6.984240893105342352e-02,-2.193649265998471598e-01,3.077886320353096505e-01,8.967045694589614868e-02,-1.009471801721927159e-01,-1.223326954001893174e-01,-9.236518927365483522e-02,-1.321071926876564162e-01,1.255126259393689880e-01,1.275757745332667392e-01,-2.321071926876564218e-01,2.255126259393689936e-01,2.275757745332667448e-01,5.176713066741783775e-01,7.346946001052856445e-01,-1.088472485542297363e+00,9.754344783894784143e+01,4.249312877655029436e-02
7.510170000000000456e-01,-1.687867266353268447e-02,1.924234863118565175e-02,1.017392873764038086e+00,-8.622902600293519404e-02,-9.551218000854122536e-02,-7.309591588136998830e-02,-2.613790899731210371e-01,3.352631069878068137e-01,9.497094899415969849e-02,-8.031765777721168453e-02,-1.127493055062218502e-01,-1.223118691055429252e-01,-1.319821410119712823e-01,1.257303605390736045e-01,1.275653836130781760e-01,-2.319821410119712879e-01,2.257303605390736101e-01,2.275653836130781815e-01,5.171732587596247210e-01,7.442324161529541016e-01,-8.758789300918579102e-01,3.601713794641882771e+01,4.249312877655029436e-02
7.722310000000000008e-01,-2.162174501353574321e-02,2.545604416632097494e-02,1.020121455192565918e+00,-8.810099084355250965e-02,-9.733728021327192614e-02,-7.513583668267864724e-02,-2.728498172369330232e-01,3.522369325695992592e-01,9.692540764808654785e-02,-1.067770365302606883e-01,-5.352742113263233431e-02,-1.119689853278378611e-01,-1.318644747722185484e-01,1.257680359805255221e-01,1.276563828694623481e-01,-2.318644747722185540e-01,2.257680359805255277e-01,2.276563828694623537e-01,5.168159908464649011e-01,7.471473217010498047e-01,-1.420391201972961426e+00,9.731260110537975550e+01,4.249312877655029436e-02
7.981700000000000461e-01,-2.933810436556162290e-02,3.560075559841684861e-02,1.024249792098999023e+00,-9.064942063438261033e-02,-1.004301803853817621e-01,-7.805315411691449157e-02,-2.818645533348061449e-01,3.873520470064072407e-01,1.084445640444755554e-01,-8.746434736475644511e-02,-9.503671886900066923e-02,-7.135782579731937691e-02,-1.317950044787946917e-01,1.258412868167586296e-01,1.276454485711448206e-01,-2.317950044787946973e-01,2.258412868167586351e-01,2.276454485711448261e-01,5.156358428747093159e-01,7.471429109573364258e-01,-8.943303823471069336e-01,9.023699640829927660e+01,4.249312877655029436e-02
8.244709999999999539e-01,-3.491563414012364974e-02,4.290465777365328609e-02,1.027134656906127930e+00,-9.221000640728130304e-02,-1.022589666803919162e-01,-8.028648258312265362e-02,-3.129045528639140539e-01,4.029781407052576148e-01,1.133042424917221069e-01,-5.532983486659183436e-02,-1.097519780546389739e-01,-1.417443133538735522e-01,-1.316271324250127273e-01,1.259984184139804897e-01,1.276793233209929934e-01,-2.316271324250127328e-01,2.259984184139804952e-01,2.276793233209929990e-01,5.151051654339193764e-01,7.516925334930419922e-01,-1.698327064514160156e+00,6.103111434751391329e+01,4.249312877655029436e-02
8.513680000000000136e-01,-4.431570318637278322e-02,5.387184485464850681e-02,1.031441330909729004e+00,-9.496555154206397231e-02,-1.047711357264116128e-01,-8.340256247303767800e-02,-3.234628144531759841e-01,4.256010113579781207e-01,1.066345646977424622e-01,-1.493000623265691440e-01,-7.828099634096540027e-02,-1.395468153063853245e-01,-1.313805630830251481e-01,1.260741904161441218e-01,1.278642065901164082e-01,-2.313805630830251536e-01,2.260741904161441274e-01,2.278642065901164138e-01,5.152413921409136899e-01,7.519870996475219727e-01,-1.040092349052429199e+00,1.905209278781204887e+02,4.249312877655029436e-02
8.757730000000000237e-01,-5.099321228000774919e-02,6.175259643397792986e-02,1.034331321716308594e+00,-9.668625618271178834e-02,-1.063335437991270727e-01,-8.507565813427020451e-02,-3.376287482335659784e-01,4.563381889643065570e-01,1.154631152749061584e-01,-8.604975378070985059e-02,-4.372038905038545809e-02,-1.047432403410153701e-01,-1.312919925805946242e-01,1.260568638168487743e-01,1.279696610752191210e-01,-2.312919925805946297e-01,2.260568638168487798e-01,2.279696610752191266e-01,5.143042232406920267e-01,7.495054006576538086e-01,-8.876053094863891602e-01,1.063371046594749885e+02,4.249312877655029436e-02
8.972210000000000463e-01,-5.800063702020095968e-02,7.011601145612215980e-02,1.037235140800476074e+00,-9.868756466946400352e-02,-1.081778578795071777e-01,-8.709920499782564107e-02,-3.523668428034759659e-01,4.669932166286611674e-01,1.135542169213294983e-01,-1.383916613019300912e-01,-1.055043756825958801e-01,-1.174280463883727033e-01,-1.311714497954896419e-01,1.260576770683900505e-01,1.280922538072160333e-01,-2.311714497954896474e-01,2.260576770683900560e-01,2.280922538072160388e-01,5.141478796665397422e-01,7.489211559295654297e-01,-5.421000719070434570e-01,1.050242671689176603e+02,4.249312877655029436e-02
9.226590000000000069e-01,-6.914128551036392845e-02,8.347455751119120526e-02,1.041657328605651855e+00,-1.013975303862602317e-01,-1.101794397355004840e-01,-9.001570151714055612e-02,-3.879253089537922361e-01,5.094761017268816250e-01,1.001264378428459167e-01,-1.297433851925203219e-01,-4.655378911912705364e-02,-6.865652914040240584e-02,-1.308625687857823128e-01,1.260593475740172387e-01,1.283813565281397562e-01,-2.308625687857823183e-01,2.260593475740172442e-01,2.283813565281397617e-01,5.147810372491596898e-01,7.424714565277099609e-01,-7.579625844955444336e-01,8.592436032483985286e+01,4.249312877655029436e-02
9.475710000000000521e-01,-8.031124542697123947e-02,9.764892992572388186e-02,1.046107292175292969e+00,-1.039509467622837524e-01,-1.119938135192071194e-01,-9.300428282740536012e-02,-4.141189063311945251e-01,5.360615062614858539e-01,1.126459538936614990e-01,-5.984665771039652388e-02,-5.162423505218129149e-02,-9.838737235549176174e-02,-1.304955979937461319e-01,1.260929985752685667e-01,1.286831192373645294e-01,-2.304955979937461374e-01,2.260929985752685722e-01,2.286831192373645349e-01,5.133320003958863342e-01,7.312529087066650391e-01,-6.970559358596801758e-01,9.770972879429180580e+01,4.249312877655029436e-02
9.739809999999999857e-01,-9.224310152376170857e-02,1.128882314989447799e-01,1.050536036491394043e+00,-1.065573667888217446e-01,-1.137564997375575260e-01,-9.588532956130069174e-02,-4.166986643785001720e-01,5.714179568307882207e-01,1.164435297250747681e-01,-7.596289246513839022e-02,-8.201970158422529356e-02,-1.155109774103838943e-01,-1.301399151740080806e-01,1.260846767631086107e-01,1.290048276456975396e-01,-2.301399151740080862e-01,2.260846767631086163e-01,2.290048276456975451e-01,5.124082868743811137e-01,7.141830921173095703e-01,-7.297228574752807617e-01,7.284336644153903251e+01,4.249312877655029436e-02
1.001009999999999955e+00,-1.049784058771534440e-01,1.292292964351100526e-01,1.054876804351806641e+00,-1.091812350397975556e-01,-1.157201625153858604e-01,-9.881098139599586716e-02,-4.655137754267179573e-01,6.018892112946114814e-01,1.098033785820007324e-01,-9.587466544627738785e-02,-7.175228844422971985e-02,-1.133849769714937589e-01,-1.298195974322197410e-01,1.260745125898929953e-01,1.292912435225648526e-01,-2.298195974322197466e-01,2.260745125898930008e-01,2.292912435225648582e-01,5.110571837295286857e-01,6.264116764068603516e-01,-2.966654300689697266e-02,-2.095802565683392515e+00,4.249312877655029436e-02
1.026286000000000032e+00,-1.186364923580895125e-01,1.465919748120314003e-01,1.059230804443359375e+00,-1.118463014579597903e-01,-1.173626894435666479e-01,-1.018030076482498991e-01,-4.809958626649757374e-01,6.366250649312431564e-01,1.008468642830848694e-01,-1.236846507580677546e-01,-9.908968221860721404e-03,-1.419871941071804422e-01,-1.294072186592475360e-01,1.260566130635052129e-01,1.296633981169116878e-01,-2.294072186592475415e-01,2.260566130635052184e-01,2.296633981169116934e-01,5.079230524820250725e-01,4.384863376617431641e-01,-1.294485926628112793e+00,1.489680650433789140e+02,4.249312877655029436e-02
1.051074999999999982e+00,-1.282146207128543880e-01,1.587366831027910430e-01,1.062079191207885742e+00,-1.135416713666857202e-01,-1.187335569902732146e-01,-1.034435432745952621e-01,-4.934117176421264350e-01,6.604137909096955417e-01,1.057638600468635559e-01,-9.510597605846600466e-02,-6.000111797990490686e-02,-9.844766423269708799e-02,-1.292744790637952723e-01,1.259680169864290100e-01,1.298073145305328191e-01,-2.292744790637952779e-01,2.259680169864290156e-01,2.298073145305328246e-01,5.030100567124925481e-01,2.090750932693481445e-01,-1.102472186088562012e+00,1.182629086484515568e+02,4.249312877655029436e-02
1.075504000000000016e+00,-1.381313379981742029e-01,1.714221377505410482e-01,1.065008997917175293e+00,-1.151387871147537129e-01,-1.201680864215315392e-01,-1.054812610689845886e-01,-5.193395412403457589e-01,6.849863601036885186e-01,1.138803735375404358e-01,-9.488690996095983099e-02,-7.362277616823412196e-02,-1.371546714112100718e-01,-1.290625783634717083e-01,1.259670323575265982e-01,1.299356003421267003e-01,-2.290625783634717139e-01,2.259670323575266038e-01,2.299356003421267058e-01,4.956020794063702439e-01,-1.383633613586425781e-01,-1.002516388893127441e+00,6.375489133567744915e+01,4.249312877655029436e-02
1.099196999999999980e+00,-1.484140523270828516e-01,1.846178739298865445e-01,1.067808508872985840e+00,-1.167105904353837043e-01,-1.215009414529475418e-01,-1.073564152958466078e-01,-5.305003647838112402e-01,7.130949150268761638e-01,1.015895754098892212e-01,-5.957855715391002088e-02,-7.367294735356987034e-02,-7.571161065577854121e-02,-1.288659478750046050e-01,1.259726679247737402e-01,1.300778966247469193e-01,-2.288659478750046106e-01,2.259726679247737458e-01,2.300778966247469248e-01,4.917149592157873395e-01,-3.796526193618774414e-01,-7.712815999984741211e-01,-1.469599894273951612e+01,4.249312877655029436e-02
1.122945000000000082e+00,-1.590990645241495138e-01,1.983475577399152201e-01,1.070631265640258789e+00,-1.182836424224333605e-01,-1.230432014594458057e-01,-1.094442727293951645e-01,-5.510419038234404265e-01,7.295903396076274250e-01,1.088965162634849548e-01,-6.623783601517282960e-02,-1.281579521909096964e-01,-1.310639972980320034e-01,-1.286614574542368494e-01,1.259843867924437255e-01,1.301786848854629697e-01,-2.286614574542368550e-01,2.259843867924437311e-01,2.301786848854629752e-01,4.879632922623551305e-01,-5.353648662567138672e-01,-8.136047124862670898e-01,8.939611132901148949e+01,4.249312877655029436e-02
1.155985999999999958e+00,-1.760000242527774428e-01,2.194365487150482519e-01,1.074688911437988281e+00,-1.212413218778242568e-01,-1.251854153696667638e-01,-1.121730395303046635e-01,-5.810261918733901076e-01,7.712320588704575375e-01,9.733681380748748779e-02,-1.499325378447214085e-01,-6.440205526397724256e-02,-1.007579800976764611e-01,-1.284284190030800243e-01,1.257384899795899180e-01,1.304792946354513816e-01,-2.284284190030800299e-01,2.257384899795899236e-01,2.304792946354513872e-01,4.862267946874188063e-01,-6.670950651168823242e-01,-9.650486707687377930e-01,5.290619110333896202e+01,4.249312877655029436e-02
1.173910000000000009e+00,-1.818359544904843972e-01,2.266219966739308200e-01,1.075955510139465332e+00,-1.219622991464829748e-01,-1.260730662380851186e-01,-1.132216889993074016e-01,-5.762936793410825542e-01,7.777450206956919576e-01,9.839796274900436401e-02,-1.054134877260174130e-01,-7.903866584112879956e-02,-1.335032128152169595e-01,-1.283420825480490191e-01,1.257625697981164248e-01,1.304843606478057749e-01,-2.283420825480490246e-01,2.257625697981164303e-01,2.304843606478057805e-01,4.858090674716025736e-01,-6.725515723228454590e-01,-1.025053381919860840e+00,1.837067828224681065e+01,4.249312877655029436e-02
1.199953000000000047e+00,-1.999065634532565527e-01,2.490706706226602785e-01,1.079839348793029785e+00,-1.245629330443454447e-01,-1.284496280529099366e-01,-1.156706269388605435e-01,-6.135528110447876493e-01,8.189556714984602692e-01,8.522105962038040161e-02,-8.372616857789684508e-02,-8.390653705714558319e-02,-5.796187252393255468e-02,-1.282373287419360519e-01,1.254419460733105229e-01,1.306161400710902365e-01,-2.282373287419360575e-01,2.254419460733105285e-01,2.306161400710902420e-01,4.857362484858844809e-01,-7.311904430389404297e-01,-5.259815454483032227e-01,6.962805488975553203e+01,4.249312877655029436e-02
1.248161000000000076e+00,-2.187337129032889682e-01,2.726462821579515028e-01,1.083397269248962402e+00,-1.242453660861061460e-01,-1.291723383686971260e-01,-1.187536821620314154e-01,-6.298856822731490057e-01,8.467884519945843014e-01,8.030229061841964722e-02,2.381014844938309782e-01,1.001013692418168261e-01,-1.136278409088050945e-01,-1.276213714039940439e-01,1.259244138703512483e-01,1.304862082022439085e-01,-2.276213714039940494e-01,2.259244138703512539e-01,2.304862082022439140e-01,4.858779964538457730e-01,-7.387040257453918457e-01,-1.000284552574157715e+00,8.148358306236184490e+01,4.249312877655029436e-02
1.282261000000000095e+00,-2.250864479717536171e-01,2.806744136237063758e-01,1.084620237350463867e+00,-1.210536734627625371e-01,-1.260432069341699268e-01,-1.200254676442016333e-01,-6.267293104728032249e-01,8.562458330260205308e-01,7.140157371759414673e-02,4.126734966300125707e-01,3.503871480222570112e-01,-5.901381704063939082e-02,-1.266617474729486437e-01,1.268019359127089962e-01,1.305181739321596424e-01,-2.266617474729486492e-01,2.268019359127090018e-01,2.305181739321596479e-01,4.863902737248938513e-01,-7.396332621574401855e-01,-8.770817518234252930e-01,2.357880680740825241e+01,4.249312877655029436e-02
1.304041999999999923e+00,-2.378668748700104307e-01,2.967082802084574089e-01,1.087109327316284180e+00,-1.088285738996829233e-01,-1.159586730515960173e-01,-1.231428604002569038e-01,-6.469903974090509546e-01,8.425646624721858657e-01,8.211968094110488892e-02,7.999858771357963860e-01,4.675438539402796412e-01,-8.332210504604296852e-02,-1.238553143521025635e-01,1.298177400245503488e-01,1.301040411184142820e-01,-2.238553143521025690e-01,2.298177400245503543e-01,2.301040411184142875e-01,4.853647809955863313e-01,-7.403879165649414062e-01,-8.008426427841186523e-01,-1.637270793114009493e+01,4.249312877655029436e-02
1.333196000000000048e+00,-2.507421128663702148e-01,3.128675696297251729e-01,1.089593172073364258e+00,-9.088708796735968376e-02,-9.975615273417060003e-02,-1.262981281280741719e-01,-6.372762700073363318e-01,8.667357060080274067e-01,7.219348102807998657e-02,1.069156521799756288e+00,7.991546656671534299e-01,-5.194605630027795962e-02,-1.196878562422859504e-01,1.341022260316139247e-01,1.295672163615585737e-01,-2.196878562422859560e-01,2.341022260316139303e-01,2.295672163615585792e-01,4.860032727494725258e-01,-7.416598200798034668e-01,-1.468461275100708008e+00,1.467196009195565587e+01,4.249312877655029436e-02
1.351186999999999916e+00,-2.701688889764535251e-01,3.375703539564518518e-01,1.093112468719482422e+00,-5.749523063372487253e-02,-7.011643458056870948e-02,-1.304526950146949194e-01,-6.462160311410636293e-01,8.683570579817783130e-01,7.733843475580215454e-02,1.328752191621163981e+00,8.992245097560511713e-01,-1.126522304563795651e-02,-1.123692112910541219e-01,1.418399869276089076e-01,1.279669767411565906e-01,-2.123692112910541274e-01,2.418399869276089131e-01,2.279669767411565962e-01,4.854124968738591228e-01,-7.429683804512023926e-01,-1.091611266136169434e+00,9.272058296411013600e+01,4.249312877655029436e-02
1.371990000000000043e+00,-2.899018628141322163e-01,3.626652871762222619e-01,1.096197128295898438e+00,-2.217778634603024060e-02,-3.725513148143488884e-02,-1.338861432728009060e-01,-6.645235943525880096e-01,8.822289200402206877e-01,5.100779980421066284e-02,1.312229971100893344e+00,8.951838140742429673e-01,-7.374528058205395697e-02,-1.043548480855988614e-01,1.500721355921946498e-01,1.260017254487355021e-01,-2.043548480855988669e-01,2.500721355921946554e-01,2.260017254487355076e-01,4.873522401755377986e-01,-7.469772100448608398e-01,-1.024127840995788574e+00,4.363322234271158351e+01,4.249312877655029436e-02
1.397942999999999936e+00,-3.079038531123431954e-01,3.850263280582265080e-01,1.098699450492858887e+00,1.026603728717563092e-02,-6.261040643565474184e-03,-1.360565574553140866e-01,-6.484337559242842053e-01,8.843150955577551153e-01,2.717342600226402283e-02,1.093304808275731954e+00,8.701169145956210160e-01,-7.435322833256040320e-02,-9.671806655056192081e-02,1.578004521596132748e-01,1.236316388425713619e-01,-1.967180665505619264e-01,2.578004521596132803e-01,2.236316388425713675e-01,4.889775492137204971e-01,-7.469522953033447266e-01,-1.386073946952819824e+00,4.581612348069098317e+01,4.249312877655029436e-02
1.422514000000000056e+00,-3.261133130894787735e-01,4.076479845664353618e-01,1.100534915924072266e+00,3.745886740436314005e-02,1.970294908407166368e-02,-1.370920252475225087e-01,-6.552409810208801311e-01,8.774569430056653463e-01,5.364240612834692001e-03,9.320703169126279830e-01,7.027481118795380066e-01,6.816225593337848013e-03,-9.053446977283394204e-02,1.640073769556828764e-01,1.212314882650327996e-01,-1.905344697728339476e-01,2.640073769556828820e-01,2.212314882650328052e-01,4.905830005743346822e-01,-7.484923601150512695e-01,-7.030504941940307617e-01,-5.653706160950979864e+01,4.249312877655029436e-02
1.449805000000000010e+00,-3.442905378121358662e-01,4.303805976726776117e-01,1.101732611656188965e+00,5.926672916320272627e-02,4.031060789119833565e-02,-1.377528460647576836e-01,-6.405201479182091040e-01,8.642477881498963344e-01,-4.082760773599147797e-03,7.076265627242016576e-01,4.991999725061468385e-01,-6.393288295613301642e-02,-8.543169765985311748e-02,1.690354862246268575e-01,1.185282968670993142e-01,-1.854316976598531230e-01,2.690354862246268630e-01,2.185282968670993198e-01,4.912071323107571885e-01,-7.478079199790954590e-01,-1.160635828971862793e+00,6.215972797577765618e+01,4.249312877655029436e-02
1.477243000000000084e+00,-3.621913508691708139e-01,4.529407682209503072e-01,1.102176308631896973e+00,7.453651074642798913e-02,5.517585958406612257e-02,-1.380910299388740103e-01,-6.363783403882200540e-01,8.482747707503337509e-01,-9.615402668714523315e-03,4.438549744417802922e-01,3.605157929109654158e-01,-6.819762752288935359e-02,-8.189996972027460687e-02,1.725911362597620513e-01,1.171475510232680983e-01,-1.818999697202746124e-01,2.725911362597620569e-01,2.171475510232681039e-01,4.916087487929964306e-01,-7.495679855346679688e-01,-1.345311522483825684e+00,6.798258035642940911e+01,-5.011057853698730816e-03
1.499794000000000072e+00,-3.740072687057919287e-01,4.678604494976083550e-01,1.102321386337280273e+00,8.108957078994591394e-02,6.185360613216728254e-02,-1.383861715266978543e-01,-6.239928642559233740e-01,8.389363379637487794e-01,-2.712925709784030914e-02,3.288381608705260861e-01,2.898723229679382452e-01,-1.922887025243242426e-02,-8.021400795941149853e-02,1.741322783389249451e-01,1.156373996805686866e-01,-1.802140079594115041e-01,2.741322783389249507e-01,2.156373996805686921e-01,4.929216808183691789e-01,-7.494481205940246582e-01,-1.277331709861755371e+00,5.299976469496813536e+01,-5.011057853698730816e-03
1.524750999999999967e+00,-3.913370378377299397e-01,4.897742003741406003e-01,1.102140903472900391e+00,8.704373073762612656e-02,6.824939662884110803e-02,-1.388555737796086653e-01,-6.058217665395357887e-01,8.133804996508017249e-01,-2.468856982886791229e-02,1.610725072840993310e-01,1.208555232943297753e-01,-2.079234443217964357e-02,-8.185085047196549723e-02,1.693824784141082784e-01,6.528359643227121811e-02,-1.818508504719655028e-01,2.693824784141082840e-01,1.652835964322712237e-01,4.928528844919431995e-01,-7.406076192855834961e-01,6.334913969039916992e-01,-4.607134032921767641e+01,1.266982793807983343e-01
1.549558999999999909e+00,-4.081253818598497562e-01,5.111644311145246977e-01,1.101885080337524414e+00,9.031972704106994154e-02,7.176948961147378014e-02,-1.395302405386626976e-01,-5.876894264639621612e-01,7.807203681418123375e-01,-1.486647315323352814e-02,1.247927501381933535e-01,8.641663095901036540e-02,-4.627930223860200754e-02,-9.177617309390623257e-02,1.549289911485177973e-01,-8.160969523208001786e-02,-1.917761730939062381e-01,2.549289911485178028e-01,1.839030476791999116e-02,4.922018642813392741e-01,-7.317415475845336914e-01,7.863434553146362305e-01,-8.282390523413928918e+01,1.572686910629272350e-01
1.575356999999999896e+00,-4.247646121868029478e-01,5.314272987909453017e-01,1.101490259170532227e+00,9.120257754000206385e-02,7.352740726679485306e-02,-1.400988238720437540e-01,-5.546934673116888925e-01,7.537821205135120106e-01,-1.060929242521524429e-02,4.129347356386674911e-02,3.788222056670256799e-02,-8.894734745494425887e-02,-9.894002898181125660e-02,1.449775091197877674e-01,-1.853595895922398040e-01,-1.989400289818112622e-01,2.449775091197877730e-01,-8.535958959223981235e-02,4.919602368738783538e-01,-7.218756079673767090e-01,-1.198582530021667480e+00,1.990200327906908484e+01,1.572686910629272350e-01
1.596783000000000063e+00,-4.356615039132607503e-01,5.443884094232445126e-01,1.101125478744506836e+00,9.086388704286961493e-02,7.383123998393270604e-02,-1.402631188320089262e-01,-5.513483515333734708e-01,7.274212965004563936e-01,-1.034498121589422226e-02,1.915505236054439175e-02,1.196049342901359808e-02,2.941475805627373485e-02,-9.987437441316662778e-02,1.439626632215773583e-01,-1.939789313605344845e-01,-1.998743744131666333e-01,2.439626632215773638e-01,-9.397893136053447893e-02,4.920094817222370187e-01,-7.172817587852478027e-01,-7.617834806442260742e-01,2.643514752207797969e+01,1.572686910629272350e-01
1.623547999999999991e+00,-4.515033956637306001e-01,5.632928604577160936e-01,1.100591063499450684e+00,9.032425742750667397e-02,7.325900148520414490e-02,-1.410219608213914011e-01,-5.213227189732031475e-01,7.057992424013362909e-01,-1.175535190850496292e-02,2.195798926298739534e-04,-1.772248446377239564e-02,-4.230888821526593985e-02,-1.011725270957497258e-01,1.402595755419927814e-01,-2.214884921552963681e-01,-2.011725270957497314e-01,2.402595755419927870e-01,-1.214884921552963626e-01,4.923000825329150176e-01,-7.034052014350891113e-01,7.905870676040649414e-01,-3.530264893281672300e+01,1.581174135208129883e-01
1.648436999999999930e+00,-4.666818658192714575e-01,5.814299375588318775e-01,1.100060820579528809e+00,8.841956804507837553e-02,7.177864590900862041e-02,-1.412942984933531765e-01,-4.886142165874917120e-01,6.693271132833583659e-01,1.287073944695293903e-03,-5.909893621468677999e-02,-4.569605629532141194e-02,-3.377674993521544849e-02,-1.015834847782733641e-01,1.372164056645223118e-01,-2.411951653981952159e-01,-2.015834847782733696e-01,2.372164056645223174e-01,-1.411951653981952104e-01,4.917021191535035918e-01,-6.738788485527038574e-01,-5.665580034255981445e-01,-6.405936067830910474e+01,1.581174135208129883e-01
1.673504000000000103e+00,-4.819968825081678010e-01,6.000526760872237908e-01,1.099589109420776367e+00,8.628059119875465532e-02,7.039221135022244447e-02,-1.415116274687873155e-01,-4.784080246745467946e-01,6.313741004902251319e-01,2.905586501583456993e-03,-5.158804500525879938e-02,-6.922723207810457802e-02,-1.039833819466904306e-02,-1.035834181739266890e-01,1.324654169740130949e-01,-2.625170396755963087e-01,-2.035834181739266946e-01,2.324654169740131004e-01,-1.625170396755963031e-01,4.918470469949733914e-01,-6.562199592590332031e-01,-5.789974927902221680e-01,-1.084646880953664549e+02,1.581174135208129883e-01
1.699999000000000038e+00,-4.966933737134865967e-01,6.179563095496001246e-01,1.099059700965881348e+00,8.390332467930818050e-02,6.903320775866927939e-02,-1.411923508700121399e-01,-4.578751388447457882e-01,6.110254697983853456e-01,-2.901833038777112961e-03,-1.063915294011823914e-01,-5.376672254377368003e-03,-2.254781011403902621e-02,-1.045886681027746734e-01,1.264894651294250494e-01,-2.779481643642314759e-01,-2.045886681027746790e-01,2.264894651294250549e-01,-1.779481643642314703e-01,4.926990152432961789e-01,-6.331873536109924316e-01,4.424263238906860352e-01,-1.109107376390462107e+01,1.581174135208129883e-01
1.724949000000000066e+00,-5.106891499679746538e-01,6.350552217299560986e-01,1.098618626594543457e+00,8.185449326867494380e-02,6.724410016549664526e-02,-1.405159547482013327e-01,-4.239669072925595916e-01,5.791641059969337979e-01,1.176974549889564514e-02,-7.466524272999314205e-02,-4.068263508243762094e-02,4.661362594233883772e-02,-1.040979152986745149e-01,1.231684608227804067e-01,-2.749725819660483461e-01,-2.040979152986745204e-01,2.231684608227804123e-01,-1.749725819660483683e-01,4.920025098716070966e-01,-6.018037796020507812e-01,-1.291989207267761230e+00,-1.034270820730235414e+02,1.581174135208129883e-01
1.752845999999999904e+00,-5.241989940566953443e-01,6.515037198054742795e-01,1.098016738891601562e+00,8.004340095065773375e-02,6.564683155037043250e-02,-1.398538125294015444e-01,-4.134000581808149333e-01,5.594138230569771775e-01,9.504679590463638306e-03,-2.950020717968885459e-02,-4.158827119544174222e-02,5.585371152792138055e-02,-1.052518051169175073e-01,1.180421166003705613e-01,-2.791724551389203057e-01,-2.052518051169175128e-01,2.180421166003705669e-01,-1.791724551389202724e-01,4.926737600307957710e-01,-5.767944455146789551e-01,-1.303819298744201660e+00,5.186582351915178890e+01,1.587187528610229381e-01
1.773614999999999942e+00,-5.329611417952863084e-01,6.621115463910655086e-01,1.097648024559020996e+00,7.907140460345063460e-02,6.469140274707974037e-02,-1.395987275669114958e-01,-4.006151013935142502e-01,5.276850997313934366e-01,1.518963277339935303e-02,-7.251937480841727512e-02,-5.244015069741493618e-02,-2.243116931264734631e-02,-1.058292439381122441e-01,1.188843002985378872e-01,-2.739217515170855322e-01,-2.058292439381122496e-01,2.188843002985378927e-01,-1.739217515170855266e-01,4.926931544235803040e-01,-5.449988245964050293e-01,-6.015104055404663086e-01,-8.518450057356574234e+01,1.587187528610229381e-01
1.802767000000000008e+00,-5.455171393329478757e-01,6.774315861586684973e-01,1.097025871276855469e+00,7.806860468679689691e-02,6.302345108975360155e-02,-1.386778772504164703e-01,-3.672197176480484493e-01,5.118457820517986478e-01,8.595236577093601227e-03,-6.130267711048037471e-02,-3.758489737224816885e-02,1.018971875265526489e-02,-1.057490581415372888e-01,1.133356167084079436e-01,-2.726486753058376955e-01,-2.057490581415372943e-01,2.133356167084079491e-01,-1.726486753058376622e-01,4.936873157467013273e-01,-5.143800973892211914e-01,6.301378011703491211e-01,-8.387839423443546494e+00,1.587187528610229381e-01
1.823823999999999890e+00,-5.535078465249476665e-01,6.872478999757347662e-01,1.096623659133911133e+00,7.748107719182636965e-02,6.207638601150278213e-02,-1.380422521078725762e-01,-3.665901641597832938e-01,4.928782018669718989e-01,1.643455773591995239e-02,3.206642099008946700e-02,-1.015926286688877828e-01,4.776551437451731497e-02,-1.088888841461893853e-01,1.038582098062177939e-01,-2.982963296079269577e-01,-2.088888841461893908e-01,2.038582098062177994e-01,-1.982963296079269244e-01,4.945465167464777601e-01,-4.382035732269287109e-01,-1.421622633934020996e+00,-2.781956539513703586e+00,1.587187528610229381e-01
1.851577999999999946e+00,-5.655867197936991220e-01,7.019586224873611835e-01,1.095908164978027344e+00,7.648945694275721685e-02,6.066337632903717747e-02,-1.375385632351193710e-01,-3.361798121303327114e-01,4.723748804945650526e-01,2.050597965717315674e-02,-1.499234326518131960e-02,-3.419281480065415602e-02,1.685483669818691604e-02,-1.074211451101647619e-01,1.026809139164121809e-01,-2.824627182818127413e-01,-2.074211451101647674e-01,2.026809139164121865e-01,-1.824627182818127358e-01,4.943878693170462579e-01,-4.234125614166259766e-01,-1.162554621696472168e+00,1.131790263869345203e+01,1.587187528610229381e-01
1.874924000000000035e+00,-5.734467592693359705e-01,7.115914966906667916e-01,1.095506072044372559e+00,7.588611179220279557e-02,5.966606124235984687e-02,-1.371183489869007843e-01,-3.265277698622434666e-01,4.513602038978350439e-01,9.233693592250347137e-03,-6.264207520088176107e-02,-3.256408044989607398e-02,1.494830172301649628e-02,-1.074626351701804539e-01,1.036062973569618351e-01,-2.739616413206673595e-01,-2.074626351701804594e-01,2.036062973569618406e-01,-1.739616413206673262e-01,4.952025891976322702e-01,-4.212974905967712402e-01,-2.585369348526000977e-01,-3.604739226934739804e+01,1.587187528610229381e-01
1.897531999999999996e+00,-5.809955359498811811e-01,7.208681807987019630e-01,1.094983696937561035e+00,7.568681019983600211e-02,5.877415203283731238e-02,-1.366011958580646279e-01,-3.160673693945487694e-01,4.435522062939016297e-01,9.578636847436428070e-03,2.870189141877732206e-02,-4.981759295489614214e-02,4.580345569791830634e-02,-1.075230367936439169e-01,1.001369714412822243e-01,-2.674484560963505952e-01,-2.075230367936439224e-01,2.001369714412822298e-01,-1.674484560963505897e-01,4.952730928625470597e-01,-4.161045551300048828e-01,2.342876195907592773e-01,-4.545471768113809929e+01,1.587187528610229381e-01
1.925308000000000019e+00,-5.918468835823696983e-01,7.342333163075880353e-01,1.094212293624877930e+00,7.522353930462165328e-02,5.734404968926787305e-02,-1.361621424355667909e-01,-3.081058242799588620e-01,4.120473274170914357e-01,9.183068759739398956e-03,-3.011875343979401876e-02,-2.419002588312944846e-02,-2.026924636198232377e-02,-1.083308223276125692e-01,1.002633321641370201e-01,-2.607591365451525922e-01,-2.083308223276125748e-01,2.002633321641370256e-01,-1.607591365451526144e-01,4.953665973469637551e-01,-4.076399803161621094e-01,-1.395157694816589355e+00,4.329573245053750519e+00,1.587187528610229381e-01
1.948269000000000029e+00,-5.986834128871837413e-01,7.427458363156751453e-01,1.093704342842102051e+00,7.474041423958195651e-02,5.648547862138553199e-02,-1.354694779227418877e-01,-2.904107808225091514e-01,4.079264051571160898e-01,6.674591451883316040e-03,-6.692374023327381238e-02,-2.641401413151541443e-03,6.849399907968482804e-02,-1.085588371653449236e-01,9.598839205996456680e-02,-2.605071757369876173e-01,-2.085588371653449291e-01,1.959883920599645724e-01,-1.605071757369876118e-01,4.957337569135175093e-01,-3.978165388107299805e-01,3.591192960739135742e-01,-8.624099081928871868e+00,1.587187528610229381e-01
1.975743999999999945e+00,-6.090834937342186617e-01,7.548728350368590911e-01,1.092936038970947266e+00,7.426870190110586301e-02,5.476797112344300444e-02,-1.345449932589575237e-01,-2.722929910931154440e-01,3.790338155516728702e-01,1.797866262495517731e-02,3.876487322129524432e-02,-7.675023395848612484e-02,4.951835356172775565e-02,-1.094218430267935027e-01,7.888473668408974016e-02,-2.592649127211095195e-01,-2.094218430267935083e-01,1.788847366840897457e-01,-1.592649127211095417e-01,4.947641953031314266e-01,-3.967810273170471191e-01,-1.027489781379699707e+00,5.781636970143152610e+01,1.587187528610229381e-01
1.997206000000000037e+00,-6.156765996809351327e-01,7.625992281566638109e-01,1.092448949813842773e+00,7.382723957150987004e-02,5.385415972499818515e-02,-1.340890883355552177e-01,-2.768242836896112058e-01,3.555691998196290893e-01,2.442000806331634521e-02,-4.179808090172611179e-02,-7.481367216859530211e-02,-1.438251128959399132e-03,-1.112401967453912344e-01,7.028518577797368549e-02,-2.583727225945917083e-01,-2.112401967453912399e-01,1.702851857779736910e-01,-1.583727225945917028e-01,4.942590151783817776e-01,-3.960064649581909180e-01,-4.254914522171020508e-01,-9.993699884111960330e+01,1.587187528610229381e-01
2.021456000000000142e+00,-6.250893414590428243e-01,7.736244002957997079e-01,1.091723799705505371e+00,7.318309106167854294e-02,5.234990355875335233e-02,-1.328851942937350206e-01,-2.373809074184975720e-01,3.447971252059678360e-01,1.809753105044364929e-02,-5.490393758746242581e-02,-1.239598091238221927e-02,3.403048214968529966e-02,-1.148243381059290968e-01,2.850577212764762725e-02,-2.502395067662036010e-01,-2.148243381059291024e-01,1.285057721276476328e-01,-1.502395067662035955e-01,4.944022015341603682e-01,-4.056251645088195801e-01,2.269312143325805664e-01,-3.454423241134132017e+00,1.587187528610229381e-01
2.046666999999999792e+00,-6.341108336024087189e-01,7.849684064359128133e-01,1.091005682945251465e+00,7.251392815426589700e-02,5.047235080693268650e-02,-1.316911036034840166e-01,-2.337669079996592958e-01,3.237380100415500062e-01,2.133027091622352600e-02,-2.843384503747337089e-02,-9.441659129314418364e-02,5.511905058012972480e-02,-1.183596714937523164e-01,6.843026418150016665e-03,-2.493628688057123177e-01,-2.183596714937523220e-01,1.068430264181500222e-01,-1.493628688057123122e-01,4.941545102149169644e-01,-4.049796462059020996e-01,-1.354043364524841309e+00,3.291846553509163442e+01,1.587187528610229381e-01
2.072118000000000126e+00,-6.430408512273603217e-01,7.975149063114241876e-01,1.090403556823730469e+00,7.157208807185917732e-02,4.907229929678891267e-02,-1.304276159254778023e-01,-2.096552895506759717e-01,3.047636906378350941e-01,2.227983251214027405e-02,-1.330390621301523815e-02,-3.419439852877563524e-02,3.419836662675587030e-02,-1.233302417189814371e-01,-3.225900235143486228e-02,-2.438638344089662791e-01,-2.233302417189814426e-01,6.774099764856514327e-02,-1.438638344089662735e-01,4.938936604408324937e-01,-4.083516597747802734e-01,-1.346934199333190918e+00,7.112565412000356524e+00,1.587187528610229381e-01
2.097144999999999815e+00,-6.513378339232160918e-01,8.093257234458165472e-01,1.089722990989685059e+00,7.083902877164112433e-02,4.808834636054459821e-02,-1.295819946482170693e-01,-2.034863604744077126e-01,2.874717837796588182e-01,2.167801745235919952e-02,-3.081940340419670604e-02,-3.625251304888768566e-02,-3.907636074910725548e-04,-1.293779438041826879e-01,-7.517933309739260883e-02,-2.437912116745837021e-01,-2.293779438041826935e-01,2.482066690260740019e-02,-1.437912116745836966e-01,4.941909224308483894e-01,-3.945322632789611816e-01,-1.451215744018554688e+00,5.659751219875899153e+01,1.587187528610229381e-01
2.125248000000000026e+00,-6.617195695518818255e-01,8.245676650519211393e-01,1.088914394378662109e+00,6.945554039646527344e-02,4.674918808470462928e-02,-1.273464175663432396e-01,-1.881767095498363407e-01,2.589838126237227200e-01,2.318252623081207275e-02,-4.348438974372746679e-02,-2.508302408629061245e-02,1.852224435921596968e-02,-1.441403632965535531e-01,-1.914973952355568110e-01,-2.482698807672758801e-01,-2.441403632965535586e-01,-9.149739523555679155e-02,-1.482698807672758745e-01,4.969724039762996037e-01,-2.384302020072937012e-01,-1.070787310600280762e+00,7.763937501256023666e+01,1.587187528610229381e-01
2.149954000000000143e+00,-6.692844645023122707e-01,8.364206329472443358e-01,1.088362693786621094e+00,6.813233829203849123e-02,4.582823289402937483e-02,-1.259533198855729008e-01,-1.618305779353823859e-01,2.482096171632523218e-01,1.286885328590869904e-02,-6.338394159921455218e-02,-2.230503618812116479e-02,5.059863514801878764e-02,-1.489730257803182079e-01,-2.403030152216065474e-01,-2.491209661013256971e-01,-2.489730257803182134e-01,-1.403030152216065418e-01,-1.491209661013256915e-01,4.988531032745602278e-01,-1.767954826354980469e-01,-1.314063429832458496e+00,7.524001151940480270e+01,1.587187528610229381e-01
2.174498999999999960e+00,-6.739910669387695341e-01,8.439234203432414150e-01,1.088006615638732910e+00,6.748675001528747774e-02,4.514565825381611219e-02,-1.249612539438142989e-01,-1.618531398874667182e-01,2.392849175303655151e-01,1.878763549029827118e-02,1.188702270851804688e-02,-7.601820362433951705e-02,4.263642874688190060e-02,-1.501771992438559467e-01,-2.477517825775176485e-01,-2.497892065095314029e-01,-2.501771992438559522e-01,-1.477517825775176430e-01,-1.497892065095313974e-01,4.983191785204539315e-01,-1.818606853485107422e-01,-1.038350701332092285e+00,4.527373815870026874e+01,1.587187528610229381e-01
2.200041999999999831e+00,-6.806245344293819777e-01,8.545113501657810584e-01,1.087501645088195801e+00,6.632712989134936787e-02,4.424679895870120561e-02,-1.236607285527153710e-01,-1.447067420580384345e-01,2.246285140168607919e-01,1.799857430160045624e-02,-6.551563026250523114e-02,3.105766351065798736e-02,2.729237169687715944e-02,-1.514006203595241462e-01,-2.587856368669186891e-01,-2.498628164713635191e-01,-2.514006203595241518e-01,-1.587856368669186835e-01,-1.498628164713635136e-01,4.982367425931926164e-01,-1.839616298675537109e-01,1.131559610366821289e-01,-1.353081989675411556e+01,1.587187528610229381e-01
2.224413000000000196e+00,-6.827127095214866603e-01,8.579135343360114740e-01,1.087342500686645508e+00,6.614598904442320348e-02,4.402218827788861866e-02,-1.230089063902022328e-01,-1.269314036834874038e-01,2.231092047696873470e-01,1.611438952386379242e-02,-1.701323948432403171e-02,-9.602774427386830472e-03,5.724787627009386010e-02,-1.506164848146592516e-01,-2.595290675932032665e-01,-2.487549965710161015e-01,-2.506164848146592572e-01,-1.595290675932032609e-01,-1.487549965710160960e-01,4.977113182356169840e-01,-2.146533727645874023e-01,-1.225148320198059082e+00,6.288286742396358164e+01,1.587187528610229381e-01
2.247602999999999795e+00,-6.868557632617832143e-01,8.648424830875807157e-01,1.086957812309265137e+00,6.523887093917125901e-02,4.352918668054561735e-02,-1.221347122544260699e-01,-1.335644841854009279e-01,2.051732406768565775e-01,1.555084809660911560e-02,-4.196426146719447331e-02,-2.292805193769783048e-02,3.915954225208129191e-02,-1.514840445866593444e-01,-2.568231009227556760e-01,-2.481064302470260552e-01,-2.514840445866593499e-01,-1.568231009227556705e-01,-1.481064302470260496e-01,4.975459915744819828e-01,-2.235203981399536133e-01,-3.267308473587036133e-01,-6.508890924285098833e+01,1.587187528610229381e-01
2.276771999999999796e+00,-6.928104219567206012e-01,8.752184715850485075e-01,1.086533308029174805e+00,6.418497754262697530e-02,4.263469807950737156e-02,-1.206778872846150374e-01,-1.219857793306055455e-01,1.907325881530709533e-01,1.025963574647903442e-02,-8.872751394367496547e-02,-1.435703185171140032e-02,8.415518682006178919e-02,-1.522573182096605693e-01,-2.641894844863649783e-01,-2.457902251353201450e-01,-2.522573182096605748e-01,-1.641894844863649727e-01,-1.457902251353201395e-01,4.969217854828306136e-01,-2.728773355484008789e-01,-1.007228255271911621e+00,6.547853738405436275e+01,1.587187528610229381e-01
2.298686000000000007e+00,-6.965000577818156735e-01,8.817170512691147044e-01,1.086320161819458008e+00,6.380618875640509113e-02,4.196091361146980780e-02,-1.196173882833211355e-01,-1.117265648242403431e-01,1.874773085664580841e-01,2.450926788151264191e-02,-2.713736074947376356e-02,1.294107668882451059e-02,3.818510291837347477e-03,-1.534450511724217703e-01,-2.759764274148589491e-01,-2.458418482799527571e-01,-2.534450511724217758e-01,-1.759764274148589436e-01,-1.458418482799527516e-01,4.952440648927292077e-01,-3.026309013366699219e-01,-1.119242787361145020e+00,7.195163743406966717e+01,1.587187528610229381e-01
2.327323999999999948e+00,-7.015948203618103118e-01,8.908980708418363648e-01,1.086022377014160156e+00,6.231315166582390014e-02,4.045482526643029431e-02,-1.179272347171276270e-01,-9.838826562541216902e-02,1.661860266705872113e-01,2.282440848648548126e-02,-7.294094817406721054e-02,-7.336653985373657594e-02,3.971326251616469349e-02,-1.533560835156989322e-01,-2.794930530383217815e-01,-2.385812337327278543e-01,-2.533560835156989377e-01,-1.794930530383217759e-01,-1.385812337327278487e-01,4.939319750006282428e-01,-3.692907691001892090e-01,-8.545964956283569336e-01,1.271968234035849150e+02,1.587187528610229381e-01
2.349825000000000053e+00,-7.049974097758483493e-01,8.969170270727891969e-01,1.085896968841552734e+00,6.194314993221281679e-02,3.942690513792634910e-02,-1.171618577121913418e-01,-9.883032324242345401e-02,1.630097157420863363e-01,1.842698268592357635e-02,1.607225756689007953e-02,-3.750857980398505237e-02,2.671219583725868707e-02,-1.536070085300620669e-01,-2.820873540334539742e-01,-2.408284028393833931e-01,-2.536070085300620724e-01,-1.820873540334539964e-01,-1.408284028393833875e-01,4.940589910716660649e-01,-3.804806470870971680e-01,-1.184541821479797363e+00,1.320853946982381331e+02,1.587187528610229381e-01
2.375124000000000013e+00,-7.101028543984828634e-01,9.057482367997820027e-01,1.085817933082580566e+00,6.094518731284943869e-02,3.719899832517770122e-02,-1.156685453350327908e-01,-8.265031553233480321e-02,1.461811216890037124e-01,2.898082323372364044e-02,-4.853382606112030540e-02,-4.145005980804009060e-02,1.653676889126181812e-02,-1.541239517449338459e-01,-2.890300319983710731e-01,-2.467508378230251209e-01,-2.541239517449338514e-01,-1.890300319983710953e-01,-1.467508378230251154e-01,4.926187039038966153e-01,-4.051114320755004883e-01,-1.184407830238342285e+00,6.975991852187179632e+01,1.587187528610229381e-01
2.400977999999999835e+00,-7.147164061311875871e-01,9.139140154662627191e-01,1.085741162300109863e+00,5.969358602277746728e-02,3.518704280367890291e-02,-1.138648298301849771e-01,-7.370817623732658919e-02,1.390478153045047738e-01,2.292838506400585175e-02,-6.547746691743237812e-02,-5.342878939761146889e-02,6.963155903500166388e-02,-1.542133277668460145e-01,-2.929918318649346043e-01,-2.519983068272749760e-01,-2.542133277668460201e-01,-1.929918318649346265e-01,-1.519983068272749704e-01,4.929784365677769564e-01,-4.073896408081054688e-01,-7.506591081619262695e-01,1.079349044723944075e+02,1.587187528610229381e-01
2.425037000000000109e+00,-7.188696287586424649e-01,9.214075832645385322e-01,1.085652112960815430e+00,5.797824129754676481e-02,3.383809950894423046e-02,-1.122458970085722374e-01,-7.151429975633472047e-02,1.236301467771856177e-01,2.266686968505382538e-02,-7.464064622696517382e-02,-1.778406108997386548e-02,7.658548514753711622e-02,-1.539490031634305478e-01,-2.937134984036535723e-01,-2.523631206737407817e-01,-2.539490031634305534e-01,-1.937134984036535668e-01,-1.523631206737407484e-01,4.927571482062246266e-01,-4.151628017425537109e-01,-1.378888010978698730e+00,9.006783311312555895e+01,1.587187528610229381e-01
