timestamp,x,y,z,roll,pitch,yaw,vx,vy,vz,p,q,r,psp,qsp,rsp,pres,qres,rres,thrust_sp, thrust_res
0.000000000000000000e+00,1.101689229585352432e-02,-1.170313100176264285e-03,9.858914613723754883e-01,8.442165228815952036e-03,-9.927127498880139456e-03,-5.724068045572437875e-03,-5.229547273746412879e-03,-2.858806150925018337e-03,3.297400474548339844e-02,6.184255866276362756e-02,-3.173023950944561106e-02,-4.170287877886793421e-02,-1.158431156345952201e-02,-1.394855825636732993e-03,4.028575456318362474e-02,4.626449346542358537e-02,6.047122478485107006e-02,5.620669126510619701e-02,5.115639445131007212e-01,5.476832389831542969e-02,-4.787839651107788086e-01,1.011479913809628641e+02,-2.985250949859619141e-02
2.264700000000000046e-02,1.115724685273856986e-02,-1.300849478140780197e-03,9.862174987792968750e-01,8.310596070352607376e-03,-9.980082841785531400e-03,-5.696687496402691279e-03,2.827335429526882642e-03,-3.664941180075504974e-03,2.340316027402877808e-02,-8.575884674958862003e-03,1.207899316256853123e-02,1.874572226003765399e-02,-1.484499330153889463e-01,8.784557968935272076e-02,4.355531470645725850e-02,-9.116570949554443637e-02,1.426323115825653132e-01,5.941382646560668807e-02,5.142333625042753154e-01,1.611945629119873047e-01,-6.032046079635620117e-01,7.049158204614190026e+01,-2.985250949859619141e-02
4.764899999999999691e-02,1.140977226373942992e-02,-1.547414432340270133e-03,9.868288040161132812e-01,8.480803949091331867e-03,-9.900404806595819451e-03,-5.857301627293993312e-03,3.828539351544073635e-04,-7.559327385277128143e-03,3.022440336644649506e-02,2.841763036679711626e-02,-2.434068707270636150e-02,-2.928375545527305696e-02,-1.810015887189733719e-02,-9.489065402508115032e-02,6.065143099463930765e-02,4.353110790252685131e-02,-3.767895698547363281e-02,7.695962190628051480e-02,5.130791814870421241e-01,1.297339200973510742e-01,-9.596101045608520508e-01,9.422776665731099399e+01,-2.985250949859619141e-02
7.275299999999999823e-02,1.148751183817146165e-02,-1.551789661674267710e-03,9.873796105384826660e-01,8.216580260029526794e-03,-9.584772475966341077e-03,-5.939572808542517394e-03,-1.709257743604208207e-02,-9.055486404697405539e-03,2.369931899011135101e-02,2.978903208239617583e-03,-5.018454588104493373e-03,9.379542417206647095e-03,-2.513654589946076046e-01,-2.351309286374080321e-01,-1.456799017819026543e-01,-1.907189369201660045e-01,-1.662141680717468262e-01,-1.291546225547790527e-01,5.167964914703220281e-01,3.057142496109008789e-01,-6.534281969070434570e-01,1.025697294076468609e+02,-2.985250949859619141e-02
1.008150000000000018e-01,1.155145134024172272e-02,-1.562672561598794137e-03,9.880619645118713379e-01,8.100881081966597452e-03,-9.782371827129265895e-03,-6.179645538443416693e-03,1.048479892107995930e-03,-2.213522467497269948e-03,2.154620364308357239e-02,-2.870603812649574413e-02,3.677902151944813236e-02,-3.905273693259361106e-02,-2.262869960507546963e-01,1.144491753979185178e-01,9.491241011392181903e-02,-1.722164869308471513e-01,1.673367798328399547e-01,1.121255457401275635e-01,5.063294370964294133e-01,-2.571817040443420410e-01,-8.808444738388061523e-01,-8.351689622732878604e+01,-2.985250949859619141e-02
1.270979999999999888e-01,1.156881546227358018e-02,-1.526607385656637622e-03,9.886919260025024414e-01,7.276652499120608332e-03,-1.053628673765860668e-02,-6.545101846024476387e-03,3.907813812461876529e-04,-6.431538488310575667e-03,1.154286134988069534e-02,-2.549297137076147676e-02,-5.610951043695186491e-02,-7.410644918312128682e-03,-2.522684478732679092e-01,-2.372122841564746065e-01,-4.113956039443475432e-02,-1.991378188133239580e-01,-1.762757062911987360e-01,-2.289708852767944128e-02,5.081648265020528576e-01,-1.970593929290771484e-01,-6.777664422988891602e-01,9.233514855905714569e+01,-2.985250949859619141e-02
1.478399999999999992e-01,1.158883197511757605e-02,-1.503539738813376931e-03,9.889563322067260742e-01,6.659666550901363440e-03,-1.061931138666261099e-02,-6.859602218105964079e-03,-9.973898461154762085e-03,-4.585883528137842287e-03,2.009887062013149261e-02,-4.691256585801989454e-02,-2.519306578934097859e-02,-1.942008002544320933e-02,-1.374160066739738006e-01,-2.461871929718042473e-01,-1.051902712863331257e-01,-9.035496711730957309e-02,-1.764500856399535966e-01,-8.607476949691772461e-02,5.109937096074043117e-01,-1.151180267333984375e-02,-9.966579675674438477e-01,1.280811962973181721e+02,-2.985250949859619141e-02
1.746459999999999957e-01,1.163871100236198164e-02,-1.399348548767472130e-03,9.895430207252502441e-01,5.352238758605010020e-03,-1.064489975819049583e-02,-7.468479859971245347e-03,-9.206876601961002868e-03,-3.460607471654066698e-04,1.324075646698474884e-02,-6.127099142989891195e-02,-3.149287841826551790e-03,-1.374714234804342954e-02,-1.702969637608495179e-01,-1.940582183083000567e-01,-1.299056986966348748e-01,-1.349722266197204423e-01,-1.263332962989807129e-01,-1.090708851814270047e-01,5.145570605566966993e-01,1.540194749832153320e-01,-9.355479478836059570e-01,1.241694649973818230e+02,-2.985250949859619141e-02
2.043240000000000056e-01,1.171584986492599234e-02,-1.365183125189554101e-03,9.900102615356445312e-01,2.623861746863929544e-03,-8.837751466372445464e-03,-6.932393078044240577e-03,3.160715127751667890e-03,6.994412816425955685e-03,-2.574147423729300499e-03,-1.693894086464280413e-01,1.673541237235602053e-01,2.355380460841770968e-02,-8.129164508364804254e-02,1.002116331255416687e-01,2.894017350659242732e-02,-6.905763745307921808e-02,1.462523102760314997e-01,4.831745624542236467e-02,5.113430774902165687e-01,-7.882589101791381836e-02,-1.200438380241394043e+00,1.066693387210827524e+02,-2.985250949859619141e-02
2.242250000000000076e-01,1.181453858854092029e-02,-1.368626795505064123e-03,9.902107715606689453e-01,9.932511262826808265e-04,-7.788605402016646195e-03,-6.984535034443940804e-03,1.053677254370885726e-03,3.504794582960303172e-03,7.295381277799606323e-03,-1.762648600747325212e-01,1.335862740324727238e-01,-2.802688315243962239e-02,-9.226667060755501526e-02,1.220343743787795365e-01,-1.787971957504863596e-02,-8.672379255294800082e-02,1.646078646183013749e-01,1.666545867919921875e-03,5.122701476491389183e-01,1.024603843688964844e-02,-7.081795930862426758e-01,9.374267979226752345e+01,-2.985250949859619141e-02
2.512229999999999741e-01,1.198719892159918338e-02,-1.378669848791470821e-03,9.905573725700378418e-01,-2.746800438368064267e-03,-6.148244587493190139e-03,-7.335649235170928380e-03,1.660810857747271625e-03,1.376974047056611639e-02,1.175298937596380711e-03,-1.687014405130765060e-01,2.872733066876787672e-02,1.414968040203564911e-02,1.375467618058783814e-01,1.208674539118718277e-01,-1.965476578483914827e-01,1.099635601043701116e-01,1.518472194671630915e-01,-1.759995460510253851e-01,5.127059367778168397e-01,1.025104522705078125e-02,-8.104649782180786133e-01,-5.016419629311171136e+00,-2.985250949859619141e-02
2.775699999999999834e-01,1.211703847337053733e-02,-1.293581867448676502e-03,9.908744692802429199e-01,-6.917015266119339555e-03,-4.390176237942133852e-03,-7.898852835548244786e-03,-6.168068100618746483e-03,8.256296672275047904e-03,-3.220274578779935837e-03,-2.206185429866523162e-01,8.010706490054687878e-02,-4.225187955548626723e-02,2.234144390419808834e-01,1.555822497588288666e-01,-1.887768512099493867e-01,1.746511459350585938e-01,1.813520908355712724e-01,-1.666249752044677568e-01,5.112338916357218599e-01,-8.490598201751708984e-02,-1.040552735328674316e+00,9.939539216069427141e+01,-2.985250949859619141e-02
2.969040000000000012e-01,1.230499140601957857e-02,-1.133296005577790182e-03,9.910792112350463867e-01,-1.160505380057151072e-02,-2.050353374232427583e-03,-7.297930719142549545e-03,-3.528234769596880031e-03,2.036214686748916841e-02,-6.576818879693746567e-03,-2.252399956688997396e-01,1.474304503434456792e-01,3.963080287354431991e-02,2.814470834154351175e-01,1.875632212813696520e-01,-1.618727176169773574e-01,1.915074348449707087e-01,1.947234213352203314e-01,-1.414242267608642467e-01,5.096232105792887213e-01,-1.838287711143493652e-01,-7.135537862777709961e-01,9.315138348563034754e+01,-2.985250949859619141e-02
3.232289999999999885e-01,1.257046529553892435e-02,-4.784148791233053797e-04,9.913898706436157227e-01,-1.768750810950478827e-02,3.013144033413128753e-03,-6.328574217966205853e-03,7.642643391391730837e-03,2.776386151999994320e-02,-9.231004863977432251e-03,-1.365843747865403413e-01,1.463356177162408733e-01,1.810205996879243537e-02,2.906127572059631348e-01,2.447972704946550504e-01,-1.564287623466355248e-01,1.906127572059631292e-01,2.101929187774658203e-01,-1.388189435005187933e-01,5.060756200431270058e-01,-3.819630146026611328e-01,-7.134386301040649414e-01,9.450718969625621924e+01,-2.985250949859619141e-02
3.500389999999999890e-01,1.273960335903445186e-02,3.474456882940486465e-04,9.915267825126647949e-01,-2.180560256511912889e-02,6.491755279021349523e-03,-5.934256941855464013e-03,-5.183498388782467083e-03,1.999920827878465951e-02,-1.102808490395545959e-02,-2.126552224042061456e-01,1.609778777183659415e-01,3.502637131960633504e-02,3.077486395835876687e-01,2.613631397874319195e-01,-2.163782461429927251e-01,2.077486395835876354e-01,2.159055054187774547e-01,-1.999575376510620006e-01,5.044640508810398494e-01,-4.744353294372558594e-01,-6.188768148422241211e-01,9.337711440751010628e+01,-2.985250949859619141e-02
3.788549999999999973e-01,1.293276172115635433e-02,1.772313768985928290e-03,9.917740821838378906e-01,-2.551540257790936572e-02,8.296633968737365805e-03,-5.714610447067290482e-03,1.601491980954830932e-02,3.894537424799118103e-02,-1.184364873915910721e-02,-7.898771947456352527e-02,2.174754356724190735e-02,4.636102805001281191e-02,3.143949747085571511e-01,2.953729819853060934e-01,-2.336773373185041247e-01,2.143949747085571178e-01,2.191011607646942139e-01,-2.180209279060363603e-01,5.069139680293947015e-01,-3.485950231552124023e-01,-8.236974477767944336e-01,1.103660010244337286e+02,-2.985250949859619141e-02
4.062350000000000128e-01,1.303888161496312079e-02,2.818746671868025636e-03,9.919546246528625488e-01,-2.658388463393371662e-02,7.480808097096502962e-03,-4.904530664802696227e-03,-7.282847349312037040e-03,3.619607080071962635e-02,3.166111418977379799e-03,-1.762476280113236052e-02,-8.273757308636497942e-02,3.587738096003058319e-02,9.000576734542847790e-02,-1.164629321338679080e-01,-2.362344999445130100e-01,-9.994232654571532856e-03,-1.657061934471130427e-01,-2.227424383163452148e-01,5.003049005820980888e-01,-6.365062594413757324e-01,-5.664395093917846680e-01,1.088344813672201070e+02,-2.985250949859619141e-02
4.271240000000000037e-01,1.311277114594849164e-02,4.481191388633312851e-03,9.925642013549804688e-01,-2.528507689786885226e-02,4.161627377520238369e-03,-2.572726646451690361e-03,6.644214979696669993e-03,4.871809312397368946e-02,2.495228312909603119e-03,9.918708168078321785e-02,-9.408635531334032243e-02,4.424147620357255645e-02,2.678725242614746205e-01,8.022007618434368048e-02,-1.513791756896700480e-01,1.678725242614746149e-01,3.784838318824768066e-02,-1.443540573120117021e-01,5.088413713687265361e-01,-1.872802972793579102e-01,-5.716961622238159180e-01,-1.226036885263860121e+00,-2.985250949859619141e-02
4.476749999999999896e-01,1.308215343381364214e-02,5.526601456075410854e-03,9.930125474929809570e-01,-2.254558809454014143e-02,5.344794396482388521e-04,-6.440131759711951098e-04,1.509840455431715267e-03,4.733621742850451647e-02,-4.200726281851530075e-03,1.451620900536700343e-01,-1.917495483858013827e-01,1.266513187899897253e-01,2.325515508651733454e-01,-1.211891555028313666e-01,-1.558554404840258034e-01,1.325515508651733398e-01,-1.338008165359496904e-01,-1.540987730026245062e-01,5.140999141269800843e-01,6.762075424194335938e-02,-5.773743391036987305e-01,5.672846741571564877e+01,-2.985250949859619141e-02
4.744940000000000269e-01,1.301357880025507535e-02,7.175788356314753529e-03,9.938439726829528809e-01,-1.547466766360838276e-02,-6.104146172140945126e-03,1.779601496991598713e-03,-4.445451656990653832e-05,5.531633321157125582e-02,-3.768312162719666958e-04,2.742683594767862387e-01,-2.276809932148647075e-01,9.413822139977216785e-02,2.553858757019042969e-01,-1.183160519282081130e-01,-1.061281575336170818e-01,1.553858757019042913e-01,-8.730998039245604914e-02,-1.110519289970397921e-01,5.128169753082720828e-01,1.701891422271728516e-02,-5.985890626907348633e-01,6.726316336134114238e+01,-2.985250949859619141e-02
5.010970000000000146e-01,1.288588113615112864e-02,8.923380301981453586e-03,9.946379661560058594e-01,-6.211948042051097969e-03,-1.375092884744866240e-02,4.985847066788993455e-03,2.991033673301837607e-03,5.522038291658486198e-02,4.556953441351652145e-03,3.849353089187642074e-01,-3.112638599156348773e-01,1.207144979039541932e-01,1.856436446166697674e-01,-2.078284964550312641e-01,-8.168184855843152459e-02,1.021074056625366211e-01,-1.298885822296142467e-01,-9.564936161041259766e-02,5.145973384115276605e-01,1.347347497940063477e-01,-8.321622610092163086e-01,1.079205883958940575e+02,-7.754695415496826172e-02
5.268749999999999822e-01,1.273405577079398006e-02,1.011653381460018465e-02,9.951365590095520020e-01,7.084375533292166952e-05,-1.888540071745747895e-02,7.200428663251878802e-03,-1.271586588826524242e-02,4.974311895858320870e-02,-7.083985256031155586e-04,3.003832638089021789e-01,-2.492656337443689973e-01,1.149412800571520260e-01,1.260326395457443127e-01,-2.399971842765808161e-01,-6.663147332026161940e-02,8.685321807861327847e-02,-1.399971842765808105e-01,-8.695807456970214289e-02,5.150414898326656221e-01,1.394891738891601562e-01,-7.120553255081176758e-01,1.116031668491764748e+02,-7.754695415496826172e-02
5.476010000000000044e-01,1.272497387360098028e-02,1.108330881950386933e-02,9.955106973648071289e-01,6.217776862028056087e-03,-2.400191440599908077e-02,9.905663357566924301e-03,6.543553258650191239e-04,6.361738952392512192e-02,-1.197975967079401016e-02,2.593785442003636033e-01,-2.060468430514630633e-01,1.642032230623091393e-01,-2.676443699648979949e-03,-2.525099754333496316e-01,1.043557400874154523e-01,-1.439806222915649379e-02,-1.525099754333495983e-01,7.617681026458740512e-02,5.152277966070720749e-01,1.053266525268554688e-01,-8.748146295547485352e-01,4.908495980990529262e+01,-7.754695415496826172e-02
5.741859999999999742e-01,1.274756176842772003e-02,1.260599188700552327e-02,9.958658814430236816e-01,1.359895861125454478e-02,-2.813007948744128406e-02,1.321588413819920795e-02,-1.339100647641329293e-02,5.115545285244434831e-02,-1.161489635705947876e-02,2.406361948536154538e-01,-8.136249821189431297e-02,8.468898159113000257e-02,-6.168457659428084466e-02,-1.990337014198303445e-01,2.141634924598256884e-02,-1.449608802795410156e-02,-9.903370141983032504e-02,-1.637953519821166992e-02,5.173442785620010476e-01,2.211698293685913086e-01,-7.062948942184448242e-01,-1.767239901509243438e+01,-8.707010746002197266e-02
5.990720000000000489e-01,1.275492014567404173e-02,1.362010384915805783e-02,9.959261417388916016e-01,1.802673999975639221e-02,-2.891477134840236829e-02,1.518191037594601896e-02,7.354875020603830575e-03,6.327686178873227762e-02,-3.420507162809371948e-02,1.550600940722842158e-01,4.374774749536435026e-02,1.380994439335168078e-01,-1.533171119135618432e-01,-1.386770606040955978e-02,6.165835204581384538e-02,-8.924514055252075195e-02,8.613229393959044577e-02,1.818729043006896834e-02,5.218612019350578057e-01,3.734903335571289062e-01,-1.377212643623352051e+00,6.077668980093093865e+01,-8.707010746002197266e-02
6.260949999999999571e-01,1.274622118114137649e-02,1.505056534650507302e-02,9.959045648574829102e-01,2.480018138822953980e-02,-2.823128332900570747e-02,1.787819722439485531e-02,-1.852126568834756154e-02,4.288573379881735481e-02,-2.376921474933624268e-02,2.563680940292326627e-01,7.024559277616140678e-03,1.018310066562236882e-01,-1.346450209617614802e-01,-1.079687356948852567e-01,7.846110754611113070e-02,-3.464502096176147461e-02,-7.968735694885252865e-03,2.716112136840820312e-02,5.195651065290389781e-01,2.896049022674560547e-01,-1.178160786628723145e+00,1.612506166428944141e+02,-8.707010746002197266e-02
6.462369999999999504e-01,1.313945377370689949e-02,1.602012042865056871e-02,9.957914948463439941e-01,2.962850016465919459e-02,-2.621211463111272622e-02,1.912440079840827326e-02,3.009078554452732958e-03,5.157098225887214032e-02,-3.191994875669479370e-02,1.806730723040384512e-01,1.703473554044817595e-01,5.031864415461660689e-02,-2.644340574741363414e-01,-2.263110876083375411e-02,1.426717162733107669e-01,-1.644340574741363359e-01,7.736889123916625144e-02,8.789498805999755582e-02,5.176783024348210471e-01,1.533535718917846680e-01,-7.845395803451538086e-01,1.059359676495201370e+02,-8.707010746002197266e-02
6.749730000000000452e-01,1.387552401094980202e-02,1.765944357769582210e-02,9.953969120979309082e-01,3.808377956739432413e-02,-1.914946322915489496e-02,2.092135398525575216e-02,-1.484790445740569176e-02,3.205275507622960124e-02,-3.181863576173782349e-02,1.113339954100026480e-01,2.308220441411204527e-01,1.117662302723856221e-02,-2.853826642036437766e-01,-9.878299236297607977e-02,2.246166573080571882e-01,-1.853826642036437988e-01,1.217007637023925781e-03,1.648748695850372203e-01,5.162200238624121695e-01,7.236599922180175781e-02,-8.608475923538208008e-01,9.650774527396379199e+01,-8.707010746002197266e-02
7.006189999999999918e-01,1.427940444818245544e-02,1.841117144863871000e-02,9.950453042984008789e-01,4.102057527204078236e-02,-1.416764938376480210e-02,2.093604062833179236e-02,4.249897282953646500e-03,4.608869985653978041e-02,-3.989165276288986206e-02,1.411379508667637839e-01,2.795950279733006028e-01,-3.099120552871625564e-02,-2.950138151645660400e-01,-8.287813223245983629e-02,2.465788214252975230e-01,-1.950138151645660345e-01,-8.188247680664062500e-03,1.871812820434570201e-01,5.172601270279184593e-01,9.239161014556884766e-02,-1.175283312797546387e+00,-4.493402589372498923e+00,-8.707010746002197266e-02
7.254399999999999737e-01,1.463195621852640162e-02,1.906896474768136548e-02,9.946886897087097168e-01,4.190602330181566332e-02,-9.067032024234755738e-03,2.109901152143289077e-02,-7.295235823078876063e-04,3.086736435472912932e-02,-5.338307097554206848e-02,-3.779789012472261917e-03,2.512534923004902110e-01,4.400705134462295359e-02,-2.973918259143829568e-01,3.157206701451806263e-02,2.535956828643544103e-01,-1.973918259143829235e-01,7.981832027435302457e-02,1.940295696258544922e-01,5.182091492073633843e-01,8.604490756988525391e-02,-1.453280806541442871e+00,9.720651460719111014e+01,-8.707010746002197266e-02
7.461969999999999992e-01,1.495631545897976346e-02,2.020904675435320624e-02,9.943155050277709961e-01,4.189289033300750559e-02,-4.586019400187435480e-03,2.109548679023608500e-02,-1.227221151343031551e-02,3.431896443122688795e-02,-4.256290569901466370e-02,2.656615373506401347e-03,1.601845988968035039e-01,-2.150265072646895953e-02,-3.041353106498718151e-01,6.598286357055609119e-02,2.623787668910041448e-01,-2.041353106498718095e-01,9.325686693191527488e-02,2.030280411243438610e-01,5.172382636601214889e-01,7.262599468231201172e-02,-1.057191252708435059e+00,2.114930647057796591e+02,-8.707010746002197266e-02
7.762940000000000396e-01,1.535660530322347297e-02,2.168490530904939456e-02,9.936137795448303223e-01,3.963482103593721911e-02,-2.361519537674716673e-05,2.033574842288885659e-02,-2.880739432760933208e-03,1.867293817020819133e-02,-4.722011461853981018e-02,-1.390228078258714250e-01,1.340042012997979815e-01,-5.519442231759657397e-02,-2.932144463062286155e-01,5.005328604691579308e-02,2.309332931928907151e-01,-1.932144463062286377e-01,3.854958415031432828e-02,1.741008281707763505e-01,5.139345167131418313e-01,-1.281327605247497559e-01,-1.438051581382751465e+00,1.039414636194172061e+02,-8.707010746002197266e-02
7.957410000000000316e-01,1.564606371623065983e-02,2.258530282828060537e-02,9.930921196937561035e-01,3.698549686491600652e-02,2.105817477807914173e-03,1.948753732780830750e-02,-2.566146095065130299e-03,2.229391367472045166e-02,-4.273244738578796387e-02,-1.413240031179980039e-01,5.547288032677290953e-02,-5.994631068330621981e-02,-3.040088355541229470e-01,6.453160974674977679e-02,1.808478682848762287e-01,-2.040088355541229137e-01,4.011914134025573730e-02,1.265023469924926591e-01,5.167392153064155336e-01,3.523397445678710938e-02,-7.468448877334594727e-01,9.996192903159014520e+01,-8.707010746002197266e-02
8.257499999999999840e-01,1.627901919197623226e-02,2.417221010032984813e-02,9.917511940002441406e-01,2.765620832214336564e-02,5.300080773796400635e-03,1.593623320329836182e-02,4.302471617467879331e-03,1.842113922379508620e-02,-5.237852409482002258e-02,-2.379141599712454869e-01,1.296892113624465055e-02,-1.164736204278076226e-01,-3.057062447071075550e-01,5.386603986544712119e-02,1.703898357617057435e-01,-2.057062447071075495e-01,3.354245424270629970e-03,1.261190056800842174e-01,5.177596504379043951e-01,4.363155364990234375e-02,-6.554833650588989258e-01,9.505162407499793176e+01,-8.707010746002197266e-02
8.479139999999999455e-01,1.635010381574613855e-02,2.478109674673198079e-02,9.913684725761413574e-01,2.476008936444913655e-02,6.006260079024938747e-03,1.480911897716596579e-02,3.149454573661883503e-03,1.750297729310289208e-02,-5.200491473078727722e-02,-2.548980405474311484e-01,1.787764581213235546e-02,-8.756638499435202838e-02,-3.041769564151763916e-01,5.537169138558040854e-02,1.660130642731972306e-01,-2.041769564151763861e-01,2.200341224670410070e-03,1.248842239379882729e-01,5.167508590435905269e-01,-1.362901926040649414e-02,-9.212232828140258789e-01,9.514410483635991511e+01,-8.707010746002197266e-02
8.723849999999999660e-01,1.662585163593131160e-02,2.651387264700153651e-02,9.903007745742797852e-01,1.578350130149640262e-02,8.244363512371899461e-03,1.049079247414963674e-02,6.733465501981466921e-03,1.424259425387277601e-02,-5.899781733751296997e-02,-2.941292056873989202e-01,8.328200988676826011e-02,-1.736936048058361215e-01,-2.463582242463863148e-01,1.551875349014525396e-01,1.163181446393574126e-01,-1.730990231037139726e-01,8.462905883789062500e-02,8.725199103355407715e-02,5.185459842154687138e-01,4.759538173675537109e-02,-1.533500194549560547e+00,1.690260903336586011e+02,-8.707010746002197266e-02
8.985330000000000261e-01,1.686429488356947642e-02,2.755766701619048395e-02,9.895758628845214844e-01,9.768050357591553934e-03,8.608484336517951974e-03,7.626623478978427143e-03,9.514123364959929663e-03,1.814982735542899212e-02,-6.055879220366477966e-02,-3.153926416334835725e-01,3.079579842046853422e-02,-1.292458592616338720e-01,-1.962779730380962984e-01,1.447560303282748873e-01,4.153487389239804428e-02,-1.664660274982452393e-01,7.008508443832396628e-02,2.042051553726196081e-02,5.187353188646189883e-01,4.513776302337646484e-02,-8.456991910934448242e-01,1.028627650136079268e+02,-8.707010746002197266e-02
9.244639999999999525e-01,1.730962206197316292e-02,2.921254575299257750e-02,9.884688258171081543e-01,3.280624258655932823e-04,8.055916360996784320e-03,3.110043869172524587e-03,1.224189681367539653e-02,2.205972620388492803e-02,-5.767602100968360901e-02,-2.864121515604745594e-01,-3.856364856084702752e-02,-1.654587206503778662e-01,-2.764073515872573356e-02,4.325276426820859332e-03,-2.209008104645737713e-02,-6.292982697486877719e-02,-6.868350505828857422e-02,-3.070253133773803711e-02,5.208473113134609589e-01,1.625189781188964844e-01,-1.106827616691589355e+00,7.769719939407356435e+01,-8.707010746002197266e-02
9.479849999999999666e-01,1.758208106281695590e-02,3.013136904176146741e-02,9.876610636711120605e-01,-6.427473184946221052e-03,7.179747701570038387e-03,7.269449199451839252e-04,2.230170557124692282e-02,2.862161236588012247e-02,-7.270236313343048096e-02,-3.571976858554302137e-01,-2.426093929290031731e-02,-7.516132972997856265e-02,2.477881538880293277e-01,2.501356790932084961e-01,-1.783990492775373304e-01,1.633338332176208496e-01,1.751120388507843018e-01,-1.804322361946106013e-01,5.157292514022681074e-01,-1.798521876335144043e-01,-1.002172350883483887e+00,1.048146213425333002e+02,-8.707010746002197266e-02
9.725300000000000056e-01,1.802228997801375715e-02,3.142089385859988399e-02,9.864858984947204590e-01,-1.565984152001370297e-02,4.972958835256946486e-03,-3.292227920942540544e-03,1.573361895724564516e-02,2.346136761122452966e-02,-5.866466090083122253e-02,-2.726385700228753928e-01,-1.247039553277085877e-01,-1.368955542830789518e-01,2.828636765480041504e-01,1.188456701685150774e-01,-2.097625845542708534e-01,1.828636765480041448e-01,6.440362930297850730e-02,-2.006582379341125544e-01,5.154442745648155633e-01,-1.477904915809631348e-01,-5.788058042526245117e-01,1.317212226720714057e+02,-8.707010746002197266e-02
9.972809999999999730e-01,1.837257372789929608e-02,3.234513557424600894e-02,9.857286214828491211e-01,-2.224102941682745693e-02,4.111545998262577939e-03,-5.914944025121914202e-03,2.292190273705986200e-02,3.268874963722197963e-02,-6.347876042127609253e-02,-3.643486181513452826e-01,-1.708079601718956453e-02,-1.314126374823297860e-01,3.117136240005493053e-01,2.542324721092074635e-01,-2.288350566116022222e-01,2.117136240005492998e-01,1.984349906444549394e-01,-2.124531984329223466e-01,5.142373158401074562e-01,-2.385342121124267578e-01,-7.000807523727416992e-01,6.669381245250721690e+01,-8.707010746002197266e-02
1.022540000000000004e+00,1.895024385364199940e-02,3.399169390760124060e-02,9.845678210258483887e-01,-3.122264013908622460e-02,1.590602426298159955e-03,-9.009697577059402537e-03,3.237531961768194688e-02,4.452109081394733242e-02,-6.393667310476303101e-02,-2.841751077690242711e-01,-1.116910603935086371e-01,-6.979052530509766150e-02,3.175902366638183594e-01,2.206580889089714004e-01,-2.447142877827200025e-01,2.175902366638183538e-01,1.742640674114227239e-01,-2.197134733200073187e-01,5.139691873003408018e-01,-2.635375261306762695e-01,-1.220730662345886230e+00,7.885574974146946658e+01,-8.707010746002197266e-02
1.051676000000000055e+00,1.918494892543894104e-02,3.527600316375834738e-02,9.838066101074218750e-01,-3.646834739322129398e-02,-9.189524371739921094e-04,-1.064685619813018208e-02,1.349532867861372686e-02,5.143029598135280545e-02,-4.908594116568565369e-02,-2.380576730520826689e-01,-1.207141531329038731e-01,-9.945881266341857763e-02,3.193031311035156028e-01,7.195951383466285545e-02,-2.489747144197545781e-01,2.193031311035156250e-01,5.781421065330505371e-02,-2.192482709884643610e-01,5.112800520525186965e-01,-3.545568585395812988e-01,-1.002277970314025879e+00,9.105457688213896006e+01,-8.707010746002197266e-02
1.075126999999999944e+00,1.930018849158679148e-02,3.675564903901318292e-02,9.830787181854248047e-01,-4.136658601217564624e-02,-3.556081390488241567e-03,-1.174695194242379032e-02,1.959857817428540400e-02,6.077829247887156505e-02,-6.751619279384613037e-02,-2.716439955572604870e-01,-8.143059401286924237e-02,-1.221447823988401279e-02,3.222531318664551003e-01,2.011214794974299780e-01,-2.573178800294204649e-01,2.222531318664550670e-01,1.964469909667968806e-01,-2.244612336158752497e-01,5.132430193730220802e-01,-3.300670385360717773e-01,-9.196864366531372070e-01,1.093100127976147320e+02,-8.707010746002197266e-02
1.099976999999999983e+00,1.943340876751601179e-02,3.921108383478225795e-02,9.824486374855041504e-01,-4.419833288285471978e-02,-8.309796114765566344e-03,-1.183834791588084766e-02,1.791647931574307656e-02,6.727603194773928985e-02,-4.217483475804328918e-02,1.902636116591933241e-02,-1.865766435740895401e-01,5.979140777168423515e-02,3.124611377716064453e-01,-2.178542319605562549e-01,-2.496855241050779661e-01,2.124611377716064398e-01,-1.897580265998840277e-01,-2.163456201553344560e-01,5.066098512316902225e-01,-5.880657434463500977e-01,-1.071196675300598145e+00,5.387442505970162898e+01,-8.707010746002197266e-02
1.129396999999999984e+00,1.947158560744995798e-02,4.182358270278931089e-02,9.821365475654602051e-01,-4.144148932069042363e-02,-1.425210101567819798e-02,-1.046037814481627463e-02,1.133249890928668575e-02,7.538061342572512091e-02,-3.601023182272911072e-02,1.698666420206593752e-01,-2.469491625500156440e-01,6.518160693669496075e-02,3.225200653076171764e-01,-2.472894657999254453e-01,-2.435225993664835997e-01,2.225200653076171708e-01,-1.756334781646728405e-01,-2.137953758239745927e-01,5.098096545707635485e-01,-3.982634544372558594e-01,-2.024317979812622070e-01,9.655636256047593236e+01,-4.048635959625244279e-02
1.151718000000000020e+00,1.925317338354521138e-02,4.363821923246342244e-02,9.821010828018188477e-01,-3.691181862642355788e-02,-1.835953674345947029e-02,-8.985620828484594882e-03,1.206577222865677645e-02,8.151345860808943689e-02,-1.626840047538280487e-02,2.766537108109481391e-01,-2.055409565097847113e-01,6.048155628758336566e-02,3.200522899627685769e-01,-2.141876885079728177e-01,-2.340191755472688373e-01,2.200522899627685436e-01,-1.173557281494140569e-01,-2.083776354789733942e-01,5.066112113698378883e-01,-4.918561577796936035e-01,-9.482518434524536133e-01,8.994234204750492268e+01,-4.048635959625244279e-02
1.177834000000000048e+00,1.879621635222935433e-02,4.548105339108683698e-02,9.821400046348571777e-01,-3.105564544779137320e-02,-2.289051862221480604e-02,-7.305248071663942439e-03,5.499683999692439942e-03,8.284201449417660790e-02,-3.024002909660339355e-02,2.713820629314420141e-01,-2.133174920234682248e-01,1.124717330283462879e-01,3.201892256736755260e-01,-2.615562081336975098e-01,-2.339204916942462242e-01,2.201892256736755205e-01,-1.615562081336975042e-01,-2.129799127578735352e-01,5.099672222494507912e-01,-3.714253902435302734e-01,-1.007484555244445801e+00,1.067952054471077474e+02,-4.048635959625244279e-02
1.200220000000000065e+00,1.802671642723365983e-02,4.842323242703266972e-02,9.823237657546997070e-01,-2.105359477012486852e-02,-2.893911483287858744e-02,-4.461024580830028237e-03,-2.174804931059087267e-03,1.014092231140015510e-01,-3.027220070362091064e-02,2.901640346106869051e-01,-1.248917691984360451e-01,1.520736588203212003e-01,3.039827108383178489e-01,-2.397812128067016713e-01,-8.888710177949037117e-02,2.039827108383178711e-01,-1.397812128067016657e-01,-7.622237205505370816e-02,5.103614534420120030e-01,-3.529402017593383789e-01,-8.671859502792358398e-01,8.553595478749791425e+01,-4.048635959625244279e-02
1.223494999999999999e+00,1.713785583612090907e-02,5.158376992710477643e-02,9.824977517127990723e-01,-1.034426523011307969e-02,-3.399887891723230027e-02,-1.334070814672742812e-03,-8.421748715430032659e-03,9.830017992951156636e-02,-2.100359089672565460e-02,3.874574614057152977e-01,-1.797010035006725015e-01,1.345451948031515799e-01,3.085965752601623757e-01,-2.694892883300781250e-01,-6.688868144427759233e-02,2.085965752601623424e-01,-1.694892883300781194e-01,-6.341722011566161554e-02,5.120179355210242589e-01,-2.292463779449462891e-01,-1.740318536758422852e-01,-4.465468737837075253e+01,-3.480637073516845703e-02
1.247698999999999891e+00,1.647968130165612666e-02,5.376531044473272652e-02,9.825841784477233887e-01,-3.405816344712722221e-03,-3.619698165036955295e-02,6.975558883238892590e-04,-5.774944049665797037e-04,1.025789388032952026e-01,-1.691585406661033630e-02,3.174388371239428852e-01,-6.648142068889671685e-02,8.670885327287376765e-02,2.790620565414428933e-01,-2.018862128257751520e-01,7.663005753092574923e-02,1.790620565414428600e-01,-1.018862128257751465e-01,7.403107881546019953e-02,5.113712244174821731e-01,-2.492253780364990234e-01,-1.070514082908630371e+00,9.069676376208950330e+01,-3.480637073516845703e-02
1.273099999999999898e+00,1.649082672067817348e-02,5.599925221357752309e-02,9.825668931007385254e-01,6.526846720331918456e-03,-3.527009617754650606e-02,4.094336120425907596e-03,-1.505172163295018933e-02,1.001438416057146286e-01,-2.859014086425304413e-02,2.908185683793581555e-01,1.096956981439606293e-01,1.260919405260843840e-01,1.332372493560436411e-01,-1.204034566879272489e-01,1.035108302898894439e-01,6.651009321212768277e-02,-2.040345668792724679e-02,9.090292453765869141e-02,5.196850167107489593e-01,1.478846073150634766e-01,-9.370568990707397461e-01,9.169823341895346402e+01,-3.480637073516845703e-02
1.297989000000000059e+00,1.646553353234669198e-02,5.750797802476985410e-02,9.825294017791748047e-01,1.343735175370810997e-02,-3.216495266714392010e-02,6.323415884303179926e-03,-5.589628213927583245e-03,1.108790850258719179e-01,-4.404243826866149902e-02,3.351340715972851991e-01,1.727135021665294756e-01,1.267854070792936994e-01,5.764087534636747751e-02,-1.015154838562011830e-01,1.239505491065382853e-01,2.596828937530517439e-02,-1.515483856201171788e-03,1.048926830291748019e-01,5.204846211653717525e-01,1.262466907501220703e-01,-1.236181378364562988e+00,8.016453692984897828e+01,-3.480637073516845703e-02
1.322773999999999894e+00,1.637911572981492342e-02,5.969066254901723989e-02,9.822527170181274414e-01,2.426298321298367422e-02,-2.561339959666164567e-02,9.853653274994735728e-03,-1.536649213876384312e-02,9.236277206716134169e-02,-3.398851677775382996e-02,3.963872556452764928e-01,2.140888121527586840e-01,1.121550016950135231e-01,-9.020993995160371537e-02,-1.287864685058593694e-01,1.669494729404008282e-01,-3.736610412597655972e-02,-2.878646850585937431e-02,1.379320085048675593e-01,5.190825135830177128e-01,8.736789226531982422e-02,-1.564022660255432129e+00,1.149024009352919222e+02,-3.480637073516845703e-02
1.348286000000000096e+00,1.627842752151446859e-02,6.104797069863379666e-02,9.820776581764221191e-01,3.135378660929948741e-02,-2.053871927019357280e-02,1.161023066693876379e-02,-6.394887036660895814e-03,9.632203061982130832e-02,-4.487953335046768188e-02,3.577101396884082574e-01,2.837139515516357013e-01,9.861143623562095006e-02,-1.452476358929008504e-01,-1.108423829078674372e-01,1.875656060912021805e-01,-5.317327380180358887e-02,-1.084238290786743164e-02,1.537780702114105169e-01,5.194845850686404809e-01,6.183624267578125000e-02,-7.981020212173461914e-01,6.188893146575415471e+01,-2.874820232391357352e-02
1.372834000000000110e+00,1.578527732309417675e-02,6.339422986127767057e-02,9.815760254859924316e-01,4.229754748862262631e-02,-1.272159018706364719e-02,1.312124746576551551e-02,-1.639557372753378678e-02,7.263874669943003182e-02,-4.250620305538177490e-02,3.479271461778314922e-01,2.715816063449366102e-01,4.442275768753410625e-02,-2.416259646415710449e-01,-1.250196541390632687e-01,2.196235304965289958e-01,-1.416259646415710394e-01,-4.478992223739623746e-02,1.818953454494476318e-01,5.184580741236085588e-01,1.167762279510498047e-02,-1.180501341819763184e+00,8.633824929797512482e+01,-2.874820232391357352e-02
1.397175999999999974e+00,1.548750438550560576e-02,6.479996882931370050e-02,9.811280369758605957e-01,4.960102236444517004e-02,-7.078242432897674519e-03,1.302705854423640008e-02,-6.749130042859408617e-03,7.793455064856109893e-02,-4.559903591871261597e-02,3.644308673658520625e-01,3.154820513890010392e-01,-4.152189246131619826e-02,-2.846687674522400124e-01,-5.607692547943562977e-03,2.315740094381706082e-01,-1.846687674522399791e-01,2.881414890289306363e-02,1.946045100688934271e-01,5.160080955603111308e-01,-1.375539302825927734e-01,-1.184715867042541504e+00,1.302824706441649028e+02,-2.874820232391357352e-02
1.423564000000000052e+00,1.504821382650821208e-02,6.661899382868069486e-02,9.802084565162658691e-01,5.865485354896583792e-02,4.128275342751841492e-04,1.253760783987650611e-02,-1.649491475246199837e-02,5.821240632363484241e-02,-5.881293490529060364e-02,2.676892619079324076e-01,2.126716483294800730e-01,-7.190564716793911536e-03,-3.085461139678954967e-01,5.436498108836088083e-02,2.393950266166487983e-01,-2.085461139678954912e-01,4.954994916915893277e-02,2.043580591678619274e-01,5.085044561084014481e-01,-5.968042016029357910e-01,-1.374183058738708496e+00,7.592984696519775412e+01,-1.152117252349853585e-02
1.447508000000000017e+00,1.477122297362456517e-02,6.769692149349447463e-02,9.795055985450744629e-01,6.306573752156553747e-02,4.524313452505257516e-03,1.151432299985174525e-02,-1.431130437960672491e-02,6.005652291001748605e-02,-6.583717465400695801e-02,2.109279575583741240e-01,2.251722288715064246e-01,-7.729604351492430636e-02,-3.135442852973938099e-01,8.623848196627451057e-02,2.445739785263646437e-01,-2.135442852973938044e-01,5.179347395896911205e-02,2.129019498825073242e-01,5.082551410844594608e-01,-6.450686454772949219e-01,-1.116510748863220215e+00,1.123060069751491312e+02,-1.152117252349853585e-02
1.472226999999999952e+00,1.480766391095991036e-02,6.842826880323703287e-02,9.782567024230957031e-01,6.661707657865462151e-02,9.710648655920417482e-03,9.588166787480536038e-03,5.003106520009083539e-04,3.752509976786645718e-02,-6.401132047176361084e-02,3.714629804776299615e-02,1.743031988721590320e-01,-8.703221112339182275e-02,-3.171290934085845836e-01,2.514870989771730292e-01,2.391851322399258239e-01,-2.171290934085845781e-01,1.723137617111205888e-01,2.136710464954376110e-01,5.109649509068905360e-01,-5.025733113288879395e-01,-1.114004492759704590e+00,9.835441668967096973e+01,-1.152117252349853585e-02
1.496588999999999947e+00,1.493073490033432378e-02,6.878628794602489882e-02,9.772552251815795898e-01,6.685916591822804733e-02,1.331019810216016452e-02,7.810859483052072158e-03,3.628209133537137372e-03,4.110286265112669812e-02,-6.383649259805679321e-02,7.730217679628293044e-03,1.417162169370745628e-01,-1.193875468938336293e-01,-3.172644734382629172e-01,3.094532370567321666e-01,2.359131122540098768e-01,-2.172644734382629395e-01,2.094532370567321611e-01,2.158027231693267767e-01,5.130211237443703665e-01,-4.007976055145263672e-01,-8.814474344253540039e-01,9.830615457299565207e+01,-1.152117252349853585e-02
1.521765999999999952e+00,1.514060956320132517e-02,6.895877590866940354e-02,9.761494398117065430e-01,6.518626762749614445e-02,1.684139510847959542e-02,5.943321672293927667e-03,1.152759418894185386e-02,3.221314424920877079e-02,-7.770941406488418579e-02,-1.258247843119277010e-01,1.908304799221093306e-01,-6.264003404382882667e-02,-2.913785278797149658e-01,3.073774039745330589e-01,1.975850926951497333e-01,-1.913785278797149603e-01,2.073774039745330811e-01,1.831153035163879395e-01,5.155612641138392904e-01,-3.289754390716552734e-01,-1.032472252845764160e+00,9.449455384629169430e+01,-2.022385597229003906e-03
1.546327999999999925e+00,1.567276215320678734e-02,6.907125907427535960e-02,9.742637276649475098e-01,5.971169143191518841e-02,2.129642600130399188e-02,2.409623731353593198e-03,5.305731175743745240e-03,2.307467068538114618e-02,-7.800348103046417236e-02,-2.110301145300239878e-01,7.580047761626591829e-02,-1.342894077752745663e-01,-3.089585483074188121e-01,2.717937886714935081e-01,1.774997907032428157e-01,-2.089585483074188066e-01,1.717937886714935303e-01,1.730928540229797197e-01,5.113035282118151281e-01,-5.699982047080993652e-01,-4.700986146926879883e-01,1.009754676327175105e+02,-2.022385597229003906e-03
1.574519999999999920e+00,1.613859359136085234e-02,6.889225924200037543e-02,9.721788763999938965e-01,5.162897789806621812e-02,2.368208382852432514e-02,-1.654930446660716646e-03,2.192934883159815621e-02,4.906058690081949083e-04,-8.684986084699630737e-02,-3.130530643431030380e-01,6.258933989855655633e-02,-1.540787454030473347e-01,-3.093417823314666970e-01,2.696495950222015381e-01,1.667756355992462136e-01,-2.093417823314666637e-01,1.696495950222015325e-01,1.737755298614502009e-01,5.122238301187794773e-01,-5.695739984512329102e-01,-1.054529547691345215e+00,-1.255772899287265147e+02,-2.022385597229003906e-03
1.601301000000000085e+00,1.650293109563695515e-02,6.864892300488750765e-02,9.706940650939941406e-01,4.569213460315315473e-02,2.390220145785448835e-02,-4.393125808023203363e-03,1.965266319367405326e-02,1.111956978503429207e-03,-8.874413371086120605e-02,-2.895795634890301895e-01,-1.031499561161620428e-02,-1.395905744011734229e-01,-3.120871484279632568e-01,2.316965162754058838e-01,1.583326796406156756e-01,-2.120871484279632513e-01,1.316965162754058782e-01,1.727565586566925104e-01,5.138192675253544506e-01,-5.036953091621398926e-01,-1.368117213249206543e+00,7.742649167650928632e+01,-2.022385597229003906e-03
1.626389000000000085e+00,1.715508832177924103e-02,6.807360972425631485e-02,9.683417081832885742e-01,3.597008398882661079e-02,2.190964756959323800e-02,-8.963350036212444638e-03,3.273668397043617839e-02,-5.106360535500327133e-03,-9.663940221071243286e-02,-3.314959553009075854e-01,-1.248552070808536252e-01,-1.582221301771273292e-01,-3.123865365982055886e-01,1.845478415489196777e-01,1.537717803993127463e-01,-2.123865365982055553e-01,8.454784154891967218e-02,1.805616974830627497e-01,5.158944503004202486e-01,-4.395234584808349609e-01,-8.694876432418823242e-01,1.256836496344819523e+02,-2.022385597229003906e-03
1.647747000000000073e+00,1.762246445411244991e-02,6.758422196863062004e-02,9.666714668273925781e-01,2.882490725552385585e-02,1.860365692283227901e-02,-1.163656110825073142e-02,2.763135434178210295e-02,-1.178111532118690345e-02,-1.024959385395050049e-01,-3.751841841401259980e-01,-1.872122281829164403e-01,-7.798841989928027851e-02,-3.147670149803161732e-01,1.047064721584320124e-01,1.584391201561468898e-01,-2.147670149803161677e-01,4.706472158432006836e-03,1.922022521495818925e-01,5.183035195806044992e-01,-3.464673757553100586e-01,-1.180485129356384277e+00,1.946394226646114589e+01,-2.022385597229003906e-03
1.672284000000000104e+00,1.780051321902423322e-02,6.732767896591811130e-02,9.641776084899902344e-01,1.858499653324793832e-02,1.081502261580835622e-02,-1.600128419819811867e-02,3.133997801746395140e-02,-1.224368649335834044e-02,-1.022165119647979736e-01,-3.119797804237979810e-01,-2.938923611373279732e-01,-1.449278092673442209e-01,-2.891391676148188372e-01,1.622218310832977406e-01,1.073811310448490319e-01,-2.170469641685485729e-01,6.222183108329772810e-02,1.527723670005798340e-01,5.203779347527621724e-01,-2.503848075866699219e-01,2.136543989181518555e-01,-6.273106646966004973e+01,4.273087978363036832e-02
1.695880999999999972e+00,1.781932632711873479e-02,6.726926263636884284e-02,9.624587297439575195e-01,1.145991302829228384e-02,4.926374773063679768e-03,-1.882744427332471576e-02,3.276646973542240299e-02,-2.225827796411667878e-02,-1.072546988725662231e-01,-3.895854228633586769e-01,-2.606874168996167751e-01,-1.219479585430406354e-01,-2.314998654660349875e-01,2.535618116982266135e-02,-1.390361777211936156e-02,-1.982445001602172741e-01,-4.163038730621337891e-02,3.907046914100646695e-02,5.227631484957858676e-01,-1.551998853683471680e-01,-1.160135865211486816e+00,8.409904691066731175e+01,4.273087978363036832e-02
1.720271000000000106e+00,1.790491108500789560e-02,6.723135124712571742e-02,9.606808423995971680e-01,4.738397455374551530e-03,-1.095643574192672887e-03,-2.157772345229016023e-02,4.145108357024864659e-02,-1.163828443851207955e-02,-1.092252880334854126e-01,-3.190794083984787033e-01,-3.078107649891733688e-01,-1.644489295305192889e-01,-8.743830693328499826e-02,-6.721112883918495262e-02,-1.910779415675328274e-01,-1.079658865928649902e-01,-1.016921281814575223e-01,-1.305664658546447643e-01,5.222496212807783422e-01,-2.055506110191345215e-01,-4.896184206008911133e-01,6.307258275834985994e+01,4.273087978363036832e-02
1.749630999999999936e+00,1.816569683911370067e-02,6.721813537665835558e-02,9.568710923194885254e-01,-9.552157415522498710e-03,-1.212211765068382796e-02,-2.658334155866303242e-02,2.726878264433226298e-02,-1.414895014085738000e-02,-1.128270328044891357e-01,-3.248237726664322533e-01,-3.005291456264849170e-01,-1.295877167128706986e-01,2.832665443420410156e-01,-1.439816344180122054e-01,-2.895417010503764654e-01,1.832665443420410101e-01,-9.521420001983642301e-02,-2.150876998901367076e-01,5.213959574718400880e-01,-2.885413169860839844e-01,-9.377659559249877930e-01,3.561277367208114697e+01,4.273087978363036832e-02
1.773406000000000038e+00,1.832041909009835337e-02,6.711422355730871370e-02,9.548956155776977539e-01,-1.703427144608395810e-02,-1.688580771251180224e-02,-2.904798603121667988e-02,3.689581912002667247e-02,-6.891034247415157952e-05,-1.343417614698410034e-01,-3.909705893300302604e-01,-1.596866819027227546e-01,-1.279680780645639504e-01,3.155092716217041127e-01,1.883932446789234050e-02,-3.050515764887077319e-01,2.155092716217041071e-01,8.908463716506957730e-02,-2.236028552055358831e-01,5.246519879109743378e-01,-2.142592072486877441e-01,-4.621828794479370117e-01,1.557482435682888138e+02,4.273087978363036832e-02
1.797995999999999928e+00,1.850189026593312969e-02,6.711697094863695867e-02,9.528561830520629883e-01,-2.367603700591358606e-02,-2.146469608369194759e-02,-3.168568849344837596e-02,4.076315802092263935e-02,3.124019190732714359e-03,-1.237318590283393860e-01,-3.422577464925184443e-01,-1.976849794615128941e-01,-1.570378267513226067e-01,3.178879976272582786e-01,-1.738595787771466950e-01,-3.132713003275612307e-01,2.178879976272583008e-01,-7.605500221252441129e-02,-2.242571353912353460e-01,5.203887240153695082e-01,-4.198628664016723633e-01,-1.267836928367614746e+00,7.590008100079484166e+01,4.273087978363036832e-02
1.823803000000000063e+00,1.874390301360475894e-02,6.736268814807569449e-02,9.496712088584899902e-01,-3.368421094424876860e-02,-2.665020140923779479e-02,-3.518381397682466410e-02,2.280254721522956968e-02,1.437013899557997368e-02,-1.221849024295806885e-01,-3.509000423358555887e-01,-1.419037980490616968e-01,-1.304786857357826679e-01,3.225005030632018821e-01,-1.653487324714660867e-01,-3.252377332443051050e-01,2.225005030632019043e-01,-6.534873247146606723e-02,-2.260146617889404186e-01,5.205495829822927023e-01,-4.262967109680175781e-01,-8.176640272140502930e-01,4.145812811095351691e+01,4.273087978363036832e-02
1.847990000000000022e+00,1.886028922157397675e-02,6.773365316378553158e-02,9.474622011184692383e-01,-4.001614861044538313e-02,-2.930841250490212602e-02,-3.614820905044614785e-02,2.434438541093481359e-02,2.653323363886713609e-02,-1.284072846174240112e-01,-2.985058305399411749e-01,-1.176540853697858741e-01,-2.937457664370206681e-02,3.236096858978271262e-01,-1.101866722106933649e-01,-3.273887395858764426e-01,2.236096858978271484e-01,-1.018667221069335938e-02,-2.273887395858764648e-01,5.201953039790023769e-01,-4.880808591842651367e-01,-7.408722639083862305e-01,-1.518354194380852675e+02,4.273087978363036832e-02
1.873739000000000043e+00,1.863387569858001441e-02,6.829295483387026744e-02,9.445943832397460938e-01,-4.774748461100718905e-02,-3.186633377515657450e-02,-3.615973778944988476e-02,2.108870261514426622e-02,3.967540994137454258e-02,-1.073447689414024353e-01,-1.588304121521227075e-01,-9.433652828199623475e-02,2.473369029083131304e-02,3.244366645812988281e-01,-2.041945934295654186e-01,-3.278598427772522195e-01,2.244366645812988226e-01,-1.041945934295654269e-01,-2.278598427772521862e-01,5.163821093900625714e-01,-6.298267245292663574e-01,-1.099479317665100098e+00,1.345613929138811216e+02,4.273087978363036832e-02
1.898293999999999926e+00,1.835642154173718066e-02,6.874364600050723861e-02,9.428826570510864258e-01,-5.040881874629089821e-02,-3.227557713807538420e-02,-3.526796428067766748e-02,1.500761545038007197e-02,3.491731644925579608e-02,-9.926511347293853760e-02,-8.487833890765315858e-02,1.545858253858448279e-02,3.809666008839967394e-02,3.267895698547362837e-01,1.084941685199737327e-01,-3.268485784530639204e-01,2.267895698547363059e-01,2.084941685199737382e-01,-2.268485784530639426e-01,5.220778131292497237e-01,-3.053493499755859375e-01,-4.404512643814086914e-01,3.615131189002185330e+00,4.273087978363036832e-02
1.925637999999999961e+00,1.777373410651016811e-02,6.959987444315432481e-02,9.407678246498107910e-01,-4.816489354439393994e-02,-3.215744467386039140e-02,-3.255456804348798305e-02,3.911470278153718165e-03,4.902100179297098209e-02,-7.488158345222473145e-02,1.844346841771437040e-01,1.198220169904650953e-02,9.274231543875688377e-02,2.784005880355834850e-01,-8.977638483047485629e-02,-2.208144722347235300e-01,1.784005880355834794e-01,1.022361516952514579e-02,-1.282913804054260087e-01,5.188325575801326917e-01,-3.996931314468383789e-01,-9.562920331954956055e-01,3.807960918895255986e+01,4.273087978363036832e-02
1.954870000000000108e+00,1.730762889687482292e-02,7.031422091108492645e-02,9.395823478698730469e-01,-4.402835256761403193e-02,-3.118709883339465527e-02,-3.034443209658202467e-02,-3.067469895348468294e-03,5.429773897027430352e-02,-9.067586064338684082e-02,2.132907993845120642e-01,9.700580428499634700e-02,1.265057015783369876e-01,2.748622179031371959e-01,2.930017709732055109e-02,-1.600164323481316764e-01,1.748622179031371904e-01,1.293001770973205566e-01,-7.387654781341553012e-02,5.216935544092582422e-01,-3.199994564056396484e-01,-9.764317274093627930e-01,9.175306617761032157e+01,4.273087978363036832e-02
1.978426000000000018e+00,1.680230452537042826e-02,7.118471024970447758e-02,9.387754797935485840e-01,-3.807277705195861311e-02,-2.950455889387870734e-02,-2.774848067409716942e-02,4.368387901059893851e-03,6.689158774230774540e-02,-6.488876789808273315e-02,3.734180682260691553e-01,8.169016412124038840e-02,1.681432985627509813e-01,2.674353241920471302e-01,-2.735637426376343051e-02,-1.912051038151879601e-01,1.674353241920471247e-01,7.264362573623657504e-02,-1.127188682556152233e-01,5.213781894903177783e-01,-2.451826333999633789e-01,-8.127878904342651367e-01,9.128082006820646654e+01,4.273087978363036832e-02
2.000935999999999826e+00,1.662669310674066286e-02,7.206848132746256075e-02,9.377723932266235352e-01,-2.763847537752369896e-02,-2.497085293789758076e-02,-2.402361137145887435e-02,-4.759831433577580914e-03,8.026744317831806252e-02,-4.868166148662567139e-02,3.983910631310579320e-01,1.294592816866096119e-01,1.127424472399014832e-01,2.686907768249511830e-01,2.516868114471434992e-02,-1.511049260570352937e-01,1.686907768249511774e-01,1.251686811447143555e-01,-8.352870941162109097e-02,5.208007337238144130e-01,-2.222940921783447266e-01,-1.011556506156921387e+00,8.952458718729943143e+01,4.273087978363036832e-02
2.026682000000000095e+00,1.641314125183935407e-02,7.281979680096301033e-02,9.375411868095397949e-01,-2.041461231475169905e-02,-2.130603714221113165e-02,-2.116342413518423546e-02,7.982787661417295151e-04,7.155195276759718226e-02,-5.572257936000823975e-02,3.721360642317977918e-01,1.982572670203132104e-01,1.538050388635811838e-01,2.358311414718627930e-01,3.059840202331542969e-02,-1.027291810275300088e-01,1.358311414718627874e-01,1.305984020233154352e-01,-4.337779283523559432e-02,5.249049250853956572e-01,-3.422701358795166016e-02,-1.044416785240173340e+00,7.527203827642298961e+01,4.273087978363036832e-02
2.049780999999999853e+00,1.617204273494635830e-02,7.369720486265271542e-02,9.373392462730407715e-01,-1.320781621433957283e-02,-1.783151417551831486e-02,-1.783904961504925724e-02,-1.797596737686331381e-02,7.457954664200695805e-02,-4.913114011287689209e-02,3.661946255311131493e-01,1.213314023202769765e-01,1.882978373538536643e-01,2.301530838012695312e-01,2.534449100494370888e-03,-9.662062549302910530e-02,1.301530838012695257e-01,1.025344491004943764e-01,-4.677650928497314314e-02,5.247055602013924736e-01,-2.557337284088134766e-02,-9.146956205368041992e-01,7.905259579334924069e+01,4.273087978363036832e-02
2.078497000000000039e+00,1.520738139142309257e-02,7.612463926899208644e-02,9.374966025352478027e-01,2.022482498661555550e-03,-1.427212202979610822e-02,-1.205216179398384442e-02,-1.764074085011045276e-02,7.771297682782665750e-02,-3.373665362596511841e-02,3.516360163458057686e-01,7.574380727020799120e-02,1.452396605864805512e-01,1.995689630508422907e-01,-8.278319006417411696e-02,-1.508011893237175619e-02,9.956896305084228516e-02,7.291030883789062327e-03,1.827864646911621024e-02,5.245055180920403792e-01,1.996695995330810547e-02,-8.251997232437133789e-01,4.618379939390193556e+01,4.273087978363036832e-02
2.098472000000000115e+00,1.436803278886903019e-02,7.811004311236033337e-02,9.376659989356994629e-01,8.889514773525827862e-03,-1.332326684970475128e-02,-9.456570619625709329e-03,-1.775056742238268967e-02,8.214721722868224829e-02,-4.052069783210754395e-02,3.649860411732801513e-01,1.907958477203585551e-02,1.394629470509297919e-01,1.628847026918238683e-01,-9.680478488559195183e-02,-2.483532410801838480e-02,9.855240583419799805e-02,-1.236201524734496966e-02,1.143121719360351432e-03,5.263602640844622371e-01,8.932673931121826172e-02,-8.482662439346313477e-01,1.010334695991492566e+02,4.273087978363036832e-02
2.123085000000000111e+00,1.304227728445248383e-02,8.106988554406061032e-02,9.381424188613891602e-01,1.866010263922264142e-02,-1.230196687331486238e-02,-5.811065537612133437e-03,-1.350210397837242268e-02,8.841602615248729535e-02,-2.436977624893188477e-02,3.521542015686980331e-01,-2.612358054059062823e-02,1.398026694398417924e-01,6.782437415518030588e-02,-8.934754107056409878e-02,-3.030747732214269380e-02,6.002848148345946849e-02,-1.435993909835815360e-02,-1.465562582015991072e-02,5.281938883303443077e-01,2.503116130828857422e-01,-7.752469778060913086e-01,6.325252409203384474e+01,4.273087978363036832e-02
2.147810000000000219e+00,1.214772742601706937e-02,8.300708396660891331e-02,9.385273456573486328e-01,2.444870911608221231e-02,-1.176564830322823774e-02,-3.502224087432845648e-03,-3.467785777764640504e-02,7.237519637654490912e-02,-2.832269668579101562e-02,2.867287718441949296e-01,1.310001456547119775e-02,9.796626862411055015e-02,-7.347095662181191145e-02,-1.094790479034099678e-01,4.595993770944187956e-02,-3.174387216567992748e-02,-2.055580615997314523e-02,5.495431423187255998e-02,5.296962216435627813e-01,3.144583702087402344e-01,-1.217549204826354980e+00,1.168416282444419494e+02,4.273087978363036832e-02
2.173052000000000206e+00,1.085715036501438101e-02,8.570532486214889334e-02,9.391517043113708496e-01,3.340894874736430320e-02,-1.182699187960301046e-02,-4.356603100439949668e-04,-1.226020889842095903e-02,7.797165345603401798e-02,-3.416430205106735229e-02,2.447538297251349859e-01,7.040721896053857287e-02,1.148730552579915881e-01,-2.080820124170041363e-01,-8.699578023047717379e-02,1.491711756567202507e-01,-1.167580783367156982e-01,-1.772203445434570104e-02,1.496039092540741022e-01,5.264922727853680318e-01,1.137242317199707031e-01,-1.222083449363708496e+00,1.018633580738733144e+02,4.273087978363036832e-02
2.199558999999999820e+00,1.007143795037392965e-02,8.734628240537659072e-02,9.395313858985900879e-01,3.944206770449960181e-02,-1.238375389261414661e-02,1.270009143792113961e-03,-2.955125285109183597e-02,6.656033648099993205e-02,-1.130831055343151093e-02,3.551250480421048183e-01,-7.107154255514600005e-02,8.660121119652776367e-02,-1.826593875885009766e-01,-1.702596668239024780e-01,1.336973136803069340e-01,-8.265938758850097101e-02,-8.040268421173095426e-02,1.290249466896057073e-01,5.251076325980580384e-01,1.269795894622802734e-01,-7.197414636611938477e-01,5.312336379818869148e+01,4.273087978363036832e-02
2.223148999999999820e+00,9.333667205925877397e-03,8.888742815807340603e-02,9.399958848953247070e-01,4.439453410297891645e-02,-1.192085859372893353e-02,2.819161596972423467e-03,-2.932484121336434435e-02,6.297887616439723502e-02,-2.206396684050559998e-02,2.224670928033027906e-01,6.166336437616751903e-02,9.736280032162276943e-02,-2.764139473438262939e-01,-1.031788788998585921e-01,1.833882698350799700e-01,-1.764139473438262884e-01,-1.872171163558960030e-02,1.743541181087493730e-01,5.187741982184070899e-01,-2.604374885559082031e-01,-9.732519388198852539e-01,-9.983665311692835331e+00,4.273087978363036832e-02
2.248682000000000070e+00,8.270196247957356528e-03,9.092745383965357420e-02,9.405256509780883789e-01,5.140512286758380095e-02,-1.072416525196895343e-02,4.738028581987210192e-03,-2.099747260613925651e-02,5.062055560517458863e-02,-2.002935484051704407e-02,2.314553742150882998e-01,8.202955268005952816e-02,8.712079687181757681e-02,-3.025659501552581676e-01,-3.201962434369538119e-02,2.150518982865980699e-01,-2.025659501552581621e-01,3.857914209365844588e-02,2.007411539554595781e-01,5.126490726158958733e-01,-5.822278261184692383e-01,-1.480549573898315430e-01,7.940326453552685848e+01,4.273087978363036832e-02
2.273404999999999898e+00,7.404810660251148410e-03,9.267531990297564470e-02,9.410272836685180664e-01,5.671288972521578570e-02,-8.296979550642014090e-03,6.333592410397338376e-03,-1.409796561416845964e-02,4.479019880325611769e-02,-1.151806302368640900e-02,2.083335668730457724e-01,3.997542115992169798e-02,3.222762680605229663e-02,-3.096015989780426247e-01,3.910364989000556651e-02,2.335022274930786401e-01,-2.096015989780425914e-01,8.998686075210571289e-02,2.149569869041442760e-01,5.108255802728440820e-01,-6.472563147544860840e-01,-7.757185697555541992e-01,8.410186777879452791e+01,4.273087978363036832e-02
2.299583000000000155e+00,7.010983645302055860e-03,9.371264536195790529e-02,9.413973689079284668e-01,5.861823829603259040e-02,-5.530985997097337403e-03,6.915474328372807691e-03,-1.842304382201200019e-02,3.090534451286141432e-02,-1.736059039831161499e-02,6.299788092752336977e-02,1.417294251016729956e-01,2.686434571290509735e-02,-3.021106183528899924e-01,4.516179094506481140e-03,2.110190037131995100e-01,-2.021106183528900146e-01,4.199924468994140764e-02,1.910529077053070013e-01,5.202605021383693851e-01,-1.666551232337951660e-01,-9.420584440231323242e-01,1.588721398682208701e+02,4.273087978363036832e-02
2.323192999999999842e+00,6.515008526284561154e-03,9.503088284455903090e-02,9.417642354965209961e-01,5.802542562661594516e-02,-1.420046450455236808e-03,6.692226063427621566e-03,-1.221013658797695176e-02,3.145255705112217498e-02,-2.525648288428783417e-02,-8.916977485140957504e-02,1.544822506241889659e-01,-8.209218708523454214e-03,-3.037503063678741455e-01,7.456774840982474672e-02,2.170981697854092729e-01,-2.037503063678741400e-01,8.022483587265014093e-02,1.982651710510253962e-01,5.238066146489724906e-01,-8.840680122375488281e-03,-9.723023176193237305e-01,1.223237839591043041e+02,4.273087978363036832e-02
2.348008999999999791e+00,6.253393942704854602e-03,9.578697982842797332e-02,9.419229030609130859e-01,5.522528838585664263e-02,1.484658758001966561e-03,6.367303204366673262e-03,-7.984672704853508843e-03,2.208779520440133301e-02,-1.433109771460294724e-02,-1.779700514431408753e-01,1.517999139723053836e-01,-5.272048795759459727e-02,-3.060450792312622292e-01,3.697817112151768892e-02,2.091882322617791001e-01,-2.060450792312621959e-01,2.161756753921508650e-02,1.915884733200073076e-01,5.201928854671142854e-01,-1.639370918273925781e-01,-7.235320806503295898e-01,9.939436080212959723e+01,4.273087978363036832e-02
2.372848999999999986e+00,6.061702353885281731e-03,9.642284458603565811e-02,9.420146942138671875e-01,5.144297787572351538e-02,4.276214350185325586e-03,5.682316317275270048e-03,-5.221223171082642507e-03,1.533431628899179985e-02,-2.012811973690986633e-02,-1.885936953635654612e-01,9.901889607384203873e-02,-3.745294146413142428e-02,-3.067056357860565297e-01,6.818297356991287472e-02,1.946855439540745580e-01,-2.067056357860565241e-01,3.340042233467101912e-02,1.792663335800170898e-01,5.226588602687655127e-01,-5.693048238754272461e-02,-1.141274809837341309e+00,4.329542509202484979e+01,4.273087978363036832e-02
2.399122999999999895e+00,5.541936117347497082e-03,9.780913112979119917e-02,9.421362280845642090e-01,4.395797763444544287e-02,7.980304511036262483e-03,3.769085323367202083e-03,-2.720985063342762334e-04,9.494651511850972850e-03,-2.135029993951320648e-02,-2.511788028242799564e-01,1.074408783264967915e-01,-8.208966007895898698e-02,-3.068872034549713357e-01,7.129887204203760875e-02,1.818461828503341315e-01,-2.068872034549713024e-01,9.608513116836548199e-03,1.720634043216705267e-01,5.226680602864255398e-01,-6.465387344360351562e-02,-8.800388574600219727e-01,8.997596023859972547e+01,4.273087978363036832e-02
2.423094999999999999e+00,5.044476748826195490e-03,9.933061138117706135e-02,9.420514702796936035e-01,3.500378789595734452e-02,1.024719627937442645e-02,1.379502991803779844e-03,-4.203114431554560299e-03,1.910976132489649237e-03,-3.783201053738594055e-02,-3.146195035345104585e-01,2.869036410963162961e-02,-5.522006921962413495e-02,-3.095083117485046276e-01,3.881158313164964624e-02,1.744664072664313670e-01,-2.095083117485046220e-01,-3.318793773651122769e-02,1.713560700416564830e-01,5.261179056018386868e-01,5.261921882629394531e-02,-1.196895718574523926e+00,4.351072631504199251e+01,4.273087978363036832e-02
