timestamp,x,y,z,roll,pitch,yaw,vx,vy,vz,p,q,r,psp,qsp,rsp,pres,qres,rres,thrust_sp, thrust_res
0.000000000000000000e+00,6.420753876350932324e-03,-3.832000508982226494e-02,9.552999734878540039e-01,9.661059557432682965e-03,-1.149046350130141815e-03,5.070217934758813882e-03,2.715797461394856178e-03,1.380556169665444685e-02,5.611117463558912277e-03,4.538918379694223404e-03,-9.203555993735790253e-03,8.912874385714530945e-03,-7.264619676612905919e-02,-6.514595911223594604e-04,1.416659570654321687e-02,0.000000000000000000e+00,0.000000000000000000e+00,0.000000000000000000e+00,5.148798508222979242e-01,0.000000000000000000e+00
2.353200000000000083e-02,6.215414615316612601e-03,-3.874825726694064443e-02,9.559704661369323730e-01,9.351653846818575033e-03,-1.315903488209474361e-03,4.684233900084988633e-03,-1.870944025853286778e-03,6.798701484842867987e-03,7.876602932810783386e-03,-1.832146197557449341e-02,1.044529117643833160e-02,-2.031048201024532318e-02,-8.313428315111767719e-02,-7.583643266539178036e-03,1.309097076635051815e-02,-0.000000000000000000e+00,0.000000000000000000e+00,0.000000000000000000e+00,5.146764607794417357e-01,0.000000000000000000e+00
4.908300000000000163e-02,6.231060714116247977e-03,-3.899802921599054839e-02,9.563757181167602539e-01,9.465033740410522256e-03,-1.137520551156431629e-03,4.411030326346931929e-03,5.182421967119979142e-03,1.337609458253712254e-02,7.134387735277414322e-03,1.014948729425668716e-02,2.437964314594864845e-03,-4.920337349176406860e-02,-7.480741410387276025e-02,2.517722903614745544e-03,1.231663385836212488e-02,0.000000000000000000e+00,-0.000000000000000000e+00,0.000000000000000000e+00,5.147142637831765288e-01,0.000000000000000000e+00
7.320100000000000218e-02,6.471658733122598144e-03,-3.927588605026118701e-02,9.570898413658142090e-01,9.414192523861997230e-03,-4.630455711961206037e-04,4.274150758088568480e-03,2.951125718139337574e-04,1.359324988535374513e-02,7.800002582371234894e-03,-7.349232677370309830e-03,7.174466550350189209e-02,1.140370592474937439e-02,-7.684059399217509079e-02,-5.179487694007330750e-04,1.195612889632019504e-02,-0.000000000000000000e+00,-0.000000000000000000e+00,0.000000000000000000e+00,5.146246883631363511e-01,0.000000000000000000e+00
9.905500000000000416e-02,6.711190130911474060e-03,-3.943886854730002667e-02,9.577585458755493164e-01,9.204353925014396864e-03,-1.683694628577624532e-04,4.203370342913403945e-03,2.023067081670349224e-03,1.244327873640001421e-02,9.653870947659015656e-03,-1.642903871834278107e-02,-3.210886940360069275e-02,1.267499011009931564e-02,-7.688883169309192189e-02,5.108801961759074778e-03,1.175778459600623771e-02,0.000000000000000000e+00,0.000000000000000000e+00,0.000000000000000000e+00,5.144495422373334126e-01,0.000000000000000000e+00
1.241189999999999932e-01,6.934465096777407168e-03,-3.952502563673675889e-02,9.582416415214538574e-01,8.886622358747597872e-03,3.629367962112622144e-05,3.995281099229641697e-03,-3.532146976777330357e-03,2.137234382972582128e-02,-2.632252406328916550e-03,-7.685651071369647980e-03,1.287981029599905014e-02,-4.300514981150627136e-02,-6.530848773152193865e-02,2.984380965540258876e-04,1.118715280951776414e-02,0.000000000000000000e+00,-0.000000000000000000e+00,0.000000000000000000e+00,5.153425128754726137e-01,0.000000000000000000e+00
1.498819999999999875e-01,6.989261481884859357e-03,-3.952043403542294248e-02,9.587538838386535645e-01,8.627814101451303230e-03,-2.698974722535195554e-04,3.976024873216577049e-03,-1.125221867128183006e-02,1.814140291134421282e-02,-1.578341610729694366e-02,8.003481663763523102e-03,6.122258026152849197e-03,-4.567625001072883606e-03,-7.014616175110224838e-02,-7.516424648795809460e-03,1.113675614815573534e-02,0.000000000000000000e+00,-0.000000000000000000e+00,0.000000000000000000e+00,5.163027666354311762e-01,0.000000000000000000e+00
1.756699999999999928e-01,6.794563230045899856e-03,-3.940525977827459558e-02,9.587962627410888672e-01,8.786356067647105306e-03,-4.240932567447497077e-04,3.836607394737345800e-03,-3.124975666237884194e-03,2.310646687903877144e-02,-1.692246459424495697e-02,-1.279531884938478470e-02,-1.877574063837528229e-02,8.661791682243347168e-03,-6.493430885604556391e-02,2.455320622369011781e-03,1.072801486885915923e-02,0.000000000000000000e+00,0.000000000000000000e+00,0.000000000000000000e+00,5.164052168985493463e-01,0.000000000000000000e+00
1.996560000000000001e-01,6.552972692477899465e-03,-3.920688918026786485e-02,9.588740468025207520e-01,8.843398997769646996e-03,9.581820316633806530e-05,3.560570971046006505e-03,-8.388636417982467744e-03,1.950874529488938469e-02,-1.834610663354396820e-02,-5.603923927992582321e-03,3.109940513968467712e-02,-1.826911233365535736e-02,-7.063782903060493445e-02,-2.639174077991895268e-03,9.975798311996242340e-03,-0.000000000000000000e+00,-0.000000000000000000e+00,0.000000000000000000e+00,5.165275787084345760e-01,0.000000000000000000e+00
2.235570000000000057e-01,6.287184220887945436e-03,-3.890968779467318672e-02,9.590123295783996582e-01,9.158242520202808379e-03,3.893169086856137985e-04,3.403742795734299165e-03,-1.291566368906320837e-02,2.713052512203520741e-02,-1.725037023425102234e-02,7.623134180903434753e-03,4.953030031174421310e-03,-6.576376967132091522e-03,-6.345401276014099590e-02,-3.569095296543055296e-03,9.547007325498069186e-03,0.000000000000000000e+00,-0.000000000000000000e+00,0.000000000000000000e+00,5.164572476249624788e-01,0.000000000000000000e+00
2.491859999999999908e-01,6.037022157587598747e-03,-3.852727243100475402e-02,9.590054750442504883e-01,9.087745145670123037e-03,4.693207704972883259e-04,3.441293772073139579e-03,-5.899713483993229181e-03,2.581093818724422909e-02,-1.423140987753868103e-02,1.677710935473442078e-02,3.952309023588895798e-03,9.380462579429149628e-03,-6.691356564640385529e-02,5.563119513120330997e-03,9.638083235196104326e-03,0.000000000000000000e+00,0.000000000000000000e+00,0.000000000000000000e+00,5.162544565014762776e-01,0.000000000000000000e+00
2.747009999999999730e-01,5.822698098466107079e-03,-3.808418043828672161e-02,9.591359496116638184e-01,9.540404976600136422e-03,5.277576414440887176e-04,3.171126242451638433e-03,-5.204623050893622017e-03,2.099917528737013650e-02,-1.547245308756828308e-02,-4.434159956872463226e-03,-7.439905777573585510e-03,-1.792563684284687042e-02,-7.400720706890545619e-02,3.955074368998109241e-03,8.886650407634477666e-03,0.000000000000000000e+00,0.000000000000000000e+00,0.000000000000000000e+00,5.163581462980170178e-01,0.000000000000000000e+00
3.007859999999999978e-01,5.689415794195143428e-03,-3.775857504200830217e-02,9.592197537422180176e-01,1.016119290781869466e-02,7.405833036543705899e-04,2.903799837788545446e-03,-5.536936312119387742e-03,2.865322130952910676e-02,-1.637449115514755249e-02,1.505711674690246582e-02,1.722734607756137848e-02,-2.751064859330654144e-02,-6.831658611790686342e-02,4.688584820280530113e-03,8.141779652691694125e-03,-0.000000000000000000e+00,-0.000000000000000000e+00,0.000000000000000000e+00,5.164395934095953322e-01,0.000000000000000000e+00
3.246740000000000181e-01,5.527688941916294313e-03,-3.719690792862206247e-02,9.593113660812377930e-01,1.084588383575613157e-02,1.043575252804043035e-03,2.762360505851102488e-03,-1.407224613692622736e-02,2.706947107157571183e-02,-1.922874525189399719e-02,3.994743525981903076e-02,4.524119943380355835e-02,-3.107727752649225295e-05,-7.679871961994969021e-02,-2.011964247565855603e-03,7.770538806656290820e-03,0.000000000000000000e+00,-0.000000000000000000e+00,0.000000000000000000e+00,5.166672341733764551e-01,0.000000000000000000e+00
3.535139999999999949e-01,5.321956548510559971e-03,-3.633690624919178047e-02,9.594703912734985352e-01,1.105685351381313630e-02,1.345216249698979582e-03,2.717486765873688981e-03,-3.392818794138705019e-03,2.808483066237709228e-02,-7.062470540404319763e-03,1.494762022048234940e-02,-3.697956353425979614e-02,-2.391970716416835785e-03,-7.607973158716531403e-02,1.379029903731816484e-02,7.619660046923659724e-03,0.000000000000000000e+00,0.000000000000000000e+00,0.000000000000000000e+00,5.157702191810560333e-01,0.000000000000000000e+00
3.757249999999999757e-01,5.196849353945085827e-03,-3.499696358482520808e-02,9.596484303474426270e-01,1.092332981750065990e-02,1.414608446105915587e-03,2.481166398492495873e-03,-3.006746789525546314e-03,3.620467053523587081e-02,-1.559162978082895279e-02,-1.153728086501359940e-02,7.154731079936027527e-03,-3.495016694068908691e-02,-6.647580591796092842e-02,1.068039155578339242e-02,6.963800966289235284e-03,0.000000000000000000e+00,-0.000000000000000000e+00,0.000000000000000000e+00,5.164107226709628851e-01,0.000000000000000000e+00
3.984710000000000196e-01,5.093671540645217100e-03,-3.410972815497467087e-02,9.596977233886718750e-01,1.094300363472711091e-02,1.213900038212324325e-03,2.509010315933091206e-03,-1.737822273064655240e-02,3.129338211086876015e-02,-1.383231021463871002e-02,2.511627972126007080e-02,-1.259930618107318878e-02,4.173188062850385904e-04,-7.397171855507707339e-02,-5.474442938393738953e-03,7.074772157230846403e-03,0.000000000000000000e+00,0.000000000000000000e+00,0.000000000000000000e+00,5.162973922069472588e-01,0.000000000000000000e+00
4.231630000000000114e-01,4.941070060728150470e-03,-3.281823441421077847e-02,9.599461555480957031e-01,1.148034208516968135e-02,6.748592709410168936e-04,2.287477128866566289e-03,2.336905822446229842e-03,2.988181421351014666e-02,-8.675884455442428589e-03,1.271632965654134750e-02,-2.893010899424552917e-02,9.937086142599582672e-03,-7.636579194862105902e-02,1.622658710206518334e-02,6.387412759405630691e-03,0.000000000000000000e+00,0.000000000000000000e+00,0.000000000000000000e+00,5.159143082322609208e-01,0.000000000000000000e+00
4.495259999999999811e-01,4.836574090016827060e-03,-3.150120450292409613e-02,9.601201415061950684e-01,1.244342933406272778e-02,1.125649140897014375e-03,1.895832179408252216e-03,-5.139972825506863852e-03,3.068195696700628389e-02,-1.150120329111814499e-02,5.359661579132080078e-02,3.054455853998661041e-02,-5.280189588665962219e-02,-8.045169993035831968e-02,4.302532860983232163e-03,5.335942202915444632e-03,0.000000000000000000e+00,-0.000000000000000000e+00,0.000000000000000000e+00,5.161297178290499277e-01,0.000000000000000000e+00
4.735170000000000212e-01,4.680004558340460433e-03,-3.089085602411754949e-02,9.602106809616088867e-01,1.279640986287944315e-02,1.128488445238461091e-03,1.934795607317241206e-03,-8.335839332669967364e-03,3.538414876613792115e-02,-9.486321359872817993e-03,3.855930641293525696e-02,1.505901454947888851e-03,1.148118823766708374e-02,-7.786227004704569798e-02,3.694878962541234615e-03,5.447024917398346489e-03,0.000000000000000000e+00,-0.000000000000000000e+00,0.000000000000000000e+00,5.159919743335815712e-01,0.000000000000000000e+00
4.987440000000000206e-01,4.494035926230924814e-03,-2.997527163960720872e-02,9.604205489158630371e-01,1.263137577051942628e-02,9.836630876724058656e-04,1.965236039352280528e-03,2.186849801277473775e-04,3.555187932356541208e-02,-1.417009998112916946e-02,-6.213946640491485596e-02,6.368914619088172913e-03,1.133087649941444397e-02,-7.777148981887559154e-02,1.250713948361323498e-02,5.501622633966585241e-03,-0.000000000000000000e+00,0.000000000000000000e+00,0.000000000000000000e+00,5.163440330917842269e-01,0.000000000000000000e+00
5.237460000000000448e-01,4.374234268044049911e-03,-2.895561247337781127e-02,9.605524539947509766e-01,1.290285154674020163e-02,5.522371320568348870e-04,1.752741342876840136e-03,-1.326562263119026273e-02,3.749366225229858879e-02,-1.244204584509134293e-02,4.449049010872840881e-02,-2.654958888888359070e-02,-3.779530152678489685e-02,-7.695019675905478973e-02,-7.209458829857887455e-03,4.949311991225668894e-03,0.000000000000000000e+00,-0.000000000000000000e+00,0.000000000000000000e+00,5.162258247100286468e-01,0.000000000000000000e+00
5.523040000000000171e-01,4.169419116980942891e-03,-2.799249076649147627e-02,9.607619643211364746e-01,1.289160767132346841e-02,1.933294380769534616e-04,1.716809335838176409e-03,-5.238993552305250961e-03,3.104842442558380239e-02,-5.274574272334575653e-03,5.557901691645383835e-03,-7.836199365556240082e-03,-3.391871694475412369e-03,-8.355283446303979344e-02,3.391270984397501929e-03,4.804587695132034320e-03,0.000000000000000000e+00,0.000000000000000000e+00,0.000000000000000000e+00,5.156942535569091213e-01,0.000000000000000000e+00
5.775709999999999456e-01,3.990982396960280308e-03,-2.698697609023524915e-02,9.611265063285827637e-01,1.310193294007722109e-02,-3.654005240178338584e-06,1.617194451729808691e-03,1.147877145364917939e-04,3.415134488459983797e-02,-8.042319677770137787e-03,-2.639973722398281097e-02,1.772221643477678299e-03,4.988027270883321762e-03,-7.878035851979597881e-02,4.538994267201707129e-03,4.514243062730516343e-03,-0.000000000000000000e+00,0.000000000000000000e+00,0.000000000000000000e+00,5.158903976422903881e-01,0.000000000000000000e+00
5.991630000000000011e-01,3.794145394513836166e-03,-2.594216860166315142e-02,9.614729881286621094e-01,1.384150924433447116e-02,5.134278808438261579e-04,1.399016767623662005e-03,-1.103504740078325302e-02,3.429150186819845264e-02,-1.126393023878335953e-02,6.565520167350769043e-02,3.512297989800572395e-03,-1.515898201614618301e-02,-8.389916294142275854e-02,-5.532414870387357061e-03,3.954747952271964184e-03,0.000000000000000000e+00,-0.000000000000000000e+00,0.000000000000000000e+00,5.161225681943544252e-01,0.000000000000000000e+00
6.248529999999999918e-01,3.632277751099774552e-03,-2.521192736705507934e-02,9.617044925689697266e-01,1.360162139554144112e-02,6.441535440460409217e-04,1.474587127926918484e-03,-8.995808422774276628e-03,3.469597323327402311e-02,-7.440084125846624374e-03,2.412734553217887878e-03,3.062872029840946198e-02,-5.477974191308021545e-03,-8.151069843353116184e-02,1.340505616003366453e-03,4.149144677064009468e-03,-0.000000000000000000e+00,-0.000000000000000000e+00,0.000000000000000000e+00,5.158383987985620811e-01,0.000000000000000000e+00
6.496889999999999610e-01,3.419428544969146597e-03,-2.414408463951259881e-02,9.621112346649169922e-01,1.349096761860191229e-02,3.675316894849628728e-04,1.587325209716938801e-03,-6.304368875785078437e-03,3.871283625644400539e-02,-1.083852630108594894e-02,-7.305611856281757355e-03,-2.839600481092929840e-02,7.663569413125514984e-03,-7.617293738672309411e-02,1.412808858569087993e-03,4.453765214530003291e-03,0.000000000000000000e+00,0.000000000000000000e+00,0.000000000000000000e+00,5.160789325939590944e-01,0.000000000000000000e+00
6.750140000000000029e-01,3.172810734055878448e-03,-2.292216780883504432e-02,9.624211192131042480e-01,1.371059351048087294e-02,1.623431082266386840e-04,1.338304488817554372e-03,-2.218458020088185430e-03,3.459444447154959301e-02,-9.830939583480358124e-03,3.005502745509147644e-02,5.568952299654483795e-03,-1.623157970607280731e-02,-8.247779104015084961e-02,3.094076866574305227e-03,3.743668888507079018e-03,0.000000000000000000e+00,-0.000000000000000000e+00,0.000000000000000000e+00,5.159985015050206902e-01,0.000000000000000000e+00
7.009520000000000195e-01,2.957065098162810386e-03,-2.175534038767370365e-02,9.629130363464355469e-01,1.424764597725003412e-02,2.208263221532463295e-04,1.005266964869910851e-03,-8.365038956333991152e-03,3.224474849383553859e-02,-2.972710644826292992e-03,1.305254083126783371e-02,2.171109989285469055e-02,-3.582043200731277466e-02,-8.610219245184830283e-02,-4.428026041218557918e-03,2.838099456369425067e-03,-0.000000000000000000e+00,-0.000000000000000000e+00,0.000000000000000000e+00,5.154678271356989416e-01,0.000000000000000000e+00
7.257029999999999870e-01,2.794008704411775606e-03,-2.055382876539857753e-02,9.633370637893676758e-01,1.461358689092873142e-02,2.393116538990398682e-04,9.595286481740572526e-04,-6.624205004142593584e-03,3.941837325827644151e-02,-1.033299509435892105e-02,3.498555859550833702e-03,1.191948726773262024e-02,2.483241632580757141e-02,-7.956278555709341005e-02,-3.901900108007521142e-04,2.697916882143991391e-03,-0.000000000000000000e+00,0.000000000000000000e+00,0.000000000000000000e+00,5.160010143579707442e-01,0.000000000000000000e+00
7.502100000000000435e-01,2.653799710796977355e-03,-1.972869129348218606e-02,9.635338187217712402e-01,1.456607509258356359e-02,3.988473445188245184e-04,7.860316467356298631e-04,-2.559321079770665586e-03,2.872384570304577223e-02,-8.507902733981609344e-03,-2.021276205778121948e-02,-4.875745507888495922e-04,-6.264397408813238144e-03,-9.222397429326258111e-02,4.049936817385045573e-03,2.204114953520297515e-03,-0.000000000000000000e+00,0.000000000000000000e+00,0.000000000000000000e+00,5.158667954850999493e-01,0.000000000000000000e+00
7.735950000000000326e-01,2.491595586669270116e-03,-1.906601232608678975e-02,9.639924168586730957e-01,1.478477139385536709e-02,3.775968322613539713e-04,5.468575569367306599e-04,-1.209461238585591257e-02,3.848809011624283044e-02,7.417749147862195969e-04,4.347125440835952759e-02,-1.690001040697097778e-02,-2.547234110534191132e-02,-7.932730035553434145e-02,-7.412101313815881200e-03,1.574564607457418219e-03,0.000000000000000000e+00,-0.000000000000000000e+00,0.000000000000000000e+00,5.151603579046978298e-01,0.000000000000000000e+00
7.989030000000000298e-01,2.356425954091423153e-03,-1.863790648748443399e-02,9.644004702568054199e-01,1.479601132653596274e-02,1.863806566148522130e-04,4.446940919384800850e-04,-2.263189128268923780e-03,3.488681508403876363e-02,-1.092179398983716965e-02,-1.407373510301113129e-02,1.259283721446990967e-02,1.928195729851722717e-02,-8.637732499342007375e-02,4.757171566998345119e-03,1.236163120713229535e-03,-0.000000000000000000e+00,0.000000000000000000e+00,0.000000000000000000e+00,5.160125407315484525e-01,0.000000000000000000e+00
8.266790000000000527e-01,2.221709869940430120e-03,-1.814271212527302293e-02,9.647476077079772949e-01,1.521821144761070776e-02,3.342767511055635922e-04,1.126533610462665536e-04,-1.011925197614807481e-02,2.486535069817588997e-02,-5.481902044266462326e-03,-1.446978468447923660e-02,2.565495669841766357e-02,-1.994017697870731354e-02,-9.768767970593991712e-02,-5.971331989835432230e-03,3.494870870952571096e-04,-0.000000000000000000e+00,-0.000000000000000000e+00,0.000000000000000000e+00,5.155979478726661069e-01,0.000000000000000000e+00
8.480569999999999498e-01,2.105217245766521222e-03,-1.787711153896094293e-02,9.650564193725585938e-01,1.548461284906177404e-02,6.148364289834508736e-04,-1.078013509787645319e-04,2.945758853267019210e-05,3.338825625588097423e-02,-1.459061517380177975e-03,2.866607857868075371e-03,9.572547860443592072e-03,-3.423493728041648865e-02,-8.688089723709623013e-02,8.986263734670256464e-03,-3.092588664191930903e-04,0.000000000000000000e+00,-0.000000000000000000e+00,0.000000000000000000e+00,5.152903562173337670e-01,0.000000000000000000e+00
8.745699999999999585e-01,2.079634593355691747e-03,-1.704702349421221078e-02,9.654800295829772949e-01,1.520511242151934006e-02,1.028854430760947148e-03,-1.793373957201804814e-04,-6.146090162514534702e-03,3.121779066154629217e-02,-6.471506785601377487e-03,-6.710008718073368073e-03,4.589406400918960571e-02,1.311082951724529266e-02,-8.985924305404863199e-02,1.658063370462335706e-03,-4.642672914354495362e-04,-0.000000000000000000e+00,-0.000000000000000000e+00,0.000000000000000000e+00,5.156460767188513206e-01,0.000000000000000000e+00
8.984130000000000171e-01,2.130350839176653552e-03,-1.551419038250288068e-02,9.658218622207641602e-01,1.437643017714074212e-02,9.004689019586078168e-04,-2.096570274894293817e-04,-1.135102756730006941e-02,2.952199101049697919e-02,-4.825242329388856888e-03,-4.310408234596252441e-02,-2.813045494258403778e-02,6.898723077028989792e-03,-8.443223088480170113e-02,-2.215032645032149246e-03,-5.432737995536562892e-04,0.000000000000000000e+00,0.000000000000000000e+00,0.000000000000000000e+00,5.155131453884292947e-01,0.000000000000000000e+00
9.239439999999999875e-01,2.173926718863472291e-03,-1.453602573436726247e-02,9.660787582397460938e-01,1.407411658131096921e-02,5.463419663525122174e-04,-4.148188421508880452e-04,-1.248954629681657547e-03,3.301149666547181782e-02,-7.415285799652338028e-03,-2.318908832967281342e-02,-2.787365019321441650e-02,-4.637058824300765991e-02,-7.766121803994557871e-02,7.696465083302742732e-03,-1.166824338188654497e-03,0.000000000000000000e+00,0.000000000000000000e+00,0.000000000000000000e+00,5.157020799784491905e-01,0.000000000000000000e+00
9.490680000000000227e-01,2.261493336197697990e-03,-1.312086339133563054e-02,9.665914773941040039e-01,1.427236145561949776e-02,4.747606998687630016e-04,-5.944760931737569365e-04,-1.230129367448671955e-02,3.176443858214798854e-02,-2.493595238775014877e-03,3.072251938283443451e-02,3.016052395105361938e-02,5.586080253124237061e-03,-8.057572967677172071e-02,-7.686215291593933609e-03,-1.618832238624190456e-03,0.000000000000000000e+00,-0.000000000000000000e+00,0.000000000000000000e+00,5.153120687938478328e-01,0.000000000000000000e+00
9.753589999999999760e-01,2.284410615818029990e-03,-1.171741633739726077e-02,9.670199155807495117e-01,1.450228900469863191e-02,1.996952693727194748e-04,-8.284847757984437067e-04,-3.252544548582818069e-03,2.946015406865077832e-02,-9.976940928027033806e-04,-4.810506477952003479e-03,-5.220767483115196228e-02,2.402469888329505920e-02,-8.305410379272001875e-02,3.793329313916305508e-03,-2.324914297033409127e-03,0.000000000000000000e+00,0.000000000000000000e+00,0.000000000000000000e+00,5.151812506031281380e-01,0.000000000000000000e+00
1.002520000000000078e+00,2.164404132992694962e-03,-1.068082654979973789e-02,9.675987958908081055e-01,1.490753977463388225e-02,5.924060880038014773e-04,-1.051173555120410441e-03,-2.996499533117988681e-03,3.124220002299813587e-02,-5.182593013159930706e-04,1.811859384179115295e-02,3.578812256455421448e-02,-4.370984062552452087e-02,-8.235286720438053654e-02,3.219056284549384143e-03,-2.930463624035040127e-03,-0.000000000000000000e+00,-0.000000000000000000e+00,0.000000000000000000e+00,5.151152115757836603e-01,0.000000000000000000e+00
1.028717000000000104e+00,2.032183835288341005e-03,-9.540583488120214437e-03,9.681085348129272461e-01,1.494563546910221419e-02,4.281240236170148609e-04,-1.131124555056040037e-03,-1.090105912977080635e-02,3.273499290311208954e-02,-3.838441567495465279e-03,-7.253197021782398224e-03,-1.330728363245725632e-02,2.639584476128220558e-03,-8.100082837133067148e-02,-6.102293755792992380e-03,-3.126344279066384235e-03,0.000000000000000000e+00,0.000000000000000000e+00,0.000000000000000000e+00,5.153378831513236724e-01,0.000000000000000000e+00
1.051255999999999968e+00,1.897199039212599985e-03,-8.857947831316813694e-03,9.683674573898315430e-01,1.462139029524811562e-02,1.797029848628318397e-04,-1.196548050869550295e-03,-6.917419331225947883e-03,3.206937240785985577e-02,-8.266425691545009613e-03,-3.341143578290939331e-02,-2.286668866872787476e-02,-1.367657072842121124e-02,-7.966592223301452447e-02,-8.617635352835498891e-04,-3.339846656483735909e-03,0.000000000000000000e+00,0.000000000000000000e+00,0.000000000000000000e+00,5.156620398321282162e-01,0.000000000000000000e+00
1.077247000000000066e+00,1.722082182199147693e-03,-7.784938185477624506e-03,9.688103199005126953e-01,1.503331554882003651e-02,-5.032072260035161084e-05,-1.511363408633004113e-03,-1.111917495334545543e-02,2.987326078496175749e-02,-6.885494105517864227e-03,1.492866687476634979e-02,-1.020920183509588242e-02,-1.997196674346923828e-02,-8.364025437614101832e-02,-8.224380637743586991e-03,-4.203489539427951449e-03,0.000000000000000000e+00,-0.000000000000000000e+00,0.000000000000000000e+00,5.155408857689589563e-01,0.000000000000000000e+00
1.099752000000000063e+00,1.398482029917546242e-03,-6.524910595272826776e-03,9.693145155906677246e-01,1.571720164254686303e-02,1.687199836823329989e-04,-1.756044957529567796e-03,-5.957448461800980005e-03,3.210817462721195226e-02,-1.700709806755185127e-03,4.964981973171234131e-02,1.703630015254020691e-02,-7.442264351993799210e-03,-8.415653372332999871e-02,-2.328118719913787119e-04,-4.908616476496874270e-03,0.000000000000000000e+00,-0.000000000000000000e+00,0.000000000000000000e+00,5.151305863840179855e-01,0.000000000000000000e+00
1.125401000000000096e+00,1.077433672620828863e-03,-5.224181758400916337e-03,9.696971178054809570e-01,1.574232031829558842e-02,4.707928480671557682e-04,-1.915646506373658298e-03,-3.386090526305538667e-03,3.270151087381654997e-02,-6.547242403030395508e-03,-5.935693625360727310e-03,2.286374196410179138e-02,-4.330911207944154739e-03,-8.369910221473574052e-02,2.261271076510470296e-03,-5.352170717678017553e-03,-0.000000000000000000e+00,-0.000000000000000000e+00,0.000000000000000000e+00,5.154760831766962426e-01,0.000000000000000000e+00
1.148765000000000036e+00,8.227837920036319480e-04,-4.364877074211145555e-03,9.699267148971557617e-01,1.584029180862200903e-02,4.774966206452050397e-04,-1.917455211372320889e-03,-4.593709892018746702e-03,3.156799963943891785e-02,-6.311378907412290573e-03,1.401132158935070038e-02,-3.816465288400650024e-02,7.906585000455379486e-03,-8.513556720579786019e-02,-2.696194567147064403e-05,-5.347634313617344315e-03,0.000000000000000000e+00,0.000000000000000000e+00,0.000000000000000000e+00,5.154550109582649586e-01,0.000000000000000000e+00
1.174562000000000106e+00,4.706312734545878046e-04,-3.140613201990234866e-03,9.703931212425231934e-01,1.617518735316747502e-02,4.756963114564374167e-04,-2.119990728954634918e-03,-1.003186087409379916e-02,3.320195953532090877e-02,-3.836661577224731445e-03,1.592672429978847504e-02,3.586622327566146851e-02,-2.350993826985359192e-02,-8.442433585117826988e-02,-5.393629313786726248e-03,-5.891998534830411582e-03,-0.000000000000000000e+00,-0.000000000000000000e+00,0.000000000000000000e+00,5.152496783675358794e-01,0.000000000000000000e+00
1.201292000000000026e+00,4.672911541602366549e-04,-2.809285807293853635e-03,9.706215858459472656e-01,1.651953668312655665e-02,4.042586089133648301e-04,-2.107385720818699681e-03,-9.638074662938724696e-03,3.387292392011000824e-02,-3.745329100638628006e-03,3.613543510437011719e-02,5.310557316988706589e-04,1.720522297546267509e-03,-8.631755025773178713e-02,-3.489035377390530424e-03,-5.867198466083800579e-03,0.000000000000000000e+00,-0.000000000000000000e+00,0.000000000000000000e+00,5.152382056819434508e-01,0.000000000000000000e+00
1.224426999999999932e+00,3.961514827784101537e-04,-2.096107803888026724e-03,9.712631106376647949e-01,1.756739713819110982e-02,5.502136671988841661e-04,-2.400033894024655723e-03,-4.437019654724195269e-05,2.693373790092917081e-02,-4.729960113763809204e-03,1.845631562173366547e-02,-1.930494420230388641e-02,9.710183367133140564e-03,-9.995712623398532448e-02,7.056118287917933531e-03,-6.723093695972293116e-03,0.000000000000000000e+00,0.000000000000000000e+00,0.000000000000000000e+00,5.152751504910590974e-01,0.000000000000000000e+00
1.251176000000000066e+00,4.245738299766180072e-04,-1.846619829057777372e-03,9.716323018074035645e-01,1.792876184663416694e-02,1.217669078841673641e-03,-2.625330601074393755e-03,-9.046871414218726759e-03,2.541033916297342696e-02,-4.268198739737272263e-03,-9.312139824032783508e-03,4.979307204484939575e-02,-2.165666408836841583e-02,-1.011642816727611888e-01,-1.296168997352256224e-03,-7.284176645415918472e-03,-0.000000000000000000e+00,-0.000000000000000000e+00,0.000000000000000000e+00,5.152260076648002007e-01,0.000000000000000000e+00
1.275357999999999992e+00,2.490062611847713146e-04,-1.035005631636149066e-03,9.716734886169433594e-01,1.839009283614201351e-02,1.699697138035162741e-03,-2.720501255756513359e-03,-2.456921557946008944e-02,3.184433572257035217e-02,-2.723098360002040863e-02,-8.359434083104133606e-03,3.139388188719749451e-02,3.615613654255867004e-02,-9.664147221757310446e-02,-1.076713349106601415e-02,-7.479131442669095797e-03,-0.000000000000000000e+00,-0.000000000000000000e+00,0.000000000000000000e+00,5.169503841860391136e-01,0.000000000000000000e+00
1.299339000000000022e+00,1.865829196160300244e-04,-4.319358923713942713e-04,9.715598225593566895e-01,1.818130095069303565e-02,1.468831965017900528e-03,-2.685808523376298496e-03,-2.994735137242854773e-03,2.986912821331686937e-02,-2.820576727390289307e-02,-5.799207463860511780e-02,-3.007722832262516022e-02,1.212920807301998138e-02,-9.915476802572771586e-02,1.522813294796639995e-02,-7.514794096495747144e-03,0.000000000000000000e+00,0.000000000000000000e+00,0.000000000000000000e+00,5.170497654397434584e-01,0.000000000000000000e+00
1.324874000000000107e+00,1.286014851807386003e-04,3.466603253227825928e-04,9.713290929794311523e-01,1.820282663385430766e-02,1.795622613392781853e-03,-2.916672495435701506e-03,-2.021734009261075618e-02,3.065530616368267181e-02,-2.697817794978618622e-02,7.070797495543956757e-03,4.113120585680007935e-02,-3.352096304297447205e-02,-9.730843189310756092e-02,-8.032342227245331534e-03,-8.038143074789450004e-03,-0.000000000000000000e+00,-0.000000000000000000e+00,0.000000000000000000e+00,5.169983205504583568e-01,0.000000000000000000e+00
1.351278999999999897e+00,4.160891185992982765e-05,1.072312521102237928e-03,9.711620211601257324e-01,1.857320713209809071e-02,2.155001094985262416e-03,-2.958331899031385603e-03,-1.455481239099752459e-02,2.735550803365601261e-02,-2.041684277355670929e-02,3.151319921016693115e-02,1.107974164187908173e-02,3.335253149271011353e-02,-1.028092927146874724e-01,6.218320591347499884e-03,-8.199897554967194857e-03,0.000000000000000000e+00,0.000000000000000000e+00,0.000000000000000000e+00,5.165408820451181660e-01,0.000000000000000000e+00
1.379606000000000110e+00,1.590161330331865550e-05,1.579937886563100718e-03,9.711184501647949219e-01,1.879343652239318097e-02,2.508612448558970691e-03,-3.189449484365169951e-03,-7.030993181090977422e-03,2.179145879465676020e-02,-2.365518920123577118e-02,-1.237551029771566391e-02,-1.918502850458025932e-03,1.221556216478347778e-02,-1.083473117910135480e-01,1.407936135702173713e-02,-8.861934985334662951e-03,-0.000000000000000000e+00,0.000000000000000000e+00,0.000000000000000000e+00,5.168030594495344188e-01,0.000000000000000000e+00
1.402692999999999968e+00,7.474638439153972222e-05,2.161682045042643066e-03,9.709408879280090332e-01,1.875160713038792615e-02,3.248226534648558390e-03,-3.147509402658954514e-03,-1.351779093319278695e-02,2.860330574351324304e-02,-2.087943814694881439e-02,3.386169439181685448e-03,1.446038112044334412e-02,-1.962198317050933838e-02,-9.874771581177285706e-02,9.558071792880429296e-03,-8.688526796638174066e-03,-0.000000000000000000e+00,-0.000000000000000000e+00,0.000000000000000000e+00,5.166308995840941387e-01,0.000000000000000000e+00
1.425113999999999992e+00,1.214260356348596185e-04,2.656174757401571010e-03,9.709461927413940430e-01,1.809289855146944959e-02,3.371619699494502430e-03,-3.127302525693265167e-03,-1.078481965001901362e-02,2.670897142910427097e-02,-1.901224814355373383e-02,-3.116321563720703125e-02,2.736672572791576385e-02,8.977914229035377502e-03,-9.849721017727947059e-02,1.551800188376417297e-02,-8.656026692627993846e-03,-0.000000000000000000e+00,0.000000000000000000e+00,0.000000000000000000e+00,5.165089218958244244e-01,0.000000000000000000e+00
1.448574999999999946e+00,1.120325638682324345e-04,3.186184154280619421e-03,9.709725379943847656e-01,1.752101702410202577e-02,2.796914440063301074e-03,-3.137137608815177003e-03,-6.648308244310097669e-03,2.381161000084601118e-02,-2.256773784756660461e-02,-5.645919591188430786e-02,-5.894384533166885376e-02,-2.328098053112626076e-03,-9.667250068971694477e-02,1.498704115823532024e-02,-8.711953194625310370e-03,0.000000000000000000e+00,0.000000000000000000e+00,0.000000000000000000e+00,5.167894282903482406e-01,0.000000000000000000e+00
1.475314999999999932e+00,1.329161288960437537e-04,3.632933343859984406e-03,9.710730314254760742e-01,1.715226479899412126e-02,2.756061869996447901e-03,-3.096176241797810036e-03,-1.281285063462704425e-02,2.396490206292158781e-02,-1.373720914125442505e-02,9.350621839985251427e-04,1.761957257986068726e-02,-8.099219994619488716e-04,-9.273315910084087288e-02,6.932983574366930954e-03,-8.566926310397959821e-03,-0.000000000000000000e+00,-0.000000000000000000e+00,0.000000000000000000e+00,5.161435945181963580e-01,0.000000000000000000e+00
1.498345999999999956e+00,2.715748016865342273e-04,3.856180113095687614e-03,9.712001681327819824e-01,1.693106808821065457e-02,2.912005276682078352e-03,-3.220071570271709760e-03,-1.334437915110878344e-02,1.694382564524461385e-02,-1.171084865927696228e-02,5.850600078701972961e-03,3.251097351312637329e-02,1.158366352319717407e-02,-9.831796829065793386e-02,9.725660884925631591e-03,-8.917427040136260974e-03,-0.000000000000000000e+00,-0.000000000000000000e+00,0.000000000000000000e+00,5.159979041370609254e-01,0.000000000000000000e+00
1.524170000000000025e+00,5.766897334991825290e-04,4.096418506166692002e-03,9.713116288185119629e-01,1.679095187643153686e-02,3.143821017262518440e-03,-3.348865955832280861e-03,-9.095124766477088400e-04,1.986476850851859668e-02,-1.890523359179496765e-02,-3.237929195165634155e-02,-3.511919453740119934e-02,1.700814440846443176e-02,-9.169189010750800062e-02,2.424607083498099211e-02,-9.330802448089037249e-03,0.000000000000000000e+00,0.000000000000000000e+00,0.000000000000000000e+00,5.165415085262766715e-01,0.000000000000000000e+00
1.549155999999999977e+00,8.507744175804175064e-04,4.360636494526881450e-03,9.713432192802429199e-01,1.646777743644145531e-02,3.299328906344230379e-03,-3.229498234588179528e-03,-8.578599550528262854e-03,2.116147235495319939e-02,-1.383598521351814270e-02,1.160151883959770203e-02,1.356818061321973801e-02,-1.876694709062576294e-02,-8.914629287718078832e-02,1.309946219817203703e-02,-8.944768182386653166e-03,-0.000000000000000000e+00,-0.000000000000000000e+00,0.000000000000000000e+00,5.161792476605320257e-01,0.000000000000000000e+00
1.573611000000000093e+00,1.144263018856505514e-03,4.569732132190626461e-03,9.716492295265197754e-01,1.643307116207837204e-02,2.719552635774247131e-03,-3.297722840585715076e-03,-1.395308797703409369e-02,1.660446837466526826e-02,-1.648324355483055115e-02,6.382540799677371979e-03,-2.878613211214542389e-02,-6.761462427675724030e-03,-9.387955794715895086e-02,6.834059928233405037e-03,-9.135641668303440266e-03,0.000000000000000000e+00,0.000000000000000000e+00,0.000000000000000000e+00,5.163692383490934290e-01,0.000000000000000000e+00
1.600076000000000054e+00,1.384163757197546954e-03,4.841219212157811189e-03,9.717949032783508301e-01,1.663801638371831260e-02,2.320576436266991258e-03,-3.378470883775186451e-03,-4.146336214569547709e-04,1.780759696863085453e-02,-1.059234980493783951e-02,2.935749292373657227e-02,-1.440326886950060725e-04,-1.130326837301254272e-02,-9.206691811268881420e-02,2.010395727212122008e-02,-9.434432811133597330e-03,0.000000000000000000e+00,-0.000000000000000000e+00,-0.000000000000000000e+00,5.159357876089487593e-01,0.000000000000000000e+00
1.626054000000000110e+00,1.871272162854098909e-03,5.244752803647380508e-03,9.721515178680419922e-01,1.724087403576479716e-02,1.995697494798565237e-03,-3.630439929124262832e-03,-8.833263161898516347e-03,1.103421841310947560e-02,-8.351734839379787445e-03,1.029754523187875748e-02,-1.575283147394657135e-02,-1.664319634437561035e-02,-1.030751515643309607e-01,4.789034344047459098e-03,-1.008811006759008366e-02,0.000000000000000000e+00,-0.000000000000000000e+00,0.000000000000000000e+00,5.157559395657805856e-01,0.000000000000000000e+00
1.649191999999999991e+00,2.360763356397908245e-03,5.718882210527597744e-03,9.724740982055664062e-01,1.760466596591037103e-02,2.122578571564015266e-03,-3.609750738855943553e-03,2.942395252370238849e-03,1.973968107884857201e-02,-9.445483796298503876e-03,2.541754953563213348e-02,4.390263464301824570e-03,6.247508339583873749e-03,-9.373604954342616702e-02,2.095038103325796291e-02,-1.009658765332971386e-02,0.000000000000000000e+00,-0.000000000000000000e+00,0.000000000000000000e+00,5.158283037336882648e-01,0.000000000000000000e+00
1.676239999999999952e+00,2.837041727492984038e-03,6.170408558561864786e-03,9.728391766548156738e-01,1.693732962024485644e-02,2.085824171628951947e-03,-3.782049905132645051e-03,2.477482423147750164e-04,1.313987745530582896e-02,-1.496785040944814682e-02,-5.659761652350425720e-02,-3.555925795808434486e-03,4.844323266297578812e-03,-9.901367200224039933e-02,1.400329873346105834e-02,-1.054707908573215835e-02,-0.000000000000000000e+00,0.000000000000000000e+00,0.000000000000000000e+00,5.162253560424561183e-01,0.000000000000000000e+00
1.699362999999999957e+00,3.095936430217533994e-03,6.445169848654249897e-03,9.731191992759704590e-01,1.667701008379141037e-02,1.667888041214455426e-03,-3.784331928575301873e-03,-3.625472667870033826e-03,1.090238147479159932e-02,-6.039251107722520828e-03,-2.579579688608646393e-02,-7.897360622882843018e-02,8.311576493724714965e-06,-9.698437119491874758e-02,8.483189466758370156e-03,-1.055196326332413781e-02,0.000000000000000000e+00,0.000000000000000000e+00,0.000000000000000000e+00,5.155541223185747812e-01,0.000000000000000000e+00
1.724226999999999954e+00,3.655593418438749312e-03,6.561854298249343402e-03,9.734843969345092773e-01,1.660257315961199964e-02,1.046119218968693523e-03,-3.740137431544221513e-03,3.003840733995604990e-03,1.670041602644546305e-02,-9.651677682995796204e-03,2.823860011994838715e-02,1.092996262013912201e-02,-2.949690259993076324e-02,-8.965566988531774306e-02,1.294447521660319067e-02,-1.047796383438981405e-02,-0.000000000000000000e+00,-0.000000000000000000e+00,-0.000000000000000000e+00,5.158096700612292418e-01,0.000000000000000000e+00
1.749881999999999938e+00,4.194143238926477564e-03,6.646502040405217679e-03,9.738045334815979004e-01,1.732922782261070438e-02,6.507902499629225884e-04,-3.741077221891098148e-03,-6.150651342668595790e-03,1.218071721758490038e-02,-4.051045980304479599e-03,2.783274278044700623e-02,-2.759461058303713799e-03,2.422822453081607819e-02,-1.010299610236305851e-01,-1.021690684298279510e-03,-1.043926549925705549e-02,0.000000000000000000e+00,-0.000000000000000000e+00,0.000000000000000000e+00,5.153804285851704137e-01,0.000000000000000000e+00
1.774092999999999920e+00,4.801419016795357118e-03,6.682173231808574525e-03,9.742870926856994629e-01,1.796207963659091078e-02,7.391914508458099489e-04,-4.017921535350188478e-03,1.863780275915212763e-03,1.407650900243500626e-02,-7.090899161994457245e-03,5.626585334539413452e-03,-2.739433571696281433e-02,-1.940747909247875214e-02,-1.014837765077458293e-01,1.142244014905578232e-02,-1.126303959681246303e-02,0.000000000000000000e+00,0.000000000000000000e+00,0.000000000000000000e+00,5.155830792197404477e-01,0.000000000000000000e+00
1.799230000000000107e+00,5.473283486850285574e-03,6.765149801274198717e-03,9.746484756469726562e-01,1.795556070976123131e-02,8.672530889932242608e-04,-3.855817379376125231e-03,-4.982490982507816434e-03,1.093090365294836427e-02,-1.276166830211877823e-02,5.082411691546440125e-03,2.546973712742328644e-02,-4.093742463737726212e-03,-1.053049345774573486e-01,2.796123779193742265e-03,-1.076459096789850189e-02,-0.000000000000000000e+00,-0.000000000000000000e+00,0.000000000000000000e+00,5.159909247022639311e-01,0.000000000000000000e+00
1.825034999999999963e+00,6.299352252171710846e-03,6.718773485948306701e-03,9.749637246131896973e-01,1.741038474155720550e-02,3.041255389998055963e-04,-3.667436977818239185e-03,4.506737027718524767e-03,9.082850758412957387e-03,-5.244940053671598434e-03,-3.106027469038963318e-02,-6.530773639678955078e-02,3.102462552487850189e-02,-1.024451647528828863e-01,1.184321148248097637e-02,-1.030262986028623873e-02,0.000000000000000000e+00,0.000000000000000000e+00,0.000000000000000000e+00,5.154209902458917192e-01,0.000000000000000000e+00
1.849884000000000084e+00,6.844719279392397215e-03,6.658183394129334014e-03,9.752593040466308594e-01,1.713633103272482749e-02,7.117923597751598774e-05,-3.845498733917818157e-03,2.548285251808103842e-03,2.346309379057067834e-03,-3.630005754530429840e-03,-3.992240130901336670e-02,-3.813266381621360779e-02,-2.843675762414932251e-02,-1.068942018463983484e-01,5.241056989825719666e-03,-1.078408010666964678e-02,0.000000000000000000e+00,0.000000000000000000e+00,0.000000000000000000e+00,5.152889787405551258e-01,0.000000000000000000e+00
1.873505999999999894e+00,7.624463210404567627e-03,6.592758942665612881e-03,9.755486249923706055e-01,1.703878272574765873e-02,-1.394210276227397945e-04,-3.833500379158305549e-03,-5.010051692235583699e-03,1.164677980915110669e-02,-9.623991325497627258e-03,3.558963537216186523e-02,6.497070193290710449e-03,1.687065669102594256e-04,-9.437158715859307601e-02,-2.666779605471305235e-03,-1.072929617756396281e-02,0.000000000000000000e+00,-0.000000000000000000e+00,-0.000000000000000000e+00,5.157262957745907261e-01,0.000000000000000000e+00
1.899448000000000025e+00,8.368219729952311794e-03,6.512072638841047596e-03,9.758309125900268555e-01,1.678097512356213628e-02,-2.107634072855145738e-04,-3.731404498084511800e-03,5.875852427013538229e-03,4.827979407741835559e-03,-5.044622812420129776e-03,-2.802680991590023041e-02,2.227783389389514923e-02,1.707381010055541992e-02,-1.030148350398446822e-01,1.124301661515217030e-02,-1.050070035910644073e-02,-0.000000000000000000e+00,-0.000000000000000000e+00,0.000000000000000000e+00,5.153758427733763359e-01,0.000000000000000000e+00
1.925132999999999983e+00,9.445211872649602117e-03,5.496133971855837394e-03,9.761194586753845215e-01,1.596389676716469808e-02,-1.561870673226867191e-04,-3.694583472668933055e-03,-2.779448627277646827e-03,-1.596049983501404441e-03,-5.999147426337003708e-03,-3.709151968359947205e-02,-2.802845649421215057e-02,-1.770875975489616394e-02,-1.024305989349410390e-01,-5.001359214069308647e-04,-1.035003501549164318e-02,0.000000000000000000e+00,0.000000000000000000e+00,0.000000000000000000e+00,5.154356973273721554e-01,0.000000000000000000e+00
1.950315999999999939e+00,1.008268488866791504e-02,4.856266639833690078e-03,9.762724041938781738e-01,1.564879914724004450e-02,-3.120588891323043896e-04,-3.613215296996985515e-03,3.259971702551865604e-03,9.392213039362665855e-03,-1.448493171483278275e-02,-1.447123289108276367e-02,-1.374793238937854767e-02,-6.136623560450971127e-04,-8.721474128071161902e-02,8.161835245409414241e-03,-1.016215228810513072e-02,0.000000000000000000e+00,0.000000000000000000e+00,0.000000000000000000e+00,5.160698693525507252e-01,0.000000000000000000e+00
1.976197999999999899e+00,1.104782037188999783e-02,3.870689942648470206e-03,9.765588641166687012e-01,1.511058290573163987e-02,-7.779508190828986376e-04,-3.338153443114943997e-03,-5.295585820203127861e-03,-2.902019401895462479e-04,-6.054901052266359329e-03,-3.600342571735382080e-02,2.485607564449310303e-02,1.703505218029022217e-02,-9.820188890620458466e-02,-5.113626021125584377e-03,-9.363060224167774059e-03,-0.000000000000000000e+00,-0.000000000000000000e+00,0.000000000000000000e+00,5.154324645376477942e-01,0.000000000000000000e+00
1.998540999999999901e+00,1.190728294404763514e-02,2.938353720228067609e-03,9.769974946975708008e-01,1.513731616298064075e-02,-1.209532718569427843e-03,-3.338798867009051818e-03,5.496919739428820541e-03,-3.892540078504708699e-03,-1.457978738471865654e-03,6.780262105166912079e-03,-5.794971808791160583e-02,-4.915942903608083725e-03,-9.905944168659452931e-02,6.781255567598610395e-03,-9.421793206257356168e-03,0.000000000000000000e+00,0.000000000000000000e+00,0.000000000000000000e+00,5.150682996797164570e-01,0.000000000000000000e+00
2.023166999999999938e+00,1.284336854356162190e-02,2.192359243580536011e-03,9.773700833320617676e-01,1.496597230764207254e-02,-8.644171730137672951e-04,-3.346098079231696332e-03,6.936478935223309647e-03,6.523258736205581401e-03,-1.095427852123975754e-02,-6.768753286451101303e-03,2.169592864811420441e-02,-9.406866505742073059e-03,-8.648124531289713701e-02,7.108668347794803652e-03,-9.430763808447317764e-03,-0.000000000000000000e+00,-0.000000000000000000e+00,0.000000000000000000e+00,5.157588305022912101e-01,0.000000000000000000e+00
2.050253000000000103e+00,1.341021999619811111e-02,1.706003190848210272e-03,9.775729775428771973e-01,1.491835564033805461e-02,-7.998313986726841461e-04,-3.182837635427482326e-03,-3.751365602028843872e-03,-2.075929710640037062e-03,-5.290419328957796097e-03,-1.058354508131742477e-02,2.527062781155109406e-02,3.249115496873855591e-02,-9.905959480937989725e-02,-3.476810400254372498e-03,-8.934378345450244563e-03,-0.000000000000000000e+00,-0.000000000000000000e+00,0.000000000000000000e+00,5.153323827882527741e-01,0.000000000000000000e+00
2.073471000000000064e+00,1.421320912181472593e-02,1.013285452323522875e-03,9.779606461524963379e-01,1.459440006066636819e-02,-1.337549151127544016e-03,-3.028693783307501164e-03,7.463325763032037548e-03,-5.017119514824220153e-03,-2.423528116196393967e-03,-7.831637747585773468e-03,-4.796544462442398071e-02,-3.310883883386850357e-03,-9.721572636560098235e-02,8.911361029167888179e-03,-8.562241261645953116e-03,0.000000000000000000e+00,0.000000000000000000e+00,0.000000000000000000e+00,5.151009048631373100e-01,0.000000000000000000e+00
2.100567999999999991e+00,1.500638460172537547e-02,3.504714462913438187e-04,9.784087538719177246e-01,1.448162164089050741e-02,-1.717296291858979142e-03,-3.049619512584200720e-03,3.709315995697370829e-03,-2.844813150285016492e-03,-1.116158999502658844e-02,-1.078497711569070816e-02,-2.333296649158000946e-02,-9.491631761193275452e-03,-9.362560421668587873e-02,-9.873353501074337048e-04,-8.605430059277663357e-03,0.000000000000000000e+00,0.000000000000000000e+00,0.000000000000000000e+00,5.157281029358335989e-01,0.000000000000000000e+00
2.123549000000000131e+00,1.589756891452942869e-02,-2.074998778649328327e-04,9.788528084754943848e-01,1.462253356994525078e-02,-2.084671002278570308e-03,-2.929601319069163878e-03,3.086383072951973724e-03,-1.546716529243178425e-03,3.064636839553713799e-03,1.219605677761137486e-03,3.053134074434638023e-03,1.178520638495683670e-02,-9.435448660157877421e-02,-2.022399473499606522e-03,-8.281776927833550683e-03,0.000000000000000000e+00,0.000000000000000000e+00,0.000000000000000000e+00,5.146448356599447882e-01,0.000000000000000000e+00
2.148846999999999952e+00,1.684426316251471170e-02,-7.137286865683401113e-04,9.793811440467834473e-01,1.451592969201542793e-02,-2.176957806421879991e-03,-2.791291564922415702e-03,8.638920545632472817e-03,-6.565161763509526349e-03,-2.712884685024619102e-03,-3.135640174150466919e-02,-5.992192891426384449e-04,1.359357312321662903e-02,-9.957124801557563909e-02,3.900908674128998523e-03,-7.915535742584356438e-03,-0.000000000000000000e+00,0.000000000000000000e+00,0.000000000000000000e+00,5.150446834762827386e-01,0.000000000000000000e+00
2.173637999999999959e+00,1.749266304044783463e-02,-1.039179055168967369e-03,9.796733260154724121e-01,1.429797573591007342e-02,-2.305951116479608171e-03,-2.719263607961153184e-03,5.134165015366421239e-03,-3.651595324334008536e-03,-3.292503766715526581e-03,-1.905723288655281067e-02,-5.769950896501541138e-02,3.048990387469530106e-03,-9.357010964578044154e-02,-2.115368758628466319e-03,-7.699737437142695207e-03,0.000000000000000000e+00,0.000000000000000000e+00,0.000000000000000000e+00,5.150741297265926111e-01,0.000000000000000000e+00
2.198501999999999956e+00,1.836340568411661336e-02,-1.463325948424636482e-03,9.800876379013061523e-01,1.363074613362580401e-02,-2.281128271895553269e-03,-2.421167657143952212e-03,6.349025431345168245e-03,-3.795935621988185196e-03,-3.591446438804268837e-03,-1.142157614231109619e-02,4.061450064182281494e-02,1.366711454465985298e-03,-9.071389029706014573e-02,1.153113451157679239e-03,-6.869582320725819979e-03,-0.000000000000000000e+00,-0.000000000000000000e+00,0.000000000000000000e+00,5.150747025744737417e-01,0.000000000000000000e+00
2.223389000000000060e+00,1.912248371312240056e-02,-2.656469929318068090e-03,9.805898070335388184e-01,1.333231574224846838e-02,-3.106913241222858738e-03,-2.062176832675399751e-03,-2.287716733364092512e-03,-7.700764475348960414e-03,-1.301350770518183708e-03,-1.431868644431233406e-03,-3.875931352376937866e-02,2.985788136720657349e-02,-9.348646349458028526e-02,-1.295742283536096412e-02,-5.855756663308120391e-03,0.000000000000000000e+00,0.000000000000000000e+00,0.000000000000000000e+00,5.148742457057187139e-01,0.000000000000000000e+00
2.249207999999999874e+00,1.986593161274803274e-02,-4.193924886668325483e-03,9.811390638351440430e-01,1.355152103606882541e-02,-3.510586973021823272e-03,-2.103461971887155002e-03,8.765698285054104172e-03,-8.703221232182428366e-03,-4.963057115674018860e-03,-9.530975483357906342e-03,-3.947425261139869690e-02,-5.674260668456554413e-03,-9.545334197231793161e-02,-6.509967060530749867e-04,-6.021080234128561859e-03,0.000000000000000000e+00,0.000000000000000000e+00,0.000000000000000000e+00,5.151162575313011915e-01,0.000000000000000000e+00
2.273153000000000201e+00,2.033062436469075182e-02,-5.145390851743004805e-03,9.813840389251708984e-01,1.375259360935121578e-02,-3.196613375990614569e-03,-2.089262327277463527e-03,-2.320553878137972433e-03,-1.094302326972015037e-02,-4.934240132570266724e-03,1.248058024793863297e-02,2.763722091913223267e-02,-2.291121706366539001e-02,-9.932234726842169292e-02,-1.363982584494993246e-02,-5.937058974053277538e-03,-0.000000000000000000e+00,-0.000000000000000000e+00,-0.000000000000000000e+00,5.151031415155871152e-01,0.000000000000000000e+00
2.299164999999999903e+00,2.092708960199974808e-02,-6.556620780133940937e-03,9.818508625030517578e-01,1.349449559409965360e-02,-3.207269366664548121e-03,-1.633711115765379418e-03,-2.296370721945974625e-03,-6.286764453519833040e-03,-2.377351280301809311e-03,-1.094167958945035934e-02,-8.187324739992618561e-03,5.503071844577789307e-02,-9.297482169385021256e-02,-9.233564992250791609e-03,-4.670311094321089040e-03,-0.000000000000000000e+00,0.000000000000000000e+00,0.000000000000000000e+00,5.148861052459995369e-01,0.000000000000000000e+00
2.324466999999999839e+00,2.153682629374961688e-02,-7.890383619145817026e-03,9.823438525199890137e-01,1.292014818083808692e-02,-3.361069730960445333e-03,-1.467589779815980933e-03,1.283729840596283499e-02,-9.868418910771470723e-03,-6.654496304690837860e-03,-7.183410972356796265e-02,-2.052075788378715515e-02,-1.864058710634708405e-02,-9.542930473928541713e-02,5.627902785267578992e-03,-4.244295463921299305e-03,0.000000000000000000e+00,0.000000000000000000e+00,0.000000000000000000e+00,5.151792986504469818e-01,0.000000000000000000e+00
2.349059000000000008e+00,2.213654929680495403e-02,-9.176047039199573818e-03,9.829013347625732422e-01,1.248606271258489997e-02,-3.527614041156980264e-03,-1.197656057734475255e-03,-8.856551647815413125e-03,-8.156397563408369564e-03,-1.513061812147498131e-03,2.990716323256492615e-02,1.016756985336542130e-02,-9.904126636683940887e-03,-9.042405142159931630e-02,-2.271918350711410461e-02,-3.422615992400124263e-03,0.000000000000000000e+00,-0.000000000000000000e+00,-0.000000000000000000e+00,5.147594754339506196e-01,0.000000000000000000e+00
2.374473000000000056e+00,2.265890338488663752e-02,-1.043517523331451841e-02,9.833062887191772461e-01,1.233182321824544125e-02,-3.829393631719638785e-03,-9.666605427245400506e-04,2.228600516119439573e-03,-1.299803085120809949e-02,-9.545569308102130890e-03,-7.614769274368882179e-04,-1.899191737174987793e-02,3.560415282845497131e-02,-9.576973022300314109e-02,-5.096150628846336794e-03,-2.827935685938032240e-03,0.000000000000000000e+00,0.000000000000000000e+00,0.000000000000000000e+00,5.153383573857925892e-01,0.000000000000000000e+00
2.401015000000000121e+00,2.296276255118392604e-02,-1.122334737363832324e-02,9.835297465324401855e-01,1.226639303188337138e-02,-3.727617653725508531e-03,-9.872825777588190022e-04,2.171285261805331983e-03,-1.258788856933294557e-02,-8.889569900929927826e-03,-2.879412285983562469e-02,-4.474985413253307343e-03,-7.329795043915510178e-03,-9.368991641994912911e-02,-8.310919713010463117e-03,-2.874272082760032099e-03,0.000000000000000000e+00,0.000000000000000000e+00,0.000000000000000000e+00,5.152817473564466066e-01,0.000000000000000000e+00
2.424285999999999941e+00,2.342286916403640493e-02,-1.234940553443161261e-02,9.837609529495239258e-01,1.213336301664114103e-02,-3.336698611056971436e-03,-8.178958087838861246e-04,-2.708086926619112343e-03,-9.475809145821701904e-03,-1.346886996179819107e-02,2.595962490886449814e-03,1.599509827792644501e-02,-5.184631329029798508e-03,-9.052733541781594895e-02,-1.042289067883012468e-02,-2.380233005225662613e-03,-0.000000000000000000e+00,-0.000000000000000000e+00,0.000000000000000000e+00,5.156150823934483318e-01,0.000000000000000000e+00
2.449784999999999879e+00,2.374721762314465495e-02,-1.335075689181305751e-02,9.839244484901428223e-01,1.134040442483086331e-02,-2.990020082960220208e-03,-3.706327663033359698e-04,-3.756888413746889074e-03,-1.284110252405420288e-02,-1.133212167769670486e-02,-3.497659415006637573e-02,2.218514680862426758e-02,3.277942165732383728e-02,-9.061031295430388433e-02,-7.219632249471712518e-03,-1.119110044003335247e-03,-0.000000000000000000e+00,0.000000000000000000e+00,0.000000000000000000e+00,5.154551473376582926e-01,0.000000000000000000e+00
2.474885000000000002e+00,2.398313911945527954e-02,-1.426285325636576090e-02,9.841218590736389160e-01,1.054444008619381812e-02,-3.457089541693369843e-03,4.820820446127527248e-05,2.845925157373948092e-03,-9.877092120256846658e-03,-1.085217110812664032e-02,-3.268641605973243713e-02,-5.796554684638977051e-02,3.183801658451557159e-03,-8.179710376497122126e-02,-2.954264299578090915e-03,3.832704894857208444e-05,0.000000000000000000e+00,0.000000000000000000e+00,0.000000000000000000e+00,5.154152886521263799e-01,0.000000000000000000e+00
2.499531000000000169e+00,2.414253376007547552e-02,-1.485829675801213223e-02,9.843383431434631348e-01,1.011746749489073061e-02,-3.577577753273810269e-03,1.625039898776048375e-04,-2.358869152315216412e-03,-1.266132001512439154e-02,-1.296283490955829620e-02,-2.965191937983036041e-02,1.207775902003049850e-02,-2.803966775536537170e-02,-8.334442935494465465e-02,-1.132823530764716716e-02,3.717470472921480251e-04,-0.000000000000000000e+00,-0.000000000000000000e+00,0.000000000000000000e+00,5.155662487349688128e-01,0.000000000000000000e+00
2.525491000000000152e+00,2.434081463755792540e-02,-1.568488050524760244e-02,9.846159815788269043e-01,9.838573342447087811e-03,-3.806230883462483148e-03,4.888476056010837567e-04,-7.756918501384138867e-03,-9.089312800744887497e-03,-5.022235214710235596e-03,3.859136626124382019e-02,-6.429263739846646786e-04,1.861022599041461945e-02,-7.745370125371432712e-02,-1.625616021097919459e-02,1.291086576052702384e-03,0.000000000000000000e+00,-0.000000000000000000e+00,0.000000000000000000e+00,5.149624713341671711e-01,0.000000000000000000e+00
2.549755000000000216e+00,2.442041235510134314e-02,-1.640303838479192575e-02,9.848642945289611816e-01,9.959781781392118560e-03,-3.774493802824299086e-03,5.682716786763464256e-04,-2.339461472484263664e-03,-1.090181339058684737e-02,-1.225594896823167801e-03,-1.468874048441648483e-02,1.738264039158821106e-02,2.394760027527809143e-02,-8.190171496407999685e-02,-8.454554968953352859e-03,1.499215258332742273e-03,-0.000000000000000000e+00,-0.000000000000000000e+00,0.000000000000000000e+00,5.146690132438840326e-01,0.000000000000000000e+00
2.574294000000000082e+00,2.456096301557746803e-02,-1.776459064103563801e-02,9.854416847229003906e-01,9.838261498715139552e-03,-3.274332591416493927e-03,1.121327574905572888e-03,-1.198039626836572627e-02,-9.741698494484153301e-03,-3.135078120976686478e-03,8.389815688133239746e-03,1.277038361877202988e-02,1.276511233299970627e-03,-8.014581002355274097e-02,-1.693170995035440246e-02,3.076291101000050432e-03,0.000000000000000000e+00,-0.000000000000000000e+00,0.000000000000000000e+00,5.147736122888652011e-01,0.000000000000000000e+00
2.600849999999999884e+00,2.456073880630697467e-02,-1.861451598641431990e-02,9.857712984085083008e-01,9.279326692334999294e-03,-3.445649310577241723e-03,1.661153137588966544e-03,-9.754828007300941212e-03,-5.839560889335800031e-03,-6.443045102059841156e-03,-2.624634280800819397e-02,-6.237723398953676224e-03,2.858581393957138062e-02,-7.351780414720869572e-02,-1.223351745038108070e-02,4.580773858944731103e-03,-0.000000000000000000e+00,0.000000000000000000e+00,0.000000000000000000e+00,5.150027375832282317e-01,0.000000000000000000e+00
2.623654999999999848e+00,2.451271081358814830e-02,-1.913070261671259362e-02,9.858932495117187500e-01,8.650674781483846942e-03,-3.494322692904791930e-03,2.056808683600364063e-03,-1.012693629325620709e-02,-1.016001002729877319e-02,-6.033806595951318741e-03,-4.839881509542465210e-02,2.832853980362415314e-02,3.078835271298885345e-02,-7.563477289345335586e-02,-1.376288663128932485e-02,5.691183082688677786e-03,-0.000000000000000000e+00,0.000000000000000000e+00,0.000000000000000000e+00,5.149714803379282779e-01,0.000000000000000000e+00
2.649099999999999788e+00,2.471118549005136070e-02,-2.001750859770745627e-02,9.862745404243469238e-01,8.326232316453907600e-03,-3.814159177240279436e-03,2.549280436922263249e-03,-9.990557969146720077e-03,-1.192828816629247848e-02,-3.671644255518913269e-03,1.542393025010824203e-02,-3.720688074827194214e-02,2.292479015886783600e-02,-7.437115765386961841e-02,-1.542211641212393701e-02,7.066328872249949544e-03,0.000000000000000000e+00,0.000000000000000000e+00,0.000000000000000000e+00,5.147741800087689557e-01,0.000000000000000000e+00
2.673541999999999863e+00,2.490024275487931135e-02,-2.088362241143535553e-02,9.868153333663940430e-01,8.572706296401833015e-03,-3.380484263344658152e-03,2.789866167083765447e-03,-7.362527740681489019e-03,-5.152691052561189818e-03,-4.088027402758598328e-03,1.764666102826595306e-02,4.558108747005462646e-02,-9.718040819279849529e-04,-6.898965653180354207e-02,-9.811591775260523896e-03,7.744235794271081552e-03,-0.000000000000000000e+00,-0.000000000000000000e+00,0.000000000000000000e+00,5.147706987909389520e-01,0.000000000000000000e+00
2.698964000000000141e+00,2.500783537118021760e-02,-2.144368689021172725e-02,9.871653318405151367e-01,8.966039132666914213e-03,-2.984400094862497532e-03,3.055135299375733027e-03,-1.055373349096317206e-02,-8.063611186457129293e-03,-9.391020284965634346e-04,2.757155150175094604e-02,2.882731519639492035e-02,2.402160502970218658e-02,-7.739296278062088308e-02,-1.137654667969679664e-02,8.494165578477208545e-03,0.000000000000000000e+00,-0.000000000000000000e+00,0.000000000000000000e+00,5.145160471774216093e-01,0.000000000000000000e+00
2.723711999999999911e+00,2.507572113469986111e-02,-2.216625146642497643e-02,9.875848293304443359e-01,9.226649245458462545e-03,-2.519021872227340461e-03,3.477016899393836624e-03,-8.550929346223463609e-03,-7.101138200045552934e-03,-1.027153432369232178e-02,-1.331581384874880314e-03,-1.068338286131620407e-03,1.510430406779050827e-02,-7.750619284893631167e-02,-5.090840602125295926e-03,9.677658961995239117e-03,-0.000000000000000000e+00,0.000000000000000000e+00,0.000000000000000000e+00,5.151871901908092743e-01,0.000000000000000000e+00
2.749122999999999983e+00,2.507535112582376033e-02,-2.275644049792978005e-02,9.880141019821166992e-01,9.016583047730231115e-03,-2.355684074120262261e-03,3.928255043792017176e-03,-1.665153629617728906e-02,-3.807840826606112387e-03,-9.227424860000610352e-03,-2.904971130192279816e-02,4.950695205479860306e-03,1.644652918912470341e-03,-7.351819559919609004e-02,-1.300754741129883651e-02,1.095841760769772355e-02,-0.000000000000000000e+00,0.000000000000000000e+00,0.000000000000000000e+00,5.150848060897749159e-01,0.000000000000000000e+00
2.773338999999999999e+00,2.502713687186517572e-02,-2.322645630338798090e-02,9.885678887367248535e-01,8.847865401353516290e-03,-2.635001335177500868e-03,4.568380185741460764e-03,-1.304681688063581875e-02,-5.918935929104886078e-03,4.077028948813676834e-03,3.509670495986938477e-02,-2.322695450857281685e-03,3.872689604759216309e-02,-7.619804893542024560e-02,-8.187826063341495722e-03,1.273663499160343493e-02,0.000000000000000000e+00,0.000000000000000000e+00,0.000000000000000000e+00,5.140575930467577992e-01,0.000000000000000000e+00
