timestamp,x,y,z,roll,pitch,yaw,vx,vy,vz,p,q,r,psp,qsp,rsp,pres,qres,rres,thrust_sp, thrust_res
0.000000000000000000e+00,-6.624589688598050280e-03,5.547646393244160153e-03,9.963635206222534180e-01,1.043022680176913797e-02,-8.455349912994902795e-03,1.064922331782014453e-02,-5.864914169243160003e-04,-1.008932701087479622e-02,4.333318676799535751e-03,6.966086601032826613e-03,3.290595851632558203e-03,-5.298109562854984300e-02,-2.500885807242054226e-01,1.566352578354308078e-01,1.110369128747798056e-01,-1.775229895229568089e-01,2.161287195531222671e-01,8.109502523577045985e-02,5.254440317759409007e-01,7.292147874832153320e-01
2.298400000000000096e-02,-6.547860837808307070e-03,5.114826111503184558e-03,9.965125918388366699e-01,1.054284917756052008e-02,-8.237569468295902197e-03,1.110130507772066899e-02,3.672023562641181429e-03,-7.266485044336735283e-03,-5.942948046140372753e-04,1.459925684274494470e-02,3.053053429895290910e-02,3.684248105559891073e-02,-2.956183879783722546e-01,1.660120845573856418e-01,-2.000484227181436869e-01,-2.257758417795952266e-01,2.204896127360320701e-01,-2.312532654359920337e-01,5.035856326469495547e-01,-4.594116210937500000e-01
4.870100000000000123e-02,-6.435372202932943854e-03,4.531653380821001539e-03,9.966802000999450684e-01,1.060396046864640722e-02,-7.865433859528758731e-03,1.125941146143061289e-02,2.741894314224230765e-03,-5.661371716814145479e-03,3.715263446792960167e-03,1.969205705815204807e-02,3.713867809000620523e-02,-9.178195450985030673e-03,1.500555911476301740e-01,1.682074449816949313e-01,-8.355777953567848637e-02,2.197719251267510332e-01,2.215798021793286277e-01,-1.152044897279871777e-01,5.248456625192357006e-01,6.953192949295043945e-01
7.462000000000000577e-02,-6.382524881973484360e-03,4.151002367033702900e-03,9.968561530113220215e-01,9.824945650062488073e-03,-7.855729151989176984e-03,1.216603774716618069e-02,2.002175360114352536e-03,5.235669116852820042e-04,-1.217458490282297134e-02,-8.241115783641160542e-02,1.050686658644623024e-02,1.182110168887145624e-01,-2.869147977547608086e-01,1.625993967708931898e-01,2.428955891222666086e-01,-2.267768568691149733e-01,2.162972693434987992e-01,2.087105120369345257e-01,5.267850296102294383e-01,7.380125522613525391e-01
9.786699999999999566e-02,-6.393611125479128389e-03,3.803331952026709709e-03,9.969856739044189453e-01,7.468609621356612181e-03,-9.052458563171938977e-03,1.478826166629643168e-02,-8.986218985106715629e-03,6.629956345548552663e-04,-7.922075688838958740e-03,-4.431114358422642147e-02,-7.425017071439750371e-02,9.247930817334495956e-02,-2.263260000732686961e-01,1.220002218037019304e-01,9.805996567795069452e-02,-1.805637998040942604e-01,1.922933992541340786e-01,5.653349899345452151e-02,5.265488112709078017e-01,7.418792247772216797e-01
1.244450000000000001e-01,-6.538256714167054590e-03,2.819332770521546655e-03,9.972360134124755859e-01,5.587986039539479845e-03,-1.282148966621687869e-02,1.549111658656654456e-02,4.840768675510620164e-03,-7.601716093842102173e-03,4.354682750999927521e-03,-8.531292713292519536e-02,-1.533340302192514326e-01,-6.546353003723948127e-02,-2.191176460557269223e-01,8.436315823030746119e-02,-1.455219721861826521e-01,-1.780232253556919275e-01,1.666237468426221002e-01,-1.889828316474305991e-01,5.257348174745076763e-01,7.471507787704467773e-01
1.466739999999999988e-01,-6.591034126787150178e-03,2.198711149180485568e-03,9.973605275154113770e-01,3.301990985273013657e-03,-1.610488634927342844e-02,1.496546544020671554e-02,2.874474254872221111e-03,1.808655606223188127e-03,-4.499641712754964828e-03,-1.365691091764372755e-01,-1.554644380684363225e-01,-2.735795219874155582e-02,-2.058214641486913188e-01,8.162284354664359198e-03,-1.241824617568984823e-01,-1.880014926707581358e-01,1.081622843546643647e-01,-1.661747006790096626e-01,5.261695478261368963e-01,7.359718084335327148e-01
1.737640000000000018e-01,-6.820558826255525807e-03,1.534261959509173592e-03,9.975469708442687988e-01,-1.815155722829158878e-03,-2.015416987131879445e-02,1.533098166958857256e-02,-7.650637092761720243e-03,7.005085081218163576e-03,4.624901805073022842e-03,-1.927524815166385408e-01,-1.285339290315867522e-01,4.693592295963892186e-02,-1.644792584031934402e-01,-5.144504287093350919e-02,6.548905127953057181e-02,-1.823544898081194410e-01,4.855495712906649636e-02,2.258972778038324802e-02,5.253617016353167024e-01,7.288730144500732422e-01
1.974229999999999874e-01,-7.008614618657181723e-03,1.217724135813575553e-03,9.977554678916931152e-01,-6.493048176346414430e-03,-2.240441863574482717e-02,1.695354195805487407e-02,-1.303419324302183824e-02,1.481617492551663695e-02,-2.873117337003350258e-03,-2.683320034604956827e-01,-7.304950301514055722e-02,1.175936899554090309e-01,-2.085178260782127868e-02,1.007761117743494195e-01,2.390431547805411394e-01,-7.446210757700981453e-02,2.007761117743494250e-01,1.917369671163518252e-01,5.260172599387891168e-01,7.354537248611450195e-01
2.240149999999999919e-01,-7.498448710268309884e-03,1.513274842521478147e-03,9.981630444526672363e-01,-1.361866244367816378e-02,-2.447215999811014342e-02,1.866048566494149519e-02,-5.105587749446340896e-03,1.408913155548973360e-02,-3.817308461293578148e-04,-1.960349271967816442e-01,-5.661571671699978242e-02,4.294285083832696803e-02,2.165584767087107010e-01,4.892782910434820276e-02,2.662342270083818963e-01,1.183174406256835842e-01,1.489278291043482083e-01,2.144206122069364784e-01,5.253924494408831469e-01,7.128367424011230469e-01
2.494540000000000091e-01,-7.770504936849599760e-03,1.730027670135685092e-03,9.986022114753723145e-01,-1.747347014570567111e-02,-2.500263558212711956e-02,1.794665078793822310e-02,-7.629811668242962065e-03,1.511157959676040496e-02,1.598344370722770691e-02,-2.013254447418085791e-01,-4.199410786752128671e-02,-9.224678236972654044e-02,3.062497606011360674e-01,8.265646189902350893e-02,2.762644374621498478e-01,2.062497606011360340e-01,1.826564618990235145e-01,2.266049968703441886e-01,5.242470609813979499e-01,7.176895141601562500e-01
2.722510000000000208e-01,-8.055608833341684413e-03,2.004660930826190554e-03,9.991714358329772949e-01,-1.937728696754406621e-02,-2.573227780704989698e-02,1.651013733137562944e-02,-6.765362991326200406e-03,1.574752937553420065e-02,2.793159708380699158e-02,-3.951358173345129871e-02,-2.516790393962556674e-02,-1.050577189000870826e-01,3.025573235154599971e-01,-1.030816147901707225e-01,2.312558735161732160e-01,2.025573235154599916e-01,-3.081614790170719969e-03,1.857010171918458408e-01,5.235986557333452973e-01,7.333040237426757812e-01
2.980260000000000131e-01,-8.581264482010721173e-03,2.409918576948003304e-03,1.000173807144165039e+00,-1.885880749876354262e-02,-2.758611663567478445e-02,1.330994105795002547e-02,-8.040371166569911660e-03,9.892202838205273532e-03,3.868339210748672485e-02,7.243433177165578551e-02,-9.109548093084234022e-02,-1.408903165434224058e-01,1.251605596315572000e-01,-9.123404993031213051e-02,2.137258076232461390e-01,2.516055963155720138e-02,8.765950069687875046e-03,1.771896165575618520e-01,5.224393748839738505e-01,7.188650369644165039e-01
3.222369999999999957e-01,-8.961883931233790082e-03,2.353526540162094623e-03,1.001039385795593262e+00,-1.547310991057186842e-02,-2.880838138913821567e-02,1.117944355251321298e-02,-1.742955277641634534e-02,1.841695964822517156e-02,3.730560839176177979e-02,2.413843390305010772e-01,-3.164079012660987733e-02,-8.709981815155912188e-02,-7.643950051444972638e-02,2.577627166938503689e-02,6.934213216655348011e-02,-1.764395005144497319e-01,1.257762716693850424e-01,3.862571917280620271e-02,5.227216305359478898e-01,7.339580059051513672e-01
3.481960000000000055e-01,-9.560182209593507882e-03,2.379928918652888040e-03,1.002521157264709473e+00,-7.894448983664108591e-03,-2.958211741103156101e-02,7.679331806738742827e-03,-2.156034616967946252e-02,1.700522776283417900e-02,4.388508945703506470e-02,2.870414082199967409e-01,3.154521454781968569e-03,-1.128079064503685613e-01,-1.150449247517872919e-01,2.894253247230085813e-02,3.651251661266573245e-02,-1.792596589956843012e-01,1.289425324723008637e-01,1.528330833780504328e-02,5.220065228348746977e-01,7.293983697891235352e-01
3.740419999999999856e-01,-1.021420034012962205e-02,2.657641819638652172e-03,1.004025936126708984e+00,-1.791278743561336081e-03,-2.779452898316026044e-02,5.101733760354720815e-03,-2.575167809902572172e-02,3.370290904218849887e-02,2.851776778697967529e-02,1.265281158734824218e-01,9.637085970717527983e-02,-3.823647898948057816e-02,7.349376763479545382e-02,9.803304983093405478e-02,-1.344836317228323974e-01,3.478954800096752814e-02,1.980330498309340603e-01,-1.488732101489866899e-01,5.225403465330064057e-01,7.050154209136962891e-01
3.996799999999999797e-01,-1.074442234937326816e-02,3.030763949206394595e-03,1.005010247230529785e+00,4.906826558386444487e-04,-2.622619678915394381e-02,3.895995197549018130e-03,-3.188545797251599728e-02,3.206986732572160437e-02,4.445183277130126953e-02,8.443840720536130440e-02,6.718189884642676579e-02,-7.751607512578283232e-02,1.408693743906983820e-01,5.579031941477516354e-02,7.598483571334875564e-02,1.202955751849898031e-01,1.557903194147751691e-01,6.489735715799573035e-02,5.208992335694627718e-01,6.855344772338867188e-01
4.300350000000000006e-01,-1.167520262132336513e-02,3.599543364057693033e-03,1.006381034851074219e+00,7.027352626869407893e-04,-2.461797179324465290e-02,3.946425754234317296e-03,-3.945626145752739039e-02,3.986358857857724702e-02,4.477326199412345886e-02,-3.655399453534127763e-02,4.728575474147043989e-02,4.265108089797445268e-02,-2.004019319502121643e-01,1.165151519427535809e-01,2.083788608268717923e-01,-2.267698540822394304e-01,2.165151519427535864e-01,1.970986129954176991e-01,5.217795785862850977e-01,7.422008514404296875e-01
4.471040000000000014e-01,-1.202841962728021588e-02,3.837106826020465853e-03,1.006880402565002441e+00,9.059914419739982863e-04,-2.488895467348251067e-02,4.200010574356483062e-03,-3.791106966072145534e-02,3.699815045337250669e-02,5.565721914172172546e-02,2.846600139342802399e-03,-3.117401719353334738e-02,-1.509902640075884948e-02,-2.289582388536743479e-02,-3.190918188399998745e-01,1.265957413408335397e-01,-4.480898513858968396e-02,-2.190918188399998690e-01,1.146173766488276236e-01,5.203094585350844792e-01,7.109249830245971680e-01
4.744670000000000276e-01,-1.377411617507929946e-02,4.701300714037819593e-03,1.009168148040771484e+00,3.081298510270616669e-03,-2.761272902752920366e-02,3.154228791086177708e-03,-5.290490752987356271e-02,3.428636412111084331e-02,5.588126182556152344e-02,9.532203641820914675e-02,-9.811581942569809478e-02,-1.120837100592921715e-01,3.524658630697831158e-03,-3.117849155200250744e-01,1.637709967622263396e-01,-3.207037343352328162e-03,-2.117849155200250966e-01,1.545869245470882225e-01,5.191290848690595094e-01,6.602246761322021484e-01
4.970939999999999803e-01,-1.462206696454188860e-02,5.157841160469222794e-03,1.010333299636840820e+00,3.667635836255999596e-03,-2.871348123218186998e-02,1.916599488582582111e-03,-4.696010713121638591e-02,4.513165832338504602e-02,4.756169021129608154e-02,4.111382311474653245e-02,-1.275887650209585854e-02,-2.956830918604839986e-02,-1.583448879543862542e-02,-2.557393906121337435e-01,1.223543075929913737e-01,-2.846662956923700152e-02,-1.557393906121337379e-01,1.165319634929644632e-01,5.194191609390843567e-01,6.504824161529541016e-01
5.215340000000000531e-01,-1.548072201559944072e-02,5.529173333491314499e-03,1.011441707611083984e+00,3.472173192559863727e-03,-2.731751584141206557e-02,1.767444720977007222e-04,-4.349353856217148123e-02,4.360311824264358205e-02,3.952093422412872314e-02,-3.603006013831232257e-02,1.005767914648618144e-01,-9.243479240774385430e-02,-1.924969263185545287e-01,2.129566503155190527e-02,-4.679150987168451820e-02,-2.039091039882078571e-01,1.212956650315519108e-01,-4.769475125786577091e-02,5.210587771582244621e-01,7.141892910003662109e-01
5.481549999999999478e-01,-1.667128649429390486e-02,5.852929427691677851e-03,1.012923598289489746e+00,2.515718512402053200e-03,-2.129643779240808499e-02,-1.979318677008290450e-03,-3.371907228294315079e-02,4.950261840441257111e-02,3.665520250797271729e-02,-3.840414804040550439e-02,2.293050835594406256e-01,-6.295054390859404492e-02,-2.005208198438980238e-01,9.820533939123765599e-02,1.748758560726799971e-01,-2.236085307808873268e-01,1.982053393912376615e-01,1.800992474585766112e-01,5.216153251138310187e-01,7.413039207458496094e-01
5.741870000000000029e-01,-1.793342389040361237e-02,6.328847170921590541e-03,1.014393210411071777e+00,1.589287150818478574e-03,-1.395389450081596650e-02,-3.439813453964157830e-03,-4.730964456283898861e-02,4.508763359472012927e-02,4.580249264836311340e-02,-3.781234470832341849e-02,2.239365382800692916e-01,-6.560632167664388892e-02,-2.006440026784399588e-01,1.146538354677444915e-01,1.628970886009876717e-01,-2.257787714553625147e-01,2.146538354677444971e-01,1.723183085956568328e-01,5.208866242133526336e-01,7.466969490051269531e-01
5.972319999999999851e-01,-1.884921652809377554e-02,6.675873414029473603e-03,1.015379667282104492e+00,2.758394014528462801e-04,-1.053242785885588617e-02,-4.041101776706801374e-03,-5.259084554746409901e-02,4.930845945751228393e-02,4.551709443330764771e-02,-4.513781404131804453e-02,1.184485152409979897e-01,-3.939826672892480890e-03,-1.852517134322533288e-01,1.144500211964600556e-01,1.864587402500953728e-01,-2.234440002220344224e-01,2.144500211964600611e-01,1.976083117850611359e-01,5.206941778685517663e-01,7.419822216033935547e-01
6.223189999999999555e-01,-1.995795342281051973e-02,7.268176383094122721e-03,1.016457319259643555e+00,-1.732268431781926752e-03,-9.213999852075716035e-03,-5.854722384170729654e-03,-4.632057309310397275e-02,5.090545499230740567e-02,4.245451465249061584e-02,-1.224576857509473565e-01,1.560583876670246749e-03,-1.255851797458928942e-01,2.617099124992994241e-01,1.161352003592220627e-01,-2.154786067111436054e-01,2.092406296615543781e-01,2.161352003592220683e-01,-1.991907728095181906e-01,5.208899194884887285e-01,7.477374076843261719e-01
6.500569999999999959e-01,-2.187452146205877065e-02,8.550987638619982761e-03,1.017974138259887695e+00,-6.577455056976512331e-03,-9.856644139698778062e-03,-8.483790676706792766e-03,-6.140086488066156395e-02,6.442560186431241231e-02,3.187249600887298584e-02,-2.031464130833811332e-01,-4.682848414725017394e-02,-5.599666889311175066e-02,2.617664705267618852e-01,5.844713210205176868e-02,-1.457847628064386503e-01,1.661349207998395194e-01,1.584471321020517742e-01,-1.220731559458662213e-01,5.209789522832435349e-01,7.186784744262695312e-01
6.739270000000000538e-01,-2.327699472553725057e-02,9.533313323049383975e-03,1.019007802009582520e+00,-9.892896417524789029e-03,-1.207805663327854440e-02,-9.661770319123741402e-03,-6.348400439847386167e-02,5.716783687296832228e-02,4.989824444055557251e-02,-1.510120997670081344e-01,-1.326992234098753887e-01,-3.335243908361247567e-02,2.499094204539585307e-01,-2.466673096207265548e-01,1.237012690044005103e-01,1.499094204539585251e-01,-1.466673096207265492e-01,1.508376518936498101e-01,5.180200880384882023e-01,6.380265951156616211e-01
6.971129999999999827e-01,-2.554820116795690835e-02,1.105550925562787459e-02,1.020824551582336426e+00,-1.099679134931618417e-02,-1.673082280864113258e-02,-8.180175311424564555e-03,-6.202617673101642332e-02,5.875543230330699390e-02,5.676434561610221863e-02,-6.050997241963802092e-03,-1.849038817262515788e-01,3.439577487155125873e-02,2.252253048031712668e-01,-3.055220333420974876e-01,5.001981008242105398e-02,1.252253048031712612e-01,-2.055220333420975098e-01,7.304533468171735267e-02,5.180766843609803107e-01,6.791666746139526367e-01
7.217390000000000194e-01,-2.717341920963130958e-02,1.196439441094290096e-02,1.022217035293579102e+00,-8.433925613013001574e-03,-1.982187754196229612e-02,-7.427566893944748116e-03,-5.555539809605555129e-02,5.961019668047094766e-02,6.321930885314941406e-02,2.035942485706564442e-01,-1.659858775267791797e-01,3.599145372788922076e-02,1.095305339849864668e-01,-2.803239335173064450e-01,8.849430828480976674e-02,9.530533984986454266e-03,-1.803239335173064117e-01,1.093120808108452163e-01,5.177250160104048815e-01,6.955862045288085938e-01
7.474739999999999718e-01,-2.957900345841289746e-02,1.321200381763995742e-02,1.024485468864440918e+00,-2.276463535226147094e-03,-2.019275225968031329e-02,-8.808502446437938005e-03,-6.513270104549810646e-02,5.381224966479263710e-02,6.252913922071456909e-02,2.264664961628957696e-01,9.547938297379611472e-02,-6.783152350716631362e-02,5.820721485098109826e-02,1.567269419344147208e-02,-4.336076795513599258e-02,-3.970523285891760894e-03,1.156726941934414776e-01,-1.891505732294302203e-02,5.172295877751948989e-01,6.793422698974609375e-01
7.724060000000000370e-01,-3.101053456455021146e-02,1.412050987644707795e-02,1.025884985923767090e+00,2.130920967409259160e-03,-1.747651383531301228e-02,-9.607480589258754478e-03,-4.634933036899593906e-02,5.987234558725941513e-02,6.215535849332809448e-02,2.096652289588835372e-01,1.927480361380417839e-01,-2.564487370642086830e-02,8.539301743372149089e-02,8.193795539900464164e-02,-1.857275288904071953e-01,4.503260853111969164e-02,1.819379553990046472e-01,-1.592044705287078143e-01,5.176533040342955472e-01,7.108191251754760742e-01
8.003900000000000459e-01,-3.311092276489799313e-02,1.563581833450698386e-02,1.027813673019409180e+00,8.082605344840981809e-03,-1.063770579932232785e-02,-1.078889203456734336e-02,-5.427734499341598656e-02,6.456486544312070586e-02,5.229369550943374634e-02,2.071502505602824118e-01,2.339327802818833568e-01,-2.433054738596145475e-02,1.238362926751179482e-01,1.146790963533045049e-01,-2.281426600063013732e-01,1.182361950799166589e-01,2.146790963533045105e-01,-1.984255935392361947e-01,5.184288930986575838e-01,7.248480319976806641e-01
8.220169999999999977e-01,-3.434565668707532937e-02,1.659470991270909843e-02,1.029123067855834961e+00,1.124259056361550865e-02,-6.867990424159531315e-03,-1.067099136099614043e-02,-5.971954368716617806e-02,6.891872836460423424e-02,4.505788162350654602e-02,1.341273182899130889e-01,1.651901529951270431e-01,5.665751102163403552e-02,3.791825451870223240e-02,1.204831874060720009e-01,-2.485517698081635973e-01,4.920194065899458763e-02,2.204831874060720065e-01,-2.191823346211304868e-01,5.189273013737430995e-01,7.317701578140258789e-01
8.484340000000000215e-01,-3.608219292521949034e-02,1.800052670540033470e-02,1.031170964241027832e+00,1.634236296474287850e-02,-4.070271534900804511e-03,-8.809822778766296381e-03,-7.166706190148000588e-02,6.265556392728881263e-02,6.515425443649291992e-02,1.953369366693101516e-01,5.881613439358807094e-02,1.300665297573900536e-01,-2.632192006200626544e-01,7.927476312990799912e-02,-1.794556604540016587e-01,-2.144551997166671831e-01,1.792747631299080047e-01,-1.553668464899367885e-01,5.174473310381582092e-01,7.442159652709960938e-01
8.732799999999999452e-01,-3.733240916028312401e-02,1.891267330591153706e-02,1.032633423805236816e+00,1.935511244633532010e-02,-4.177553141993417540e-03,-7.129738318561118504e-03,-5.832711718344375795e-02,6.210563424745318972e-02,7.151480019092559814e-02,1.442557917187629879e-01,-4.776986973573492390e-02,3.771437536716316929e-02,-2.567048717041042760e-01,-9.484102123173378251e-02,2.688457472924498520e-02,-1.900263867331203893e-01,7.958162654296346231e-04,4.626179145001829002e-02,5.165915773647815623e-01,7.346777915954589844e-01
8.991240000000000343e-01,-3.928985522891891013e-02,2.033361727555249576e-02,1.034786224365234375e+00,2.170329054543770550e-02,-5.856827296642830305e-03,-3.628612496281657940e-03,-6.983994311626359752e-02,5.673946088784962566e-02,6.595728546380996704e-02,-8.014474824109947548e-03,-9.527487874924911448e-02,1.285306074694481382e-01,-9.897928491858079547e-02,-2.837905074774158543e-01,-7.131427538131532295e-02,-1.398649601134376724e-02,-1.837905074774158487e-01,-6.193503804057273743e-02,5.156528066187390236e-01,6.755893230438232422e-01
9.216990000000000460e-01,-4.055570587394777965e-02,2.134080311014792744e-02,1.036145687103271484e+00,2.078977847179189903e-02,-6.913205092571983457e-03,-2.158918454273850429e-03,-6.147716807713218129e-02,7.229427090031853576e-02,5.896273255348205566e-02,-3.910936667845528458e-02,-1.928797543746502488e-02,3.692589147210328937e-02,-8.811915509935855373e-02,-1.364925760371084595e-01,-4.650738531546288329e-02,-2.380267562101517215e-02,-3.649257603710846787e-02,-4.127247937752775292e-02,5.165760570007853492e-01,7.074618339538574219e-01
9.474089999999999456e-01,-4.277586581071816246e-02,2.242492130465751840e-02,1.037974119186401367e+00,1.618117116364669802e-02,-7.427603091710199834e-03,-1.378598608730907671e-03,-5.857398252628907842e-02,5.530409877370533189e-02,5.936584994196891785e-02,-1.903388693782765984e-01,-8.494449996276043705e-03,-1.766471925396262063e-02,-9.407289962821149820e-02,-8.721106534923234177e-02,-1.498038650293588292e-01,-4.434805367043605923e-02,1.278893465076765684e-02,-1.465968966892448044e-01,5.162467899806668647e-01,7.038508653640747070e-01
9.716799999999999882e-01,-4.412139061259606060e-02,2.320809330293438152e-02,1.039062738418579102e+00,1.260221070664681482e-02,-5.178139363055667133e-03,-5.361583604521769075e-04,-5.096140488211346048e-02,6.797939297859363628e-02,5.436322838068008423e-02,-1.465261536858645797e-01,1.571431656219386963e-01,4.814586162762633792e-02,-2.156004682466488853e-01,1.092313759901927805e-01,4.696453998906874316e-02,-2.030608373147665957e-01,2.092313759901927861e-01,4.794782696519422904e-02,5.164460044695902141e-01,7.035342454910278320e-01
9.984790000000000054e-01,-4.606527703722227557e-02,2.429001597085541850e-02,1.040731549263000488e+00,8.004993092546217395e-03,-1.286161834997079367e-03,5.661057269956693005e-04,-5.273198802731798168e-02,6.281265828341206503e-02,4.968716949224472046e-02,-1.225233811334997258e-01,1.160634870047257405e-01,2.344346925572872442e-02,-1.746577452378996753e-01,1.333096793048267059e-01,4.966619299472649351e-02,-1.868468271774919032e-01,2.154653423772286969e-01,4.776464896987928088e-02,5.162956765250424906e-01,6.881285905838012695e-01
1.026602000000000015e+00,-4.732466918190421368e-02,2.501981815812021753e-02,1.041808009147644043e+00,5.280655996629687182e-03,1.419271211500650054e-03,1.641451542018002030e-03,-6.187224208675057291e-02,5.809970515276099978e-02,4.314246773719787598e-02,-1.676162112545016847e-01,1.411117824219686179e-01,6.449887674206664090e-02,-1.748356186627204323e-01,1.446294400854905571e-01,9.628508125038802434e-02,-2.024026374100987569e-01,2.175786235674832814e-01,9.145664727962458940e-02,5.168779669386305287e-01,7.018214464187622070e-01
1.050748999999999933e+00,-4.838834314310334200e-02,2.635364130285861028e-02,1.042986273765563965e+00,2.598018810608260752e-03,2.307955768490854709e-03,1.557140494939268649e-03,-4.816045351843430133e-02,5.789720041865303868e-02,5.381083115935325623e-02,-1.745863226496547904e-01,6.407973000734697167e-02,-4.002472704540885329e-02,-7.405457419062091984e-02,1.625653773969565896e-01,-8.894558341759600112e-03,-1.209477301714453196e-01,2.182707469656184618e-01,-1.340333111592854551e-02,5.151258131009079921e-01,6.598093509674072266e-01
1.074599000000000082e+00,-4.943049708091562522e-02,2.773872476674872634e-02,1.044102072715759277e+00,-3.903771305550258488e-04,1.962130888316204747e-03,1.358289954082270157e-03,-4.793844235053941472e-02,6.881594934652625339e-02,4.369339719414710999e-02,-1.727731862287777420e-01,-3.192280716069196417e-02,-1.206067510983359348e-02,2.289262861023698969e-01,1.328710547490229432e-01,-1.406205523588593409e-01,1.524068205209626881e-01,1.936215421644860990e-01,-1.445674678350660769e-01,5.169512250468455417e-01,7.261661291122436523e-01
1.101315999999999962e+00,-5.102405351876850709e-02,2.993353686266029406e-02,1.045676946640014648e+00,-5.453604698820070304e-03,-4.819575973364909061e-04,5.488636773143262815e-04,-5.280212374758593008e-02,6.741787416499073204e-02,5.270554125308990479e-02,-1.470019364848048626e-01,-1.299218891578713397e-01,-1.067214850899845212e-02,2.003122547691503497e-01,-1.341325456990778431e-01,6.471666730014023761e-02,1.003122547691503441e-01,-5.175732051749513951e-02,6.307717538673650315e-02,5.154234640283414937e-01,6.908085346221923828e-01
1.127915000000000001e+00,-5.207441987705868636e-02,3.146960590572683153e-02,1.046708345413208008e+00,-9.157043390615274628e-03,-3.038987190948860828e-03,5.723854968877617466e-04,-5.501830674431176099e-02,7.455413478439006092e-02,3.836952149868011475e-02,-1.815888382591677730e-01,-1.297983474376555590e-01,3.697701490701656851e-02,2.213622837464705451e-01,-1.841226362781749337e-01,9.039145236961879104e-02,1.213622837464705256e-01,-8.412263627817492817e-02,8.871905919809822127e-02,5.162462824228337688e-01,6.863243579864501953e-01
1.153631000000000073e+00,-5.398287778967073014e-02,3.353881934438432411e-02,1.048202037811279297e+00,-1.187239653780910488e-02,-8.501651479363436792e-03,1.658266734936297837e-03,-5.850913795106483378e-02,7.538689981770561876e-02,4.631904140114784241e-02,3.439738301843263402e-03,-1.878870509708494285e-01,6.779984669593865088e-02,2.437252355784017555e-01,-2.860356271721453680e-01,6.655902468688826290e-02,1.437252355784017499e-01,-1.860356271721453625e-01,6.189376908264834082e-02,5.154996114318424194e-01,6.881244182586669922e-01
1.177162000000000042e+00,-5.532142979638510899e-02,3.477301095622706978e-02,1.049299597740173340e+00,-1.106579435384316343e-02,-1.188146924836996909e-02,1.551803675781782133e-03,-4.910115902275564992e-02,6.374519848052173643e-02,5.493346229195594788e-02,6.074088640830161562e-02,-1.906076407849370824e-01,-6.653941510044079910e-02,2.314910564466025333e-01,-2.959425404022030248e-01,7.542073044855844566e-02,1.314910564466025278e-01,-1.959425404022029915e-01,7.106772921629765649e-02,5.148578184177952100e-01,6.978262662887573242e-01
1.201524000000000036e+00,-5.653679946404775725e-02,3.599476115566661166e-02,1.050290107727050781e+00,-8.696367499842776530e-03,-1.329598702785439457e-02,1.263096264614960162e-03,-4.252151280721024745e-02,7.216530339669872951e-02,5.249738693237304688e-02,1.734372736825464667e-01,-2.268372642149138474e-02,3.739163460923573823e-03,9.330606326754090074e-02,-7.144082447550725856e-02,1.184133527413320369e-02,-6.693936732459099606e-03,2.855917552449274005e-02,8.159982781787068762e-03,5.150594227025843130e-01,7.078238725662231445e-01
1.223900999999999906e+00,-5.764232977846391742e-02,3.726617004176387832e-02,1.051233649253845215e+00,-5.277696571095367301e-03,-1.251086870882045510e-02,3.660960191116391371e-04,-4.192413919045560877e-02,6.764666176525419017e-02,4.757697507739067078e-02,1.689814391044717201e-01,4.987755696795286714e-02,-2.745397488797049132e-02,1.022900026354760517e-01,3.784275439289447318e-02,-2.725235851241504526e-02,2.290002635476049136e-03,1.378427543928944787e-01,-2.851538459240700318e-02,5.147277882773673152e-01,6.793799400329589844e-01
1.251235000000000097e+00,-5.895266512274090903e-02,3.903345197099863939e-02,1.052451729774475098e+00,1.300446555605445139e-03,-7.645071019252824840e-03,-1.038634917374769984e-03,-3.042431255303083143e-02,7.646128525424911171e-02,3.756660223007202148e-02,2.357310591532610078e-01,2.260754138524417312e-01,-3.160216279919719762e-02,1.044346791398939323e-01,1.120502844848677571e-01,-1.486278791666680865e-01,2.393568383203377101e-02,2.120502844848677626e-01,-1.461028827290766219e-01,5.158685147694931361e-01,7.101819515228271484e-01
1.275868999999999920e+00,-5.983583888015939906e-02,4.060893449778012892e-02,1.053507804870605469e+00,7.816631751417871601e-03,-5.614019035069528485e-04,-2.492160316566405243e-03,-3.082387675985145611e-02,6.909001551555206400e-02,3.518966585397720337e-02,1.942860677960883409e-01,2.142845380551025303e-01,-7.207841339726975272e-02,2.029250821658291626e-01,1.447635698193916465e-01,-2.163819399118347697e-01,1.709124986311268413e-01,2.205208760056096007e-01,-2.097393256290898400e-01,5.158023634120013634e-01,7.059783935546875000e-01
1.298650000000000082e+00,-6.041804460235868784e-02,4.167249695277445987e-02,1.054143071174621582e+00,1.192332772275318808e-02,3.265894668524893518e-03,-2.737005614543930321e-03,-3.933061433626254544e-02,7.480937233279290333e-02,3.364448621869087219e-02,2.029105381275993492e-01,2.078309612477180213e-01,2.869231239590700616e-02,1.528425259090787081e-01,1.622081817040385565e-01,-2.214804970144214347e-01,1.405784455065385019e-01,2.208878879997139277e-01,-2.141420345195281516e-01,5.162398902459160999e-01,7.297536134719848633e-01
1.322772999999999977e+00,-6.136778812101847946e-02,4.336609506559167826e-02,1.055052399635314941e+00,1.789917464583096543e-02,6.382940742135634338e-03,-2.362314019721090119e-03,-3.109227083261280333e-02,7.614850343371620811e-02,2.750403061509132385e-02,2.111608661710640544e-01,4.151783067031256796e-02,3.988772339690138669e-02,-2.468198514575755398e-01,1.784216900807795159e-01,-1.336012662176380705e-01,-2.219626185690239395e-01,2.095815465676611755e-01,-1.272010739622168596e-01,5.168294746678175899e-01,7.450193166732788086e-01
1.348869000000000096e+00,-6.236426422640641010e-02,4.515883320834378212e-02,1.056017756462097168e+00,2.296138885283097522e-02,5.754259497563030124e-03,-1.622346034662047742e-04,-4.732147353925453270e-02,7.236703712528755328e-02,3.518292680382728577e-02,1.751167556247478219e-01,-4.447438591211280712e-02,7.475669887096876576e-02,-2.630029941200749399e-01,6.365999465322950968e-02,-8.570610563035580606e-04,-2.038381466338467785e-01,1.146510824411187818e-01,-8.072013327431388271e-04,5.159992505317042566e-01,7.387185096740722656e-01
1.373863000000000056e+00,-6.333346976499688863e-02,4.712140440059664481e-02,1.056983590126037598e+00,2.743187494947365440e-02,1.875433035573026430e-03,2.451172938841450488e-03,-3.882047559999980690e-02,6.513571883630837889e-02,3.954320028424263000e-02,1.250729495966165228e-01,-1.961288736460247706e-01,3.204699274828291117e-02,-1.536452745957297694e-01,-2.090873171472143466e-01,3.381653761811979908e-02,-6.197610873055348080e-02,-1.415756812500187367e-01,2.636020026702749763e-02,5.150673681393476144e-01,7.150659561157226562e-01
1.398657000000000039e+00,-6.416187593456405824e-02,4.911279946179247097e-02,1.057756900787353516e+00,2.703368364606186652e-02,-2.034586527499326891e-03,4.148595249745090641e-03,-3.576162192376273335e-02,6.935779739644248876e-02,1.555245555937290192e-02,-1.236210313143793205e-01,-1.258496932831787984e-01,4.646113960376705571e-02,-1.165595247162178189e-01,-2.152206045070466089e-01,-5.636837072165985785e-02,-3.343772965337775405e-02,-1.232548797545097996e-01,-6.880282334416860934e-02,5.164684767382414776e-01,7.019283771514892578e-01
1.423990000000000089e+00,-6.482805074390002309e-02,5.122369262514089860e-02,1.058195710182189941e+00,2.232443843736809166e-02,-4.758156379901512523e-03,4.495842991476983741e-03,-2.524935776363998116e-02,7.291821808144423323e-02,1.635620929300785065e-02,-1.730940930138833156e-01,-3.837348402158440724e-02,5.679646912175368226e-03,-6.020392893363537418e-02,-6.578131563047043273e-02,-1.508447480512137562e-01,-1.184776666004315991e-02,3.421868436952957282e-02,-1.642529823483132312e-01,5.168090381880640072e-01,7.289142608642578125e-01
1.448855000000000004e+00,-6.580874041211423608e-02,5.271713587543875451e-02,1.058177947998046875e+00,1.739427844352599284e-02,-4.388047909299253035e-03,4.586501593159875156e-03,-1.864876615811262434e-02,7.006430294476896636e-02,8.011679165065288544e-03,-2.736175569102747285e-01,3.443283558471904593e-02,2.575215323019161215e-02,-1.739626056618782668e-01,1.050698585196757906e-01,-8.057762822945138681e-02,-1.559928000733228348e-01,2.018235319583895349e-01,-9.408793187578898265e-02,5.167150756201338568e-01,6.942949295043945312e-01
1.472749000000000086e+00,-6.671713541072026021e-02,5.419688852302837617e-02,1.058127284049987793e+00,1.309158132188198431e-02,-2.560748759869557745e-03,5.324214133781923763e-03,-2.327147610334375644e-02,7.085882914124355669e-02,9.177451953291893005e-03,-1.545940959928708003e-01,1.260055188910553237e-01,4.515274857770212175e-02,-1.791665908842595689e-01,1.277765851728502877e-01,7.394391286091414606e-03,-1.917796616737013626e-01,2.183714137954846923e-01,-8.062764527376212187e-03,5.165770050022164828e-01,6.943871974945068359e-01
1.499524000000000079e+00,-6.800296167275977910e-02,5.630092339397396034e-02,1.058066248893737793e+00,8.091494518814216705e-03,-4.574781957478180061e-05,6.766847212807292067e-03,-2.174767496669997163e-02,6.195388423254325622e-02,1.411715429276227951e-02,-1.400961366754835957e-01,2.574542915095132112e-02,-1.888746312655740361e-02,-4.798067699308883327e-02,1.381648589838221364e-01,-8.655019907999603190e-02,-8.760918965164703198e-02,2.116466651279938771e-01,-1.058502842317325665e-01,5.157782782247727349e-01,6.746635437011718750e-01
1.521673999999999971e+00,-6.884240793819297599e-02,5.768319609697720313e-02,1.058022737503051758e+00,5.454298244269694534e-03,7.832061110228938361e-04,7.693827489574145417e-03,-1.940993016577579819e-02,6.373750548332129950e-02,1.270108576864004135e-02,-1.042778733271389480e-01,2.923939847144687437e-02,5.549837896964009143e-02,-1.056713432102896894e-01,1.514462110984001741e-01,2.120800523255788606e-01,-1.666505654718124230e-01,2.186109328577389432e-01,1.902435073635656004e-01,5.161030117672951167e-01,6.897134780883789062e-01
1.549643000000000104e+00,-6.968608042353896526e-02,6.022571380147480335e-02,1.057942032814025879e+00,1.343868331741354238e-03,-4.174289756768700954e-04,8.309185512668904039e-03,-1.868645264412534604e-02,7.210024530179059976e-02,7.766114082187414169e-03,-7.761659301391586607e-02,-1.057466851919891537e-01,2.348543577162699042e-02,1.809527582004418489e-01,-1.332996199305208351e-01,3.411306132371315358e-02,8.454573244860931480e-02,-5.784348671947681791e-02,1.056238617548675880e-02,5.166366816085624647e-01,7.014474868774414062e-01
1.571892000000000067e+00,-7.009091309959990246e-02,6.211957153365475770e-02,1.057868599891662598e+00,-1.473732830206612174e-03,-2.385264098742956307e-03,8.385653605421650170e-03,-2.768935087490716901e-02,7.056257743435755125e-02,5.033746710978448391e-04,-1.365544137141774250e-01,-1.180343881656610028e-01,-1.378172611621251032e-03,1.971169266893912364e-01,-1.839017178348823500e-01,2.942251478457796887e-02,9.711692668939121698e-02,-8.756376526812616190e-02,5.641119685451889687e-03,5.169462752845932485e-01,6.917926073074340820e-01
1.597738000000000103e+00,-7.064062044562964549e-02,6.492837066867315765e-02,1.057642936706542969e+00,-4.510087542515976017e-03,-6.976715588894677467e-03,7.111498123525406001e-03,-1.487140658931429896e-02,6.854525953411677586e-02,3.024260047823190689e-03,-3.909665921716776182e-02,-1.247562361473724402e-01,-1.792792659647485937e-02,2.400013353446644737e-01,-2.623396248293166089e-01,7.316362144513008370e-02,1.400013353446644682e-01,-1.623396248293166311e-01,5.296334634167006866e-02,5.165785052995819360e-01,6.844580173492431641e-01
1.621925999999999979e+00,-7.097482924843673269e-02,6.679270913134391363e-02,1.057522892951965332e+00,-4.996096033841501867e-03,-8.382037014619037052e-03,6.322845818272915253e-03,-1.154770848362955855e-02,6.842388313604753913e-02,2.468660008162260056e-03,-2.944907013999984932e-02,-3.568142640671122245e-02,-5.478307508682754567e-02,2.515365791337609291e-01,-1.309155417656213960e-01,1.797171303236963502e-02,1.515365791337608958e-01,-3.091554176562139739e-02,-3.727462841243714761e-05,5.169649763566760425e-01,7.054643630981445312e-01
1.647526999999999964e+00,-7.142279334472605157e-02,6.941985525962965364e-02,1.057256340980529785e+00,-2.660223367351529592e-03,-7.547965985069460260e-03,5.455208364141928001e-03,-4.288926804968370803e-03,7.066042929229514324e-02,1.895328052341938019e-03,1.484183032527150170e-01,3.522628694519745057e-02,5.301452052327020222e-04,-6.175639731102369745e-02,9.737929299613931611e-02,-5.050194317754561069e-02,-1.617563973110237030e-01,1.973792929961393217e-01,-6.612878853966311365e-02,5.171758100437816585e-01,7.163845300674438477e-01
1.673823000000000061e+00,-7.189025554309223798e-02,7.108972308172167853e-02,1.057018399238586426e+00,3.078024368457653228e-04,-4.751205130590241410e-03,4.598827427157781145e-03,-1.314157737664647767e-02,6.499912175732852626e-02,9.834457887336611748e-04,1.767571924240361469e-01,1.380931609094845081e-01,-8.328462882690040869e-02,1.255342895465978437e-01,1.116480598494170029e-01,-1.055575685245651041e-01,2.553428954659783465e-02,2.116480598494170084e-01,-1.188131668829746079e-01,5.167834196523374279e-01,6.935672760009765625e-01
1.698191000000000006e+00,-7.246388199658369833e-02,7.352637749870082062e-02,1.056561589241027832e+00,6.329859995719456719e-03,-1.404313473734042361e-04,4.205120600925260632e-03,-2.369898294370675028e-03,7.117915885993006397e-02,-1.221684645861387253e-02,1.492363994231394320e-01,1.555278769382172910e-01,2.996996651126135683e-02,1.913450725423604393e-01,1.582740011270257208e-01,-1.896440677046430656e-01,1.174256615772008294e-01,2.229960134429899987e-01,-2.017541544814012433e-01,5.184140747778691605e-01,7.294101715087890625e-01
1.724358000000000057e+00,-7.287201213523387955e-02,7.518371782710428497e-02,1.056184053421020508e+00,9.847588797082054007e-03,1.876972502450779956e-03,4.129698741931919770e-03,-9.309382106738210011e-03,7.643668118755561625e-02,-4.115186166018247604e-03,1.666585783052582925e-01,8.393564429494225487e-02,-1.861236018140261655e-02,-1.167575264129731283e-01,1.590739532803067124e-01,-1.627797298588649355e-01,-1.730985349957456787e-01,2.186960750724160074e-01,-1.747079850155815184e-01,5.177433971692648740e-01,7.259775400161743164e-01
1.747192999999999996e+00,-7.369440252446526896e-02,7.757606521808020628e-02,1.055725812911987305e+00,1.404650693234143002e-02,1.572875094610237667e-03,5.524283607404978369e-03,-1.463773171117007180e-02,6.766583425570360522e-02,3.671453567221760750e-03,1.539072163611996114e-01,-1.239957638971420778e-01,4.840766768617038585e-02,-3.845833116586075406e-02,-2.608053555181182731e-02,6.467152517230992381e-02,-6.184472075714823186e-02,3.970419503114428622e-02,4.875337284080270145e-02,5.173036702601300219e-01,7.344106435775756836e-01
1.772283000000000053e+00,-7.448357686008463818e-02,7.894759253658538423e-02,1.055445194244384766e+00,1.681652486638054306e-02,-1.278909232020897235e-04,7.183449431637622951e-03,-2.075791400003122733e-02,7.115763603254604552e-02,-6.202367367222905159e-04,1.579910301470057177e-01,-8.461429788569355126e-02,9.321354129127019938e-02,-1.001905346383894918e-01,-4.629286926867338253e-02,4.678074914968864684e-02,-1.112311476549442540e-01,3.534400388410745969e-02,2.604412021081002268e-02,5.175766963779123708e-01,7.333337068557739258e-01
1.799339999999999939e+00,-7.555525976135456234e-02,8.097962942478800774e-02,1.055005073547363281e+00,1.903875298255773563e-02,-4.037842982056227825e-03,8.132164126348095934e-03,-1.115504306162667285e-03,7.153845384319042211e-02,7.023884973023086786e-05,7.532974681706215703e-02,-1.329744439710699166e-01,-1.759482543684031189e-02,1.150261708601824431e-02,-1.773880340525915145e-01,2.411542897307531255e-02,1.330921826749380428e-02,-8.668482850851214061e-02,6.040493429342063715e-04,5.172532093741053494e-01,7.200957536697387695e-01
1.823021999999999920e+00,-7.614545435933234296e-02,8.233984348835864109e-02,1.054601788520812988e+00,1.891837276085066299e-02,-5.659649407647071584e-03,7.828434009655049763e-03,-1.096083910492221154e-02,7.153086384326383385e-02,-7.749510463327169418e-03,-2.981990570084770698e-02,-4.924098489200955803e-02,1.523900135947902322e-02,3.479538825605554136e-02,-2.436455980067750715e-01,-1.025913473499815570e-02,3.461735842466727442e-02,-1.436455980067750660e-01,-3.310221084611451176e-02,5.172768923634933902e-01,6.908257007598876953e-01
1.848319999999999963e+00,-7.692993070459783200e-02,8.460060852493972439e-02,1.053846478462219238e+00,1.722459822316859540e-02,-6.295856095075880177e-03,7.184965475503179988e-03,3.159505645228246652e-03,7.450283511952798809e-02,-2.403577975928783417e-02,-4.566028270823774271e-02,4.192441469476672691e-03,-1.850108491670651722e-02,-1.423337262226283539e-01,1.025245138856558380e-01,-1.879294325636072516e-01,-1.574156291968422661e-01,2.025245138856558436e-01,-2.088777868005460558e-01,5.191470378603598723e-01,7.257679700851440430e-01
1.874265999999999988e+00,-7.742734536930909184e-02,8.625917868622066942e-02,1.053279042243957520e+00,1.546778796887974400e-02,-5.152087424385332071e-03,6.862253135831108963e-03,4.210563511685306171e-04,6.897684906145300221e-02,-1.579114049673080444e-02,-1.232239936314266926e-01,8.186962404894505829e-02,-2.266054091975918186e-02,-1.614777195669631626e-01,1.190694079215049994e-01,-6.527065138258753008e-02,-1.848656401730701948e-01,2.190694079215050050e-01,-8.524771042316814373e-02,5.176820410008488027e-01,6.791496276855468750e-01
1.897798000000000096e+00,-7.807010131825599386e-02,8.867671569469363912e-02,1.052378058433532715e+00,1.435861443526981023e-02,-1.943085274639377857e-03,7.587515133255617883e-03,3.219808519924360728e-03,6.930022948589623089e-02,-1.867716014385223389e-02,-1.186350415042572957e-02,1.069596299258255417e-01,7.445911393678655843e-02,-1.942151861204011176e-01,1.393114643981779865e-01,-2.049916646378132923e-01,-2.279916561154803900e-01,2.185379044944954774e-01,-2.268178593565769730e-01,5.178435231285706264e-01,6.744539737701416016e-01
1.925494000000000039e+00,-7.848401888516166880e-02,9.028297824578680741e-02,1.051835060119628906e+00,1.351887219138919044e-02,-4.415816214646817173e-04,8.365974789203978190e-03,-5.784961063031267411e-04,6.687043615216227421e-02,-8.505103178322315216e-03,-4.702625385032196265e-02,5.070721848900917178e-02,4.115369213949134249e-03,-1.769464743450976929e-01,1.441099217305178426e-01,-3.068939779571721455e-02,-2.161097434807730810e-01,2.177601982350144960e-01,-5.464104304178817734e-02,5.179730516152760700e-01,7.215178012847900391e-01
1.947603999999999891e+00,-7.893543006157467679e-02,9.189488332514962610e-02,1.051259994506835938e+00,1.199201735263179247e-02,7.056762535584404361e-05,9.504029995764717853e-03,-3.635502004762473059e-03,6.909334168753368532e-02,-2.348087541759014130e-02,-1.031390217154552480e-01,1.180041556224686004e-02,8.874688900976006323e-02,-1.054258969092121134e-01,1.399676229609846945e-01,2.203358913446079315e-01,-1.579705924242167103e-01,2.124286498515322308e-01,1.932214595445461980e-01,5.186358954959364720e-01,6.968891620635986328e-01
1.974002000000000034e+00,-7.938599236183595254e-02,9.381212304044005135e-02,1.050456404685974121e+00,8.420365207552179404e-03,-1.359177217012952354e-03,1.156505058217027759e-02,-2.354758172961131293e-03,7.719590792153901981e-02,-1.947356015443801880e-02,-1.335028131933163054e-01,-5.150776214615879894e-02,6.717103538889680758e-02,1.987221895882725353e-01,2.637622780894971486e-02,2.420149882810607861e-02,1.145815153897450506e-01,1.069927435215967948e-01,-8.701097211437075832e-03,5.189322838522527626e-01,7.266284227371215820e-01
1.998505999999999894e+00,-7.981538110471690650e-02,9.578333871262821597e-02,1.049649357795715332e+00,3.326794963662250363e-03,-5.184995696959626699e-03,1.124001175920819051e-02,-4.570196496496767638e-03,7.243661011223073709e-02,-1.535731460899114609e-02,-1.598936222636572480e-01,-1.494907215887984475e-01,-9.972498623457584643e-02,2.446675603909039542e-01,-9.917027215809751106e-02,-9.201389506899954052e-02,1.446675603909039487e-01,8.297278419024908033e-04,-1.240523015652488792e-01,5.182406872400163733e-01,7.042821645736694336e-01
2.023838000000000026e+00,-7.999236551376394389e-02,9.703693201475624419e-02,1.049066662788391113e+00,6.361804771651455824e-04,-8.385534809132844103e-03,1.035184818765833015e-02,-8.121638425478508796e-03,7.254661861460132144e-02,-2.183958329260349274e-02,-1.047628429613576134e-01,-1.422155107925256734e-01,7.367569797469524472e-03,2.281552586527860471e-01,-2.257810768747209595e-01,4.349976854352587824e-02,1.281552586527860416e-01,-1.257810768747209540e-01,1.389274172752662760e-02,5.183109643247505449e-01,6.813066005706787109e-01
2.049255000000000049e+00,-8.033843463728489176e-02,9.891269916989268995e-02,1.048348665237426758e+00,2.829122680244022781e-04,-1.193118359116041027e-02,9.679498175534373416e-03,-2.973127506987888191e-03,6.692313411821075586e-02,-1.044302713125944138e-02,8.841259654951549862e-02,-6.945636126382710718e-02,-1.617100685746513181e-02,2.008768708252455237e-01,-1.201003057666739648e-01,8.356198693661112675e-02,1.008768708252455043e-01,-2.010030576667396277e-02,5.577259579220303354e-02,5.179695719908583573e-01,7.072948217391967773e-01
2.071161000000000030e+00,-8.030196819306470446e-02,1.003459080261148023e-01,1.047959804534912109e+00,1.887979048422945474e-03,-1.300124816752656898e-02,9.655514869024717228e-03,4.930560761362850000e-03,6.740448253783287713e-02,-1.568693853914737701e-02,7.952172465603665752e-02,-3.402843795803406346e-02,-1.394445537575263400e-03,5.656535742886553697e-02,-3.552301495326730396e-02,8.839289755434739937e-02,-4.343464257113446858e-02,6.447698504673270159e-02,6.059837314510016504e-02,5.187596156592959584e-01,7.291891574859619141e-01
2.097393999999999981e+00,-8.016537893563910333e-02,1.024553423443672340e-01,1.047355294227600098e+00,6.783021903851841651e-03,-1.128340331792654361e-02,9.014288335452702583e-03,1.048952926580701403e-03,6.732348819564150377e-02,-1.609773002564907074e-02,2.262814410021976586e-01,5.997481039559830751e-02,-1.748961922930036827e-02,-7.746575775100413008e-02,9.845379575672469352e-02,-2.992792684413120990e-02,-1.727869869586845797e-01,1.984537957567246991e-01,-5.605747511322479310e-02,5.186405564364228171e-01,7.200946807861328125e-01
2.124703999999999926e+00,-7.998813812221304553e-02,1.038257644328305362e-01,1.046874403953552246e+00,1.029866362979478187e-02,-9.137193553770517340e-03,7.773857228289049459e-03,-5.182506311123636971e-04,5.544713718774565286e-02,-1.333819143474102020e-02,1.611751519380526243e-01,1.117486898153980668e-01,-7.608507550102178163e-02,1.299511208598189832e-02,1.113951593674916418e-01,-5.230140203499814011e-02,-5.122054954387920273e-02,2.113951593674916474e-01,-7.494360752572118423e-02,5.181564152356283870e-01,7.051453590393066406e-01
2.146831000000000156e+00,-7.983913949781430708e-02,1.051781184376635592e-01,1.046377897262573242e+00,1.385991362393490696e-02,-6.816253483233891686e-03,6.760784158698074364e-03,1.704903023608791285e-02,6.231035135170723271e-02,-2.242493256926536560e-02,1.788393232311344949e-01,1.147834049691190128e-01,-4.157672885328433932e-02,-1.010516729585073381e-01,1.181933166802815183e-01,-1.695651922284470703e-01,-1.506435562895140079e-01,2.181933166802815238e-01,-1.892847633989284128e-01,5.191785056853250868e-01,7.234370708465576172e-01
2.173489000000000004e+00,-7.955403238868209714e-02,1.072922516343471772e-01,1.045583009719848633e+00,1.730141698603632205e-02,-4.941973359430029689e-03,5.736897180055100520e-03,3.142348856395187507e-03,6.491687569147533421e-02,-1.635727472603321075e-02,8.299555877249369107e-02,5.180939275370002178e-02,-4.953910129058222006e-02,-7.588586976821726227e-02,1.149525479913129367e-01,-5.137892954979884907e-03,-1.064214309689391486e-01,2.149525479913129422e-01,-2.209650066283045527e-02,5.182017598233071842e-01,6.925618648529052734e-01
2.203162999999999982e+00,-7.943873140177160064e-02,1.094479127013036623e-01,1.044711947441101074e+00,1.853927604501636600e-02,-5.436379452380624144e-03,6.427586867796319936e-03,-3.534613309390513027e-03,6.897584380463826770e-02,-2.072658948600292206e-02,-2.449384241971846315e-02,-3.523361919194297615e-02,3.425302656831913373e-02,9.711391743340677674e-02,-1.312622553675912018e-01,-2.010353992381522237e-02,6.976251287494861231e-02,-3.126225536759118934e-02,-3.910060958853348034e-02,5.188412164760147771e-01,7.070806026458740234e-01
2.225986999999999938e+00,-7.935189259033786913e-02,1.108918644680464971e-01,1.044049978256225586e+00,1.811963975297044629e-02,-6.767732529268100095e-03,7.062242643446348112e-03,-3.011145461878650138e-03,7.328550002912263828e-02,-3.098793700337409973e-02,-1.665580845015604203e-02,-5.898355032312779106e-02,4.123724259150283317e-02,1.441001411343710570e-01,-1.905683088744926645e-01,-3.256125032079519588e-02,1.098513950272484302e-01,-9.056830887449267287e-02,-5.340522475900115473e-02,5.197021650855143671e-01,7.107567787170410156e-01
2.251365999999999978e+00,-7.924733572673983706e-02,1.130152845312608623e-01,1.043089866638183594e+00,1.644434167306808511e-02,-9.575475812660938502e-03,6.786068047846871565e-03,-4.292863510590850910e-03,6.322817764796072326e-02,-1.868785358965396881e-02,-3.015796674321857482e-02,-3.600612203398308175e-02,-5.483476070579759720e-02,1.480776625773033706e-01,-1.193563728151905562e-01,-1.100550626680485977e-01,1.094900659258264547e-01,-1.935637281519055411e-02,-1.302225767381129384e-01,5.190362895319647896e-01,7.212436199188232422e-01
2.274205999999999950e+00,-7.926082218784760713e-02,1.143582726082301437e-01,1.042496442794799805e+00,1.594087248922640768e-02,-1.065963280234472066e-02,6.672370349996237238e-03,8.997127593065435899e-03,6.402650516457066010e-02,-3.051232919096946716e-02,-5.671177860083450456e-02,6.224005548751286067e-03,4.130794838615420295e-02,-1.155555805234761702e-01,1.156919826729932155e-01,2.181551465216911845e-01,-1.606028429930849433e-01,2.156919826729932210e-01,1.983394750868784639e-01,5.197858376703159422e-01,7.133094072341918945e-01
2.296949999999999825e+00,-7.911788235006025904e-02,1.162389139623228734e-01,1.041657567024230957e+00,1.764104395709614054e-02,-9.104776966880612221e-03,6.660518369342227629e-03,-4.065480177339056097e-04,5.695244470844344764e-02,-2.503908239305019379e-02,1.222926925836152479e-01,1.145335770915847234e-01,1.906672381712505582e-02,-1.402135060667661914e-01,1.191463077229981404e-01,-1.994967754613311273e-01,-1.703359609904424310e-01,2.191463077229981460e-01,-2.193100862253033745e-01,5.197337500049913350e-01,7.295856475830078125e-01
2.323485999999999940e+00,-7.895433036464685750e-02,1.173681864365260785e-01,1.041139721870422363e+00,1.897389067687089981e-02,-7.088690362807570366e-03,5.940187347635905724e-03,1.342284344950963292e-02,4.748975319744738743e-02,-2.311899513006210327e-02,1.405911254758538710e-02,1.018250710975174833e-01,-6.813301638533938998e-02,-2.018945339792402871e-01,1.188604380007723949e-01,-1.482348450623382774e-01,-2.179336652865148105e-01,2.188604380007724004e-01,-1.658227957644376749e-01,5.197831400959015413e-01,7.393664121627807617e-01
2.348819999999999908e+00,-7.876582551947403088e-02,1.191411251721437026e-01,1.040391087532043457e+00,2.008508302666310585e-02,-5.625210477373965290e-03,5.252567183170686604e-03,5.551236764802113324e-03,5.587862754495420692e-02,-2.596570178866386414e-02,-2.747351592580153656e-02,4.409862262771981067e-02,4.192036370538455153e-02,-2.042359657957145413e-01,1.174438735110857890e-01,-4.688315285577740466e-02,-2.230315731734184848e-01,2.174438735110857945e-01,-6.260030198839619531e-02,5.198962423510895547e-01,7.311509847640991211e-01
2.373025000000000162e+00,-7.837460592592483677e-02,1.206011846713741231e-01,1.039943099021911621e+00,1.922088973875348689e-02,-6.026972571643751664e-03,5.851883468271479316e-03,5.399575361125778794e-03,5.469537584831282717e-02,-1.930133998394012451e-02,-7.318305109888741111e-02,-3.643245218250628498e-02,6.996475706344942001e-03,1.655657416878185961e-01,-8.095339404490628499e-03,-1.750907549247100736e-01,1.415757954214716674e-01,9.190466059550937705e-02,-1.924789475562302121e-01,5.194882830575887622e-01,7.348027229309082031e-01
2.400793999999999873e+00,-7.780485263769360005e-02,1.228139431700793899e-01,1.039349198341369629e+00,1.538636485978822806e-02,-7.711201347420537644e-03,6.775457605190160493e-03,-5.366888572286778944e-03,5.520442099007004388e-02,-2.721164748072624207e-02,-2.029716214713237210e-01,-7.448551607399123142e-02,1.149042571464167599e-02,1.387219508557436531e-01,-5.235142645125639982e-02,-1.429731362471050038e-01,8.736881040469417214e-02,4.764857354874360573e-02,-1.630271090589495153e-01,5.198685743685653726e-01,7.218985557556152344e-01
2.423229000000000077e+00,-7.747891666327319515e-02,1.242744178900554997e-01,1.038966894149780273e+00,1.232533816956828815e-02,-9.646990530435717304e-03,7.611503625989390898e-03,5.219968159854130110e-03,6.196239875971281535e-02,-2.763604372739791870e-02,-1.177424646016210497e-01,-1.094176827787207013e-01,4.738628114242731532e-02,1.995726804480245087e-01,-1.393034236229818978e-01,-4.674022574855900281e-02,1.213106170914768078e-01,-3.930342362298188535e-02,-6.909781978300542915e-02,5.197075221064056949e-01,7.104622125625610352e-01
2.450107000000000035e+00,-7.704740832832768227e-02,1.263909363037572231e-01,1.038582682609558105e+00,9.799696345941237563e-03,-1.242329824938370741e-02,9.467617493459812295e-03,-5.940263327467909873e-03,5.575522124827578946e-02,-4.744582809507846832e-03,1.690584572395190111e-02,-1.192851251630370757e-01,8.059128507597236590e-02,2.298045536107078957e-01,-2.290139166146368532e-01,-1.292594262764300977e-02,1.382949665965810537e-01,-1.290139166146368477e-01,-4.060533145305977171e-02,5.180092018023307876e-01,7.094892263412475586e-01
2.473850999999999800e+00,-7.703784785058334639e-02,1.279134561447853591e-01,1.038424372673034668e+00,9.906312181748038945e-03,-1.348785253821582764e-02,1.006810212086284295e-02,-2.180481166792615482e-03,4.548949690447116889e-02,-1.663082279264926910e-02,6.715610653464483375e-03,-5.102822177758312150e-02,2.059435068346757852e-02,2.228335515787594201e-01,-2.352213901195079337e-01,3.471138479438640179e-02,1.383674550731532893e-01,-1.352213901195079282e-01,5.365393396037307534e-03,5.188390615039409903e-01,7.081952095031738281e-01
2.500230000000000175e+00,-7.731159420312601338e-02,1.304149958235838458e-01,1.038371801376342773e+00,1.334215115144761488e-02,-1.327119531555354115e-02,1.077666056938220152e-02,7.041163977658133726e-03,4.633733825807567069e-02,-1.365642528980970383e-02,1.379100843600719328e-01,6.785719833300074555e-02,3.811139844204532862e-02,-1.280996716940006053e-01,1.118439799661956058e-01,-6.662612243663999789e-02,-1.948033833699503170e-01,2.118439799661956113e-01,-9.803813118447761432e-02,5.187923586236516948e-01,7.183748483657836914e-01
2.521720999999999879e+00,-7.741866669643723831e-02,1.319318844802282176e-01,1.038329958915710449e+00,1.732932326926210284e-02,-1.138465660281351433e-02,1.034138130757766838e-02,4.834039816840480716e-03,3.693976314935792232e-02,-5.293136928230524063e-04,2.336898257600217022e-01,1.139683213441411713e-01,-6.601117306799399176e-02,-1.562287702255683586e-01,1.091804111929452759e-01,-3.407673122226033413e-02,-1.912319910119887334e-01,2.091804111929452814e-01,-6.430023964108004531e-02,5.175810853104158005e-01,7.070475816726684570e-01
2.546359999999999957e+00,-7.745891677847488443e-02,1.340824938733022054e-01,1.038339734077453613e+00,2.344687027319136349e-02,-6.055905403966388434e-03,9.889960534976038886e-03,8.554357052192705299e-03,3.224924218908545304e-02,-1.559137646108865738e-02,1.563124645009288105e-01,1.852260807329302317e-01,1.411999586252116710e-02,-1.065313853506715119e-01,1.180462907052877708e-01,-1.936779271425408122e-01,-1.008261996474331817e-01,2.180462907052877763e-01,-2.224498736149833900e-01,5.191313247216846616e-01,7.322943210601806641e-01
2.573857999999999979e+00,-7.716784067846875483e-02,1.354665805258176980e-01,1.038271427154541016e+00,2.632843063805272860e-02,-3.368318032626049785e-03,9.914699690698469681e-03,9.214377519749799780e-03,4.493326835910941425e-02,-1.036513224244117737e-02,1.469054022936950032e-01,1.245974431168588720e-01,-3.292745162408145659e-02,-1.443209420852108738e-01,1.261269771267363449e-01,-1.864978850322637771e-01,-1.328028580323062646e-01,2.170884624832128684e-01,-2.152630299944653935e-01,5.188031551870924130e-01,7.355849742889404297e-01
2.597074000000000105e+00,-7.638427732596542175e-02,1.375583355168789601e-01,1.038085818290710449e+00,2.681411024665715861e-02,-2.392086412178917598e-03,1.083226907282441864e-02,1.984701646770860133e-03,3.575724591978981376e-02,-6.351468153297901154e-03,-3.213422285887240770e-02,-6.301135922690635771e-02,1.372039038298399419e-02,6.663030805025413339e-02,-6.398800705351218032e-02,-5.399560970052040554e-02,8.855425785583870280e-02,2.643373867653346296e-02,-8.531148960038036078e-02,5.180987098237999078e-01,7.146730422973632812e-01
2.624728999999999868e+00,-7.597682052001035469e-02,1.389041564609611312e-01,1.037975549697875977e+00,2.530898940335574859e-02,-3.229629683107582139e-03,1.244005318879359834e-02,1.057004608710886877e-03,4.817528428286858844e-02,-1.487709581851959229e-02,-5.848379635902316298e-02,-4.851260722449747542e-02,1.123052578387562506e-01,-6.085332243797604221e-03,1.093382318964799121e-01,1.837225944436626512e-01,-6.864932944044429240e-03,2.043849359413365541e-01,1.478428574896214764e-01,5.190264213589428355e-01,7.308280467987060547e-01
2.647139000000000131e+00,-7.560519882852480278e-02,1.402218637526082001e-01,1.037927985191345215e+00,2.336970187864671755e-02,-5.079311529410102111e-03,1.328891009652921618e-02,-4.012590664622726552e-03,2.764317317064837742e-02,-7.942290976643562317e-03,-7.440974536736505440e-02,-1.456842038509558734e-01,2.000399624558025450e-03,9.206971666913484065e-02,-1.099316521410318992e-01,-1.301688042953789981e-02,9.570387900171900553e-02,-9.931652141031900582e-03,-5.134036480016439252e-02,5.177172635206319651e-01,6.900428533554077148e-01
2.673728999999999800e+00,-7.521873423824863847e-02,1.417557910124346288e-01,1.037879109382629395e+00,2.123976605385136454e-02,-7.102723304788005620e-03,1.339015809558841141e-02,1.310633870152395908e-02,3.490337180099389175e-02,-1.802975498139858246e-02,-1.082307795751344531e-01,-5.507364491680902946e-02,-4.873012589689194179e-02,2.139821751346882295e-01,5.734225797985428863e-02,-1.812644321007127746e-01,1.936182009873321508e-01,1.573422579798542942e-01,-2.198399056011264563e-01,5.195572129781321769e-01,7.498450279235839844e-01
2.699899999999999967e+00,-7.530710474718751990e-02,1.427036701223928505e-01,1.037991166114807129e+00,2.085934663928628099e-02,-8.877233088063762878e-03,1.217760837160097864e-02,6.829335486738759070e-04,2.919146223501812090e-02,-1.722536422312259674e-02,1.676075303082275730e-02,-4.478224265626115641e-02,-7.451595067559412151e-03,9.726653216252302558e-02,-1.901502822937849446e-01,4.981004426683550285e-02,7.890542112376537631e-02,-9.015028229378492519e-02,1.441802493406397524e-02,5.187378688992390074e-01,7.102612257003784180e-01
2.721140999999999810e+00,-7.533529566905115826e-02,1.432626574140725695e-01,1.038031220436096191e+00,2.121837364256736955e-02,-9.415431810043450866e-03,1.211874522182143643e-02,-3.284173960835517093e-03,1.627987120862293621e-02,-5.390326958149671555e-03,6.629330039239365868e-02,-1.274554857541058267e-02,-4.206511209005880654e-04,-2.066656229567649383e-01,5.948029627662071439e-02,5.513649653803412432e-02,-2.142703870137026567e-01,1.594802962766207199e-01,1.988559153526833420e-02,5.182493208091174530e-01,7.329710721969604492e-01
2.749544000000000210e+00,-7.542722915503831393e-02,1.439257986085888674e-01,1.038229703903198242e+00,2.387325766975224514e-02,-9.913765366690752145e-03,1.262929219819075577e-02,1.269924738138041020e-02,2.132230684578196103e-02,-1.015912741422653198e-02,5.576482073492717434e-02,3.026263415310523775e-03,-2.403628918307681300e-02,-2.154015278143140977e-01,9.519134532621897904e-02,1.009909795468935251e-01,-2.126151332097006297e-01,1.951913453262189846e-01,6.430385747910567773e-02,5.179058344694764671e-01,6.978238821029663086e-01
2.771443999999999797e+00,-7.540173720530959911e-02,1.442261893887467339e-01,1.038368582725524902e+00,2.621947693685893963e-02,-9.379099537034196743e-03,1.220595476242314348e-02,8.026277286252360421e-03,1.516581920034293894e-02,-4.375576972961425781e-03,1.335917672557297153e-01,2.070444067180744058e-02,-1.759585307003455265e-02,-2.401541006666434719e-01,9.920166934396684733e-02,7.019155672602900298e-02,-2.173186445106835563e-01,1.992016693439668529e-01,3.461214995315903264e-02,5.174665072411116507e-01,6.994142532348632812e-01
