timestamp,x,y,z,roll,pitch,yaw,vx,vy,vz,p,q,r,psp,qsp,rsp,pres,qres,rres,thrust_sp, thrust_res
0.000000000000000000e+00,4.214731174547271114e-02,-2.182764050796243832e-02,1.001609683036804199e+00,9.808239539974795626e-03,-1.440214137488204926e-02,-5.076282678306842655e-04,-2.735853018345938206e-02,2.377641163254974946e-02,4.292679950594902039e-03,7.128688740766947474e-02,3.238756327735005380e-02,-3.200343829101260328e-03,-2.009208432186354865e-01,1.349797903385143716e-01,9.668273740324721810e-02,-1.427109769916025117e-01,2.242175501960868567e-01,9.789919209741947126e-02,5.134302941268419351e-01,1.024667024612426758e-01
2.304399999999999851e-02,4.184805662613012150e-02,-2.146764646028874457e-02,1.001495242118835449e+00,9.801966340938007491e-03,-1.445870161821449784e-02,-4.319915627766235389e-04,-2.961698133958372628e-02,2.330414916148362131e-02,-6.560544483363628387e-03,2.210161225305483021e-02,8.054637885156029978e-03,4.152406524366094448e-02,-2.301595076974948528e-01,1.386498646082160446e-01,1.164792514562593972e-01,-1.683304846300312241e-01,2.262062058316980651e-01,1.174985193164097830e-01,5.116495533771477922e-01,-3.610497713088989258e-02
4.682599999999999957e-02,4.118896417875532456e-02,-2.074195122697401056e-02,1.001206278800964355e+00,1.001011096169564761e-02,-1.445014871553040869e-02,-6.458753393709937285e-04,-2.457242318853673432e-02,1.693404861701141781e-02,-1.248018001206219196e-03,1.545556493154806414e-02,-3.875287216783378230e-02,-4.645247191059467817e-02,-2.197157675942155719e-01,1.413630738648044560e-01,3.644158860048291732e-02,-1.519168587689033179e-01,2.248136020954998593e-01,3.807767346822416715e-02,5.049892544016439944e-01,-3.693224787712097168e-01
7.067099999999999771e-02,4.052150905116232160e-02,-2.001778159861582890e-02,1.000964879989624023e+00,1.023307796708943819e-02,-1.422999232454791319e-02,-5.581258135292088696e-04,-2.694111474833332451e-02,2.542175368987828130e-02,-7.834039628505706787e-03,2.327267482869545961e-02,2.844383148329975020e-02,5.384691012342256167e-03,-2.522942253235754828e-01,1.341426387282401156e-01,-6.991703135381090173e-02,-1.912991724760574608e-01,2.192067431709465719e-01,-6.855731797413118500e-02,5.124072038405402818e-01,-3.197133541107177734e-03
1.003730000000000039e-01,3.840313940398367570e-02,-1.788644435223045101e-02,1.000430226325988770e+00,1.010914622954995137e-02,-1.414085562177658240e-02,-1.269880753518748406e-03,-2.407226188866357086e-02,2.426058311683186239e-02,-7.320768665522336960e-03,5.252746364907003897e-03,-4.671794081665504861e-02,-4.368305578662866340e-02,-2.206206019728454704e-01,1.420476472029970072e-01,2.241162196369044825e-04,-1.596258774029540584e-01,2.251644527941812912e-01,3.585819380169207819e-03,5.051412687642321542e-01,-3.890415430068969727e-01
1.246789999999999982e-01,3.701787825401885168e-02,-1.644846824152478709e-02,9.998776912689208984e-01,8.330754641211824199e-03,-1.464027180502558423e-02,-1.940432215375764713e-03,-3.361062275511948055e-02,3.861026611190314373e-02,-2.787522785365581512e-02,-1.000976127736471905e-01,-2.363013472106155130e-02,-8.107977643476179178e-03,-9.159829335855385057e-02,9.217042459706085988e-02,-1.616362465357589762e-01,-5.480233777330711237e-02,1.875263460699002627e-01,-1.564289453859962209e-01,5.173181233611433560e-01,1.744575500488281250e-01
1.486359999999999904e-01,3.557850472465403507e-02,-1.493538872725061299e-02,9.991310238838195801e-01,5.553938996369862068e-03,-1.607247727684768535e-02,-2.478925464017844860e-03,-4.445255206255481484e-02,3.083396232741169793e-02,-3.391448408365249634e-02,-1.649905848067292347e-01,-8.609822160075564224e-02,-2.219409582064131581e-02,-8.818863321293625435e-02,9.732423916233121086e-03,-1.561774534973834894e-01,-6.209166542770419572e-02,1.097324239162331266e-01,-1.494089158869140732e-01,5.250454631707993647e-01,5.635488033294677734e-01
1.716830000000000023e-01,3.411990546324203399e-02,-1.336464106429238047e-02,9.980347156524658203e-01,1.751319208008814913e-03,-1.795763569531660941e-02,-2.105579441909144478e-03,-3.596341445444344032e-02,4.152114646348690347e-02,-5.325749889016151428e-02,-2.324108091398092435e-01,-7.650705290028433914e-02,1.863915549894859178e-02,1.297156452880977584e-01,-1.945967717931076368e-01,-1.452459221338534556e-01,1.204078453944283367e-01,-9.459677179310763129e-02,-1.394753597887926078e-01,5.289749123194142921e-01,6.942005157470703125e-01
1.986650000000000083e-01,3.260330296726372812e-02,-1.176409929610343873e-02,9.966708421707153320e-01,-2.654890378116895894e-03,-2.047208094502139808e-02,-1.827885438115295358e-03,-3.581533525070478008e-02,4.699267268146134491e-02,-5.612659826874732971e-02,-2.206816028006202690e-01,-1.353694880048794125e-01,-1.193314043878014423e-02,1.811148463627064442e-01,-1.996188910614414835e-01,-1.543062938949864016e-01,1.392750707632587071e-01,-9.961889106144146411e-02,-1.492212876498939522e-01,5.293015870733047690e-01,6.923321485519409180e-01
2.232040000000000135e-01,3.064155992630968744e-02,-9.930426920139219168e-03,9.950635433197021484e-01,-7.407439405794471847e-03,-2.366025348729849931e-02,-7.666881967012262322e-04,-5.757172480348752425e-02,4.623005351551005143e-02,-6.583531200885772705e-02,-2.082080946910037089e-01,-1.869858400084612182e-01,9.024121318216747623e-02,2.136446817147930333e-01,-2.457808264182886338e-01,-1.152998857923986237e-01,1.411577493586589627e-01,-1.457808264182886282e-01,-1.130149102395435062e-01,5.307728682595495018e-01,7.245615720748901367e-01
2.477789999999999992e-01,2.865760994466853145e-02,-8.077155699279846626e-03,9.932891130447387695e-01,-1.181471190231086349e-02,-2.659694801359191452e-02,4.298794423784890739e-04,-4.886994184984491674e-02,5.625308198395909121e-02,-8.229548484086990356e-02,-2.261643960059949165e-01,-1.132951817397417210e-01,2.885197651803501559e-02,2.667820879362512443e-01,-2.289643988170504407e-01,-1.590342587013342524e-01,1.667820879362512665e-01,-1.289643988170504352e-01,-1.599719953776597703e-01,5.321622333283598794e-01,7.242699861526489258e-01
2.713960000000000261e-01,2.665455735435309781e-02,-6.198468086305300093e-03,9.913701415061950684e-01,-1.531106755328703536e-02,-2.934622870697167762e-02,2.280467793241314212e-03,-4.837569086545605995e-02,5.995652945632067715e-02,-8.805225789546966553e-02,-1.339946248747373447e-01,-1.016952383819243327e-01,1.059984724070307666e-01,2.720794501702895607e-01,-2.670865232057967331e-01,-1.134599017931540721e-01,1.720794501702895551e-01,-1.670865232057966998e-01,-1.194139880178818891e-01,5.330173388994650097e-01,7.360601425170898438e-01
2.962359999999999993e-01,2.471133631717652157e-02,-4.284611705334319398e-03,9.893360137939453125e-01,-1.753852751434768417e-02,-3.037833272739809409e-02,3.703158264600769911e-03,-6.276722830138087295e-02,5.170642784137813308e-02,-8.509417623281478882e-02,-9.223840132430091709e-02,-5.610494471465328481e-02,5.974506245719210518e-02,2.754813166117757173e-01,-2.821626168599769002e-01,-1.129247641357566806e-01,1.754813166117757117e-01,-1.821626168599768669e-01,-1.226706899735863082e-01,5.330483160825415512e-01,7.365911006927490234e-01
3.225609999999999866e-01,2.279940619794681989e-02,-2.355474067483562337e-03,9.872349500656127930e-01,-1.815550683429717829e-02,-2.954632588771088919e-02,5.493084166059425399e-03,-4.993249499955402376e-02,6.828457407638399701e-02,-9.545633196830749512e-02,9.078702672807362900e-03,1.146639768152168948e-01,8.724915493867015093e-02,2.594376592581387753e-01,-2.004183755192083249e-01,-1.133767217883606127e-01,1.594376592581387420e-01,-1.004183755192083333e-01,-1.282589317436322318e-01,5.339938229090314126e-01,7.338349819183349609e-01
3.466029999999999944e-01,2.034302784656158089e-02,2.694496869803305336e-04,9.850985407829284668e-01,-1.700931082254688795e-02,-2.751115199703257908e-02,7.006292976537098482e-03,-4.596863546994009453e-02,6.497660760167332794e-02,-9.655802696943283081e-02,6.976117822693887749e-02,9.836560416517017846e-02,7.774170141354347363e-02,2.333357040790932369e-01,-2.166862777912206828e-01,-9.776377217583924473e-02,1.333357040790932313e-01,-1.166862777912206633e-01,-1.169412139053870731e-01,5.344736678090139526e-01,7.419662475585937500e-01
3.742460000000000231e-01,1.680309745783611572e-02,4.172006726168951164e-03,9.817742705345153809e-01,-1.265112870284180145e-02,-2.196137681267185116e-02,9.524731678216991071e-03,-6.471436820159313930e-02,7.133209627609213288e-02,-9.857805073261260986e-02,1.480889582163275320e-01,2.947502464135486888e-01,1.127867677057673851e-01,1.596765922250690251e-01,-6.641033605724461220e-02,-1.038731058328591084e-01,5.967659222506901950e-02,3.358966394275539336e-02,-1.303580357057467498e-01,5.350195049369623757e-01,7.447532415390014648e-01
3.985009999999999941e-01,1.445257820760855946e-02,6.763714752194681205e-03,9.795382618904113770e-01,-7.976471268372403028e-03,-1.766677324757814915e-02,1.096877729107625932e-02,-4.642202987204541859e-02,7.399771578523639537e-02,-1.014868542551994324e-01,2.310038928489097088e-01,2.277009735967421289e-01,7.540064248403316460e-02,1.301583396318912178e-01,-4.602274210293752499e-02,-9.317476362029704362e-02,3.015833963189120878e-02,5.397725789706248056e-02,-1.238960417221767335e-01,5.355477989666104222e-01,7.475948333740234375e-01
4.227420000000000067e-01,1.218119535105531559e-02,9.368713605653533269e-03,9.772932529449462891e-01,-3.139446002327285663e-03,-1.256422968883108560e-02,1.246744228347007599e-02,-6.945606160908320004e-02,7.559182536914092754e-02,-1.034013405442237854e-01,2.258539138106371580e-01,2.680404404468973989e-01,8.561727127702628559e-02,-2.508303523925746459e-02,-1.169989908235014031e-02,-1.033760534457375813e-01,-1.023531777631143669e-01,8.830010091764986524e-02,-1.384323005712105314e-01,5.359263540926884062e-01,7.454082965850830078e-01
4.463059999999999805e-01,1.000974779637307452e-02,1.186943402938115191e-02,9.749921560287475586e-01,2.629700153642125070e-03,-7.224376645204033665e-03,1.403724785796511831e-02,-6.208065947580428817e-02,8.035250787880138246e-02,-9.919759631156921387e-02,2.757413069487607005e-01,2.958311126250732226e-01,6.529609283257520325e-02,-1.320286637131805885e-01,4.659701024182345830e-02,-9.931924315918366775e-02,-1.771939149630165355e-01,1.265086608626822817e-01,-1.388341853199026033e-01,5.358063168608763194e-01,7.400696277618408203e-01
4.697999999999999954e-01,7.866272762949579056e-03,1.429055326057140050e-02,9.727538824081420898e-01,8.267011944333052184e-03,-2.094243061903533487e-03,1.566870096173333948e-02,-5.420492070339390928e-02,8.128966263795678326e-02,-1.091233268380165100e-01,2.499287672889282386e-01,2.880779918181315957e-01,1.070888787532333630e-01,-1.948448694916766755e-01,1.211998284757364042e-01,-1.050233638383095136e-01,-2.051306631963049354e-01,1.638075920572596711e-01,-1.490633908282520403e-01,5.367216958520848458e-01,7.357873916625976562e-01
4.995789999999999953e-01,4.862341332606553469e-03,1.792321072951978331e-02,9.692949056625366211e-01,1.652278310109596068e-02,5.537200384118312613e-03,1.817166448730755945e-02,-5.924252665736382678e-02,8.033738402698548109e-02,-1.062185466289520264e-01,2.506221688968565675e-01,2.281696437208527162e-01,1.021092633793512228e-01,-2.665770931390160636e-01,1.966343954852255715e-01,-1.119263119282237762e-01,-2.251825042203237925e-01,1.962986962465927410e-01,-1.628073902643932258e-01,5.366552633370043068e-01,7.229307889938354492e-01
5.235689999999999511e-01,2.966114164573965296e-03,2.029230298631798726e-02,9.669641852378845215e-01,2.155695103205444371e-02,1.003279705514392717e-02,1.961203474340944553e-02,-5.299153476300785121e-02,7.912961829915685086e-02,-1.005847379565238953e-01,2.259821581206250540e-01,2.302711750290470372e-01,3.305780159779860700e-02,-3.022189981928168345e-01,2.392644306346807803e-01,-1.213004981803076920e-01,-2.292156979897925495e-01,2.051962356925159936e-01,-1.759835246392684183e-01,5.366737313158017608e-01,7.303540706634521484e-01
5.483120000000000216e-01,1.118648681107718701e-03,2.263892638672171040e-02,9.646433591842651367e-01,2.573866348397974707e-02,1.329261008050730553e-02,2.136727054274278892e-02,-4.973578317139473043e-02,8.562925835261957219e-02,-1.045283228158950806e-01,2.016948637298271729e-01,1.405741779399786728e-01,1.157127253159998120e-01,-3.263494007196314772e-01,2.661555441734081429e-01,-1.227069510491448356e-01,-2.332422031705405630e-01,2.101029031849379058e-01,-1.820915002241819958e-01,5.366641890693207850e-01,6.978826522827148438e-01
5.719199999999999839e-01,-1.759672824609601841e-03,2.727725724767298202e-02,9.611831307411193848e-01,3.025712940286436406e-02,1.701590904985006425e-02,2.377764559974537839e-02,-5.718683012475930805e-02,8.407636698603088155e-02,-1.002778559923171997e-01,1.615480693029724413e-01,8.177441110402222657e-02,6.798915583101508564e-02,-3.344585806153077545e-01,2.826846271509718678e-01,-1.112429746957312171e-01,-2.344585806153077212e-01,2.102410436497892110e-01,-1.771721810580157708e-01,5.362004566599409827e-01,6.682553291320800781e-01
5.999780000000000113e-01,-4.518352843674771323e-03,3.238606699475272271e-02,9.577143192291259766e-01,3.046870762916504063e-02,1.873860434100604877e-02,2.614973034912115857e-02,-3.443727965045081940e-02,8.267030268273724281e-02,-1.068478524684906006e-01,-4.057392922318733136e-02,1.954535916427216011e-02,4.391459620041045925e-02,-3.058383410635757693e-01,3.016772293266429261e-01,-9.575643965659463852e-02,-2.058383410635757638e-01,2.016772293266429206e-01,-1.680596935604452558e-01,5.366774810613411661e-01,6.476645469665527344e-01
6.233560000000000212e-01,-6.233673167105740175e-03,3.572432547571183920e-02,9.553931951522827148e-01,2.881677085075984648e-02,1.873905495879246708e-02,2.796779299145657482e-02,-4.029669175055847208e-02,8.842223905690449470e-02,-1.091574579477310181e-01,-7.816381711395233023e-02,-3.429437704759107086e-02,9.397423935120972904e-02,-2.421545786008577616e-01,2.429127088466562778e-01,-2.594788877517605064e-02,-1.421545786008577561e-01,1.506047208632197154e-01,-1.034323712862201122e-01,5.370354235828646017e-01,6.411266326904296875e-01
6.464050000000000074e-01,-7.843947544586180390e-03,3.899125445369631959e-02,9.530186653137207031e-01,2.562214307250066173e-02,1.749440641180677325e-02,2.959917984274618163e-02,-4.166169541273113952e-02,8.354618592754663176e-02,-1.019132584333419800e-01,-1.763244424676943811e-01,-1.012646501972744029e-01,7.172615977720986358e-02,-1.289200870489754236e-01,2.013446449543435657e-01,-3.649658019355095373e-02,-4.544403674032198442e-02,1.185262734634803666e-01,-1.186967428268227431e-01,5.359255337435433475e-01,5.916264057159423828e-01
6.699479999999999880e-01,-1.241569147531207916e-02,4.401150111273664095e-02,9.495630264282226562e-01,1.841009396320527833e-02,1.375572922852708047e-02,3.259197841569028142e-02,-3.702113490679628804e-02,9.147182755754523775e-02,-1.131151989102363586e-01,-2.824297549476104119e-01,-1.601437474131263694e-01,1.089510037284061872e-01,-2.177496779619262496e-02,1.764967604922094979e-01,-1.717167160519532387e-02,4.874245871964447835e-03,1.167645323811325880e-01,-1.080165866394535573e-01,5.376962071126977216e-01,6.231026649475097656e-01
6.977849999999999886e-01,-1.770791831733957780e-02,4.902418588360473589e-02,9.462192058563232422e-01,9.168823551510652675e-03,7.696522461878352317e-03,3.541466043331586988e-02,-3.293728103055577200e-02,9.405523750007771522e-02,-1.171525344252586365e-01,-3.665306456650352929e-01,-2.292423471879576347e-01,1.032958319488261750e-01,4.972345084773763940e-02,1.296380474916260517e-01,1.452528231200465869e-02,1.228055720097778920e-02,1.101305602618184026e-01,-8.454133891592842398e-02,5.398382402631912713e-01,7.040083408355712891e-01
7.226080000000000281e-01,-2.105567362495218073e-02,5.234557580618918321e-02,9.440726637840270996e-01,2.685803750666218483e-03,2.759092199035029225e-03,3.725103331556600672e-02,-2.905738409083805790e-02,1.013481397354870361e-01,-1.058910861611366272e-01,-3.066128049640492459e-01,-2.391657053771425179e-01,5.927981362999290571e-02,1.872179512432779469e-01,9.364529383874874158e-02,1.282396567323781933e-02,9.990028708453312090e-02,1.059817998798526090e-01,-8.717603432676218622e-02,5.396804533910707358e-01,7.228188514709472656e-01
7.478409999999999780e-01,-2.425557331514786516e-02,5.564096930841849753e-02,9.419440031051635742e-01,-4.415896461849476949e-03,-2.879016717918458923e-03,3.924397432770398986e-02,-4.111739539089119544e-02,9.779401024044720447e-02,-1.095982789993286133e-01,-3.584418263496125245e-01,-3.208219115144719802e-01,1.471868749065752824e-01,2.330699469642120436e-01,-1.023748944842376579e-02,2.172975810226020210e-02,1.330699469642120381e-01,5.093506751741647132e-02,-7.827024189773980345e-02,5.403074042079540895e-01,7.260713577270507812e-01
7.703689999999999705e-01,-2.882247378526768891e-02,6.103348695969699339e-02,9.387993216514587402e-01,-1.469322844202117229e-02,-1.128063994696937300e-02,4.152408900312809514e-02,-3.533831640272144803e-02,1.103111960237039696e-01,-1.120255142450332642e-01,-2.858183543131101456e-01,-2.695359797772347576e-01,7.883908894462980654e-02,2.785859285797779306e-01,-1.395860377028609878e-01,1.328656793809800118e-02,1.785859285797779528e-01,-3.958603770286099610e-02,-8.671343206190200437e-02,5.409957212154512529e-01,7.330784797668457031e-01
7.998340000000000449e-01,-3.315945761123862551e-02,6.662591734547466948e-02,9.358210563659667969e-01,-2.321926371502225014e-02,-1.980756899241553626e-02,4.330547210030966099e-02,-3.683168807178231058e-02,1.118761386329727991e-01,-1.042240709066390991e-01,-2.121570168842016879e-01,-3.047073679509545441e-01,2.771430443989421691e-02,2.919957567425883749e-01,-2.370098217191320689e-01,3.958763752133453301e-02,1.919957567425883693e-01,-1.370098217191320633e-01,-6.041236247866547254e-02,5.408672883730696324e-01,7.362939119338989258e-01
8.232380000000000253e-01,-3.592541861217145305e-02,7.032370881336619250e-02,9.338623285293579102e-01,-2.712725772814882086e-02,-2.461978090040695122e-02,4.448913290112233021e-02,-4.294331955817206475e-02,1.191353710375966657e-01,-1.017501130700111389e-01,-1.598117047078069231e-01,-2.186192120918802329e-01,7.614705304995039725e-02,3.076340172509400839e-01,-2.871962914090314678e-01,6.222523487868886899e-02,2.076340172509400506e-01,-1.871962914090314900e-01,-3.777476512131113656e-02,5.409483652497945050e-01,7.338602542877197266e-01
8.457329999999999570e-01,-3.864655502609688070e-02,7.404416502883462425e-02,9.321894645690917969e-01,-2.925669545594615159e-02,-2.898291547934128687e-02,4.524714834459486745e-02,-5.119689369330922279e-02,1.214073901819498896e-01,-9.792958199977874756e-02,-5.824014875338726777e-02,-2.138439783501035196e-01,3.298443306503571343e-02,3.074188923486097513e-01,-2.912177692506975335e-01,6.679927117027678607e-02,2.074188923486097458e-01,-1.912177692506975002e-01,-3.320072882972321254e-02,5.410169598160896598e-01,7.374818325042724609e-01
8.693899999999999961e-01,-4.226418582506179245e-02,7.898493223418205644e-02,9.297153949737548828e-01,-2.948475993011184099e-02,-3.392753083533817104e-02,4.607061075301799313e-02,-4.706478687800737248e-02,1.321229903778534664e-01,-9.695925563573837280e-02,4.335688867823761505e-02,-1.326481064810072497e-01,-2.139902572505412992e-02,2.946327502613810267e-01,-2.667884763713952445e-01,9.025069390488352217e-02,1.946327502613810212e-01,-1.667884763713952112e-01,-9.749306095116481649e-03,5.412585796043811737e-01,7.359821796417236328e-01
8.970740000000000380e-01,-4.528538197045651331e-02,8.271549240541815895e-02,9.276075959205627441e-01,-2.617378817511884295e-02,-3.713694125149924474e-02,4.685882003841945753e-02,-5.393617986518384894e-02,1.319196569177728540e-01,-9.455158561468124390e-02,1.398935674623996983e-01,-8.666343045119757893e-02,6.280892636935712925e-02,2.187060086825725058e-01,-2.371141377867053701e-01,1.146518058228963854e-01,1.187060086825724864e-01,-1.371141377867053646e-01,1.465180582289638163e-02,5.386731259788316573e-01,5.848830938339233398e-01
9.213780000000000303e-01,-4.726284572976997833e-02,8.535136721489935963e-02,9.262352585792541504e-01,-2.210566411025651976e-02,-3.724448085197318292e-02,4.700210151411288173e-02,-6.751217498580917853e-02,1.388004605715844886e-01,-8.649318665266036987e-02,2.534452374118436047e-01,5.899199472761168517e-02,-9.342734307531387616e-03,1.314368808663176624e-01,-1.416697820842087729e-01,1.170213563685131158e-01,3.143688086631765688e-02,-4.166978208420877433e-02,1.702135636851311029e-02,5.365108584010391812e-01,4.827144145965576172e-01
9.451199999999999601e-01,-4.919673925233228329e-02,8.801174302092495960e-02,9.250280261039733887e-01,-1.746828617599032948e-02,-3.539101955255152809e-02,4.706123536497974769e-02,-5.808341626503456256e-02,1.456891572453588024e-01,-9.913095086812973022e-02,1.920210432927433319e-01,1.763243115992483290e-01,2.905463965036378382e-02,1.537324158125367157e-01,-9.077646663133051574e-02,1.216877387989580284e-01,5.373241581253672405e-02,9.223533368669495011e-03,2.168773879895802975e-02,5.381830634466903129e-01,5.116820335388183594e-01
9.737489999999999757e-01,-5.240033068899263569e-02,9.375859773068133396e-02,9.226590394973754883e-01,-6.028727453602694686e-03,-2.755125706942651576e-02,4.632185738621763527e-02,-6.470929211494336197e-02,1.557930322339410589e-01,-9.408034384250640869e-02,2.669304167648133830e-01,2.783287898075966216e-01,5.641715905666330397e-03,9.324759284418800143e-02,2.564354980010416507e-02,1.180965659432325621e-01,-6.752407155812005859e-03,1.256435498001041706e-01,1.809656594323256346e-02,5.356110601451150588e-01,3.703694343566894531e-01
9.993910000000000293e-01,-5.373029831156280606e-02,9.678367339781397682e-02,9.216032624244689941e-01,2.084814612143600504e-04,-2.230616462132806177e-02,4.554096523490525072e-02,-6.409545630889308676e-02,1.451289292661620267e-01,-8.924181759357452393e-02,2.781399857481411941e-01,3.050936571595407321e-01,-5.138961977807219444e-02,9.347632437586214649e-02,2.578716507258713153e-02,1.159260826044054699e-01,-6.523675624137856462e-03,1.257871650725871371e-01,1.592608260440546084e-02,5.354729457469807885e-01,3.698167800903320312e-01
1.028653999999999957e+00,-5.499068125290771519e-02,9.978297728640442288e-02,9.205210208892822266e-01,6.638995092891045516e-03,-1.612758570196426433e-02,4.495566422276620067e-02,-5.846603347597766759e-02,1.537168928131346091e-01,-8.888079226016998291e-02,2.672048365794850167e-01,3.761483214985854584e-01,-2.095368022042541287e-02,2.778039398170338570e-02,3.259799710100697023e-02,5.633354744281265924e-02,-7.221960601829661985e-02,1.325979971010069758e-01,-4.366645255718734631e-02,5.338062153590451553e-01,2.659878730773925781e-01
1.048566000000000109e+00,-5.627581632171343995e-02,1.028551311669011481e-01,9.196527600288391113e-01,1.299425160666427444e-02,-1.019840036234409553e-02,4.387161098435909956e-02,-6.154464194181220177e-02,1.513292685698454099e-01,-8.240800350904464722e-02,2.734536688976875185e-01,3.141282736480363047e-01,-7.294900084143905727e-02,-7.142400002219621846e-02,4.386824049517340507e-02,5.581203567757415940e-02,-1.616856690609029812e-01,1.438682404951734106e-01,-4.418796432242584615e-02,5.337802518997936119e-01,2.784304618835449219e-01
1.077069000000000054e+00,-5.852892329486875794e-02,1.070366689416265976e-01,9.181649088859558105e-01,2.076628317031539370e-02,-1.740687691554443361e-03,4.238668597936556814e-02,-6.018749588450628130e-02,1.561547093267063591e-01,-8.579979836940765381e-02,2.063816916980232008e-01,2.382669389112967162e-01,-5.542713175198107217e-02,-1.710569639628907179e-01,9.199396100640569451e-02,1.738525483971832541e-02,-2.183998656071508004e-01,1.760619469211481547e-01,-8.261474516028168014e-02,5.349429471859077356e-01,3.142708539962768555e-01
1.097531000000000034e+00,-6.037127273187164328e-02,1.093814382697336357e-01,9.172284603118896484e-01,2.513256294468684329e-02,2.734325629734968288e-03,4.132790163026434094e-02,-6.957600094998098172e-02,1.541548924856304681e-01,-8.172794431447982788e-02,2.451012604998465960e-01,2.311676738908440276e-01,-5.184739538452324409e-02,-2.080835570065570350e-01,1.210069354699315897e-01,-7.079353879071548228e-03,-2.276620035662976216e-01,1.848640030241941734e-01,-1.070793538790715538e-01,5.347438638194284000e-01,3.071120977401733398e-01
1.123107999999999995e+00,-6.310454622365460620e-02,1.128286680908730660e-01,9.157209992408752441e-01,3.027054514744721356e-02,7.408851149886208631e-03,3.934519347231701936e-02,-5.920684871293936669e-02,1.422785756709405436e-01,-8.373430371284484863e-02,1.458476118622412665e-01,1.019616867018812573e-01,-1.112517596569512213e-01,-2.497703032329681716e-01,1.696424394232331767e-01,-1.482082459654587847e-03,-2.297430388458219508e-01,1.960731816887091583e-01,-1.014820824596545934e-01,5.357476447441549272e-01,3.409552574157714844e-01
1.146257999999999999e+00,-6.485289773538190083e-02,1.151347061662899990e-01,9.146633148193359375e-01,3.301085553063364680e-02,9.181539712880271153e-03,3.835939469764793053e-02,-5.655028049578804394e-02,1.503223442528020259e-01,-8.729556202888488770e-02,1.612253549619028503e-01,7.919125414222757953e-02,-4.867067872449537536e-02,-2.622096201451172282e-01,1.788863805076625624e-01,-3.178229575011043417e-03,-2.342436920754959184e-01,1.942827372702100597e-01,-1.031782295750110490e-01,5.373862231369268549e-01,4.038487672805786133e-01
1.170609000000000011e+00,-6.739826122011746690e-02,1.185430295493880293e-01,9.129672646522521973e-01,3.613974228631208763e-02,9.863858338861053454e-03,3.676158686851960233e-02,-5.591766069476177686e-02,1.382665386708298860e-01,-8.315307646989822388e-02,1.301638357168428128e-01,9.665530056073301252e-04,-4.268108084517937412e-02,-2.895752624488459048e-01,1.735083280117220295e-01,9.908882951641850845e-02,-2.338167950134852624e-01,1.866533958408081728e-01,-9.111704835814997058e-04,5.337705747675234313e-01,2.059344053268432617e-01
1.203880999999999979e+00,-7.122673858286016069e-02,1.229218489413316795e-01,9.113689064979553223e-01,3.699058777078649551e-02,9.783355978481456106e-03,3.536592380636016664e-02,-5.804111566266329653e-02,1.379109013394125838e-01,-9.022660553455352783e-02,-3.800423204458778289e-03,-2.138348916675806080e-02,-6.410032485069599995e-02,-2.551578042957732828e-01,1.387062023623515661e-01,6.827431869224961924e-02,-1.983521841592647827e-01,1.566900686454296698e-01,-3.103763433605907437e-02,5.289955145250524460e-01,-9.977632761001586914e-02
1.223154000000000075e+00,-7.247077061095982820e-02,1.243853986181911730e-01,9.108113646507263184e-01,3.664514245793751984e-02,9.662767669528671277e-03,3.508365449641459577e-02,-6.196737852040734573e-02,1.403823072101187119e-01,-9.331600368022918701e-02,-1.511938709736989836e-02,-2.399279307597771208e-02,-4.112541294956872234e-02,-1.914211550144298557e-01,1.195742998326608519e-01,4.283909111914319806e-02,-1.404025559009011159e-01,1.420915954949688864e-01,-5.574725918037370248e-02,5.302921020123150253e-01,-5.279427766799926758e-02
1.248985999999999930e+00,-7.596806089024821240e-02,1.286987559221912936e-01,9.091162681579589844e-01,3.350211116812637502e-02,8.781824340774235793e-03,3.440928127553743998e-02,-5.581822860633889327e-02,1.337284777300242755e-01,-9.659620374441146851e-02,-1.535519257401104232e-01,-3.221562766038918446e-02,-5.768435389395101115e-02,-4.812794617216276105e-02,1.008945140332506707e-01,9.904791151379988001e-04,-1.511244903402601120e-02,1.266268546227270198e-01,-9.573075534749314608e-02,5.335442305546119757e-01,9.702813625335693359e-02
1.272780999999999940e+00,-7.926111191591507510e-02,1.329448297918524868e-01,9.074494838714599609e-01,2.778549823102105173e-02,6.108485014143072434e-03,3.411525977396667741e-02,-4.333907814766738142e-02,1.351624994469137753e-01,-1.017007976770401001e-01,-2.314348893056202838e-01,-1.367236613444562654e-01,1.869271380285493500e-02,8.510862928308264574e-05,8.877082913615368109e-02,3.432618767731231840e-02,-8.799329681453386606e-03,1.256261534232289978e-01,-6.167984162188844960e-02,5.375840432652898571e-01,2.833838462829589844e-01
1.298880999999999952e+00,-8.234070343979704720e-02,1.358140073933659098e-01,9.063595533370971680e-01,2.325245187054932050e-02,3.624359373311181187e-03,3.371934359818018478e-02,-5.874225918332934282e-02,1.323477264899649564e-01,-9.328060597181320190e-02,-1.717641081568290207e-01,-1.241465717553255910e-01,-3.624285323728478059e-02,3.538468663973463879e-02,5.616402437181548801e-02,2.848513445165001823e-02,-3.691656296347742110e-03,1.252483217824524597e-01,-6.673573363938878344e-02,5.388116732116009500e-01,3.703539371490478516e-01
1.323163000000000089e+00,-8.670912757667030568e-02,1.400516895518712501e-01,9.047513604164123535e-01,1.463144125796279546e-02,-1.223564228517215469e-03,3.222778259397518497e-02,-4.222553682992807866e-02,1.306050625506315899e-01,-1.051364615559577942e-01,-3.057784946958224115e-01,-1.972869731322335063e-01,-7.457432159185670151e-02,9.982770985182962131e-02,3.001790794866744660e-02,3.405255725265882161e-02,3.509374338810430233e-03,1.192492207147939492e-01,-5.705408761762770231e-02,5.437858858731829947e-01,5.843358039855957031e-01
1.347968999999999973e+00,-8.949061709931351027e-02,1.429048269985986053e-01,9.036405086517333984e-01,8.465032518014444646e-03,-4.753013253620430589e-03,3.143126808224172564e-02,-5.192352267124845933e-02,1.391366381588540202e-01,-1.050246804952621460e-01,-2.792939523979859340e-01,-1.770763112009637041e-01,-5.020896724262512850e-02,1.072705463421039507e-01,-1.111852024673028183e-02,6.570040069620736167e-02,7.270546342103952064e-03,8.888147975326972372e-02,-2.337513793144985891e-02,5.451086091480842333e-01,6.430013179779052734e-01
1.371944999999999970e+00,-9.346720905057664952e-02,1.471947521040949391e-01,9.019103050231933594e-01,-5.100111164320249708e-05,-9.594406315027725896e-03,3.006265258249896100e-02,-4.999620031502987477e-02,1.360712539475671390e-01,-1.042133644223213196e-01,-2.348962171661261311e-01,-1.644363836278133761e-01,-4.142105702433668268e-02,1.869893338721686782e-01,-1.348906128704290830e-01,7.175362129728858618e-02,8.698933387216867263e-02,-3.489061287042907744e-02,-1.346587044277928677e-02,5.461715318171884714e-01,6.888027191162109375e-01
1.398080999999999907e+00,-9.583015430538527335e-02,1.500214715132591470e-01,9.007944464683532715e-01,-4.872516752489236200e-03,-1.236814628917115577e-02,2.929680041252402667e-02,-5.576790377186374020e-02,1.403203914513591610e-01,-1.116710752248764038e-01,-2.240033544390944709e-01,-1.473332542416919966e-01,-2.379758460963294492e-02,2.330484241509942211e-01,-1.893598551254627449e-01,7.293635079850767367e-02,1.330484241509942156e-01,-8.935985512546273934e-02,-1.014432442481828268e-02,5.469409772110228607e-01,6.867177486419677734e-01
1.423397999999999941e+00,-9.931615651145569990e-02,1.543172072209713919e-01,8.991643786430358887e-01,-9.693601161689975251e-03,-1.630753878383339739e-02,2.853621009166062983e-02,-5.508537204737984361e-02,1.418523451812611913e-01,-1.058946922421455383e-01,-1.286053731198798511e-01,-1.192853639056867532e-01,8.049325108755360156e-03,2.798154235613657947e-01,-2.482186492798423294e-01,8.288233906722984601e-02,1.798154235613658170e-01,-1.482186492798423239e-01,1.966238904448507768e-03,5.465318452397815996e-01,6.693685054779052734e-01
1.448190000000000088e+00,-1.015908604077091215e-01,1.571883683947292443e-01,8.980563879013061523e-01,-1.094390198593501659e-02,-1.870415701668082242e-02,2.757636116324246878e-02,-5.426815077748969873e-02,1.376532549325400479e-01,-9.764754027128219604e-02,-3.005474547623124618e-02,-1.404107282148260027e-01,-7.432241846463526203e-02,2.405369209083580428e-01,-2.178876698001013523e-01,6.691763301248393470e-02,1.405369209083580373e-01,-1.178876698001013468e-01,-1.132797695459641235e-02,5.453987379882249131e-01,6.240817308425903320e-01
1.474793999999999938e+00,-1.048879693378663158e-01,1.615687708853338900e-01,8.967190980911254883e-01,-1.119060969153740440e-02,-2.120373858059099170e-02,2.628557825982258400e-02,-6.145222276263290900e-02,1.446030597372892634e-01,-9.614361077547073364e-02,-2.110732199185762215e-02,-6.559265197094628352e-02,-4.704559196759730555e-02,2.660357730085347594e-01,-2.460083806497204983e-01,5.360973340321291414e-02,1.660357730085347261e-01,-1.460083806497204928e-01,-2.119570068430980461e-02,5.453672852308018015e-01,6.117223501205444336e-01
1.497133000000000047e+00,-1.072043252095364607e-01,1.639741991445378688e-01,8.958726525306701660e-01,-9.998060989467406900e-03,-2.230258780861182899e-02,2.522342073856131961e-02,-5.529454128168143773e-02,1.502842808985018486e-01,-9.663609415292739868e-02,7.238339253954977071e-02,-4.984845031860648396e-02,-6.087733362810971577e-02,9.536219796217723643e-02,-1.093811484888101010e-01,8.197340925102403197e-02,-4.637802037822767384e-03,-9.381148488810095443e-03,1.001333556192551648e-02,5.432850355343279425e-01,4.796158075332641602e-01
1.521908000000000039e+00,-1.108159536293789049e-01,1.669122708798881360e-01,8.947136402130126953e-01,-7.167295172268470065e-03,-2.235379858300490241e-02,2.329020789161506677e-02,-6.605075267363204328e-02,1.501042273018821649e-01,-8.287546783685684204e-02,1.270233849377344626e-01,2.596382747482951781e-02,-6.867020649097833884e-02,6.949739029586811390e-02,-2.981849389628121738e-02,8.727042792227777956e-02,-3.050260970413189512e-02,7.018150610371878817e-02,2.047530525305173155e-02,5.348530339268332545e-01,5.132079124450683594e-02
1.546772000000000036e+00,-1.131247434131496116e-01,1.689411954348075395e-01,8.940091133117675781e-01,-4.221918188269591608e-03,-2.077680335216647300e-02,2.162577835443624252e-02,-6.228418749281942196e-02,1.483247240012524337e-01,-9.275558590888977051e-02,1.316834980308267122e-01,1.278608802879392103e-01,-6.765516533642948471e-02,9.275021800060984090e-02,3.096968435340752279e-02,1.363238623660386478e-02,-7.249781999390161186e-03,1.309696843534075283e-01,-4.858982052548131009e-02,5.377429715872180660e-01,1.593484878540039062e-01
1.572969000000000062e+00,-1.164100951729799271e-01,1.720848785116228519e-01,8.931353092193603516e-01,2.166434838735281816e-03,-1.603122929504241512e-02,1.912543754648443617e-02,-5.538480056418762509e-02,1.572456058928148326e-01,-7.617584615945816040e-02,2.135416523562887192e-01,1.997769049677400599e-01,-5.083523828370917902e-02,8.187755617890993265e-03,2.771201970688988436e-02,5.108110173782615115e-02,-9.181224438210901229e-02,1.277120197068898899e-01,-4.307978221184670040e-03,5.322984864872384314e-01,-8.901453018188476562e-02
1.598054000000000086e+00,-1.185098324419190385e-01,1.742659018173259855e-01,8.926105499267578125e-01,7.162660638445476555e-03,-1.173865763898174208e-02,1.728906955096909392e-02,-5.631651071225302063e-02,1.456319100807373923e-01,-6.732113659381866455e-02,2.479709142865304250e-01,1.924070993102627858e-01,-1.061057222254958576e-01,-6.281508164798380034e-02,1.998900695142918904e-02,3.395220830045135585e-02,-1.628150816479838059e-01,1.199890069514291946e-01,-1.625828044971079633e-02,5.324672344470670060e-01,-5.498886108398437500e-02
1.621701999999999977e+00,-1.204447688635622016e-01,1.765321863835986327e-01,8.924190402030944824e-01,1.234973510332504007e-02,-6.804037493949532944e-03,1.602096525144314221e-02,-6.563770086300577122e-02,1.489532931304528296e-01,-5.901761353015899658e-02,2.949443340146706838e-01,2.560328097773348910e-01,-3.446758813482962702e-02,-8.734260561627332775e-02,2.991712506141117056e-02,4.316981718470011553e-02,-1.873426056162733333e-01,1.299171250614111761e-01,-3.511174849025551839e-03,5.304072987186243537e-01,-1.454881429672241211e-01
1.644549000000000039e+00,-1.232601768758222471e-01,1.799466161138479070e-01,8.921176791191101074e-01,1.997494401606997316e-02,1.034725538960001856e-03,1.321489923979646264e-02,-5.012782532370066435e-02,1.533399359450311472e-01,-5.784293264150619507e-02,2.611654201864518909e-01,2.708311778172395323e-01,-1.041932002678395558e-01,-1.095183532077464716e-01,1.015915647930840104e-01,-6.167072890199132296e-04,-2.095183532077464772e-01,2.015915647930840160e-01,-3.900109040942600913e-02,5.283373375736465372e-01,-2.635828256607055664e-01
1.675399000000000083e+00,-1.258913711825953852e-01,1.834693717035590088e-01,8.922024369239807129e-01,2.579742978613294366e-02,7.163219591374447859e-03,1.039555620650678414e-02,-5.447067099913936034e-02,1.449118205099999279e-01,-4.960225895047187805e-02,1.533602291285075525e-01,1.712216108702747097e-01,-9.890045215819354141e-02,-1.474053223800748103e-01,1.374684542976227775e-01,4.029832146542422500e-02,-2.186953339149585174e-01,2.168417131032493728e-01,1.010942943879988669e-02,5.267179407822284443e-01,-3.269462585449218750e-01
1.699391000000000096e+00,-1.278744459382648302e-01,1.860688048095795466e-01,8.922319412231445312e-01,2.834246248735473525e-02,1.007260166800616474e-02,9.121159218116625667e-03,-5.856166225752364868e-02,1.492762192509841379e-01,-5.507993325591087341e-02,7.980252593798531358e-02,1.318860020362166152e-01,-4.065831595977657809e-02,-1.600929453819916470e-01,1.524485522484228250e-01,-5.732272782412987933e-02,-2.215104968262594232e-01,2.172069282248210720e-01,-8.379570956313374397e-02,5.308300752490580088e-01,-1.328501105308532715e-01
1.723076000000000052e+00,-1.310495419870025824e-01,1.903659810648073158e-01,8.923876881599426270e-01,3.094322974730133111e-02,1.183790033022535937e-02,6.884929409761042507e-03,-5.366384787947885149e-02,1.405738305871568339e-01,-5.099520459771156311e-02,7.744966572586761688e-02,9.464476787711145755e-03,-5.167819557271623176e-02,-1.842608953038822606e-01,1.651308876016336635e-01,8.068470332467155004e-02,-2.250790663845298190e-01,2.172038542530868033e-01,6.063357346324300956e-02,5.268292653671157177e-01,-3.422287106513977051e-01
1.746658999999999962e+00,-1.330127324212128370e-01,1.931772215356925004e-01,8.924553990364074707e-01,3.158173699335278112e-02,1.222844118902854937e-02,5.112267399077774499e-03,-5.291111631033353774e-02,1.389807416880996516e-01,-3.992104902863502502e-02,1.545093134286726691e-02,1.593784758886858735e-02,-1.293140816052369968e-01,-1.624438915767412728e-01,1.630833379016827234e-01,4.458541611656026069e-03,-2.021541050751593238e-01,2.151554645863885395e-01,-1.063953883273517816e-02,5.270923655107342398e-01,-2.916923761367797852e-01
1.770739999999999981e+00,-1.357363483269466431e-01,1.974331437854500992e-01,8.924877047538757324e-01,3.021418596613904134e-02,1.225086247216888857e-02,3.053332047288970230e-03,-3.312607014454590354e-02,1.447035680745854258e-01,-5.436503142118453979e-02,-1.211253246375880166e-01,-2.301700639957119862e-02,-3.901132736791839556e-02,4.736337530558147602e-02,9.251938745132393116e-02,-1.422317456359807331e-01,-8.312159899691654030e-03,1.317559469121131199e-01,-1.513687724731334061e-01,5.316533897174854362e-01,-1.073455810546875000e-01
1.801188000000000011e+00,-1.382199051884016316e-01,2.018006367403543111e-01,8.923412561416625977e-01,2.711482054067290010e-02,1.147380770052963683e-02,1.095042882067298606e-03,-5.076034288044118520e-02,1.413990021323999480e-01,-5.603203177452087402e-02,-1.357225246883308756e-01,-1.709549720064943226e-02,-4.174626160757470561e-02,6.781523706007942798e-02,6.946496566935007888e-02,-1.395378402088875425e-01,-8.012118088706861666e-03,1.322753044143123169e-01,-1.434971368241164114e-01,5.319884854456464751e-01,-1.053696870803833008e-01
1.824443999999999955e+00,-1.398228971243900831e-01,2.048365374549401263e-01,8.921620249748229980e-01,2.453779319509431442e-02,9.791627854272677567e-03,-3.586672571396221088e-04,-3.287199985294514404e-02,1.439701208814099243e-01,-5.758748203516006470e-02,-1.523331940098027470e-01,-7.862004145862999671e-02,-8.352771827012303585e-02,8.988206296316034183e-02,7.315214101182075657e-02,-1.349239070380215122e-01,-7.671085255083537856e-03,1.326890367470953402e-01,-1.347413223320822195e-01,5.322969326186252070e-01,-1.033046245574951172e-01
1.848046000000000078e+00,-1.413368401401133290e-01,2.078646243169200158e-01,8.919203877449035645e-01,2.147438871498031157e-02,7.343400912484199239e-03,-1.361768657697881579e-03,-3.319308864770421225e-02,1.428395373209314090e-01,-6.659676134586334229e-02,-1.739795624821488251e-01,-1.295530897516518620e-01,-3.058840802759698815e-02,9.227546914493214847e-02,5.383997340586718638e-02,-8.235219753321777747e-02,-7.724530855067857082e-03,1.333844621941121522e-01,-7.958617275679270853e-02,5.333243937637061061e-01,-9.247940778732299805e-02
1.871075000000000044e+00,-1.427237352316878538e-01,2.109062654736491849e-01,8.916090130805969238e-01,1.807736101190916128e-02,4.519539905249780887e-03,-2.613898835451600178e-03,-4.169810511746283033e-02,1.417970874099292455e-01,-5.970631539821624756e-02,-1.376710515393975431e-01,-1.506813006393779575e-01,-8.589964598003871354e-02,9.254666126009489235e-02,-7.709208029978723009e-03,-8.188342536904619218e-02,-7.453338739905107993e-03,9.229079197002128254e-02,-7.589097904116975934e-02,5.331910575426527243e-01,-8.297550678253173828e-02
1.895091999999999999e+00,-1.446908306274423406e-01,2.154757063225028746e-01,8.909531831741333008e-01,1.218034683832760166e-02,-9.557337536931775901e-04,-4.845471695206438056e-03,-2.952273135136914209e-02,1.413993358990178473e-01,-7.436067610979080200e-02,-1.973558527234971216e-01,-2.066685889194624648e-01,-1.001809660240451788e-01,9.237346005021390694e-02,-6.248103491915914243e-02,-4.957431203396005931e-02,-7.626539949786098616e-03,3.751896508084086312e-02,-3.751141748133517834e-02,5.347362327027119777e-01,-6.738698482513427734e-02
1.925373999999999919e+00,-1.465491937604425643e-01,2.193150322121139029e-01,8.900684118270874023e-01,7.228107954607362884e-03,-7.088387745329161049e-03,-5.186450027408584518e-03,-3.042902733848523375e-02,1.476705931734289823e-01,-7.118512690067291260e-02,-1.865043564399786469e-01,-2.157477092158427145e-01,2.765352512677008920e-02,2.514139948898279631e-01,-2.648367287020322869e-01,1.094342002280143319e-02,1.514139948898279853e-01,-1.648367287020322813e-01,2.360315782928453995e-02,5.353995066929498892e-01,-3.202462196350097656e-02
1.950735000000000108e+00,-1.476599822807085349e-01,2.218948515697025115e-01,8.894158601760864258e-01,5.287022402586087459e-03,-9.935676201473730984e-03,-5.101348203566002937e-03,-3.017916248479455069e-02,1.496946042166311941e-01,-7.934101670980453491e-02,-6.274251548687109770e-02,-1.107297252818978534e-01,3.372675869303032661e-03,2.365212451962570572e-01,-2.727028077356078439e-01,1.717629497223649090e-02,1.365212451962570517e-01,-1.727028077356078106e-01,2.945998527576259782e-02,5.388859152131368901e-01,1.161597967147827148e-01
1.973362000000000060e+00,-1.491564720316567172e-01,2.258904496316181121e-01,8.884004950523376465e-01,2.931658074595402518e-03,-1.223766385829949677e-02,-4.466303067894417111e-03,-2.026301855001674465e-02,1.582499701546759285e-01,-6.517993658781051636e-02,-4.186754888251554424e-02,-5.814109214815457727e-02,5.393102162737038047e-02,3.005489301399374424e-01,-3.163565150945597537e-01,3.934884718608749193e-02,2.005489301399374091e-01,-2.163565150945597204e-01,4.979366667810541242e-02,5.365632762747832851e-01,2.970087528228759766e-02
1.996085000000000109e+00,-1.499927820064637096e-01,2.286283446314632262e-01,8.877033591270446777e-01,2.049036903058848360e-03,-1.276789343241957475e-02,-4.253479121903325222e-03,-3.050755549489123086e-02,1.561119280360789008e-01,-7.210820168256759644e-02,-7.136868994010482636e-02,-2.970274495051795222e-02,-1.383123263904513858e-02,2.832815500174088452e-01,-2.728571561899639786e-01,-8.382571254064562910e-03,1.832815500174088119e-01,-1.728571561899640008e-01,1.377546654129414372e-03,5.363942573283542181e-01,-1.953822374343872070e-02
2.024551999999999907e+00,-1.509724363001585801e-01,2.326590834737749525e-01,8.866633176803588867e-01,1.857962036134079564e-03,-1.288097296769286082e-02,-3.144918777237215579e-03,-1.681351174025839945e-02,1.603152107416538352e-01,-6.657720357179641724e-02,-5.016626794917684179e-02,2.323948037533858646e-02,4.848388127184043855e-02,2.554207305060123279e-01,-2.246182164310080165e-01,3.324070566252870784e-02,1.554207305060123223e-01,-1.246182164310080109e-01,3.995269687699645744e-02,5.357905258882063038e-01,-4.446238279342651367e-02
2.047547999999999924e+00,-1.514295670346241518e-01,2.353903663257954637e-01,8.859668374061584473e-01,2.794870440179755139e-03,-1.143238166474369599e-02,-2.560976697318251283e-03,-1.690939625717083686e-02,1.638329475311073313e-01,-7.708342373371124268e-02,8.888981521648051110e-02,7.235835201553937612e-02,3.006899116163308169e-02,-2.704836907437246918e-02,-1.932008404187714190e-02,4.194649648905995204e-02,-1.270483690743724747e-01,8.067991595812286365e-02,4.702621716467535878e-02,5.359710357410083503e-01,-8.904731273651123047e-02
2.070266999999999857e+00,-1.517400917599801002e-01,2.382143477344268734e-01,8.852311372756958008e-01,3.350709318141312232e-03,-8.618262809885424147e-03,-2.096698677560793200e-03,3.059970304864176836e-03,1.571511005455436538e-01,-7.048159092664718628e-02,7.308590405174809727e-03,1.776788456587162501e-01,1.156189859208825617e-02,9.272990897403771138e-02,8.511444329866113545e-02,-6.119861071519642343e-02,-7.270091025962301112e-03,1.851144432986611410e-01,-5.708775679683079224e-02,5.353718327171224090e-01,-1.071337461471557617e-01
2.098860000000000170e+00,-1.518849374296235566e-01,2.442040895844960757e-01,8.836606144905090332e-01,6.634080647497086862e-03,1.396812616639708793e-03,-3.553243298288766283e-04,5.512404225523201938e-03,1.715612673838562141e-01,-5.915217101573944092e-02,1.525643042166941465e-01,2.620131506477926253e-01,2.471805249255561599e-03,-5.469146766157245709e-02,1.203303267027014123e-01,-1.507978296641384990e-02,-1.546914676615724626e-01,2.203303267027014178e-01,-1.531392572034065251e-02,5.316376736963543959e-01,-2.852310538291931152e-01
2.125935000000000130e+00,-1.514529169186630275e-01,2.470489965504576724e-01,8.828277587890625000e-01,8.136870098408275492e-03,8.386384851309269806e-03,7.042728171799961245e-04,2.129378994451445323e-02,1.627643012126046562e-01,-8.763094991445541382e-02,5.903002040371935211e-02,3.970657445415807785e-01,8.807911033345670881e-02,5.806821585464799762e-02,1.730165663036699608e-01,-1.826063528269206981e-01,-4.193178414535200793e-02,2.202430313671662476e-01,-1.851366031454243222e-01,5.478222324643527985e-01,4.890513420104980469e-01
2.145754000000000161e+00,-1.511472150319398133e-01,2.485019009437610116e-01,8.824203014373779297e-01,9.429946151552829128e-03,1.187562689066701260e-02,1.347121117919902744e-03,3.057565052291802768e-02,1.723890570795165167e-01,-7.298964262008666992e-02,5.714275378507093633e-02,3.835682377437432122e-01,7.441699746853501496e-02,4.124462852824625075e-02,2.020079129191100498e-01,-1.724582001039566825e-01,-5.875537147175375480e-02,2.220728497469137697e-01,-1.764824292801360772e-01,5.464599695698466597e-01,4.579474925994873047e-01
2.173163000000000178e+00,-1.494975836253652768e-01,2.544834997437298019e-01,8.808423876762390137e-01,1.564508632024641521e-02,2.684797367751712294e-02,4.803343786281333294e-03,4.640836580198297312e-02,1.760081565235473156e-01,-6.346647441387176514e-02,1.858663877040404033e-01,3.150763365901757540e-01,5.121229897245303808e-02,-1.097403012636956887e-01,3.135554347769561323e-01,-1.388374650489340167e-01,-2.097403012636956943e-01,2.243304378544334343e-01,-1.510451235754644017e-01,5.431659810277733591e-01,2.954510450363159180e-01
2.196347999999999967e+00,-1.482717330339247130e-01,2.576661861763238082e-01,8.800087571144104004e-01,1.770892961835045590e-02,3.362620079717348887e-02,6.909755000777284550e-03,4.766367260064827832e-02,1.794744434533273869e-01,-7.692078500986099243e-02,9.946417690519704369e-02,3.307135707217123133e-01,1.236104054565954208e-01,-7.884142269184515883e-02,3.228124355457570038e-01,-1.916797100523570940e-01,-1.788414226918451644e-01,2.228124355457570260e-01,-2.090922761861692958e-01,5.484567133844333586e-01,5.248576402664184570e-01
2.224981000000000098e+00,-1.465476596961939881e-01,2.624902989918244667e-01,8.788406848907470703e-01,1.981066724984510349e-02,3.928389059351888868e-02,1.110711748689929834e-02,8.224282494211831995e-02,1.842068946918747896e-01,-5.879195407032966614e-02,7.887974506768705152e-02,7.643031673934415349e-02,1.750538333083448694e-01,-1.234937453688203235e-01,3.241784050018509111e-01,-5.220930772812233667e-02,-2.234937453688203290e-01,2.241784050018508778e-01,-8.030141583175255671e-02,5.289530225059467794e-01,-4.989862442016601562e-01
2.248836999999999975e+00,-1.452092256698526151e-01,2.658282750663127914e-01,8.781906962394714355e-01,2.108789391155643789e-02,4.018868491662064280e-02,1.371588060879691540e-02,8.187887989900724528e-02,1.902727197643032386e-01,-4.883219674229621887e-02,4.171995556048305187e-02,2.972140314127723684e-03,9.841803614609274942e-02,-1.134343220666263752e-01,3.267789136059535138e-01,1.100618952111473980e-01,-2.134343220666263807e-01,2.267789136059535082e-01,7.480018083695394449e-02,5.289528330833165315e-01,-4.720349311828613281e-01
2.272527999999999881e+00,-1.427322548646314526e-01,2.709848503720056478e-01,8.772708773612976074e-01,2.144278939981671475e-02,3.823673591251286474e-02,1.999735127376478516e-02,8.763851211921724893e-02,1.882464463470413796e-01,-3.782215714454650879e-02,-4.872440020730451488e-02,-9.652549360597931227e-02,2.506296919557926550e-01,2.449631910961741210e-01,3.318286201687180581e-01,1.806782562480671595e-01,1.449631910961741155e-01,2.318286201687180803e-01,1.277632002648900755e-01,5.309078627885547297e-01,-3.333959579467773438e-01
2.295704000000000189e+00,-1.407510024164141949e-01,2.744494589545654062e-01,8.768835663795471191e-01,2.155656097696050100e-02,3.525433160616908701e-02,2.507197296258811825e-02,1.213115157722057802e-01,1.902785588859103594e-01,-3.292719274759292603e-02,6.829231801672146218e-02,-2.024080146892302812e-01,2.684045758983567564e-01,2.508365845875952793e-01,3.349849760188593484e-01,2.577694150775117210e-01,1.508365845875952738e-01,2.349849760188593428e-01,1.907949219487962700e-01,5.301143770140783751e-01,-3.671817779541015625e-01
2.322855999999999810e+00,-1.374793720963779775e-01,2.797281425466267568e-01,8.764901757240295410e-01,2.042690308332355958e-02,2.921842342283231808e-02,3.263435563634953240e-02,1.303791506328363103e-01,1.955052543776971685e-01,-2.433178573846817017e-02,-4.703923560311824847e-02,-2.276764140903703715e-01,2.322910948903665340e-01,2.988558746676718281e-01,3.339001731195780920e-01,2.696669446879678134e-01,1.988558746676718225e-01,2.339001731195780587e-01,1.809690522948310676e-01,5.308074134686060486e-01,-3.055012226104736328e-01
2.346763999999999850e+00,-1.351746499886808117e-01,2.831159697675345033e-01,8.763970732688903809e-01,1.875772431235623802e-02,2.367732709914682765e-02,3.823394637779786720e-02,1.436571039294780028e-01,1.956493930823216820e-01,-1.266633253544569016e-02,-1.213042645342776171e-01,-2.818024181074353374e-01,3.116822313264941968e-01,3.035009358374389787e-01,3.317999618427936448e-01,2.754182487000410573e-01,2.035009358374389732e-01,2.317999618427936392e-01,1.754182487000410240e-01,5.305736392844536686e-01,-2.798409461975097656e-01
2.370168000000000053e+00,-1.324138185953880886e-01,2.866372055511320349e-01,8.764350414276123047e-01,1.753285439604224116e-02,1.723903857403019657e-02,4.362930939795606200e-02,1.581412070617660426e-01,2.043499322067860724e-01,-5.965737625956535339e-03,-9.361112779933497552e-03,-3.440536231281415280e-01,2.362998245197008573e-01,2.935555980232874562e-01,3.300914889811145114e-01,2.766575705874259050e-01,1.935555980232874229e-01,2.300914889811145336e-01,1.766575705874258717e-01,5.305945481941074515e-01,-2.601963281631469727e-01
2.398938999999999933e+00,-1.264382807231316519e-01,2.938841733933362232e-01,8.762584924697875977e-01,1.210398660274659109e-02,2.601828666045857830e-03,5.278011711274421813e-02,1.772989542088356518e-01,2.001175733154137715e-01,-2.165905945003032684e-02,-1.018022199305438358e-01,-3.361072215771300220e-01,2.008109419721471056e-01,3.091045704895164503e-01,2.262758749457582375e-01,1.995059836931009078e-01,2.091045704895164170e-01,1.862189447574044143e-01,9.950598369310090230e-02,5.335913080996285141e-01,-1.656926274299621582e-01
2.421988999999999947e+00,-1.231773425828827928e-01,2.978719588814647823e-01,8.760189414024353027e-01,1.101096926484131447e-02,-5.001867100720369663e-03,5.663553803061227576e-02,1.832002938561252403e-01,2.035872038804334427e-01,-1.540506631135940552e-02,7.655173316438318616e-03,-3.634494312560105911e-01,2.175224620347597781e-01,3.099835831228867078e-01,7.964075995390204610e-02,2.030389933740776587e-01,2.099835831228867022e-01,8.357924435569151489e-02,1.030389933740776670e-01,5.344206826759980711e-01,-1.044826507568359375e-01
2.445596999999999799e+00,-1.196131922239283968e-01,3.023001259709382493e-01,8.757465481758117676e-01,1.245590545408875767e-02,-1.239819584889434445e-02,5.963079033272178364e-02,1.998261408287566876e-01,1.946236935162279358e-01,-1.394767686724662781e-02,1.349473745182027673e-01,-4.024653076724581946e-01,1.565087815368418622e-01,2.609755834809386332e-01,1.038325532636236309e-01,1.614304886543420914e-01,1.609755834809386554e-01,1.408391735238062048e-01,6.143048865434207889e-02,5.366856508619660682e-01,1.871097087860107422e-02
2.473521999999999998e+00,-1.138073233474318491e-01,3.088245923302210261e-01,8.752977848052978516e-01,2.088872698076322393e-02,-2.426467228594142433e-02,6.384804305771951682e-02,2.147564905630687526e-01,1.896601302932865996e-01,-2.431509643793106079e-02,4.371975858883538346e-01,-4.020930304042300008e-01,1.633085720677683594e-01,-9.368430611697875499e-02,-8.327743372221349527e-03,2.255811904985718097e-01,-1.936843061169787605e-01,9.096969221869355415e-02,1.255811904985718042e-01,5.418421541221465354e-01,2.541222572326660156e-01
2.495966000000000129e+00,-1.098507305893150349e-01,3.129639293412724843e-01,8.745501041412353516e-01,2.921819325447982951e-02,-3.223719119494639074e-02,6.658509364969900091e-02,2.108616829294726047e-01,1.853018572598899572e-01,-5.095260590314865112e-02,4.633761999629979478e-01,-3.652224712587507915e-01,1.778052075299319523e-01,-1.106698689420174964e-01,-2.975021023692153155e-01,2.621640581864032593e-01,-2.106698689420175019e-01,-1.975021023692153099e-01,1.621640581864032538e-01,5.475161517591443650e-01,4.544922113418579102e-01
2.524129999999999985e+00,-1.038551834536739632e-01,3.189085321492549085e-01,8.728866577148437500e-01,4.475423920356164792e-02,-4.389699950589398547e-02,7.039377350043785064e-02,2.088714402568936923e-01,1.781665831062001493e-01,-6.658206880092620850e-02,5.758215437548035442e-01,-3.001236547885421935e-01,1.396709452240047222e-01,-1.388841734267102779e-01,-3.353872964072858176e-01,2.720754689793651315e-01,-2.183110456314689141e-01,-2.353872964072858398e-01,1.720754689793651260e-01,5.528179971225718470e-01,6.754269599914550781e-01
2.547806000000000015e+00,-9.953454111063819720e-02,3.224392674943776238e-01,8.712899684906005859e-01,5.590098415335851417e-02,-5.112380146159156702e-02,7.327697882895445325e-02,2.121319720873414971e-01,1.642637166223388512e-01,-7.315070927143096924e-02,6.132197457654040562e-01,-3.147377206675714967e-01,1.701848284539227985e-01,-2.207319999974117208e-01,-3.345323167095173855e-01,2.835031273395400842e-01,-2.199105521748221936e-01,-2.345323167095173800e-01,1.835031273395400786e-01,5.543553501234821379e-01,7.211146354675292969e-01
2.571213000000000193e+00,-9.527839427384514337e-02,3.257657508046834516e-01,8.694164156913757324e-01,6.693932020614876133e-02,-5.596093689845682562e-02,7.608508098093968997e-02,2.043463135570242062e-01,1.641362215033800032e-01,-9.816257655620574951e-02,5.143935223063045292e-01,-1.928110783579811693e-01,2.042373475683087192e-01,-2.858975610118356658e-01,-3.385714639931077796e-01,2.059761376521418996e-01,-2.157812887533366308e-01,-2.385714639931077463e-01,1.059761376521419080e-01,5.567920740661588264e-01,7.412770986557006836e-01
2.595606000000000080e+00,-8.899952241588190982e-02,3.303619234715039488e-01,8.659312725067138672e-01,8.229494171290013815e-02,-6.069226579505238028e-02,8.040649081914041929e-02,2.064107606662041461e-01,1.324794505955657065e-01,-1.156802996993064880e-01,4.936186864013966669e-01,-1.217195413429300460e-01,1.676785665601082942e-01,-3.174096448226318978e-01,-3.348967557694825792e-01,2.454515254130534285e-01,-2.174096448226318923e-01,-2.348967557694825736e-01,1.454515254130534230e-01,5.585180008543459973e-01,7.473776340484619141e-01
2.620702999999999783e+00,-8.300431911190875311e-02,3.343129960897656128e-01,8.616377711296081543e-01,9.384596405622241955e-02,-6.378689862234665497e-02,8.463460673680733848e-02,1.990901239200957851e-01,1.153893153312052916e-01,-1.452718228101730347e-01,3.348050729613618604e-01,-5.066165639330182102e-02,1.533655494102617034e-01,-3.176924630150196327e-01,-3.327756432571984391e-01,2.621773110720742039e-01,-2.176924630150196271e-01,-2.327756432571984613e-01,1.621773110720742261e-01,5.611299479436084869e-01,7.496256828308105469e-01
2.645506000000000135e+00,-7.570129232061770241e-02,3.382629326457670116e-01,8.565998673439025879e-01,9.964349335118788398e-02,-6.110348618486693972e-02,8.831554402663277514e-02,2.178811927234125811e-01,1.086964001337665520e-01,-1.723030954599380493e-01,7.949459863049479491e-02,2.105350988881204699e-01,1.553671989261395658e-01,-3.167475727201557456e-01,-3.309233635561231734e-01,2.678548164410190502e-01,-2.167475727201557123e-01,-2.309233635561231679e-01,1.678548164410190446e-01,5.622544248501381015e-01,6.711678504943847656e-01
2.670652000000000026e+00,-6.800329151666011096e-02,3.419111132816342602e-01,8.507345318794250488e-01,9.971146073104550367e-02,-5.036657971094982145e-02,9.147005490644999348e-02,2.196329118928470603e-01,9.407936641093370134e-02,-1.884863674640655518e-01,-1.223191789745641245e-01,4.388356890537108979e-01,7.574397926255167779e-02,-3.172304370840102195e-01,-3.019487557794492960e-01,2.701507382760156561e-01,-2.172304370840101861e-01,-2.019487557794492905e-01,1.701507382760156784e-01,5.602851842757681222e-01,4.554383754730224609e-01
2.696381999999999834e+00,-6.039609639564096077e-02,3.449034079922697060e-01,8.445917963981628418e-01,9.529052898132835125e-02,-3.582335297714078770e-02,9.519083733466349173e-02,2.201127521052941849e-01,6.228617213388633334e-02,-1.936499476432800293e-01,-2.041997552724578446e-01,4.592951811196290812e-01,1.122791413254369680e-01,-3.354666852342166328e-01,-7.851458546528808369e-02,2.395167499631919994e-01,-2.354666852342166550e-01,2.148541453471192533e-02,1.395167499631919938e-01,5.555166505353344997e-01,1.241997480392456055e-01
2.720892000000000088e+00,-5.237148925000716104e-02,3.473380304166577281e-01,8.381773829460144043e-01,8.760340354999493484e-02,-2.021446271704574471e-02,9.829232273784982432e-02,2.277648210049303124e-01,4.933825537224810487e-02,-2.008963227272033691e-01,-3.555516962902797728e-01,4.668682074813226834e-01,1.027092148466922789e-01,-3.435232364210237810e-01,1.333144597432994183e-01,2.714676700290412359e-02,-2.435232364210238032e-01,1.480359425594440226e-01,-7.285323299709588196e-02,5.509917490314590882e-01,-2.040285468101501465e-01
2.746436000000000099e+00,-4.382962687393038292e-02,3.492591082717400042e-01,8.317837715148925781e-01,7.799391536080081677e-02,-5.205635864236723975e-03,1.007815049689142484e-01,2.373027858206377128e-01,3.301834141602981443e-02,-2.116190940141677856e-01,-3.619059483962183688e-01,4.428616536060178133e-01,1.084747160238513086e-01,-3.488041977471073585e-01,2.784056072764565792e-01,-8.668156791525086224e-02,-2.488041977471073252e-01,1.861657668948464850e-01,-1.866815679152508678e-01,5.538840316341273606e-01,-1.262673139572143555e-01
2.771243999999999819e+00,-3.522068525686058993e-02,3.507838522811893012e-01,8.252478241920471191e-01,6.593744002242481195e-02,9.800185844099473798e-03,1.030034511549304810e-01,2.586907269348853733e-01,2.654164940412295434e-02,-2.177238166332244873e-01,-4.954813933054719177e-01,4.716129044800889125e-01,6.554057780681232792e-02,-3.518973826399245386e-01,2.887422631176557175e-01,-1.105106025624399135e-01,-2.518973826399245053e-01,1.887422631176557120e-01,-2.105106025624399191e-01,5.613981698812415821e-01,2.315474748611450195e-01
