timestamp,x,y,z,roll,pitch,yaw,vx,vy,vz,p,q,r,psp,qsp,rsp,pres,qres,rres,thrust_sp, thrust_res
0.000000000000000000e+00,2.442428141700437455e-02,-1.253210417911956387e-03,9.978896975517272949e-01,8.212808349683820572e-04,-1.524954526677779754e-02,-1.423444213043800234e-02,-1.941977948455791622e-02,-1.313212239261422366e-02,-2.066418994218111038e-03,-8.485982080501313501e-03,-9.032046925709946369e-03,2.267753822412246767e-02,-1.646181517056052174e-02,-9.936198759265386926e-02,-3.987528199288409292e-02,0.000000000000000000e+00,0.000000000000000000e+00,0.000000000000000000e+00,5.122661317710957007e-01,-0.000000000000000000e+00,-1.255418062210083008e-01,9.791955903578376308e+01,0.000000000000000000e+00
2.608200000000000102e-02,2.379885104342017998e-02,-1.543541017914454479e-03,9.979780316352844238e-01,8.625080527194465413e-04,-1.552293173012353478e-02,-1.465450801698175293e-02,-2.641340119768510047e-02,-2.462584774030874071e-02,1.005055196583271027e-02,-1.689416050967592481e-02,7.095166135013357238e-03,-2.357876805250810545e-02,-2.441439427692766728e-02,-1.000000000000000056e-01,-4.107803767172796272e-02,0.000000000000000000e+00,0.000000000000000000e+00,0.000000000000000000e+00,5.113548399108600595e-01,-0.000000000000000000e+00,-9.403002262115478516e-02,9.278686995000511217e+01,0.000000000000000000e+00
5.052899999999999753e-02,2.291878043777088869e-02,-1.991231520848240396e-03,9.981177449226379395e-01,1.513483492628102086e-03,-1.583410147251496092e-02,-1.492795043376904732e-02,-1.469350049035892530e-02,-1.245668490068882472e-02,3.129666903987526894e-03,3.876007255694213956e-03,1.628048083494196968e-02,-3.003853262582216466e-02,-1.730468600169511595e-02,-9.643539089210230453e-02,-4.179043494234357947e-02,0.000000000000000000e+00,0.000000000000000000e+00,0.000000000000000000e+00,5.118554109232935634e-01,-0.000000000000000000e+00,-3.780877590179443359e-02,6.481112715685385162e+00,0.000000000000000000e+00
7.391999999999999960e-02,2.266296611289873517e-02,-2.121800570771948877e-03,9.981645941734313965e-01,1.546589051571395281e-03,-1.599143491082921642e-02,-1.505121941769737258e-02,-2.070277820682493025e-02,-1.722878847083470985e-02,6.100557278841733932e-03,1.652927223859945727e-02,-2.780647550119900654e-02,6.881964768457636029e-03,-2.340067942032881404e-02,-1.000000000000000056e-01,-4.215454146158048587e-02,0.000000000000000000e+00,0.000000000000000000e+00,0.000000000000000000e+00,5.116280234754290168e-01,-0.000000000000000000e+00,-1.649571657180786133e-01,8.736968982491708857e+01,0.000000000000000000e+00
1.017050000000000037e-01,2.192069122400902570e-02,-2.434883001246340370e-03,9.982601404190063477e-01,1.598062132038202774e-03,-1.512882160994366565e-02,-1.539917643497012295e-02,-2.021709674453203362e-02,-1.026711824098074273e-02,-5.860006902366876602e-03,-2.874030771674764353e-02,7.814089938157949000e-02,-2.720264062062243207e-02,-1.763175402494588859e-02,-9.777606661225639317e-02,-4.310726092451944158e-02,0.000000000000000000e+00,0.000000000000000000e+00,0.000000000000000000e+00,5.125137954927706518e-01,-0.000000000000000000e+00,8.951317071914672852e-01,-9.653371877583005300e+00,0.000000000000000000e+00
1.243660000000000043e-01,2.141838530553727069e-02,-2.604591516179817490e-03,9.982712864875793457e-01,1.538500972357169545e-03,-1.434233616739555295e-02,-1.530222718469354676e-02,-1.876673737403777159e-02,-7.550461249286452223e-03,-1.125113805755972862e-03,-4.205602205709340312e-03,3.167656120585686519e-02,5.172934544317867381e-03,-1.623998631119605643e-02,-9.188550672084867810e-02,-4.283455884392856072e-02,0.000000000000000000e+00,0.000000000000000000e+00,0.000000000000000000e+00,5.121649001876668050e-01,-0.000000000000000000e+00,-9.732091426849365234e-02,-1.395271726669121790e+02,0.000000000000000000e+00
1.471320000000000128e-01,2.089839852884824503e-02,-2.756460992995313219e-03,9.982351660728454590e-01,1.346615451071222483e-03,-1.312849258510451200e-02,-1.566352481225940368e-02,-1.889851204317972294e-02,-6.362640211737611955e-03,-4.164392594248056412e-03,-3.345945606918012544e-02,7.684591551064391679e-02,-2.091700225297420460e-02,-1.458585727098686211e-02,-8.463816738057372557e-02,-4.384946853783761034e-02,0.000000000000000000e+00,0.000000000000000000e+00,0.000000000000000000e+00,5.123982355463818639e-01,-0.000000000000000000e+00,1.260387897491455078e-02,8.690503888587028314e+01,0.000000000000000000e+00
1.737029999999999963e-01,1.997671765548357167e-02,-3.377240097097743143e-03,9.980882406234741211e-01,1.086893060121405701e-03,-1.100645199360883453e-02,-1.568240907279598931e-02,-2.637781115232421675e-02,-1.135639898891025075e-02,-1.416240073740482330e-02,-5.454775200596313767e-02,7.491937297318551625e-02,4.105264613507885602e-02,-1.764129422680262363e-02,-7.738031711042744898e-02,-4.391955670706232384e-02,0.000000000000000000e+00,0.000000000000000000e+00,0.000000000000000000e+00,5.131646323878155114e-01,-0.000000000000000000e+00,1.724885702133178711e-01,8.403849045348597713e+01,0.000000000000000000e+00
2.013790000000000024e-01,1.901222918502568429e-02,-4.143746112061585073e-03,9.978639483451843262e-01,1.380365535067942795e-03,-8.821708576965958670e-03,-1.591918526671426415e-02,-9.761731305843858106e-03,3.828009044608566246e-03,-1.800341904163360596e-02,-3.455331377801874274e-03,5.528143057105644464e-02,-1.801187706787107240e-02,-6.961295515852320218e-03,-4.946271631672000124e-02,-4.455555789972109881e-02,0.000000000000000000e+00,0.000000000000000000e+00,0.000000000000000000e+00,5.134838068431251124e-01,-0.000000000000000000e+00,3.237046003341674805e-01,1.008179224893219867e+02,0.000000000000000000e+00
2.227270000000000083e-01,1.836599044208160961e-02,-4.625407936164961306e-03,9.976782202720642090e-01,1.503851803951036228e-03,-7.328911965899909120e-03,-1.603107810951048470e-02,-2.513105764361605460e-02,-8.077788388552291712e-03,-7.801165804266929626e-03,2.557187782301182863e-03,6.432905648068182325e-02,7.791931644017045626e-03,-2.014621165901075983e-02,-5.483910065833472874e-02,-4.488793311795391539e-02,0.000000000000000000e+00,0.000000000000000000e+00,0.000000000000000000e+00,5.127526519260490190e-01,-0.000000000000000000e+00,4.502803087234497070e-01,3.207955438047398644e+01,0.000000000000000000e+00
2.512090000000000156e-01,1.744389739132042386e-02,-5.260030946371571127e-03,9.973363280296325684e-01,1.470642461163283428e-03,-4.767875193966375491e-03,-1.612250836785166300e-02,-1.230808099664504503e-02,9.902666987625333150e-03,-2.637155354022979736e-02,-5.690870987551830545e-02,1.457496556069663440e-01,6.732805365748796393e-03,-4.013837414068764653e-03,-2.639068548408710774e-02,-4.512971934559328879e-02,0.000000000000000000e+00,0.000000000000000000e+00,0.000000000000000000e+00,5.141777716051749714e-01,-0.000000000000000000e+00,9.890234470367431641e-02,1.259599990883006626e+02,0.000000000000000000e+00
2.716669999999999918e-01,1.677834005301863038e-02,-5.920976034826609148e-03,9.970941543579101562e-01,1.904640469494078142e-03,-3.685122633975357331e-03,-1.625515238017762737e-02,-1.400524024711362510e-02,-3.725232024894643834e-03,-1.537721324712038040e-02,1.370290520051391063e-02,5.956133691208612135e-02,5.138746648739412476e-03,-2.092543082568226048e-02,-2.282689796546154976e-02,-4.551141553173382315e-02,0.000000000000000000e+00,0.000000000000000000e+00,0.000000000000000000e+00,5.134003417593666629e-01,-0.000000000000000000e+00,5.862883329391479492e-01,-5.931801411121551126e+01,0.000000000000000000e+00
2.988899999999999890e-01,1.576531758646154691e-02,-7.218267522755416644e-03,9.966446161270141602e-01,2.043062120770188558e-03,-1.866027041501405748e-03,-1.653921054737868962e-02,-2.022167988538990310e-02,-2.800012964557690824e-03,-2.385015040636062622e-02,-4.276162042702548460e-02,1.106407823117771944e-01,-3.182234002114939925e-02,-2.002325843247462420e-02,-1.641711433926404048e-02,-4.630610956298286673e-02,0.000000000000000000e+00,0.000000000000000000e+00,0.000000000000000000e+00,5.140852029582335669e-01,-0.000000000000000000e+00,-3.863161802291870117e-01,1.091716058442735999e+02,0.000000000000000000e+00
3.298900000000000166e-01,1.480288950650759938e-02,-8.438854027187645337e-03,9.961137771606445312e-01,2.275950399428749299e-03,-7.602548492429139770e-04,-1.628864086251997217e-02,-1.178619690175673577e-02,-5.065965539386556651e-03,-2.544937655329704285e-02,-2.573117383362845054e-02,2.878858515812095925e-02,4.242278063749821415e-02,-2.422621503735589502e-02,-2.119399832044579178e-03,-4.560770871685043693e-02,0.000000000000000000e+00,0.000000000000000000e+00,0.000000000000000000e+00,5.142700908250067426e-01,0.000000000000000000e+00,-1.462012529373168945e-01,7.809438855468815177e+01,0.000000000000000000e+00
3.534530000000000172e-01,1.419645268539940913e-02,-9.225688501376358083e-03,9.956938624382019043e-01,2.468326871615138425e-03,-3.599862946099818828e-04,-1.648959485384337079e-02,-1.419933960438738742e-02,4.817624583020754456e-03,-1.838184148073196411e-02,-7.537568007327160279e-03,4.236882530984870110e-02,-2.369722821555975134e-02,-1.778642030675976760e-02,-3.170692846265222957e-03,-4.616925310559932827e-02,0.000000000000000000e+00,0.000000000000000000e+00,0.000000000000000000e+00,5.137998330876520914e-01,-0.000000000000000000e+00,-9.433627128601074219e-03,9.898308779144645086e+01,0.000000000000000000e+00
3.769319999999999893e-01,1.393167776632595403e-02,-9.580134958242250004e-03,9.954950809478759766e-01,2.607678186620573588e-03,-3.839163072170137525e-04,-1.640705693682869420e-02,-1.565825604743342411e-02,4.000834714284714697e-03,-2.067982219159603119e-02,1.855866302288878764e-02,-1.608523881578611744e-02,-3.452378655953042188e-03,-2.104530553917226612e-02,-4.288853211241359931e-03,-4.593781609673563970e-02,0.000000000000000000e+00,0.000000000000000000e+00,0.000000000000000000e+00,5.140079421809431448e-01,-0.000000000000000000e+00,3.423360586166381836e-01,8.914919999051552679e+01,0.000000000000000000e+00
4.018709999999999782e-01,1.291744134717292929e-02,-1.012270106266149883e-02,9.950716495513916016e-01,2.545219443481897079e-03,-3.548549783771726140e-05,-1.641149151094281264e-02,-1.372602054588061525e-02,-1.317658749361479316e-02,-2.074098587036132812e-02,-1.347352925210141064e-02,1.291067266618308243e-02,1.276820959983261845e-02,-3.470602686447588764e-02,-7.149734056884412148e-04,-4.595212878440774196e-02,0.000000000000000000e+00,0.000000000000000000e+00,0.000000000000000000e+00,5.140689659112402943e-01,0.000000000000000000e+00,-9.268200397491455078e-02,9.469518382297165715e+01,0.000000000000000000e+00
4.259729999999999905e-01,1.196149686749251040e-02,-1.059051862962573538e-02,9.946476221084594727e-01,2.557666095997741546e-03,-3.104229926886858948e-06,-1.631128351642930144e-02,-7.650683474999250139e-03,6.194134044718798554e-03,-2.574983984231948853e-02,-2.735463897121608381e-02,-1.275386887697533590e-02,-2.520036994143809439e-02,-1.699492467265567228e-02,3.269284046086546377e-03,-4.567324810128220447e-02,0.000000000000000000e+00,0.000000000000000000e+00,0.000000000000000000e+00,5.144980023100024225e-01,-0.000000000000000000e+00,-4.323828220367431641e-02,1.036267148420846809e+02,0.000000000000000000e+00
4.472979999999999734e-01,1.104411341050929446e-02,-1.109024380350624381e-02,9.941703677177429199e-01,2.654053255351794798e-03,-2.985189304700597290e-04,-1.610272930487966631e-02,-1.128921077775177362e-02,1.334710675685670575e-04,-2.205725573003292084e-02,2.422767710003002894e-02,-5.574657687448881897e-03,2.377600583640216911e-02,-2.571075688094815945e-02,-2.926808045974625076e-03,-4.508667543993383209e-02,0.000000000000000000e+00,0.000000000000000000e+00,0.000000000000000000e+00,5.142868965580006391e-01,-0.000000000000000000e+00,-8.960187435150146484e-02,1.125233845756739584e+02,0.000000000000000000e+00
4.740059999999999829e-01,9.787445486975953138e-03,-1.169389809326491954e-02,9.933825135231018066e-01,2.117184676488988778e-03,-2.051056549552399133e-04,-1.592827043268031997e-02,-1.209825429831918459e-02,3.293013795021560320e-03,-3.602832555770874023e-02,-7.053371082899506650e-02,8.600252252285388310e-02,1.647638361420636008e-02,-1.920162928234470795e-02,-3.247334563968722141e-03,-4.459815823628721088e-02,0.000000000000000000e+00,0.000000000000000000e+00,0.000000000000000000e+00,5.154155774345003937e-01,-0.000000000000000000e+00,3.399968147277832031e-03,9.766996343294398741e+01,0.000000000000000000e+00
5.023060000000000302e-01,8.409283227035910940e-03,-1.119831319172575126e-02,9.925513863563537598e-01,1.859062189114839324e-03,-9.834039511280590062e-04,-1.567119435574837114e-02,-5.328313753827494019e-04,6.030413569328145918e-04,-2.608799561858177185e-02,1.779734357948605655e-02,-7.739499852422966619e-02,2.561558342012469278e-02,-1.975458660122319729e-02,2.667666964702247951e-04,-4.387926910548384241e-02,0.000000000000000000e+00,0.000000000000000000e+00,0.000000000000000000e+00,5.147752817262111202e-01,-0.000000000000000000e+00,-1.723760366439819336e-01,9.501804686503815844e+01,0.000000000000000000e+00
5.252050000000000329e-01,7.496303463753743908e-03,-1.050068846938537193e-02,9.919382333755493164e-01,1.328661623243047960e-03,-9.690342366004411900e-04,-1.564522242018826989e-02,-1.795760132791446306e-02,1.777894335052817437e-03,-2.381161227822303772e-02,-2.463537183626606300e-02,3.937394738090033153e-02,-9.274218656361297650e-03,-1.477203331708063297e-02,-1.589023974713548934e-02,-4.380516815241963791e-02,0.000000000000000000e+00,0.000000000000000000e+00,0.000000000000000000e+00,5.146824104121209276e-01,-0.000000000000000000e+00,1.275278329849243164e-01,1.379886298676844980e+01,0.000000000000000000e+00
5.470540000000000402e-01,6.637674449402200874e-03,-9.823675322641538948e-03,9.912942647933959961e-01,9.058776263633921706e-04,-1.373423359134928745e-03,-1.528566776623413101e-02,-1.696207185503059234e-03,9.837106262958679112e-03,-3.300952911376953125e-02,-1.237026828943040523e-02,-2.590050378549355395e-02,2.197990157736471467e-02,-5.133730741758068573e-03,-3.559242105693804625e-03,-4.279899541134796204e-02,0.000000000000000000e+00,0.000000000000000000e+00,0.000000000000000000e+00,5.154469296347848895e-01,-0.000000000000000000e+00,-1.359654664993286133e-01,1.140069836256707703e+02,0.000000000000000000e+00
5.731619999999999493e-01,5.430657447867158483e-03,-8.709644117959406892e-03,9.903160929679870605e-01,1.727070756873466879e-04,-1.561595422223227558e-03,-1.501634977361891547e-02,-8.997505915103851462e-03,6.778893891325163228e-03,-2.647338248789310455e-02,-2.346179458669357676e-02,1.336853524175303509e-02,1.583325911951264731e-03,-3.406050738812336706e-03,-1.369959481506250604e-02,-4.204622518747014315e-02,0.000000000000000000e+00,0.000000000000000000e+00,0.000000000000000000e+00,5.150707839196657645e-01,-0.000000000000000000e+00,-2.726137638092041016e-02,7.281705655285614398e+01,0.000000000000000000e+00
5.993420000000000414e-01,4.708293222191411651e-03,-8.392213416965266931e-03,9.893102645874023438e-01,-4.957148909535093921e-04,-1.620924141263690998e-03,-1.463474825922539760e-02,1.098928510963824819e-04,7.496757707486218641e-03,-3.394662216305732727e-02,-2.470929178880536259e-02,2.210498971080310932e-02,1.956024794587808702e-02,2.248655201232996424e-03,-6.180266595381034636e-03,-4.097808028697386140e-02,0.000000000000000000e+00,0.000000000000000000e+00,0.000000000000000000e+00,5.157375652984587111e-01,0.000000000000000000e+00,1.713430881500244141e-02,9.468840144512583379e+01,0.000000000000000000e+00
6.247230000000000283e-01,4.287320057460019228e-03,-8.432853302553864477e-03,9.883174300193786621e-01,-9.244338612550503540e-04,-1.383170759215346379e-03,-1.415607104227835540e-02,-2.517644137480829652e-04,1.768271379516186959e-02,-3.435564786195755005e-02,-6.098349791493047622e-02,5.250884387045307716e-02,3.432204492296334758e-02,1.303565095585170440e-02,-6.579786992026151991e-03,-3.963671663467788209e-02,0.000000000000000000e+00,0.000000000000000000e+00,0.000000000000000000e+00,5.158839291098410440e-01,-0.000000000000000000e+00,-2.363723516464233398e-01,9.590163428701686144e+01,0.000000000000000000e+00
6.472820000000000240e-01,4.063191590386621387e-03,-8.440827595460692612e-03,9.876385927200317383e-01,-8.113319587585657994e-04,-1.557103240832136137e-03,-1.407019804981630637e-02,9.001084018404145737e-03,1.675054908659101907e-02,-3.155130147933959961e-02,2.572184247917267547e-02,-5.125653657343231910e-03,1.531330237572225278e-02,1.018627369584208277e-02,-3.453792496495977486e-04,-3.939645441277306315e-02,0.000000000000000000e+00,0.000000000000000000e+00,0.000000000000000000e+00,5.157685336387765052e-01,-0.000000000000000000e+00,-2.261382341384887695e-01,9.447452773164522455e+01,0.000000000000000000e+00
6.734400000000000386e-01,3.843624820362177841e-03,-8.374455009163637997e-03,9.866226911544799805e-01,-7.199531376341416697e-04,-1.067376833874478237e-03,-1.379636739873586933e-02,-1.663750751607950872e-04,7.654766601534373875e-03,-3.145550191402435303e-02,-3.194290929089221853e-02,6.928429185809983903e-02,8.694049324260844439e-03,2.405939328670928315e-03,-5.871233302522256385e-03,-3.863112957569064809e-02,0.000000000000000000e+00,0.000000000000000000e+00,0.000000000000000000e+00,5.158776941351984613e-01,-0.000000000000000000e+00,1.380646228790283203e-02,6.994882789393599865e+01,0.000000000000000000e+00
7.002310000000000478e-01,3.279154849824531329e-03,-7.394111327804320233e-03,9.856018424034118652e-01,-1.169427189621180638e-04,-1.015670026940362902e-03,-1.345718733051477593e-02,1.607286416085689992e-02,2.224684431362205367e-02,-4.344799369573593140e-02,1.785524020040588425e-02,6.286393480584150963e-03,4.494394742247334595e-02,1.222126694455966632e-02,8.268877779372102443e-03,-3.768293301947089891e-02,0.000000000000000000e+00,0.000000000000000000e+00,0.000000000000000000e+00,5.168909580338716392e-01,-0.000000000000000000e+00,5.252611637115478516e-02,8.431146579385470829e+01,0.000000000000000000e+00
7.269240000000000146e-01,2.664957121360245120e-03,-5.933296654047025102e-03,9.846050739288330078e-01,7.408973237069038566e-04,-9.327581031461917860e-04,-1.331073860691368502e-02,-3.733007048969068375e-03,1.463650067181074092e-02,-2.910682745277881622e-02,2.815594706353884147e-02,2.202120426894060043e-04,1.426661580555601411e-02,-7.746850547256168337e-04,-9.629075847964282953e-03,-3.726719182351267978e-02,0.000000000000000000e+00,0.000000000000000000e+00,0.000000000000000000e+00,5.159488347343098580e-01,-0.000000000000000000e+00,-1.688431501388549805e-01,-1.237392074759006277e+01,0.000000000000000000e+00
7.485800000000000232e-01,2.317849376203743369e-03,-4.985713661619389607e-03,9.838719964027404785e-01,1.420350103367528424e-03,-9.509852903453186457e-04,-1.329131877542824060e-02,2.322498043008095273e-02,2.637019102860490086e-02,-3.601766750216484070e-02,1.229108783743505622e-02,3.020121184187395461e-02,-7.337441503479967021e-03,6.162411878904440997e-03,1.434065362350799358e-02,-3.722724177296188319e-02,0.000000000000000000e+00,0.000000000000000000e+00,0.000000000000000000e+00,5.165627478100643932e-01,-0.000000000000000000e+00,1.271024942398071289e-01,5.218846116497568488e+01,0.000000000000000000e+00
7.744050000000000100e-01,1.881178428419530597e-03,-3.486155376802537419e-03,9.827674031257629395e-01,2.107619269669087220e-03,-1.036199594195874596e-03,-1.287298437543110685e-02,3.199206311054569266e-03,2.287088180738951204e-02,-3.809319436550140381e-02,-3.372896396168809791e-03,1.662861660228975164e-02,7.088758532092308273e-02,-2.016225276749797519e-03,-6.291705745132399226e-03,-3.603908160400903782e-02,0.000000000000000000e+00,0.000000000000000000e+00,0.000000000000000000e+00,5.168462156152272557e-01,0.000000000000000000e+00,-1.448651552200317383e-01,9.325664353092942349e+01,0.000000000000000000e+00
7.999570000000000292e-01,2.161550643516074992e-03,-3.707124375866264337e-03,9.815777540206909180e-01,2.967079353124656323e-03,-1.078393839692104450e-03,-1.288665173100464988e-02,1.836573749622433943e-02,2.578055242201937602e-02,-3.700762987136840820e-02,2.764796220280632544e-02,-2.144083114063754028e-02,-1.379737415909448872e-02,-4.684542067975069890e-03,8.602502223817524996e-03,-3.609223528944371928e-02,0.000000000000000000e+00,0.000000000000000000e+00,0.000000000000000000e+00,5.169067564273012172e-01,-0.000000000000000000e+00,3.008230924606323242e-01,4.437545558472228890e+01,0.000000000000000000e+00
8.223439999999999639e-01,2.425969682075240948e-03,-3.804209806803196970e-03,9.807850718498229980e-01,3.361140471085536773e-03,-9.019697396017711810e-04,-1.266609969621207941e-02,1.452417366505982105e-02,2.013438416037828527e-02,-3.578590974211692810e-02,-2.319386151907366217e-02,1.982965115502789352e-02,1.767064612863096865e-02,-1.221375094746639939e-02,4.761986359388623198e-03,-3.547001293571877545e-02,0.000000000000000000e+00,0.000000000000000000e+00,0.000000000000000000e+00,5.169254172917642220e-01,0.000000000000000000e+00,1.554191112518310547e-02,4.049799817404107216e+01,0.000000000000000000e+00
8.489269999999999872e-01,2.890483058423011769e-03,-3.937019587629139727e-03,9.795373678207397461e-01,3.968422337963285924e-03,-6.568314449124645904e-04,-1.238608043959276740e-02,2.368052181781111348e-02,3.296060190135606527e-02,-4.581084847450256348e-02,3.862159085974571204e-03,3.008699326406097385e-02,3.163265041893489893e-02,-5.103457260238563817e-03,1.441001320488174454e-02,-3.470322645497009306e-02,0.000000000000000000e+00,0.000000000000000000e+00,0.000000000000000000e+00,5.178179721292998083e-01,0.000000000000000000e+00,-4.636261463165283203e-01,9.680662752185438080e+01,0.000000000000000000e+00
8.758569999999999967e-01,3.279693312196778170e-03,-3.313762277196399993e-03,9.782732129096984863e-01,4.489829992793710825e-03,-5.549780382179125837e-04,-1.214912209483260883e-02,2.080133192445786025e-02,1.726665353356316226e-02,-3.183019161224365234e-02,4.511280394794606836e-04,-1.249141890016219544e-02,2.222130853806427234e-02,-2.237636386487733275e-02,1.195960679767711643e-02,-3.403170468538702087e-02,0.000000000000000000e+00,0.000000000000000000e+00,0.000000000000000000e+00,5.169311181492992624e-01,-0.000000000000000000e+00,-1.257220506668090820e-01,8.625314514091675733e+01,0.000000000000000000e+00
9.018080000000000540e-01,3.327486063943163857e-03,-1.926259571400164858e-03,9.775111675262451172e-01,4.489407238262279644e-03,-3.762799549991147074e-04,-1.211595232744835764e-02,3.336745324135316493e-02,3.396878121692702146e-02,-4.561211541295051575e-02,-4.400393493558393126e-02,5.026765515470382750e-02,-1.758715522824668212e-02,-5.827267422477567377e-03,2.344526309854634907e-02,-3.396540311934698186e-02,0.000000000000000000e+00,0.000000000000000000e+00,0.000000000000000000e+00,5.180670354409873113e-01,-0.000000000000000000e+00,-3.363503217697143555e-01,8.458607354943507062e+01,0.000000000000000000e+00
9.224379999999999802e-01,3.446613611815430196e-03,-6.004464748370298612e-04,9.767543673515319824e-01,4.528136454576890332e-03,-7.589715531579610541e-04,-1.177853926827968079e-02,2.469383899572877294e-02,2.786829897611770718e-02,-2.740683406591415405e-02,3.407463585547305940e-02,-6.467827377982685033e-02,1.508909499431293835e-02,-1.243113274926871577e-02,1.257365855203081313e-02,-3.299924338727983075e-02,0.000000000000000000e+00,0.000000000000000000e+00,0.000000000000000000e+00,5.168292460441118452e-01,-0.000000000000000000e+00,-3.139525651931762695e-01,9.895703061976284687e+01,0.000000000000000000e+00
9.498670000000000169e-01,3.679628222599414921e-03,1.454019656530068346e-03,9.756718277931213379e-01,3.840400180561411633e-03,-8.937030879718754761e-04,-1.173368816858349345e-02,2.295363756323018020e-02,3.133844092950072852e-02,-3.631201758980751038e-02,-5.593328627204251224e-02,2.939610977253388074e-02,-3.509976990179911743e-02,-2.977707277955569595e-03,1.173782141056652593e-02,-3.287262846290572860e-02,0.000000000000000000e+00,0.000000000000000000e+00,0.000000000000000000e+00,5.176207925953956179e-01,-0.000000000000000000e+00,1.329687833786010742e-01,6.377055978963345950e+01,0.000000000000000000e+00
9.761440000000000117e-01,3.991879831413029829e-03,3.149244047760194065e-03,9.746505022048950195e-01,3.271913643738759338e-03,-1.485075014201919785e-03,-1.128814640174044884e-02,3.288300091676490261e-02,2.822086653417044816e-02,-4.159658774733543396e-02,-3.519794936894865556e-02,-1.411505167756397019e-02,2.971955604531378858e-02,-1.055577371644730216e-03,1.634229227829004510e-02,-3.162913758607566184e-02,0.000000000000000000e+00,0.000000000000000000e+00,0.000000000000000000e+00,5.181473756647867468e-01,-0.000000000000000000e+00,1.286364793777465820e-01,5.233713389263935056e+01,0.000000000000000000e+00
1.001174000000000008e+00,4.433719282683343775e-03,4.126021392391821842e-03,9.734026789665222168e-01,2.498523923764248145e-03,-2.009467950153887017e-03,-1.117950652914853800e-02,2.796182616667038101e-02,3.720895698851646449e-02,-4.377241432666778564e-02,-6.359980098401485371e-02,-2.764754199714959323e-04,8.955263510606064140e-03,1.222628785192332417e-02,7.909053899168443785e-03,-3.131437990142910133e-02,0.000000000000000000e+00,0.000000000000000000e+00,0.000000000000000000e+00,5.184647259296762956e-01,-0.000000000000000000e+00,-3.014322519302368164e-01,9.787780608938747662e+01,0.000000000000000000e+00
1.022971000000000075e+00,4.594342943123527583e-03,4.447580513151410710e-03,9.729704856872558594e-01,2.192503908260163420e-03,-2.348983416488703568e-03,-1.111158916479213811e-02,2.989282006107439951e-02,3.509131511516504209e-02,-4.150168970227241516e-02,-6.068928766972426364e-02,-5.252889516720891938e-03,1.733455771554458930e-02,1.161125660960778995e-02,8.198432457653411984e-03,-3.112330776933375232e-02,0.000000000000000000e+00,0.000000000000000000e+00,0.000000000000000000e+00,5.183933371583618888e-01,-0.000000000000000000e+00,-1.982413530349731445e-01,9.484074198437379266e+01,0.000000000000000000e+00
1.048364000000000074e+00,4.941548256534246571e-03,5.151625308176705463e-03,9.720488786697387695e-01,1.774978780334614389e-03,-2.898201811430523023e-03,-1.090681877658217745e-02,3.699875834786997553e-02,3.219913772494707727e-02,-3.251490741968154907e-02,-1.849951307188571958e-03,-7.207723025237325332e-02,-3.426163387895028029e-03,1.300094944791461461e-02,1.040772288773256053e-02,-3.055135874089670578e-02,0.000000000000000000e+00,0.000000000000000000e+00,0.000000000000000000e+00,5.178582852337709763e-01,-0.000000000000000000e+00,-2.431756258010864258e-01,1.140441261943772986e+02,0.000000000000000000e+00
1.072138000000000035e+00,5.333587102368267385e-03,5.833453387710675793e-03,9.710838198661804199e-01,1.146141319432034469e-03,-3.005453629618459743e-03,-1.078240908767169777e-02,3.753447165618359338e-02,3.790130785596051294e-02,-4.263323172926902771e-02,-4.331577142074037601e-02,7.262310852170082015e-03,1.461363913699012702e-02,2.252190142324512340e-02,9.391092419378866893e-03,-3.020227032982258919e-02,0.000000000000000000e+00,0.000000000000000000e+00,0.000000000000000000e+00,5.187394584413980159e-01,-0.000000000000000000e+00,-4.253566265106201172e-02,8.102184178390146485e+01,0.000000000000000000e+00
1.101728000000000041e+00,5.799553529302958060e-03,7.154201205422620544e-03,9.696555733680725098e-01,8.272440901675964624e-04,-3.901730872634123770e-03,-1.068248238584873847e-02,3.096404405799739815e-02,2.964606982828444509e-02,-4.194737598299980164e-02,-2.007410895722873748e-02,-4.462985808733109516e-02,2.544001823780616886e-02,1.814830619279847110e-02,-1.236936557480211411e-03,-2.990965881316748343e-02,0.000000000000000000e+00,0.000000000000000000e+00,0.000000000000000000e+00,5.188586627962384901e-01,-0.000000000000000000e+00,-3.559100627899169922e-02,9.264704914750578268e+01,0.000000000000000000e+00
1.125428000000000095e+00,5.888567534323844652e-03,8.400268122887626088e-03,9.686653614044189453e-01,5.560579531133995031e-04,-4.182403460646355597e-03,-1.059990319010000771e-02,3.103131154442343928e-02,3.792431499311434834e-02,-3.725121542811393738e-02,-3.212918698682446644e-02,4.788253185352753932e-02,-3.011596673906882446e-02,2.860786405703079696e-02,-1.923519821762322305e-03,-2.967740490082465543e-02,0.000000000000000000e+00,0.000000000000000000e+00,0.000000000000000000e+00,5.186526286854110657e-01,-0.000000000000000000e+00,-1.027950048446655273e-01,5.111293859713045862e+01,0.000000000000000000e+00
1.148665000000000047e+00,6.012342535023460811e-03,9.651774100732590789e-03,9.676815867424011230e-01,4.726775100778331760e-04,-4.663072434154091894e-03,-1.036328723939382128e-02,4.414881333786288553e-02,4.491382673605813503e-02,-4.650710150599479675e-02,-3.282627666316056785e-03,-3.385666013048799911e-02,5.699715227032351589e-02,3.444009788602166861e-02,5.448520385574306957e-03,-2.902433914235375001e-02,0.000000000000000000e+00,0.000000000000000000e+00,0.000000000000000000e+00,5.194805858211725136e-01,-0.000000000000000000e+00,5.145193338394165039e-01,-9.127683123773118723e+01,0.000000000000000000e+00
1.179534000000000082e+00,6.274647332723869673e-03,1.156753742249194868e-02,9.662621021270751953e-01,3.028385392231661621e-04,-5.020582213801638716e-03,-1.033951323972129299e-02,2.721536209738999873e-02,3.450626584251832024e-02,-3.363524749875068665e-02,-1.890314164473730135e-03,-3.074635300190954601e-02,-5.910052373396776880e-03,2.761562055243827959e-02,-1.172843745647194832e-02,-2.893836763629814568e-02,0.000000000000000000e+00,0.000000000000000000e+00,0.000000000000000000e+00,5.186979859814347948e-01,-0.000000000000000000e+00,-7.245895862579345703e-01,9.201188936601877799e+01,0.000000000000000000e+00
1.203114999999999934e+00,6.498763109570641905e-03,1.282965405968508957e-02,9.653165340423583984e-01,3.469858638993458984e-04,-5.107758095374670404e-03,-1.017372832367131885e-02,4.725827754820289411e-02,4.818826406426514330e-02,-4.477458074688911438e-02,-2.297363543255788801e-02,3.187688909650334551e-02,1.744297686023852517e-02,4.066582353688844020e-02,6.113799535829254721e-03,-2.849538649307786775e-02,0.000000000000000000e+00,0.000000000000000000e+00,0.000000000000000000e+00,5.196658847881113763e-01,0.000000000000000000e+00,1.398504972457885742e-01,6.279353537980898636e+01,0.000000000000000000e+00
1.226310999999999929e+00,6.776976799918038585e-03,1.398229983014962451e-02,9.643635749816894531e-01,7.579120662760622379e-04,-5.652133654131974438e-03,-1.017423314927728799e-02,4.171806336230873824e-02,4.479698437777170084e-02,-3.426846116781234741e-02,5.612117702927552076e-02,-9.145378920616448193e-02,-1.343692039772938045e-02,3.429248667911568432e-02,-4.249996836617752315e-03,-2.848155919112449475e-02,0.000000000000000000e+00,0.000000000000000000e+00,0.000000000000000000e+00,5.190274142524660128e-01,-0.000000000000000000e+00,2.441769838333129883e-01,1.862920845553987874e+02,0.000000000000000000e+00
1.246985000000000010e+00,7.112836710736735076e-03,1.514188053255854059e-02,9.633998274803161621e-01,9.351369774194019657e-04,-5.773407533753216470e-03,-9.998494743072690316e-03,2.896191713944122614e-02,4.097459922623274825e-02,-3.634437173604965210e-02,-4.114315032168052735e-04,1.959872382091409817e-03,2.242715813006496486e-02,3.141468752725611047e-02,-1.398567370222637656e-02,-2.797566658079153612e-02,0.000000000000000000e+00,0.000000000000000000e+00,0.000000000000000000e+00,5.193154405672694152e-01,-0.000000000000000000e+00,5.086696147918701172e-02,7.672018181443826279e+01,0.000000000000000000e+00
1.275387999999999966e+00,7.447075545332599439e-03,1.631328148687591004e-02,9.624571800231933594e-01,1.316618094010141120e-03,-6.367804423634382260e-03,-9.919037865623715408e-03,4.835607991256832272e-02,4.588990183972289222e-02,-3.943502902984619141e-02,3.260420031060283497e-02,-4.435542333985166563e-02,-5.589764112753568305e-03,3.439988519586724414e-02,-3.878590654691239925e-04,-2.777244575190151998e-02,0.000000000000000000e+00,0.000000000000000000e+00,0.000000000000000000e+00,5.196885886267392785e-01,-0.000000000000000000e+00,-1.076623201370239258e-01,7.170470560500619683e+01,0.000000000000000000e+00
1.296824999999999894e+00,7.806885103458212870e-03,1.750092870330221401e-02,9.615347981452941895e-01,1.631651629970552308e-03,-6.413185766581230851e-03,-9.782203020286595052e-03,3.998376389852681401e-02,4.580790137713596638e-02,-4.434241726994514465e-02,-9.428085015656329643e-03,-3.158252721434037357e-03,-2.820482902702059827e-03,3.239321162611707300e-02,-9.734462909035956901e-03,-2.737291187576301743e-02,0.000000000000000000e+00,0.000000000000000000e+00,0.000000000000000000e+00,5.201896481043227771e-01,-0.000000000000000000e+00,-7.657015323638916016e-02,9.977573124462642795e+01,0.000000000000000000e+00
1.323674999999999935e+00,8.364903623834645321e-03,1.937905613707451014e-02,9.601848721504211426e-01,2.057553334837082699e-03,-7.264203378438693903e-03,-9.502765773721515499e-03,4.246921934787583480e-02,5.197557568599774080e-02,-4.279215261340141296e-02,2.889582248276488866e-02,-3.979838450672938677e-02,3.475156931274663019e-02,3.591296890604329939e-02,-1.163209622342101235e-02,-2.658367619929047354e-02,0.000000000000000000e+00,0.000000000000000000e+00,0.000000000000000000e+00,5.202547925488681946e-01,-0.000000000000000000e+00,-1.729651689529418945e-01,1.040466758533920739e+02,0.000000000000000000e+00
1.347979999999999956e+00,8.880007160687014567e-03,2.149024013203195207e-02,9.589624404907226562e-01,2.581899805755447953e-03,-7.823778237206147068e-03,-9.103102879835543032e-03,3.393386191017899040e-02,4.332629362311184867e-02,-3.334750980138778687e-02,3.482339701565682899e-02,-4.531830639170987551e-02,2.980842801005801224e-03,2.634324454995862208e-02,-2.177729760705248915e-02,-2.544558169250610291e-02,0.000000000000000000e+00,0.000000000000000000e+00,0.000000000000000000e+00,5.197177586193394427e-01,-0.000000000000000000e+00,-3.541290760040283203e-02,5.464051273738860459e+01,0.000000000000000000e+00
1.374430000000000041e+00,9.436797956108041938e-03,2.358889060131018345e-02,9.578692913055419922e-01,3.517751585093661405e-03,-8.423071276801197271e-03,-9.002068767238052827e-03,4.392262000329609506e-02,5.470417810594931790e-02,-4.579404368996620178e-02,6.434529272553388135e-02,-2.694206062996202383e-02,-8.107410308388443912e-03,3.193362735772284355e-02,-1.625249913291937007e-02,-2.516415726474546810e-02,0.000000000000000000e+00,0.000000000000000000e+00,0.000000000000000000e+00,5.207972976596797476e-01,-0.000000000000000000e+00,9.094859361648559570e-01,1.298335359703982874e+02,0.000000000000000000e+00
1.401658000000000071e+00,1.004071129371986171e-02,2.573706059187692852e-02,9.568231105804443359e-01,3.740575148385383731e-03,-8.815197657423112787e-03,-8.470116620960352338e-03,2.529131495396486767e-02,4.298220807327818305e-02,-4.411093145608901978e-02,-7.957628301197705242e-03,5.064347796628182984e-03,4.795455850941381104e-02,2.106869718751372758e-02,-3.430024599717787503e-02,-2.363739084329746776e-02,0.000000000000000000e+00,0.000000000000000000e+00,0.000000000000000000e+00,5.208239981561467724e-01,-0.000000000000000000e+00,-1.696487665176391602e-01,8.735690371079081729e+01,0.000000000000000000e+00
1.424684999999999979e+00,1.038675352737320444e-02,2.699719312700707419e-02,9.561812877655029297e-01,4.326326068033344713e-03,-9.256743320257498908e-03,-8.493176434484273063e-03,4.683499706449646000e-02,6.326062652300014355e-02,-4.755408316850662231e-02,4.032327955083098159e-02,-1.813542211684757502e-02,-3.665640923965030745e-02,3.602931774477296373e-02,-1.733540201255948099e-02,-2.372821066908575860e-02,0.000000000000000000e+00,0.000000000000000000e+00,0.000000000000000000e+00,5.212205547561935548e-01,-0.000000000000000000e+00,3.623241186141967773e-01,8.517594917672488464e+01,0.000000000000000000e+00
1.450366000000000044e+00,1.082817089287776632e-02,2.864480941822026422e-02,9.553838968276977539e-01,4.750103587990826479e-03,-9.675115188538141453e-03,-8.123755583537008509e-03,2.814741377521761539e-02,4.401693093799585038e-02,-3.836971148848533630e-02,3.447352345141906776e-02,-2.563511439846234002e-02,2.781333366917743480e-02,1.647813632774122738e-02,-3.723942876241442823e-02,-2.265028496189575025e-02,0.000000000000000000e+00,0.000000000000000000e+00,0.000000000000000000e+00,5.206720113926693871e-01,-0.000000000000000000e+00,7.220319509506225586e-01,-4.542663194327100484e+01,0.000000000000000000e+00
1.475665999999999922e+00,1.128030803425679983e-02,3.028930063694835334e-02,9.545919895172119141e-01,5.253539483197829617e-03,-9.483932670484751526e-03,-7.639671135862759199e-03,4.071911293715355790e-02,6.020920016671919145e-02,-5.950853228569030762e-02,1.075036059851572877e-02,4.974253535562770528e-02,2.914164939663768314e-02,2.975537867740903064e-02,-2.325016743995326693e-02,-2.131595916449252615e-02,0.000000000000000000e+00,0.000000000000000000e+00,0.000000000000000000e+00,5.223817664665593163e-01,-0.000000000000000000e+00,-7.815825939178466797e-02,6.791187423814143642e+01,0.000000000000000000e+00
1.498010000000000064e+00,1.162982059936900833e-02,3.140165923137916426e-02,9.541503787040710449e-01,5.951943164975385253e-03,-9.683726290616867516e-03,-7.568851729190436035e-03,3.808774299741735786e-02,5.261802889992137078e-02,-4.389704018831253052e-02,4.647614781636505432e-02,-3.400154641237439213e-02,1.253500469193276866e-02,1.808705719974410334e-02,-2.786818083111940181e-02,-2.110499185809705525e-02,0.000000000000000000e+00,0.000000000000000000e+00,0.000000000000000000e+00,5.213526324237293119e-01,-0.000000000000000000e+00,-3.248618841171264648e-01,9.361539921708433099e+01,0.000000000000000000e+00
1.525206000000000062e+00,1.211730778881806719e-02,3.319815629208545948e-02,9.535477757453918457e-01,6.532100299288840124e-03,-9.537272732245360984e-03,-7.147958807068050674e-03,3.518947475635881422e-02,5.690084172822255232e-02,-4.745404422283172607e-02,1.533711751918357888e-02,2.790838793387561204e-02,3.436536684414649647e-04,2.007523347620770657e-02,-2.840412747037898006e-02,-1.991596905715747878e-02,0.000000000000000000e+00,0.000000000000000000e+00,0.000000000000000000e+00,5.217456711290070492e-01,-0.000000000000000000e+00,-2.070053815841674805e-01,1.017701533124593141e+02,0.000000000000000000e+00
1.547533000000000047e+00,1.243358566568070200e-02,3.442440558663990846e-02,9.531644582748413086e-01,6.904117775779714319e-03,-9.454555683976684222e-03,-6.781603715410338372e-03,3.517213417465864939e-02,4.911619540179324589e-02,-4.415383934974670410e-02,2.986184747630220987e-02,-3.692704199936566734e-02,1.999571495085909409e-02,1.199361889626917275e-02,-2.704367456103792117e-02,-1.889768576242756293e-02,0.000000000000000000e+00,0.000000000000000000e+00,0.000000000000000000e+00,5.216142886278025692e-01,-0.000000000000000000e+00,9.871937036514282227e-01,-1.030135687602926282e+02,0.000000000000000000e+00
1.573295000000000110e+00,1.296764338186703544e-02,3.629587165476795552e-02,9.526238441467285156e-01,7.419193193908729493e-03,-8.961847344190143616e-03,-6.609684506239266004e-03,4.186555624347183813e-02,6.036172146579744935e-02,-5.097839981317520142e-02,1.493955202440340468e-03,2.447459479688121609e-02,-8.055837326734540185e-03,1.994417387231745692e-02,-1.820224826572966470e-02,-1.843742984001345286e-02,0.000000000000000000e+00,0.000000000000000000e+00,0.000000000000000000e+00,5.222502297364912671e-01,-0.000000000000000000e+00,-2.340677976608276367e-01,9.740354507417846719e+01,0.000000000000000000e+00
1.600829999999999975e+00,1.353972036814215900e-02,3.814515667556302170e-02,9.520047903060913086e-01,7.887951881132414245e-03,-8.641542408765578998e-03,-6.219007520342991271e-03,2.876609515477229762e-02,4.145632896973883152e-02,-4.158934205770492554e-02,2.119422727606519452e-02,3.779506106354353894e-03,8.691403723754847392e-04,1.916042392876438159e-03,-2.668736001637883604e-02,-1.732122518442297254e-02,0.000000000000000000e+00,0.000000000000000000e+00,0.000000000000000000e+00,5.216825879599481519e-01,-0.000000000000000000e+00,6.879705190658569336e-01,1.294073458265678482e+02,0.000000000000000000e+00
1.622908999999999935e+00,1.373652645664555534e-02,4.015762071679248452e-02,9.516104459762573242e-01,8.128848405238099303e-03,-8.297038185217431305e-03,-5.974604578128405070e-03,3.589947707771451446e-02,5.814450530971487091e-02,-4.322325065732002258e-02,-4.660931345758338729e-04,1.247034717304447253e-02,-8.552601587042988826e-03,1.767972915092175940e-02,-1.678330776209743455e-02,-1.666087919094427772e-02,0.000000000000000000e+00,0.000000000000000000e+00,0.000000000000000000e+00,5.219259391374639900e-01,-0.000000000000000000e+00,2.541482448577880859e-02,7.611239743114468581e+01,0.000000000000000000e+00
1.648778999999999995e+00,1.406107866345482002e-02,4.313851069150978490e-02,9.510760903358459473e-01,8.507902857887843576e-03,-7.855527697632869177e-03,-5.732888492075342499e-03,3.793168915889674059e-02,5.344554894536091699e-02,-4.408890381455421448e-02,3.814569218885218577e-02,5.462395551473186658e-03,6.587891256756838246e-03,1.125272069032759968e-02,-1.295242745263532752e-02,-1.600027972509804330e-02,0.000000000000000000e+00,0.000000000000000000e+00,0.000000000000000000e+00,5.221122332926850795e-01,-0.000000000000000000e+00,-6.754494309425354004e-01,9.302896600513621195e+01,0.000000000000000000e+00
1.674452999999999969e+00,1.446639747663971444e-02,4.605293635747864656e-02,9.505976438522338867e-01,8.616464230218393722e-03,-7.191486914296385535e-03,-5.522884211556111644e-03,3.268512514305740163e-02,5.266151811072480871e-02,-4.199076816439628601e-02,-3.526475960207810234e-02,4.881577260732555129e-02,-1.349869569735644668e-02,1.269714444853891656e-02,-1.261467201878922577e-02,-1.541251623686873407e-02,0.000000000000000000e+00,0.000000000000000000e+00,0.000000000000000000e+00,5.220784637632098768e-01,-0.000000000000000000e+00,1.012166857719421387e+00,1.555887313304123438e+02,0.000000000000000000e+00
1.701184000000000029e+00,1.489563004510664063e-02,4.889722024916776100e-02,9.501591324806213379e-01,8.815931169606371423e-03,-6.597708812501545950e-03,-5.189594812135121804e-03,3.630678164852142037e-02,6.097966929449966100e-02,-4.548047482967376709e-02,-2.681874968055742922e-02,3.490448289774113200e-02,3.245727292829102273e-02,2.004997142472753069e-02,-4.786347948545581314e-03,-1.451016256051151920e-02,0.000000000000000000e+00,0.000000000000000000e+00,0.000000000000000000e+00,5.224593588007220291e-01,0.000000000000000000e+00,-5.243003368377685547e-02,-9.544720131096839566e+01,0.000000000000000000e+00
1.728180000000000049e+00,1.526061782855109294e-02,5.001726610539105472e-02,9.499473571777343750e-01,9.200329324215253748e-03,-6.273817500891176735e-03,-4.934932990127249668e-03,3.211584596429845756e-02,5.696500536783057761e-02,-3.721948713064193726e-02,1.588850084937009147e-02,3.143304543983572313e-02,1.844340485467655180e-02,1.436395820422189766e-02,-6.006371707355739019e-03,-1.379176730612619028e-02,0.000000000000000000e+00,0.000000000000000000e+00,0.000000000000000000e+00,5.219496312781348735e-01,-0.000000000000000000e+00,-3.106907606124877930e-01,1.290399499511128454e+02,0.000000000000000000e+00
1.759276000000000062e+00,1.561608416447223674e-02,5.113813809091628804e-02,9.498306512832641602e-01,9.716025877098518476e-03,-5.934683983243038696e-03,-4.799805881768278056e-03,3.693303026207964829e-02,5.689280422181607760e-02,-4.685403034090995789e-02,2.396773882444745013e-02,3.858487493521026157e-02,2.754691156699446905e-02,1.241856642591391766e-02,8.769383869330707199e-04,-1.344407764403998673e-02,0.000000000000000000e+00,0.000000000000000000e+00,0.000000000000000000e+00,5.227530112838106868e-01,-0.000000000000000000e+00,4.910689592361450195e-01,4.744596712610152167e+01,0.000000000000000000e+00
1.787379999999999969e+00,1.580955980726037047e-02,5.167347091714868251e-02,9.497967362403869629e-01,9.965223141071292284e-03,-5.994007765251163633e-03,-4.944120719657064608e-03,2.982059742656227239e-02,4.724987208729186650e-02,-3.144735470414161682e-02,1.322159922633416723e-02,1.409223784962511557e-02,-2.789499594440523686e-02,4.141650534013298184e-03,-5.356344666404257160e-03,-1.382037572922839574e-02,0.000000000000000000e+00,0.000000000000000000e+00,0.000000000000000000e+00,5.217009784514365922e-01,-0.000000000000000000e+00,7.688003778457641602e-01,6.747263843299626274e+01,0.000000000000000000e+00
1.816208000000000045e+00,1.602000751402870432e-02,5.221373385393926481e-02,9.497491121292114258e-01,1.013346205247780615e-02,-5.874805885629941216e-03,-4.781264486324240774e-03,2.765919125209727325e-02,4.787329930167901620e-02,-2.976642362773418427e-02,6.653905455922920834e-03,2.312524667013223997e-02,-7.154535438459108491e-03,5.596165759727579625e-03,-4.970980664376880610e-03,-1.336551990747925078e-02,0.000000000000000000e+00,0.000000000000000000e+00,0.000000000000000000e+00,5.216569795598865467e-01,-0.000000000000000000e+00,-4.862984418869018555e-01,9.309294438709171970e+01,0.000000000000000000e+00
1.839522000000000101e+00,1.624310520881276296e-02,5.275240812799991685e-02,9.497119784355163574e-01,1.046272962233959526e-02,-5.749497162529593197e-03,-4.560437903243355628e-03,3.302124091917160720e-02,5.302684816949129742e-02,-2.720203995704650879e-02,1.684833901655417507e-02,1.632571026689537061e-02,2.713881785584756554e-02,8.136927231295495305e-03,6.744781957222944395e-04,-1.277305962042202259e-02,0.000000000000000000e+00,0.000000000000000000e+00,0.000000000000000000e+00,5.215481338231697794e-01,-0.000000000000000000e+00,4.765737056732177734e-02,-5.236454002668402552e+01,0.000000000000000000e+00
1.854568999999999912e+00,1.643592220205138468e-02,5.328574996158359778e-02,9.496799111366271973e-01,1.073141661597423573e-02,-5.386910297463298747e-03,-4.466164353046305630e-03,4.549994069818144582e-02,6.005750221924536364e-02,-4.004604369401931763e-02,-7.074164482010336999e-03,5.952740911443574895e-02,4.389470219469698148e-02,1.166347475742613750e-02,1.222505865887643130e-02,-1.256708405387524374e-02,0.000000000000000000e+00,0.000000000000000000e+00,0.000000000000000000e+00,5.225780351970676918e-01,0.000000000000000000e+00,-3.330127000808715820e-01,7.178733723358502061e+01,0.000000000000000000e+00
1.881245999999999974e+00,1.666697163319624808e-02,5.378407980323611504e-02,9.496589899063110352e-01,1.109591570391580372e-02,-5.492135593852642828e-03,-4.510582612266265425e-03,4.689092898470419851e-02,5.245345319245247467e-02,-3.217481821775436401e-02,4.184154457215123746e-02,1.357081145697092671e-02,-2.385039990141524582e-03,3.131611439476362276e-03,1.129694063179637400e-02,-1.268529707744087132e-02,0.000000000000000000e+00,0.000000000000000000e+00,0.000000000000000000e+00,5.220774663619875966e-01,-0.000000000000000000e+00,1.831027269363403320e-01,-9.248503023020390401e+01,0.000000000000000000e+00
1.917945000000000011e+00,1.728722634953715198e-02,5.606600994232641133e-02,9.496096968650817871e-01,1.190057571996124344e-02,-4.985871782576811739e-03,-4.163797660387706656e-03,2.294430741306897892e-02,4.216410452740903397e-02,-2.653485722839832306e-02,2.893915995016229075e-03,2.807645016216187700e-02,5.682052993448823835e-02,-7.345130582263755502e-03,-3.772790771366920249e-03,-1.164079986358490526e-02,0.000000000000000000e+00,0.000000000000000000e+00,0.000000000000000000e+00,5.217317933514779016e-01,0.000000000000000000e+00,-6.485830545425415039e-01,3.990782201842777965e+01,0.000000000000000000e+00
1.937634000000000079e+00,1.790777564558224816e-02,5.863933063556833747e-02,9.496396183967590332e-01,1.278076235689574146e-02,-4.892932438444352883e-03,-3.814628582665131884e-03,4.284199014347088441e-02,5.887521333094273418e-02,-2.162553183734416962e-02,4.304049041704985368e-02,-1.715288706679314948e-02,1.112102413093094509e-02,3.598675452591309012e-03,1.645530865397472342e-02,-1.077415575435430872e-02,0.000000000000000000e+00,0.000000000000000000e+00,0.000000000000000000e+00,5.214539186824269645e-01,-0.000000000000000000e+00,-4.519468545913696289e-01,9.708405614556195928e+01,0.000000000000000000e+00
1.957937999999999956e+00,1.836128112992211833e-02,6.029893422842528411e-02,9.496964216232299805e-01,1.315698046754567099e-02,-4.744378165437268535e-03,-3.775006427336444897e-03,3.358447305995315019e-02,3.813427154821912718e-02,-1.143108587712049484e-02,3.901521558337427142e-02,-2.223045401841368743e-02,1.927870449343632719e-02,-1.604160920117890521e-02,7.901843862286815276e-03,-1.061107551487544542e-02,0.000000000000000000e+00,0.000000000000000000e+00,0.000000000000000000e+00,5.207476683056498912e-01,-0.000000000000000000e+00,7.303320169448852539e-01,-1.489101791901630456e+01,0.000000000000000000e+00
1.975100999999999996e+00,1.884963416657113242e-02,6.190798062158520826e-02,9.497835636138916016e-01,1.361758587788859838e-02,-4.501357218289037121e-03,-3.679100763157805432e-03,3.672945211006426597e-02,5.055716332467495577e-02,-1.314039062708616257e-02,3.067504494773812609e-02,-1.359391828421542200e-02,-2.924913133125957212e-03,-4.957997021330577507e-03,1.371688686488911450e-02,-1.038033944177341183e-02,0.000000000000000000e+00,0.000000000000000000e+00,0.000000000000000000e+00,5.209348820895975951e-01,-0.000000000000000000e+00,-2.065283060073852539e-01,8.893180872961235650e+01,0.000000000000000000e+00
2.000833999999999779e+00,2.012145838305796214e-02,6.436061180006655280e-02,9.500471949577331543e-01,1.470564448106118603e-02,-3.944488327462414290e-03,-3.388396385274977402e-03,4.264832056092239532e-02,3.919881540581556661e-02,-3.024358069524168968e-03,5.201361371526165567e-02,-1.976103931701704911e-02,2.354644471629619221e-02,-2.072062330398587865e-02,2.267700954448802209e-02,-9.616033511368193842e-03,0.000000000000000000e+00,0.000000000000000000e+00,0.000000000000000000e+00,5.202210143110926888e-01,-0.000000000000000000e+00,4.098296165466308594e-03,8.721954860658186703e+01,0.000000000000000000e+00
2.022993000000000041e+00,2.079628477113874135e-02,6.539155666956432411e-02,9.502948522567749023e-01,1.537917525086832451e-02,-3.780310930433516958e-03,-3.530319482905559803e-03,4.555981717493699096e-02,4.479845718320131509e-02,-5.510436836630105972e-03,4.670372651293980965e-02,2.082509038630105114e-02,-1.953298913134717332e-02,-1.808512951507408942e-02,2.576532155143843386e-02,-1.004070861097244860e-02,0.000000000000000000e+00,0.000000000000000000e+00,0.000000000000000000e+00,5.204411542485801734e-01,-0.000000000000000000e+00,1.918269395828247070e-01,1.141595017498371476e+02,0.000000000000000000e+00
2.049411000000000094e+00,2.189010484382332769e-02,6.688824392713300926e-02,9.507387876510620117e-01,1.623278333018947708e-02,-3.315359294784103739e-03,-3.280007637165927373e-03,3.814450552887867218e-02,3.085215856082057853e-02,-2.680860925465822220e-03,2.857280597957501805e-02,1.122922673800685368e-02,2.538954472561372536e-02,-3.414130370457631181e-02,2.348631491279682543e-02,-9.322124936997411293e-03,0.000000000000000000e+00,0.000000000000000000e+00,0.000000000000000000e+00,5.202412977232342417e-01,-0.000000000000000000e+00,-2.389973402023315430e-01,1.014496671762239828e+02,0.000000000000000000e+00
2.075685000000000002e+00,2.304154414664441597e-02,6.829645639823798964e-02,9.512525796890258789e-01,1.714684511370701339e-02,-3.064044864649506650e-03,-3.191040179341332172e-03,5.076537959172939402e-02,4.478831410808026964e-02,-3.065455937758088112e-03,9.619589119043625222e-03,1.340295208055386489e-02,1.387417321536273292e-02,-2.583961479994143981e-02,3.704417430919665355e-02,-9.177350149743634944e-03,0.000000000000000000e+00,0.000000000000000000e+00,0.000000000000000000e+00,5.202935475784842279e-01,-0.000000000000000000e+00,-5.944672822952270508e-01,8.289426984296876810e+01,0.000000000000000000e+00
2.097163000000000110e+00,2.380671685804557763e-02,6.923821616166582482e-02,9.516453742980957031e-01,1.797424143146254469e-02,-2.923833222548299915e-03,-3.323920249093087042e-03,4.741369253414193241e-02,2.766665281831650822e-02,7.635388523340225220e-03,7.620564645845344376e-02,-1.322834057135751674e-02,-9.838749758045146551e-03,-4.562279262741159719e-02,3.436916606141943858e-02,-9.521521250764053423e-03,0.000000000000000000e+00,0.000000000000000000e+00,0.000000000000000000e+00,5.195083004848747299e-01,-0.000000000000000000e+00,-4.983699321746826172e-02,3.397250715799717113e+01,0.000000000000000000e+00
2.123901000000000039e+00,2.505497044770625681e-02,7.055405140702628031e-02,9.523158073425292969e-01,1.868737238910467280e-02,-2.265832203274031897e-03,-3.203462324236613489e-03,4.221232292630142796e-02,3.157526329691221628e-02,4.106194246560335159e-03,-3.174792797924136552e-03,3.318904985323058165e-02,4.330469374249336367e-03,-4.361998442080687599e-02,3.597945983287190175e-02,-9.207843860028874783e-03,0.000000000000000000e+00,0.000000000000000000e+00,0.000000000000000000e+00,5.197609868155681490e-01,-0.000000000000000000e+00,-4.528558254241943359e-02,8.925792977191295563e+01,0.000000000000000000e+00
2.149521000000000015e+00,2.634505381786798189e-02,7.170676713346252340e-02,9.530735015869140625e-01,1.948126324941826595e-02,-1.911520411113754037e-03,-3.247581921269835411e-03,4.939701700161771430e-02,2.765225433218940904e-02,7.145093753933906555e-03,1.460222637620387648e-02,2.843710244869009779e-03,-1.278791560862443553e-03,-5.131133512095954752e-02,4.579290035962874095e-02,-9.400075498482818315e-03,0.000000000000000000e+00,0.000000000000000000e+00,0.000000000000000000e+00,5.195214333356321657e-01,-0.000000000000000000e+00,3.844774961471557617e-01,-4.655988412375482888e+00,0.000000000000000000e+00
2.176076000000000121e+00,2.784741913351882273e-02,7.265359082069929031e-02,9.538242220878601074e-01,2.007846584837956125e-02,-1.313534512964675827e-03,-3.233086391450835755e-03,6.002309951167587171e-02,2.728870278016456985e-02,1.442475337535142899e-02,4.097995590247217185e-02,-2.732055307507714678e-02,5.153358295641390953e-03,-5.384138158713958761e-02,5.836458769216811698e-02,-9.453646348378030861e-03,0.000000000000000000e+00,0.000000000000000000e+00,0.000000000000000000e+00,5.189673147048358137e-01,-0.000000000000000000e+00,-5.220116376876831055e-01,9.454155920815972536e+01,0.000000000000000000e+00
2.198462999999999834e+00,2.902089043108186869e-02,7.306909991998154774e-02,9.544220566749572754e-01,2.037159683356061513e-02,-9.492463095186476352e-04,-3.306813383023277618e-03,4.936465215453244432e-02,1.934422728461558313e-02,1.136390492320060730e-02,1.533018896979022883e-02,1.138339534390466617e-02,-7.771567401972583750e-03,-6.146150638152799578e-02,5.174568099135357785e-02,-9.608155443232457849e-03,0.000000000000000000e+00,0.000000000000000000e+00,0.000000000000000000e+00,5.191718982765095580e-01,-0.000000000000000000e+00,-6.942597031593322754e-01,1.079056439419900784e+02,0.000000000000000000e+00
2.225865999999999900e+00,3.087147975956544554e-02,7.357506032027910647e-02,9.552823901176452637e-01,2.044469768508247118e-02,-7.739584826205181400e-04,-3.239573683368716581e-03,5.973093443206606290e-02,1.936750936017538754e-02,1.191857177764177322e-02,-2.283082645026164939e-02,2.378119669287176441e-02,2.280679530546240660e-02,-6.010005527583166252e-02,6.407849643775571924e-02,-9.507766686514207422e-03,0.000000000000000000e+00,0.000000000000000000e+00,0.000000000000000000e+00,5.191052730441653162e-01,0.000000000000000000e+00,-4.279994964599609375e-01,7.551403187871653699e+01,0.000000000000000000e+00
2.250131000000000103e+00,3.213575617170018328e-02,7.385319157927451583e-02,9.558087587356567383e-01,2.028909302913668028e-02,-7.480341804542156581e-04,-3.431499051787443438e-03,6.156348175771306219e-02,1.611406724338885696e-02,1.490372791886329651e-02,7.526917501794173210e-03,-5.134008246354674308e-03,-3.269032239236690368e-02,-6.111767958537922540e-02,6.534487532362817652e-02,-1.004716245115805373e-02,0.000000000000000000e+00,0.000000000000000000e+00,0.000000000000000000e+00,5.188743881049615592e-01,-0.000000000000000000e+00,-2.030798196792602539e-01,8.684399065506870841e+01,0.000000000000000000e+00
2.277565000000000062e+00,3.418841203145925323e-02,7.392246364747290244e-02,9.565278291702270508e-01,1.957661330626397911e-02,-5.283694642390646123e-04,-3.314860486051232017e-03,5.507243852373691628e-02,6.353983071379487070e-03,1.657967269420623779e-02,-3.751069777321078269e-02,3.303261532989969218e-02,2.387143438099689069e-02,-6.340031772268997501e-02,6.301568777381273689e-02,-9.680760011025968392e-03,0.000000000000000000e+00,0.000000000000000000e+00,0.000000000000000000e+00,5.187179440799725150e-01,0.000000000000000000e+00,-4.298170804977416992e-01,8.783359627334435515e+01,0.000000000000000000e+00
2.299107999999999929e+00,3.569939644359618192e-02,7.359713784806728998e-02,9.570606350898742676e-01,1.920774248763525843e-02,-8.151551923081257200e-04,-3.448269374454727542e-03,6.503462780297557255e-02,8.626887206071253561e-03,1.657817885279655457e-02,-3.191318121278690495e-03,-3.970631998645839794e-02,-2.387343254297913039e-02,-5.767383335851596765e-02,7.123602719393147542e-02,-1.010843549369033756e-02,0.000000000000000000e+00,0.000000000000000000e+00,0.000000000000000000e+00,5.187108838639358233e-01,-0.000000000000000000e+00,-2.243574857711791992e-01,9.536778670148865444e+01,0.000000000000000000e+00
2.331557000000000102e+00,3.802200295296306876e-02,7.304593113787583025e-02,9.578382372856140137e-01,1.827192031344604742e-02,-9.452975927044526827e-04,-3.472314048948640063e-03,6.008019027048484839e-02,-3.280332318109962803e-03,2.226156555116176605e-02,-5.068466707627058282e-02,1.297771977047372516e-02,-7.554557161544496469e-03,-6.136385338655213351e-02,6.693769549753661452e-02,-1.011313992636159176e-02,0.000000000000000000e+00,0.000000000000000000e+00,0.000000000000000000e+00,5.182483107612509965e-01,-0.000000000000000000e+00,4.363048076629638672e-02,1.565675384196101838e+01,0.000000000000000000e+00
2.350687000000000193e+00,3.879951080224957466e-02,7.285221208876775656e-02,9.580446481704711914e-01,1.788231935501551767e-02,-1.157561000674434126e-03,-3.523398488326228047e-03,7.235367158409646005e-02,3.866153539757483711e-03,1.672388613224029541e-02,-3.547303145232097443e-02,-5.739799681242954699e-02,-2.219055947057002598e-02,-5.135143925781471275e-02,7.673680832111377803e-02,-1.032585068166480546e-02,0.000000000000000000e+00,0.000000000000000000e+00,0.000000000000000000e+00,5.186736304477813642e-01,-0.000000000000000000e+00,-1.441937685012817383e-01,-1.161192264566863770e+02,0.000000000000000000e+00
2.371525999999999801e+00,4.035570892894001227e-02,7.239068588260255677e-02,9.584626555442810059e-01,1.704992713856120362e-02,-1.352975445182202918e-03,-3.443121439067237371e-03,6.567321471858032778e-02,9.542130132072904248e-06,1.374797150492668152e-02,-2.712470191794150859e-02,-5.610919117691109265e-03,5.990020002728047369e-03,-5.011694599968542080e-02,6.971418853068217514e-02,-1.003682527805993541e-02,0.000000000000000000e+00,0.000000000000000000e+00,0.000000000000000000e+00,5.188813011398367703e-01,-0.000000000000000000e+00,-5.694836378097534180e-01,-1.178358579007856832e+01,0.000000000000000000e+00
2.405435000000000212e+00,4.280242697815751091e-02,7.174136287271881685e-02,9.591004252433776855e-01,1.559459759792454492e-02,-2.102042340504706175e-03,-3.524602181649376040e-03,6.518800459444330786e-02,-7.068353175813961789e-03,9.508251212537288666e-03,-8.224119419277654830e-02,-2.509588350412816915e-03,1.089242445402924600e-02,-4.590609541736569155e-02,6.725510303584009142e-02,-1.021807156229481706e-02,0.000000000000000000e+00,0.000000000000000000e+00,0.000000000000000000e+00,5.191736903293363570e-01,-0.000000000000000000e+00,-5.428427457809448242e-01,9.546528765189059129e+01,0.000000000000000000e+00
2.426261999999999919e+00,4.363605975284010757e-02,7.154695420896937941e-02,9.592525362968444824e-01,1.499847516387200867e-02,-2.443972273020067476e-03,-3.625759029692250061e-03,7.598194410316187752e-02,-1.330722267982436700e-03,4.435707814991474152e-03,-1.035332668655377653e-01,2.410884853701182953e-02,-1.596435067251818565e-02,-3.639605165448717150e-02,7.443271399307556380e-02,-1.054281119278094314e-02,0.000000000000000000e+00,0.000000000000000000e+00,0.000000000000000000e+00,5.195770135371327036e-01,-0.000000000000000000e+00,-1.555591821670532227e-01,1.137086136419679292e+02,0.000000000000000000e+00
