timestamp,x,y,z,roll,pitch,yaw,vx,vy,vz,p,q,r,psp,qsp,rsp,pres,qres,rres,thrust_sp, thrust_res
0.000000000000000000e+00,3.164705558725043090e-03,4.305866789176606216e-03,9.935938715934753418e-01,1.335710835043390360e-02,-7.372313219088821867e-03,2.407650410820583176e-04,-7.394095541398523937e-03,-4.069158390229763236e-03,-1.489875651895999908e-02,-2.784305237325098575e-02,2.358137846240568672e-02,2.072874510006639248e-02,-6.759161122562021284e-02,1.746984561609852271e-01,2.045013352892229297e-01,1.981193640692133912e-02,2.265949009775153067e-01,2.036789012790504727e-01,5.012020925430693552e-01,-6.535493731498718262e-01,2.878247499465942383e-01,9.656731135371546770e+01,4.001468420028686523e-01
2.687700000000000158e-02,3.107429791735793340e-03,3.927795936922081135e-03,9.930016994476318359e-01,1.347324517487701392e-02,-7.427636613738686222e-03,3.363088959704718661e-04,-2.508292307075277172e-03,-3.043118981820837343e-03,-1.022191625088453293e-02,-7.166665843981499286e-03,1.014440200258764566e-02,-2.542860041412319666e-02,-3.051191531792193379e-01,1.777804082172435018e-01,1.427123087350127238e-02,-2.181466128105582214e-01,2.250592188816739336e-01,1.319142856155273123e-02,5.006396073303115424e-01,-6.677534580230712891e-01,-9.485125541687011719e-03,1.250715690622004246e+02,4.106389284133911133e-01
5.095999999999999835e-02,3.010485536348513590e-03,3.706581023298892788e-03,9.920637011528015137e-01,1.288850913444197950e-02,-7.468433405502183930e-03,2.731705909193582471e-04,-5.345368556991931391e-03,-8.031220674790930103e-03,2.682405523955821991e-03,-1.591189280600927361e-02,-2.681148904767509736e-02,-2.797402196538709834e-02,-3.097465709667406308e-01,1.711971509823196347e-01,-2.229540510024975164e-01,-2.222518001443179736e-01,2.218164222562603316e-01,-2.238531991457150261e-01,5.030189980846977438e-01,-4.958714842796325684e-01,3.260004520416259766e-02,9.442233825619715049e+01,4.106389284133911133e-01
7.678500000000000603e-02,2.928746210377521694e-03,3.563771982847575761e-03,9.914673566818237305e-01,1.234621194296961488e-02,-7.454776963125686606e-03,2.485310237079207951e-04,-9.971594214082180659e-04,-7.981741865813770168e-03,-1.338903885334730148e-02,-9.670102169337292317e-03,-2.787257145318680976e-02,1.299019424220450303e-02,-2.812454259551675495e-01,1.746744252490463611e-01,1.081818140242446491e-02,-1.979540774140481907e-01,2.213347641316738557e-01,1.000292504046584874e-02,5.038925616199100288e-01,-5.168411731719970703e-01,5.235803127288818359e-02,1.028964515065944170e+02,4.106389284133911133e-01
1.022580000000000017e-01,2.745917537395493619e-03,3.444437181344424132e-03,9.903451204299926758e-01,9.883727035941380218e-03,-8.477420527686518881e-03,8.294724758963756273e-04,-7.291842786930805877e-03,5.021809624529774592e-03,-1.886636018753051758e-02,-1.096812826830663584e-01,-3.469464998391518645e-02,5.984052438742760299e-02,1.539072602084599339e-01,1.656539135277549091e-01,2.194324221589438739e-01,2.108191071336538158e-01,2.247649473493519012e-01,2.169697055034567335e-01,5.152857405127482249e-01,6.073701381683349609e-02,2.064393758773803711e-01,5.590625607361868532e+01,4.106389284133911133e-01
1.252719999999999945e-01,2.555026153041098629e-03,3.487513942259214475e-03,9.893720746040344238e-01,6.084779875922331424e-03,-1.001188650054452012e-02,1.928603607660672736e-03,-5.001975784651773761e-03,8.329663634220507012e-03,-3.606565296649932861e-02,-2.199753583285720127e-01,-1.384452847075911541e-01,4.417138420201809079e-02,1.792105051443549923e-01,1.513935165483948908e-01,2.129320173991820775e-01,2.106640827335732047e-01,2.178311442521500829e-01,2.074270330320077405e-01,5.141848923817797790e-01,-7.229954004287719727e-02,3.894752264022827148e-01,9.201762672492159822e+01,4.106389284133911133e-01
1.503770000000000107e-01,2.262741274460331169e-03,4.138949747162928156e-03,9.881930351257324219e-01,1.233836936951242811e-03,-1.236651620675810470e-02,2.460333777614787110e-03,-1.740082434347108367e-02,7.953551356771256312e-03,-3.647461906075477600e-02,-2.022342226104013874e-01,-1.260266142235108577e-01,-1.622546481408759442e-02,2.118525947450929092e-01,1.232471554483379195e-01,2.139524062524252312e-01,2.121097660071168955e-01,2.154618123685014264e-01,2.070152774976287691e-01,5.137370994050763917e-01,-1.049540042877197266e-01,3.138915300369262695e-01,9.926923173653496235e+01,4.106389284133911133e-01
1.756020000000000081e-01,1.830433523565923488e-03,5.027322877495659335e-03,9.861679077148437500e-01,-3.987801798619393726e-03,-1.761096465265876709e-02,7.670844942488930229e-04,-2.741180752471284680e-03,7.122634407711095871e-04,-5.058238282799720764e-02,-1.002561972836303328e-01,-2.067697564630572304e-01,-1.220269421049047232e-01,2.139047886987716363e-01,1.197614001208589796e-01,-6.903725866499356434e-02,1.853864345904197297e-01,2.197614001208589851e-01,-7.109768481262791762e-02,5.203780140663686327e-01,1.848294734954833984e-01,-3.641974925994873047e-02,9.845623431962835070e+01,4.106389284133911133e-01
2.009080000000000032e-01,1.504233267160264400e-03,5.485585053301871017e-03,9.847148656845092773e-01,-4.496081011898354560e-03,-2.153323066809442743e-02,-7.678849151513400528e-04,-1.281054355263777644e-02,6.913760353085172776e-03,-5.877023190259933472e-02,7.228125164940360503e-02,-2.112791482970058643e-01,-6.623357490230935563e-02,-1.691541859943948289e-01,1.231832162064233904e-01,-1.568780168446232415e-01,-2.072991211555800239e-01,2.231832162064233960e-01,-1.546277751278014312e-01,5.306477626437353656e-01,7.016011476516723633e-01,-6.125748157501220703e-02,1.319239700073940753e+02,4.106389284133911133e-01
2.261559999999999959e-01,9.275220427202769289e-04,6.184178639638946220e-03,9.823635220527648926e-01,-1.815713641480517625e-03,-2.656010267904829192e-02,-3.049610916558087581e-03,-1.767941329667155684e-02,2.857540244491788787e-03,-6.916022300720214844e-02,1.102052436198478896e-01,-1.472181227444944174e-01,-6.700407179562704874e-02,-2.019038404266002007e-01,1.242652697384883931e-01,-2.278484674572027746e-01,-2.190261210002665271e-01,2.242652697384883986e-01,-2.192700995971663125e-01,5.320253694521245302e-01,7.225079536437988281e-01,5.756291151046752930e-01,6.067142292544270532e+01,4.106389284133911133e-01
2.516729999999999801e-01,3.147045778127189643e-04,6.900336650262387309e-03,9.797171950340270996e-01,2.619886246730692390e-03,-3.073600599502213093e-02,-2.618457548091868148e-03,-2.794412135277937054e-02,7.617015772645894731e-03,-7.610504329204559326e-02,1.280401415427081524e-01,-1.263754274777124376e-01,4.132067610045316725e-02,-2.228988312744117350e-01,6.369377948091711761e-02,-2.092287064089989879e-01,-2.160006557349570255e-01,1.636937794809171232e-01,-2.020946182877564890e-01,5.320665301324930541e-01,6.819956302642822266e-01,4.732960462570190430e-01,9.113858820893011625e+01,4.106389284133911133e-01
2.746979999999999977e-01,-2.043878346648031680e-04,7.483162559244292168e-03,9.777797460556030273e-01,4.090761760549167965e-03,-3.250661205098825945e-02,-1.294777727531171152e-03,-2.919196764468184185e-02,1.718365612159208564e-02,-8.862014859914779663e-02,5.537824350565693360e-02,-8.161057512008096371e-02,8.464623549038585715e-02,-1.438596586004986522e-02,-2.648603521597245325e-01,1.607081998539065804e-01,-5.142697742424317230e-03,-1.648603521597245269e-01,1.639975909143045196e-01,5.308215097548327766e-01,5.510110855102539062e-01,2.757998704910278320e-01,9.162204265876196985e+01,4.106389284133911133e-01
3.017839999999999967e-01,-1.194655822276354624e-03,8.633957331776784261e-03,9.747923612594604492e-01,2.663656252266604664e-03,-3.460899509994685985e-02,1.711637354762318708e-03,-3.717017199751414258e-02,3.033704654441591458e-02,-8.311620354652404785e-02,-8.584478279276434864e-02,-9.718595412485854512e-02,1.117460524254674931e-01,2.088830292788355913e-01,-3.014601256705383148e-01,1.459489849333261424e-01,1.991252823101740121e-01,-2.014601256705383092e-01,1.407871281706477573e-01,5.105876055521972878e-01,-5.373454093933105469e-01,-3.705608844757080078e-02,1.146771003153298807e+02,4.106389284133911133e-01
3.268280000000000074e-01,-1.912359707052859814e-03,9.511011284161575985e-03,9.727962017059326172e-01,-9.391384751992696699e-05,-3.539561423439074872e-02,2.605647112896569695e-03,-4.320265185798542046e-02,3.046790911739230903e-02,-8.994270116090774536e-02,-1.461387962448791322e-01,-3.790946331935620556e-02,1.525670628168632583e-03,2.375240169370935461e-01,-2.688174094919039692e-01,1.993297833534088404e-01,2.110357227542759839e-01,-1.688174094919039636e-01,1.918161726920106225e-01,5.208618994604358177e-01,-2.735251188278198242e-02,2.287908792495727539e-01,1.602270718146329784e+02,4.106389284133911133e-01
3.509650000000000269e-01,-2.676881722421477986e-03,1.061505460842505737e-02,9.697704315185546875e-01,-3.540237841389953267e-03,-3.437868866608728702e-02,1.485865043469702940e-03,-3.004686140800360769e-02,2.708706716288018790e-02,-9.057326614856719971e-02,-7.174634631448323363e-02,7.953238169901609422e-02,-4.931280747732443709e-02,2.481285150762091440e-01,9.153596614850453839e-02,2.341759280886253070e-01,2.011214950460550599e-01,1.915359661485045439e-01,2.300076294724596737e-01,5.331369619011808725e-01,6.214292049407958984e-01,-2.217456102371215820e-01,-2.771856397278547135e+01,4.106389284133911133e-01
3.740140000000000131e-01,-3.182334939705520633e-03,1.130300434761501160e-02,9.676660299301147461e-01,-3.641481923077898204e-03,-3.161157356888377734e-02,1.025801514260571423e-04,-3.450348293373157321e-02,2.553589197580914683e-02,-9.016416221857070923e-02,4.099624944145982552e-02,1.633666442528300955e-01,-8.475748509081663939e-02,2.182516439389881047e-01,1.042854256299758919e-01,2.320665737143443597e-01,1.707401903406092214e-01,2.042854256299758975e-01,2.317779813402001676e-01,5.354453001757634167e-01,7.357389926910400391e-01,-2.302277088165283203e-02,3.684771627024905882e+01,4.106389284133911133e-01
4.001509999999999789e-01,-3.734856342539725690e-03,1.198105526578153134e-02,9.655213952064514160e-01,-1.948629495390682585e-03,-2.775149140109700596e-02,-1.544040768539201025e-03,-4.566509820952467658e-02,2.089024419793528847e-02,-9.716094285249710083e-02,1.354255522477494089e-01,1.877024194456810013e-01,-7.253552188251481680e-02,7.394407330962625424e-02,1.219820802610420696e-01,1.990200852755626415e-01,4.034835751427442996e-02,2.219820802610420751e-01,2.032844934896727573e-01,5.355424257018224221e-01,6.983270645141601562e-01,-2.572476863861083984e-02,9.628762193739261477e+01,4.106389284133911133e-01
4.245610000000000217e-01,-4.686679335917320888e-03,1.284814910794172295e-02,9.623146653175354004e-01,4.133358136299890816e-03,-2.328287211879787044e-02,-5.101148254955667483e-03,-4.270636577586596483e-02,2.620058451407367844e-02,-9.817118942737579346e-02,2.257270121918856232e-01,1.034766008158661960e-01,-1.667268411454490562e-01,-2.206680221716370016e-01,1.257011113279698777e-01,-2.402536962084861893e-01,-2.202043110582475038e-01,2.257011113279698833e-01,-2.262926747724535725e-01,5.344307420736109648e-01,6.135518550872802734e-01,2.801057100296020508e-01,9.438254557409265999e+01,4.106389284133911133e-01
4.492019999999999902e-01,-6.184013088280961891e-03,1.428549107609596545e-02,9.592335224151611328e-01,1.168753911251918000e-02,-2.252419005111550021e-02,-8.406212733377049773e-03,-5.787078755164837968e-02,1.909658992543018449e-02,-9.522352367639541626e-02,2.192200311475011876e-01,-5.310469783867937527e-02,-9.878953170400468775e-02,-2.753792090720176278e-01,1.250753924589803334e-01,-2.472021832556719756e-01,-2.204345931652531565e-01,2.250753924589803390e-01,-2.242791919159339009e-01,5.338907479994122740e-01,5.763149261474609375e-01,3.518475294113159180e-01,7.486668020956108194e+01,4.106389284133911133e-01
4.767049999999999899e-01,-7.325886678566362158e-03,1.533996032628761989e-02,9.571745991706848145e-01,1.592995414235700430e-02,-2.327620048754353022e-02,-9.543025513612857225e-03,-7.011400862481585727e-02,3.255557397255388896e-02,-9.983135014772415161e-02,2.026550240650893953e-01,-2.681548565781903884e-02,-3.317579617917115233e-03,-2.895038890583154778e-01,1.226813509316031503e-01,-2.446536657221128619e-01,-2.191914273622167231e-01,2.226813509316031559e-01,-2.188597623759393762e-01,5.332413745943637151e-01,5.067887306213378906e-01,2.139357328414916992e-01,8.491185991246634046e+01,4.106389284133911133e-01
5.038280000000000536e-01,-9.329813065111870057e-03,1.710428817394004167e-02,9.541023969650268555e-01,1.709682033242854518e-02,-2.504937998595302417e-02,-8.052795979193838605e-03,-7.175492611332327797e-02,3.985733971320034458e-02,-9.846229106187820435e-02,-3.253778363964989623e-02,-8.334941488488915862e-02,3.388270333088528458e-02,5.159733271870674265e-02,-2.582228749398277623e-01,-6.023672075898352934e-02,1.244547523411998896e-01,-1.582228749398277567e-01,-3.876251918424463566e-02,5.294804184696439986e-01,2.864067554473876953e-01,3.112379312515258789e-01,4.880808443152048426e+01,4.106389284133911133e-01
5.264739999999999975e-01,-1.004826794246100989e-02,1.776790009704884779e-02,9.530854225158691406e-01,1.621508711125037652e-02,-2.563568599970778017e-02,-6.993918120262954119e-03,-7.763165649072724384e-02,4.590738230176782952e-02,-9.938495606184005737e-02,-8.362130613353996322e-02,-6.259908567529312573e-02,1.037290642552123748e-01,1.291392254323591171e-01,-2.677310618121811481e-01,1.949616972924914926e-01,1.920215854624950924e-01,-1.677310618121811425e-01,2.134386003332459369e-01,5.233853761327402765e-01,-6.073820590972900391e-02,1.068528890609741211e-01,-5.726145781250301070e+01,4.106389284133911133e-01
5.540709999999999802e-01,-1.231240302390074377e-02,1.965279523262771985e-02,9.500533938407897949e-01,1.067656989602841673e-02,-2.757976644095294638e-02,-3.797109314030988614e-03,-7.929283675493724315e-02,5.580286798616312244e-02,-1.040044575929641724e-01,-1.725028164989803048e-01,-7.198201343268174901e-02,7.933629377938321292e-02,1.872265489623374801e-01,-2.773981542180805615e-01,1.934354677054241356e-01,2.059516074736828517e-01,-1.773981542180805837e-01,2.031120434772494265e-01,5.222794567581354741e-01,-1.587926149368286133e-01,2.488318681716918945e-01,8.535465424616909047e+01,4.106389284133911133e-01
5.786459999999999937e-01,-1.388025181174702520e-02,2.068809317807870918e-02,9.482035636901855469e-01,5.921626804266670770e-03,-2.892217875738234412e-02,-2.557460391012122969e-03,-8.710116765368136615e-02,3.787744986640756428e-02,-9.102717787027359009e-02,-2.386105723796765055e-01,-4.636755950793872150e-02,1.818016821693712454e-02,2.067711603881048354e-01,-2.697746972810737276e-01,1.950614674825629780e-01,2.090021387001459729e-01,-1.697746972810737498e-01,2.015880670109634343e-01,5.226435041879156085e-01,-1.021965742111206055e-01,1.204954385757446289e-01,8.449039625954152655e+01,4.106389284133911133e-01
6.022669999999999968e-01,-1.538325259783450416e-02,2.167599315023110290e-02,9.464128613471984863e-01,3.143351004961586655e-03,-2.855433017837971654e-02,-2.752330673468472710e-03,-7.194784250750593801e-02,4.466692622623629622e-02,-9.505347907543182373e-02,-8.027053416323372270e-02,7.796906768561369383e-02,-3.828495571281590598e-02,2.145374450942741373e-01,7.833290482933855103e-02,2.200199546454434385e-01,1.901216330192338488e-01,1.783329048293385566e-01,2.272031532049496039e-01,5.370894690411919248e-01,6.583611965179443359e-01,5.088555812835693359e-02,1.390660119545312625e+02,4.106389284133911133e-01
6.260740000000000194e-01,-1.684687803015151933e-02,2.251143374930142729e-02,9.446594119071960449e-01,2.588485651410536367e-03,-2.671592396614230758e-02,-4.200029715076158965e-03,-7.460928573281756793e-02,2.979610578512354585e-02,-8.892493695020675659e-02,2.360523230397777381e-02,1.028673913499481701e-01,-9.910582421941924181e-02,-1.614250249143065474e-01,1.241737591781386374e-01,1.966697349213732127e-01,-1.776133084914131854e-01,2.241737591781386429e-01,2.080405602085032835e-01,5.383122841225023159e-01,7.362014055252075195e-01,1.463648080825805664e-01,8.181915708647373719e+01,4.106389284133911133e-01
6.554459999999999731e-01,-1.895036204906086139e-02,2.361326864729214672e-02,9.419693946838378906e-01,5.125606946405268823e-03,-2.027609234163629814e-02,-6.881422394108049900e-03,-7.086272516930497423e-02,3.920709451225063563e-02,-1.078682914376258850e-01,9.753105425971528297e-02,2.907370898968092976e-01,-8.206041727055435331e-02,8.002143412215895202e-02,1.204957124044753747e-01,1.748037540223935649e-01,7.032706950082300013e-02,2.204957124044753802e-01,1.935864107461948702e-01,5.382828867456972421e-01,6.407055854797363281e-01,1.618193387985229492e-01,-1.879227683140772598e+01,4.106389284133911133e-01
6.791810000000000347e-01,-2.033080122166640996e-02,2.433194911777580502e-02,9.401964545249938965e-01,8.828218403302678235e-03,-1.550776516611307443e-02,-8.950062330828956192e-03,-7.354706682379427707e-02,2.904494546519007653e-02,-9.688550233840942383e-02,1.987429846086421759e-01,2.241312707068790766e-01,-1.294750898726372002e-01,-2.401599530106776070e-01,1.266307913295550425e-01,-2.326412758748393206e-01,-2.171563716263122112e-01,2.266307913295550480e-01,-2.080824572828125218e-01,5.389034389406359704e-01,7.036991119384765625e-01,1.750959157943725586e-01,9.477323922480655938e+01,4.106389284133911133e-01
7.015360000000000484e-01,-2.174773413808648789e-02,2.499770257690568306e-02,9.384451508522033691e-01,1.289999557116628358e-02,-1.216688481294592172e-02,-1.098638136011653721e-02,-8.391388526716715701e-02,3.096044203421058696e-02,-9.874696284532546997e-02,1.892547363464022470e-01,1.230537508938326918e-01,-5.982336570076789151e-02,-2.674208720006466256e-01,1.261585677295232466e-01,-2.577150646465549144e-01,-2.212325858506231369e-01,2.261585677295232522e-01,-2.275657506884473935e-01,5.381235475597432316e-01,6.378619670867919922e-01,2.996722459793090820e-01,9.015885221400515093e+01,4.106389284133911133e-01
7.273129999999999873e-01,-2.407320502835433654e-02,2.612262566626453314e-02,9.358850717544555664e-01,1.688150845324810564e-02,-9.575729988932524250e-03,-1.446423213300285227e-02,-8.485596046999685504e-02,3.627842098826993683e-02,-1.004047766327857971e-01,1.179895951461451958e-01,5.197278979637129370e-02,-1.098310457509568683e-01,-2.897966210236294637e-01,1.268709865868735687e-01,-2.687102897243797694e-01,-2.221982575048933872e-01,2.268709865868735742e-01,-2.288972509310511216e-01,5.383746506935784826e-01,6.267764568328857422e-01,-8.051288127899169922e-02,9.914072172730116961e+01,4.106389284133911133e-01
7.521809999999999885e-01,-2.663839303578777185e-02,2.738672480016575081e-02,9.335015416145324707e-01,1.762477484434907954e-02,-1.084982705760828559e-02,-1.569003146937864024e-02,-9.634184960844081880e-02,4.172288422351959347e-02,-9.530759602785110474e-02,-3.235715209824211597e-02,-6.809214784994765957e-02,-3.705150501521654177e-02,-8.141261330034998966e-02,1.143896729108653254e-01,-2.371951154039975973e-01,-1.328230244983788499e-02,2.143896729108653310e-01,-1.940938939630155458e-01,5.314704009333702794e-01,2.481864690780639648e-01,-2.472401857376098633e-01,1.002639463363097718e+02,4.106389284133911133e-01
7.763250000000000428e-01,-2.966169420551064903e-02,2.850960612982622253e-02,9.313437342643737793e-01,1.420656084519496265e-02,-1.335673814202564813e-02,-1.346796487808754605e-02,-8.753709360177476528e-02,4.490501228273453133e-02,-8.020371943712234497e-02,-1.843063887662448330e-01,-1.385736802969174397e-01,6.613620632828713652e-02,1.667433496833377327e-01,4.725093846173214485e-03,1.762894839038527672e-01,2.096997989937760265e-01,1.047250938461732200e-01,2.132212665003289376e-01,5.249430208594071390e-01,-6.441158056259155273e-02,2.678636312484741211e-01,9.408510449611694071e+01,4.106389284133911133e-01
8.015240000000000142e-01,-3.280103133137196592e-02,2.982102071479822078e-02,9.294446110725402832e-01,7.673263866687345634e-03,-1.629672916727331611e-02,-9.949580817438130609e-03,-1.096589062300237505e-01,4.319483879257404735e-02,-7.404012978076934814e-02,-2.843526755366577174e-01,-1.312402213798779249e-01,1.216964157798086643e-01,2.037251131415616368e-01,-2.184660867388460437e-01,1.823407452175980215e-01,2.048974058900911999e-01,-1.184660867388460243e-01,2.095270470955092335e-01,5.210544215892209952e-01,-2.662987709045410156e-01,6.781589984893798828e-02,9.046347865098772445e+01,4.106389284133911133e-01
8.257839999999999625e-01,-3.603106586286175528e-02,3.113571413019034992e-02,9.281769990921020508e-01,1.089688166722056414e-03,-2.011320898173218907e-02,-7.201100891364164980e-03,-9.220662545049274073e-02,5.062492888527013457e-02,-7.114480435848236084e-02,-2.031856273622757447e-01,-1.105318961467222083e-01,3.637820093844436331e-02,2.585993495513495000e-01,-2.383622242946573933e-01,1.821338385712106822e-01,2.096558021968166485e-01,-1.383622242946573877e-01,2.018448186752385132e-01,5.197326413132594691e-01,-3.379614353179931641e-01,2.572633028030395508e-01,9.095269778047905618e+01,4.106389284133911133e-01
8.505409999999999915e-01,-3.902426710201867266e-02,3.227454717756038372e-02,9.271253943443298340e-01,-1.136519404026101318e-03,-2.368071216107936472e-02,-8.217557485643123272e-03,-1.148006563053628609e-01,3.761872016382574596e-02,-6.535910069942474365e-02,-2.222474290907815869e-02,-8.082486839245472954e-02,-4.929303257583513703e-02,2.658560164026047001e-01,-2.935658195910032520e-01,5.338108261803146265e-03,2.127510003712447806e-01,-1.935658195910032742e-01,2.801236967606468911e-02,5.242744872017128799e-01,-8.111995458602905273e-02,3.829109668731689453e-02,1.153604197606546364e+02,4.106389284133911133e-01
8.743969999999999798e-01,-4.063978021062209650e-02,3.295865009039515570e-02,9.266188740730285645e-01,3.371443332154397746e-04,-2.386790400990435046e-02,-9.588233340933172144e-03,-9.474554440534038724e-02,3.968037765400058564e-02,-6.321848183870315552e-02,1.033522728547473235e-01,1.042890040089039932e-01,-1.015201213177212430e-01,-1.183512136136555676e-01,1.230270678283271191e-01,-1.692700913610886149e-01,-1.660431702226885242e-01,2.230270678283271246e-01,-1.428484689457150125e-01,5.377090627696253788e-01,6.558114290237426758e-01,2.308048009872436523e-01,9.017991651740547354e+01,4.106389284133911133e-01
9.016690000000000538e-01,-4.307324443826152094e-02,3.397963266615829786e-02,9.257148504257202148e-01,5.319907745229537389e-03,-2.060533295181787850e-02,-1.135575742451644388e-02,-1.004333631103730001e-01,3.677887525307339811e-02,-6.616408377885818481e-02,1.957768051661217534e-01,1.497207318322317793e-01,-4.014291932963180709e-02,-2.023490520384866875e-01,1.247143455451746041e-01,-2.509164844765798263e-01,-2.157260383261651038e-01,2.247143455451746097e-01,-2.197610029302473622e-01,5.349800959443792303e-01,4.824326038360595703e-01,-6.696665287017822266e-02,2.493801957488266829e+00,4.018469572067260853e-01
9.246879999999999544e-01,-4.468643508912124862e-02,3.464301547549578780e-02,9.251474738121032715e-01,9.724396324005332715e-03,-1.642614697682831526e-02,-1.118079567508556416e-02,-9.861767258964761196e-02,4.274388291114049332e-02,-7.014063000679016113e-02,2.292860111191319661e-01,2.175050050325584572e-01,3.441645900673401259e-02,-2.267770963556887676e-01,1.251588715713835842e-01,-2.490345266075838504e-01,-2.170947862097128700e-01,2.251588715713835898e-01,-2.185242086595970967e-01,5.379234152540874891e-01,6.198270320892333984e-01,5.557399988174438477e-01,-8.208955744552537226e+01,4.018469572067260853e-01
9.486289999999999445e-01,-4.726573163218159707e-02,3.581111167701998832e-02,9.243027567863464355e-01,1.438101305610197701e-02,-1.180954415759671861e-02,-9.312539219358484388e-03,-1.080910733120865885e-01,4.468467645949212447e-02,-6.305851787328720093e-02,1.261069125667829138e-01,1.109719477942688326e-01,7.438163451371769541e-02,-2.563096164606460392e-01,1.247516591431223620e-01,-2.396097374003156033e-01,-2.180195602309151215e-01,2.247516591431223676e-01,-2.144473265414137964e-01,5.376724821654688125e-01,6.231560707092285156e-01,2.014127969741821289e-01,-1.170129976907175688e+02,4.018469572067260853e-01
9.775460000000000260e-01,-4.897164596705097517e-02,3.675785227953223822e-02,9.238488674163818359e-01,1.458044035491887734e-02,-1.040489815184164613e-02,-7.002471351536643240e-03,-1.089751445473354091e-01,5.165859950513998489e-02,-6.441017985343933105e-02,-3.561024713974946659e-02,8.528561123150625589e-03,1.481408488736171147e-01,9.734339450023772600e-02,6.336286562449225390e-02,6.388123185701276296e-02,1.308495842895211758e-01,1.633628656244922595e-01,8.257457604929878403e-02,5.272107052630081725e-01,3.393232822418212891e-02,2.362622022628784180e-01,8.997260661571723972e+01,4.018469572067260853e-01
1.001249000000000056e+00,-5.175254472209220302e-02,3.832898890547844356e-02,9.232007861137390137e-01,1.158107134567199110e-02,-1.071939872730642840e-02,-2.856745628439849582e-03,-1.175981066713132628e-01,5.455865768006125383e-02,-6.106923148036003113e-02,-1.943695911465039838e-01,-1.748276841503556764e-02,1.921412400081678185e-01,1.851590460231039292e-01,-5.796819881484402415e-02,2.046804484483232267e-01,1.963665357673110290e-01,4.203180118515598140e-02,2.118154180998313429e-01,5.310870259012653305e-01,2.491480112075805664e-01,2.564519643783569336e-01,9.048280808633886352e+01,4.018469572067260853e-01
1.026459999999999928e+00,-5.367069201030663650e-02,3.946006326690860988e-02,9.229911565780639648e-01,7.998006316560333714e-03,-1.224829443243047322e-02,-9.563299693766680321e-04,-1.088707017022900320e-01,6.470278716146672660e-02,-4.650693759322166443e-02,-1.606230617593905063e-01,-8.191665444975654298e-02,2.575327110444602594e-02,2.317394781044549157e-01,-2.426549960214559043e-01,2.139813019110444192e-01,2.108413927119216214e-01,-1.426549960214558987e-01,2.158694089109891023e-01,5.174978572908516261e-01,-4.380891919136047363e-01,3.538266420364379883e-01,9.589330145622943746e+01,4.018469572067260853e-01
1.053736000000000006e+00,-5.671373013557656079e-02,4.124508367689878885e-02,9.227955341339111328e-01,4.030671076166171887e-03,-1.510909567099405493e-02,-1.021425885515458987e-03,-1.129091542711800483e-01,4.206718384573610720e-02,-4.153483361005783081e-02,-7.678373153046907928e-02,-1.408702852462303534e-01,-7.922693846366594961e-02,2.393402421071609554e-01,-9.035995913681614533e-02,7.823429856989638775e-02,2.102360976877293008e-01,9.640040863183855016e-03,8.050994549461226724e-02,5.207228737953710773e-01,-2.512571215629577637e-01,3.428608179092407227e-01,8.541090085398414544e+01,4.018469572067260853e-01
1.075668999999999986e+00,-5.786151001058975618e-02,4.193934744740522580e-02,9.227331876754760742e-01,3.575221392451571629e-03,-1.579654463830482136e-02,-1.349593629003775774e-03,-1.164113777004301548e-01,4.755005501236982818e-02,-4.647731035947799683e-02,3.955644088459085890e-03,-6.562874507405506985e-02,-6.634704549908113091e-02,-8.798082360725385798e-02,-2.619802967555713291e-01,-1.795261794610677475e-01,-1.281119487921650313e-01,-1.619802967555713236e-01,-1.763906773210229817e-01,5.312869173274146206e-01,2.974157333374023438e-01,-5.611312389373779297e-02,-3.138130755671816985e+01,4.018469572067260853e-01
1.101569000000000020e+00,-6.011936226231151537e-02,4.326302460207342993e-02,9.226443767547607422e-01,4.187598690551683385e-03,-1.638046305821050375e-02,-2.609363059677960450e-03,-1.018670414789514672e-01,4.531813233933787433e-02,-4.450991749763488770e-02,3.688842307561982642e-02,3.087318181581045345e-02,-7.010312562868309394e-02,-1.874675353599311034e-01,1.248709211324113832e-01,-2.226405248226645262e-01,-2.221534151269227708e-01,2.248709211324113888e-01,-2.159790910526035168e-01,5.378277818674789268e-01,6.598105430603027344e-01,-3.212436437606811523e-01,6.357126169984165642e+01,4.018469572067260853e-01
1.127566999999999986e+00,-6.235902603232951202e-02,4.452231013319077335e-02,9.224416017532348633e-01,6.921772338140507429e-03,-1.564245995521562627e-02,-3.936890073978238647e-03,-9.737764425108066946e-02,4.346981227446737595e-02,-4.797777906060218811e-02,1.973196565253617363e-01,3.760006046507231858e-02,-4.864287129697253409e-02,-2.055099281868807692e-01,1.234733474337890713e-01,-2.295825602664618992e-01,-2.222123433863662789e-01,2.234733474337890768e-01,-2.193159211079291904e-01,5.344477666004515681e-01,4.522806406021118164e-01,2.842568159103393555e-01,5.367709406439079345e+01,4.018469572067260853e-01
1.154416000000000109e+00,-6.455092983045725152e-02,4.577233451525585667e-02,9.222320914268493652e-01,1.059418299602284293e-02,-1.339949821141517283e-02,-4.251235394995722672e-03,-1.156132188456182458e-01,4.723976525121782732e-02,-5.338411778211593628e-02,1.759521289500594332e-01,1.240004591581870819e-01,3.104846437604613305e-02,-2.233598114931696355e-01,1.233301034562106768e-01,-2.285906211329922499e-01,-2.202508979927795263e-01,2.233301034562106824e-01,-2.176507233416682119e-01,5.380053821388266488e-01,6.191298961639404297e-01,-2.255007028579711914e-01,1.473273443217151168e+02,4.018469572067260853e-01
1.176164999999999905e+00,-6.678943645489429648e-02,4.709236974374544915e-02,9.219580888748168945e-01,1.317541232193009809e-02,-9.743040752433040907e-03,-2.831695390077104690e-03,-1.045088854396873795e-01,5.138796803334333418e-02,-5.147632583975791931e-02,1.125403983449584921e-01,1.969779234009776669e-01,7.157734958520806101e-02,-2.356057397823275168e-01,1.238173365942490667e-01,-2.248215832646960899e-01,-2.196417448192370947e-01,2.238173365942490722e-01,-2.178332610787942492e-01,5.386247192801069117e-01,6.538168191909790039e-01,-5.200111865997314453e-02,1.028052548207964065e+02,4.018469572067260853e-01
1.202377999999999947e+00,-7.025250775599982400e-02,4.891515387292764278e-02,9.215102195739746094e-01,1.411700433382259701e-02,-5.346731829001472036e-03,9.480340345713322847e-05,-1.100199665546259670e-01,5.948995274670423189e-02,-4.875325039029121399e-02,-4.740799879498939357e-03,8.083949990992538026e-02,8.502777352286609858e-02,-2.346782848499945895e-01,1.235812975864606367e-01,-1.643128904963398473e-01,-2.199714349812733061e-01,2.235812975864606422e-01,-1.654861911849761502e-01,5.381467146403511315e-01,6.292589902877807617e-01,8.503854274749755859e-02,1.018313927885576504e+02,4.018469572067260853e-01
1.224928999999999935e+00,-7.269810710746354987e-02,5.010977262744890220e-02,9.213051795959472656e-01,1.276034155257159582e-02,-4.227008748437732777e-03,2.641089129923113177e-03,-1.232805453420408176e-01,5.928409805596628751e-02,-5.672479048371315002e-02,-9.608581822926444416e-02,3.109666024654142782e-02,1.435105458715154048e-01,1.604002965273607084e-01,1.079219510640016810e-01,2.000941086197711716e-01,1.664000570906894461e-01,2.079219510640016866e-01,1.918201225568326729e-01,5.344148696259177767e-01,3.833169937133789062e-01,5.247889757156372070e-01,8.614613656719016888e+01,4.018469572067260853e-01
1.250725000000000087e+00,-7.643495733279995208e-02,5.198264075925566885e-02,9.211364388465881348e-01,8.165316371239184079e-03,-5.028186296613279538e-03,6.817096428593627522e-03,-1.081583023657737702e-01,6.827802737571116165e-02,-4.914861917495727539e-02,-2.192552510903235108e-01,-3.075365784466041821e-02,1.637238264059950321e-01,2.475003946878308880e-01,-5.283661550075258173e-02,2.374791883742953524e-01,2.146714953222308986e-01,4.716338449924742382e-02,2.176545775882390565e-01,5.292874983333369920e-01,1.249877214431762695e-01,1.383334398269653320e-01,9.831659793223660415e+01,4.018469572067260853e-01
1.274996000000000018e+00,-8.023752646918541620e-02,5.397489286660694247e-02,9.213011264801025391e-01,2.092566753936638078e-03,-8.119674479518224075e-03,1.114783335109637008e-02,-1.273398393892196945e-01,6.845588325062680612e-02,-3.238772973418235779e-02,-2.006364100341982426e-01,-1.280285794136389599e-01,1.920320028997301587e-01,2.856623541134604150e-01,-2.877429066038404981e-01,2.500239765699064920e-01,2.120663790955668870e-01,-1.877429066038405203e-01,2.181463806802832472e-01,5.237826920354337057e-01,-1.148221492767333984e-01,1.672166585922241211e-01,9.090808298482053829e+01,4.018469572067260853e-01
1.301762000000000086e+00,-8.416304117227232928e-02,5.596885225095780958e-02,9.217515587806701660e-01,-4.123590154525773148e-03,-1.194009817607799562e-02,1.256583486515383541e-02,-1.113528984819953244e-01,6.819152124481149546e-02,-3.047018870711326599e-02,-1.085621102752481609e-01,-8.936878740432595281e-02,-2.235472674964880668e-02,3.153016060032851064e-01,-2.414132767162900095e-01,2.364506114228694666e-01,2.153016060032851009e-01,-1.414132767162900040e-01,2.008362703103348246e-01,5.160000793647645523e-01,-5.299955606460571289e-01,1.765724420547485352e-01,9.757573414315449156e+01,4.018469572067260853e-01
1.324202000000000101e+00,-8.667196677875116384e-02,5.722328167738355981e-02,9.222139716148376465e-01,-5.593288992597842540e-03,-1.473886779345967568e-02,1.157213831179770835e-02,-1.080957138767597719e-01,5.970694362095785995e-02,-1.980265974998474121e-02,-8.090010191096785874e-02,-1.427051578169417079e-01,-7.097899484798862735e-02,3.149265031720719921e-01,-3.010299977267811844e-01,2.342110096691530086e-01,2.149265031720719865e-01,-2.010299977267812066e-01,2.014524271044449699e-01,5.130212233011363088e-01,-6.502263545989990234e-01,2.458676099777221680e-01,1.175806956937723413e+02,4.018469572067260853e-01
1.348473999999999950e+00,-9.034428955025622376e-02,5.890400942151920866e-02,9.228527545928955078e-01,-3.163828263235642091e-03,-1.614261672212347065e-02,9.283357121765867248e-03,-1.128320321637786561e-01,5.725213572472830775e-02,-2.069694921374320984e-02,1.557550170873037154e-01,2.283812579880162980e-02,-6.074600266109304175e-02,-1.244327577355822112e-01,1.201729297275198893e-01,-1.906495568236606375e-01,-2.244327577355822168e-01,2.201729297275198949e-01,-2.171610181031685682e-01,5.347150345635287572e-01,5.205001831054687500e-01,3.400770425796508789e-01,8.790159080653182855e+01,4.018469572067260853e-01
1.375547000000000075e+00,-9.383002716059553328e-02,6.038266850404241937e-02,9.232621192932128906e-01,3.029844782524829944e-03,-1.308811844534663038e-02,6.122051615363055532e-03,-9.923640708703425350e-02,5.101524409465679061e-02,-2.320982888340950012e-02,2.734413007345838920e-01,1.910841466837071290e-01,-1.272066699131491896e-01,-1.605483891737568558e-01,1.213696003187325900e-01,-1.994353783742570385e-01,-2.210631112381586105e-01,2.213696003187325956e-01,-2.173090509891087707e-01,5.355926568098671181e-01,5.562484264373779297e-01,-1.821445226669311523e-01,1.053377113801187193e+02,4.018469572067260853e-01
1.402169999999999916e+00,-9.727254537619477170e-02,6.149064487315236693e-02,9.231312870979309082e-01,1.182672520266278386e-02,-6.572732127546387915e-03,3.513099119584639496e-03,-9.752239148804477120e-02,5.373956748951592283e-02,-3.605356439948081970e-02,2.778044395748132112e-01,2.313967541843779119e-01,-1.410031307458198269e-02,-2.154676842335091491e-01,1.226100008524218798e-01,-2.070928219356289179e-01,-2.224180456544359030e-01,2.226100008524218854e-01,-2.179011435431415789e-01,5.387596621192694002e-01,6.742575168609619141e-01,-2.540553808212280273e-01,-4.916454517411428071e+01,4.018469572067260853e-01
1.425936000000000092e+00,-1.008099339515141357e-01,6.277308824689240008e-02,9.225436449050903320e-01,1.856219807900159890e-02,-8.321834832896168876e-04,4.769245890282380884e-03,-1.154779184463854136e-01,6.181440280703156404e-02,-4.764924570918083191e-02,1.467731769286911292e-01,1.537725267356704617e-01,8.790524419563347513e-02,-2.551214644058005798e-01,1.217785725889695414e-01,-2.045018371192193762e-01,-2.253016435409535556e-01,2.217785725889695470e-01,-2.189871393046191050e-01,5.397071967270072879e-01,6.711143255233764648e-01,3.487445116043090820e-01,9.429757802081769569e+01,4.018469572067260853e-01
1.451268999999999920e+00,-1.045185722764356839e-01,6.432077997414011039e-02,9.216024279594421387e-01,2.027248868549268862e-02,8.429391582436274177e-04,7.708865105968465414e-03,-1.032645018354433758e-01,7.225004328053689917e-02,-4.017297551035881042e-02,-7.113646147517024149e-03,1.460183566522029429e-02,1.276924122182832577e-01,1.128962542996437418e-01,8.434978351361499538e-02,-9.992219553468392745e-03,1.451084977886758776e-01,1.843497835136150009e-01,-3.266056279934757833e-02,5.289483446105121001e-01,9.842145442962646484e-02,2.706452608108520508e-01,9.929304177598162084e+01,4.018469572067260853e-01
1.476264000000000021e+00,-1.069763482992210912e-01,6.538757655268123692e-02,9.210008978843688965e-01,1.855328213704428644e-02,2.032978299106869002e-04,9.822865034322392219e-03,-1.122310800588685598e-01,6.736135606405688203e-02,-2.394253388047218323e-02,-1.201827056683999750e-01,-8.721630863979537573e-02,8.786431768094099537e-02,1.885775615495551838e-01,-2.796943562637128622e-01,2.434335356434851050e-01,2.131449568623983160e-01,-1.796943562637128566e-01,2.148073568936856026e-01,5.182995110294211782e-01,-4.231549501419067383e-01,-4.206335544586181641e-02,7.769997928106576524e+01,4.018469572067260853e-01
1.501942000000000110e+00,-1.106248307951008120e-01,6.708066142138355281e-02,9.202389717102050781e-01,1.319400032942428906e-02,-2.249735227916049851e-03,1.256049646528389907e-02,-1.151341776227911978e-01,7.147210389142519271e-02,-3.387397527694702148e-02,-2.144119205196986788e-01,-1.145504826752841154e-01,1.912978976841524584e-02,2.316388966592514975e-01,-2.688297214695279935e-01,2.402832546007711845e-01,2.159372292747775979e-01,-1.688297214695280157e-01,2.040277017218089795e-01,5.199655715003863587e-01,-3.817961812019348145e-01,4.389978647232055664e-01,6.906733734003249481e+01,4.018469572067260853e-01
1.524108000000000018e+00,-1.129950624449587715e-01,6.812514817539809531e-02,9.198147654533386230e-01,1.067651809162952457e-02,-4.762792279716654420e-03,1.331464052924524744e-02,-1.100852266357961046e-01,6.279834234462583487e-02,-3.036070056259632111e-02,-8.013694015623887279e-02,-9.062535000005923769e-02,7.386897648465908482e-03,2.442936791296632659e-01,-2.946990815622203552e-01,2.431726049263493727e-01,2.183645001988996082e-01,-1.946990815622203497e-01,2.048597275567347886e-01,5.194582175753041930e-01,-4.020715951919555664e-01,4.756659269332885742e-01,1.052269120514027776e+02,4.018469572067260853e-01
1.551231999999999944e+00,-1.162715859846764760e-01,6.943433193603895659e-02,9.192189574241638184e-01,1.060994372447173102e-02,-6.013190739017071351e-03,1.133410013724156506e-02,-9.869011944989884710e-02,5.670130565069560896e-02,-2.670936100184917450e-02,9.524721132542490754e-02,4.072926364805901089e-02,-1.138888667597682675e-01,-2.050077213507353335e-01,1.224802714144188343e-01,-1.900433845354040641e-01,-2.288367723484461547e-01,2.224802714144188398e-01,-2.228098486828796465e-01,5.394565918258065196e-01,6.991794109344482422e-01,4.973317384719848633e-01,3.901639353928189990e+01,4.018469572067260853e-01
1.574146000000000045e+00,-1.182413755408992656e-01,7.013127549884171086e-02,9.187588095664978027e-01,1.298379580468195585e-02,-3.837213659358518214e-03,9.518046473371288840e-03,-9.722836870325743397e-02,4.517072431344170552e-02,-3.843149542808532715e-02,1.486826510357687203e-01,1.858247554885269492e-01,-7.049194594034670358e-02,-2.255815254575372630e-01,1.255459365608091182e-01,7.977495134122587761e-02,-2.263425382758175453e-01,2.255459365608091238e-01,5.211019321446898334e-02,5.407062275621484781e-01,7.146451473236083984e-01,3.154093027114868164e-01,9.378180994602253406e+01,4.018469572067260853e-01
1.599846000000000101e+00,-1.201157956735521282e-01,7.069933890260438059e-02,9.181570410728454590e-01,1.705810216043598601e-02,2.633481424707539986e-05,7.566210302394349441e-03,-8.286068758291155467e-02,4.456155772450695607e-02,-3.835263103246688843e-02,1.921315702987874963e-01,1.846529195052268035e-01,-9.631518665207371155e-02,-2.500745649762183276e-01,1.273519056580782460e-01,1.261869236504858938e-01,-2.259566744669883331e-01,2.273519056580782516e-01,1.040393035427194662e-01,5.383249460704999656e-01,5.749011039733886719e-01,-4.907456636428833008e-01,9.966684436887808829e+01,3.186714410781860130e-01
1.623594999999999899e+00,-1.229691967992792428e-01,7.159925504110288552e-02,9.171179533004760742e-01,2.106248811114089931e-02,5.947349739659379964e-03,7.680100189464411642e-03,-8.943541273928824753e-02,5.156614466252804757e-02,-4.665588587522506714e-02,8.036901985649490265e-02,1.522849058568745972e-01,2.792055739693700273e-02,-2.705106989595117972e-01,1.217439468164374927e-01,-1.655517173181987045e-01,-2.267067471574796544e-01,2.217439468164374983e-01,-1.879518853896261221e-01,5.404796187947653596e-01,6.502567529678344727e-01,-3.764787912368774414e-01,1.202772816988500608e+02,3.186714410781860130e-01
1.650524000000000102e+00,-1.257761701971306101e-01,7.274025799655829683e-02,9.161278009414672852e-01,2.021528431711093823e-02,8.261094452136630295e-03,6.586287993696426923e-03,-9.774579260141108561e-02,5.943870638774865350e-02,-4.514970630407333374e-02,-7.091947651801014385e-02,3.682538383990349024e-02,-2.792420028367309515e-02,-8.396037015960433614e-02,9.038249638744280667e-02,2.231550387842191063e-01,-5.174435081239440321e-02,1.903824963874428122e-01,2.038693506340869543e-01,5.178966175862849131e-01,-5.899807214736938477e-01,5.090534687042236328e-02,8.705930553846420139e+01,3.186714410781860130e-01
1.675151999999999974e+00,-1.277552051373927744e-01,7.357450504999175911e-02,9.154517650604248047e-01,1.681900040717245956e-02,7.371767258332662109e-03,6.320224479680947027e-03,-9.101215698110189101e-02,5.866992586792073305e-02,-4.172778129577636719e-02,-2.121045015586971172e-01,-7.159815710109544706e-02,-4.784538129246691980e-03,2.005566301536846341e-01,-3.090043315793622458e-02,2.239662989966245410e-01,2.114856528254485113e-01,6.909956684206378097e-02,2.054992721093644448e-01,5.184388013574333653e-01,-5.559328198432922363e-01,-2.032703161239624023e-01,-9.519266065116953257e+01,3.186714410781860130e-01
1.700120000000000076e+00,-1.298051408002050544e-01,7.447875614135265887e-02,9.148979783058166504e-01,1.165728198624174823e-02,5.471327986139584709e-03,7.074589190886326762e-03,-9.565101399759845524e-02,6.304191824331750738e-02,-4.532648622989654541e-02,-2.721356458000616652e-01,-1.001123849099942592e-01,1.460704058151921295e-02,2.436884851417173148e-01,-4.704261907875586374e-02,2.260998258711590103e-01,2.166049244147968400e-01,5.295738092124414181e-02,2.055200269886794939e-01,5.202717506518771406e-01,-4.807217717170715332e-01,5.387188196182250977e-01,8.929117230260341387e+01,3.468022584915161355e-01
1.724750000000000005e+00,-1.327349239963696859e-01,7.583639575591021031e-02,9.141869544982910156e-01,5.157584043835224293e-03,1.302857799458934096e-03,5.194088228978488431e-03,-7.668445082583319472e-02,5.747520624692571689e-02,-4.226924479007720947e-02,-1.662975950587913532e-01,-1.554190068144461756e-01,-7.370983052695088966e-02,2.819239630874490476e-01,-2.447008333026906846e-01,1.874668398016774706e-01,2.165369727459554583e-01,-1.447008333026906790e-01,1.722873238273876229e-01,5.170538773386624820e-01,-6.500502824783325195e-01,-1.616679430007934570e-01,2.333992777137622809e+01,3.468022584915161355e-01
1.752402000000000015e+00,-1.354326180033115778e-01,7.700465732230322990e-02,9.134347438812255859e-01,2.641131256319500901e-03,-2.233180380043053859e-03,1.965929844693459216e-03,-8.855941226335069250e-02,4.834244104375216150e-02,-3.451963886618614197e-02,1.696376033151353324e-02,-8.717346062186852318e-02,-1.535922860144156299e-01,-1.472780810049478806e-01,9.798156776065627960e-02,-2.053862458652228884e-01,-2.236383537960505707e-01,1.979815677606562851e-01,-2.115613625118069885e-01,5.313724383830980003e-01,1.480480432510375977e-01,2.535437345504760742e-01,9.231206934985166868e+01,3.468022584915161355e-01
1.777290999999999954e+00,-1.372535622524080623e-01,7.781609273167557073e-02,9.129074215888977051e-01,3.792705840439082425e-03,-3.418802387374020313e-03,1.212624808260009956e-04,-7.348373375889204195e-02,4.933332520566301865e-02,-4.436638951301574707e-02,9.999192336287844596e-02,-9.727590529760358345e-03,-7.112127314682138712e-02,-1.553743110950505657e-01,1.240295663424907657e-01,-2.202427847309596509e-01,-2.267258604594814264e-01,2.240295663424907713e-01,-2.212988515191465222e-01,5.419351240074816722e-01,6.852097511291503906e-01,2.983769178390502930e-01,9.337037984098846266e+01,3.468022584915161355e-01
1.800899999999999945e+00,-1.390744403694145204e-01,7.868372982482138567e-02,9.122580885887145996e-01,7.060789590085610190e-03,-3.092956679823677391e-03,-1.815338545883227184e-03,-6.780291293655421603e-02,4.077948393727508919e-02,-4.803886637091636658e-02,1.685965694965876616e-01,6.072833370486758163e-03,-7.451983666450336108e-02,-1.823488838620251906e-01,1.246427929816910640e-01,-2.265577406372644709e-01,-2.263488438820668858e-01,2.246427929816910696e-01,-2.222706205934200097e-01,5.407033670080814147e-01,5.930618047714233398e-01,1.480005979537963867e-01,8.752683198715156720e+01,3.468022584915161355e-01
1.825507999999999909e+00,-1.417531953695758962e-01,8.012465315683393874e-02,9.112171530723571777e-01,1.123988116012275898e-02,-7.596927376922746333e-04,-9.917516944382143151e-04,-7.887682979059208732e-02,4.820261696705382265e-02,-5.885504931211471558e-02,7.676296902701092162e-02,8.338884662442060114e-02,1.008754008291099513e-01,-1.999741728828824949e-01,1.244203267879073482e-01,-2.155412992535685746e-01,-2.247719277333042331e-01,2.244203267879073538e-01,-2.137420000799390429e-01,5.436526109057728817e-01,7.020730972290039062e-01,3.051773309707641602e-01,1.244470438852511478e+02,3.468022584915161355e-01
1.851790999999999965e+00,-1.444626643483230555e-01,8.180570143128435001e-02,9.101304411888122559e-01,1.203790759287342790e-02,2.498646361412948380e-04,1.739151157733154207e-03,-7.498471972141768083e-02,5.940265044769495878e-02,-5.626766011118888855e-02,-3.603283993759769099e-02,1.596121445654913318e-02,1.490714163877982779e-01,2.074917346549373098e-01,8.689984604246972499e-02,8.432551661714388080e-02,1.785551949661147164e-01,1.868998460424697305e-01,7.845238662686598863e-02,5.315156625516098687e-01,2.850198745727539062e-02,1.406997442245483398e-01,9.516416510195223566e+01,3.468022584915161355e-01
1.877642000000000033e+00,-1.463196534664037707e-01,8.300599375930137191e-02,9.095150828361511230e-01,1.070984854328260738e-02,-4.977069369054287762e-04,3.725296388834564709e-03,-8.364246244454766332e-02,6.626083130427479206e-02,-4.393734037876129150e-02,-7.515617473145554117e-02,-8.848893096835711014e-02,6.784624879182099555e-02,2.612184053931103644e-01,-2.872868006253034290e-01,2.233904576952513710e-01,2.182493677205038229e-01,-1.872868006253034234e-01,2.118904675357884682e-01,5.216846582926858433e-01,-4.684625864028930664e-01,2.076612710952758789e-01,-6.186669236981659736e+01,3.544705152511596902e-01
1.902387000000000050e+00,-1.490796299562411886e-01,8.486295158203448208e-02,9.088149070739746094e-01,6.553231067882392055e-03,-3.319054092331574779e-03,5.928289676669251662e-03,-7.185522452131691551e-02,5.363720594633897970e-02,-2.886812016367912292e-02,-1.243902960662082863e-01,-1.322604156984918400e-01,-2.635485340943894556e-02,2.777201262584327313e-01,-2.837966789581978788e-01,1.958869974085138688e-01,2.162417180705227260e-01,-1.837966789581978733e-01,1.783766326309423056e-01,5.177434513657492854e-01,-6.292409300804138184e-01,3.097292184829711914e-01,9.213921092233698573e+01,3.544705152511596902e-01
1.927308000000000021e+00,-1.507908823360918082e-01,8.603051202079478599e-02,9.085318446159362793e-01,5.752219846390776298e-03,-5.347985750068673383e-03,5.611924101049492464e-03,-7.245852602847351054e-02,5.900468855606066931e-02,-3.252900019288063049e-02,-3.158579672444580821e-02,-3.788703763663166246e-02,-2.665023634112821671e-02,2.860640701723214940e-01,-2.922620826368518276e-01,1.668083673081850737e-01,2.124841292574264073e-01,-1.922620826368517943e-01,1.500902767250948122e-01,5.174280213878930113e-01,-6.685851216316223145e-01,5.018354654312133789e-01,1.038984402578352899e+02,3.544705152511596902e-01
1.950072999999999945e+00,-1.531565664913237534e-01,8.754207288261471598e-02,9.081117510795593262e-01,8.043148919039077444e-03,-5.889165630728276923e-03,3.386683404377199835e-03,-6.025516859260345026e-02,4.787377881621581593e-02,-3.404695913195610046e-02,1.692776050205888339e-01,1.418801420889008284e-02,-7.702473611228596861e-02,-1.763971746989106137e-01,1.234661853862013547e-01,-2.130916504307204529e-01,-2.268012610912497062e-01,2.234661853862013603e-01,-2.236069407274259013e-01,5.399771963356730931e-01,5.506542921066284180e-01,8.083593845367431641e-02,5.341883778168344321e+01,3.544705152511596902e-01
1.974507000000000012e+00,-1.545372332411069360e-01,8.847149725422480404e-02,9.078268408775329590e-01,1.141941841893211532e-02,-3.333661471857540803e-03,1.644015775805307555e-03,-5.773098618513199110e-02,4.780152780395198475e-02,-3.645218908786773682e-02,1.800705398417367376e-01,1.796820836481232697e-01,-8.717562671100817506e-02,-1.940067955230750374e-01,1.240120997809868175e-01,-1.756552367527306480e-01,-2.246811916237456963e-01,2.240120997809868231e-01,-1.813627848467610493e-01,5.412037353675082096e-01,6.015980243682861328e-01,2.209631204605102539e-01,1.443498736172097949e+02,3.544705152511596902e-01
2.000941000000000081e+00,-1.564470000599064159e-01,8.996497671423595022e-02,9.072778224945068359e-01,1.854408048002338313e-02,2.387283004403162323e-03,9.382364742456239526e-04,-4.971076043115593007e-02,4.792542381388344153e-02,-4.100940376520156860e-02,2.341753300112683345e-01,1.413977052465370809e-01,7.069954642250331212e-02,-2.404563734116375306e-01,1.223502953708549834e-01,-2.168581382662839174e-01,-2.260410066077050417e-01,2.223502953708549890e-01,-2.205731905714754526e-01,5.421440947446188874e-01,6.273407936096191406e-01,3.384188413619995117e-01,5.715259484241676091e+01,3.544705152511596902e-01
2.022934999999999928e+00,-1.577367249456525233e-01,9.106049105816370337e-02,9.068877100944519043e-01,2.123959264206101358e-02,5.695394239185525009e-03,2.076427567920813289e-03,-7.096080162089998811e-02,4.727572874595842994e-02,-2.540033496916294098e-02,1.173264679313284903e-01,1.145853342624249954e-01,3.761059869655295623e-02,-2.571623581315494733e-01,1.219882763429144812e-01,-2.105856454609781048e-01,-2.263204064547659766e-01,2.219882763429144867e-01,-2.175577493111830185e-01,5.415669875927305865e-01,6.479088068008422852e-01,5.770074129104614258e-01,9.705030818087291777e+01,3.544705152511596902e-01
2.049923000000000162e+00,-1.597904292200468257e-01,9.284336505164078601e-02,9.064000844955444336e-01,2.102400848886398083e-02,7.312449901095696703e-03,4.878409521515969516e-03,-6.041564388791247076e-02,5.790977846853046646e-02,-3.344729170203208923e-02,-1.206220520749344410e-01,-1.356695458953559178e-03,8.138395058441588725e-02,1.920253564334047647e-01,6.583433639393188042e-02,2.039086018430316116e-01,2.115303636784184871e-01,1.658343363939318860e-01,1.892223508165523649e-01,5.197734726369692693e-01,-5.863509774208068848e-01,3.425830602645874023e-01,7.653218768772283909e+01,3.544705152511596902e-01
2.076994000000000007e+00,-1.611703105241383827e-01,9.413463738255996305e-02,9.061748385429382324e-01,1.841818797539386890e-02,6.431591150601212448e-03,7.386737826484690572e-03,-6.293085643203835677e-02,6.131986098296515753e-02,-2.966237254440784454e-02,-1.552358536231310537e-01,-6.769231246920910661e-02,1.549504429983602771e-01,2.108320933990329438e-01,-3.013411617261993469e-02,2.212250568368480941e-01,2.105594812674693450e-01,6.986588382738007086e-02,1.994912732417179757e-01,5.217187791657389440e-01,-4.739110469818115234e-01,1.994615793228149414e-01,9.988194068622011912e+01,3.544705152511596902e-01
2.100642000000000120e+00,-1.623288988244769582e-01,9.518913931067374268e-02,9.060648679733276367e-01,1.449949951539340753e-02,4.513472825022235568e-03,8.795379534404457189e-03,-5.779694523664216654e-02,6.353568607034289217e-02,-1.584011875092983246e-02,-1.807245240334026948e-01,-1.154440747142749663e-01,-7.619588531342549008e-03,2.404160072318105579e-01,-2.823839539039252333e-03,1.960655353826782910e-01,2.118099657715870332e-01,9.717616046096075322e-02,1.704164203528661381e-01,5.199639107604104860e-01,-5.199595093727111816e-01,4.013363122940063477e-01,9.864561497474528551e+01,3.544705152511596902e-01
2.125370999999999899e+00,-1.638476567106399162e-01,9.660816865639312856e-02,9.060251712799072266e-01,1.053320829900339546e-02,9.398253916816923237e-04,7.626728792231141085e-03,-5.199696563194015214e-02,4.277822428652014453e-02,-1.617514155805110931e-02,-1.088737586773657617e-01,-1.416835547319446331e-01,-8.862990382533338096e-02,2.437344517203798300e-01,-6.611113731606194088e-04,4.963276039814524393e-02,2.044920879046711604e-01,9.933888862683938614e-02,2.732509644924258768e-02,5.182264395216722441e-01,-6.196433901786804199e-01,1.536585092544555664e-01,1.006054353042429028e+02,3.544705152511596902e-01
2.152317000000000036e+00,-1.647713079011083048e-01,9.743862911909285940e-02,9.059908390045166016e-01,1.063425180481208585e-02,-8.488345849617662253e-04,6.397138435960236791e-03,-4.466543550172076549e-02,4.921167838258799776e-02,-1.939039677381515503e-02,6.645916325204202779e-02,-2.600462851661638347e-02,-7.779876885868911018e-02,-1.819391751430883275e-01,1.212377779052529747e-01,-2.067567407798539536e-01,-2.290272029095947182e-01,2.212377779052529803e-01,-2.257217678439507047e-01,5.410134217424866776e-01,6.086494922637939453e-01,3.251687288284301758e-01,9.420017269306414676e+01,3.544705152511596902e-01
2.175336000000000158e+00,-1.656659465728751723e-01,9.813217934509139984e-02,9.059953093528747559e-01,1.255939905260137351e-02,-2.750701099528463089e-03,4.896980603234180052e-03,-4.358570475165729485e-02,3.994528159069595658e-02,-2.053511515259742737e-02,1.047282524999122028e-01,-1.139126671326551460e-01,-4.500513044434082538e-02,-2.006533462352528829e-01,1.201380002405598724e-01,-2.090996591237977431e-01,-2.278635335752093594e-01,2.201380002405598779e-01,-2.239818298394136153e-01,5.415851225486957299e-01,6.304900646209716797e-01,4.275442361831665039e-01,1.109866603143127861e+02,3.544705152511596902e-01
2.204645999999999884e+00,-1.670549015678315097e-01,9.869462135326714791e-02,9.058800935745239258e-01,1.835279545278091853e-02,-3.937998884218307794e-03,3.840504372738529071e-03,-5.183296063440117479e-02,3.795241155055421867e-02,-2.606728300452232361e-02,2.191602410918042365e-01,-1.081156362902289080e-02,8.696080714531947628e-03,-2.370417013153236496e-01,1.211107435820736322e-01,-2.092268339713947989e-01,-2.268846871686931166e-01,2.211107435820736378e-01,-2.215027196512915908e-01,5.378731317622007513e-01,3.954010009765625000e-01,2.686225175857543945e-01,9.196851083460003906e+01,3.544705152511596902e-01
2.228086999999999929e+00,-1.680727419655043409e-01,9.897049944157453039e-02,9.057358503341674805e-01,2.142806305762370508e-02,-4.503380509804699727e-03,4.731382590726695980e-03,-4.268062029025451037e-02,4.095801248190198557e-02,-2.360081486403942108e-02,8.802306462579853608e-02,-1.078104131670256510e-02,4.523347741248461701e-02,-2.535204631281789966e-01,1.201513023419859272e-01,-2.054961322472204088e-01,-2.266949703116778181e-01,2.201513023419859327e-01,-2.203949868424633918e-01,5.391684048748238700e-01,4.708527326583862305e-01,7.055932283401489258e-01,-7.723423551175176271e+01,3.544705152511596902e-01
2.252498000000000111e+00,-1.691223306370466806e-01,9.935505992283377719e-02,9.055470824241638184e-01,2.215218617557220340e-02,-4.958729499340952529e-03,6.791895568088790469e-03,-4.872072852575724811e-02,5.185616012932183633e-02,-3.191312402486801147e-02,-1.173112865902463560e-02,-4.324479708991366828e-02,1.280032219831470641e-01,1.498170416123636994e-01,1.163977143365825528e-01,1.645798262046854754e-01,1.726768544799735794e-01,2.163977143365825584e-01,1.437412861199109382e-01,5.367269764532041076e-01,2.947430610656738281e-01,1.258546948432922363e+00,-8.837613356704409284e+00,4.517093896865844727e-01
2.277979999999999894e+00,-1.701846231197565729e-01,9.987142052319752938e-02,9.054013490676879883e-01,2.098130898098496053e-02,-6.294246547776216616e-03,8.720054192909332258e-03,-5.881405354566488636e-02,4.902510271010597498e-02,-2.317455597221851349e-02,-8.715885420386802751e-02,-1.066373579053933734e-01,8.392308356178897200e-02,1.823598107201146179e-01,1.085434989578990816e-01,-1.535517165945953499e-01,2.000036052033640488e-01,2.085434989578990872e-01,-1.798614639190537490e-01,5.318369115431447192e-01,5.284130573272705078e-02,2.573096752166748047e-02,1.032402217577103301e+02,4.517093896865844727e-01
2.301820999999999895e+00,-1.712684038387536078e-01,1.004106800611535427e-01,9.052841663360595703e-01,1.767676258120984972e-02,-7.843694655296440388e-03,1.115724762096959033e-02,-5.431720325143538086e-02,4.630416241036869329e-02,-1.858288608491420746e-02,-2.070564774361516036e-01,-5.234838042208955072e-02,1.233938108765041258e-01,2.085564990091947346e-01,1.012442068950664409e-01,-1.414131382880113030e-01,2.052392157406851547e-01,2.012442068950664464e-01,-1.744317997007960030e-01,5.186803870095750835e-01,-6.501680612564086914e-01,5.849374532699584961e-01,1.078223019737375807e+02,4.517093896865844727e-01
2.325657000000000085e+00,-1.725459873620532880e-01,1.004184748628502016e-01,9.052460789680480957e-01,1.131786204001874151e-02,-1.143630121965544255e-02,1.349097653001618546e-02,-4.507096377652438507e-02,5.146462286662487756e-02,-2.475733496248722076e-02,-1.950835757815065352e-01,-1.269101281524657177e-01,3.697598190555385911e-02,2.451227239398737490e-01,1.178218191528643544e-01,-7.879097158108486210e-02,1.956631263605366489e-01,2.178218191528643599e-01,-1.181794053011981094e-01,5.188389126020147568e-01,-6.719936132431030273e-01,3.843580484390258789e-01,1.036675730336996963e+02,4.517093896865844727e-01
2.350022000000000055e+00,-1.736476844503159478e-01,9.996581056385099584e-02,9.055780172348022461e-01,8.086842556804869908e-03,-1.605427316638041724e-02,1.387645473638188243e-02,-6.042089153297456466e-02,3.818971285593111137e-02,2.125998435076326132e-05,-4.080197074956089243e-02,-1.692261880921574480e-01,8.188924291564383950e-02,2.327185554642341725e-01,-1.313593760811635480e-01,-1.041229335631389807e-01,1.722127240660983050e-01,-3.135937608116354247e-02,-1.445803758582957232e-01,5.199997561166138649e-01,-5.156356096267700195e-01,2.275141477584838867e-01,9.665189641639690876e+01,4.517093896865844727e-01
2.374449999999999950e+00,-1.749481571070886921e-01,9.940669644961458440e-02,9.062489271163940430e-01,9.627115318410895198e-03,-2.109281944319341129e-02,1.608550564595390142e-02,-5.062227487201017423e-02,3.645499777863949603e-02,2.854129532352089882e-03,1.328828824999956915e-01,-1.607907763975555127e-01,7.470564754995402679e-02,-1.711526763827354580e-01,6.371265847242801872e-02,-1.440044328041443777e-01,-2.224383921378161877e-01,1.637126584724280243e-01,-1.908949822055351908e-01,5.253028326384326929e-01,-2.184864878654479980e-01,2.865399122238159180e-01,1.038278161018173620e+02,4.517093896865844727e-01
2.399906000000000095e+00,-1.762448348528131148e-01,9.851857517036029244e-02,9.071262478828430176e-01,1.494372454585508880e-02,-2.588447013114070216e-02,1.802111192111865989e-02,-6.912510559850730540e-02,2.127367315648568541e-02,1.644778181798756123e-03,2.382553175583803640e-01,-1.468539980107618215e-01,2.007238169151715976e-02,-2.199081170635573401e-01,1.164799749994415989e-01,-1.439302057862739126e-01,-2.254666453859059672e-01,2.164799749994416045e-01,-1.967988647649164258e-01,5.338758622938030163e-01,2.438471317291259766e-01,7.319176197052001953e-02,-6.132471002898691381e+01,4.517093896865844727e-01
2.424948999999999799e+00,-1.774155420140347550e-01,9.712760671827863623e-02,9.078360199928283691e-01,2.033419458236102387e-02,-2.780760706743068411e-02,2.073951956358999205e-02,-4.958571713093446603e-02,2.359204693135244502e-02,-4.227329976856708527e-03,1.114588809638897282e-01,-1.773326137033561997e-02,1.010443544778025088e-01,-2.515533697070285180e-01,1.062185666196147626e-01,-1.243952904049522856e-01,-2.254504194035077680e-01,2.062185666196147682e-01,-1.853110844013499681e-01,5.338957160184977235e-01,2.209511995315551758e-01,1.928597688674926758e-01,1.025741895211748869e+02,4.517093896865844727e-01
