timestamp,x,y,z,roll,pitch,yaw,vx,vy,vz,p,q,r,psp,qsp,rsp,pres,qres,rres,thrust_sp, thrust_res
0.000000000000000000e+00,-3.425967930433263236e-03,2.871579463801738133e-02,1.001073241233825684e+00,1.439783535947236452e-02,-7.094252897557495885e-03,-8.115349300052161069e-03,1.120649318724630146e-02,-7.993172878848289059e-03,-1.335973758250474930e-02,1.446500701353153374e-03,2.067026675288864343e-03,1.573312876845723782e-02,-2.827118584404698654e-01,1.731866175744938563e-01,-2.080710710278738662e-01,-2.008337438106536921e-01,2.126297771930694414e-01,-1.854856610298156738e-01,5.252803124936457069e-01,6.683495044708251953e-01,-9.021147489547729492e-01,-1.885162946774784487e+01,0.000000000000000000e+00
2.123999999999999846e-02,-3.262544495091615308e-03,2.889056489957947740e-02,1.000529766082763672e+00,1.458299016794201326e-02,-7.275228087428864399e-03,-7.757753764694477056e-03,8.210420938150700745e-03,-9.330358655148054264e-03,-1.606538076885044575e-03,2.075192575058014237e-03,2.218564320562559262e-03,1.662057172110737238e-02,-2.869886730219067261e-01,1.675534864430789916e-01,-2.061571609703003738e-01,-2.041841804981231745e-01,2.120961070060729814e-01,-1.845929861068725530e-01,5.246726696647746602e-01,6.795563697814941406e-01,-8.767310380935668945e-01,7.288502376528693105e+01,0.000000000000000000e+00
4.823299999999999810e-02,-3.002657740584291097e-03,2.912075635494147316e-02,9.997817873954772949e-01,1.457166979054237699e-02,-7.226199249415810044e-03,-6.961146365131328471e-03,1.566492663592891285e-02,-9.989151497233655225e-03,-8.283752016723155975e-03,2.322332450282677766e-03,1.431581388630845516e-03,1.778342101788250168e-02,-2.827652810006768269e-01,1.738389597301907563e-01,-1.754482488833628839e-01,-1.999149620532989502e-01,2.113893270492553655e-01,-1.560896158218383623e-01,5.253684325244311060e-01,6.876009702682495117e-01,-1.059127211570739746e+00,9.806722089545026222e+01,0.000000000000000000e+00
7.084699999999999331e-02,-2.758275752979913800e-03,2.917171921566095658e-02,9.992768764495849609e-01,1.457822915395701538e-02,-7.474811706856376858e-03,-5.705483402586510044e-03,7.240980714471872449e-03,-2.097483197132904431e-03,-1.300113555043935776e-02,3.367440856709112695e-03,-3.896890095468445725e-07,1.908977356950020826e-02,-2.825077745987784605e-01,1.601708682991448696e-01,-1.208714152301933603e-01,-2.061171770095825140e-01,2.070426285266876165e-01,-1.050716400146484292e-01,5.264880706783410247e-01,7.272003889083862305e-01,-9.055708646774291992e-01,6.678875891215956528e+01,0.000000000000000000e+00
9.750399999999999345e-02,-2.380447661431614285e-03,2.929615026173190001e-02,9.984273910522460938e-01,1.173115396826713598e-02,-8.725828535917079520e-03,-3.044827022084327373e-03,-2.355352227908349212e-04,5.346927665898711622e-03,-7.589641958475112915e-03,-3.458910635509335196e-03,-4.611882482812438774e-03,2.409878083372576224e-02,-2.378381232394375100e-01,1.553210398660450631e-01,1.427327061564022948e-01,-1.849679589271545355e-01,2.147838056087493785e-01,1.510619938373565507e-01,5.264817091216743572e-01,7.443710565567016602e-01,-1.168965697288513184e+00,-1.355775747982172845e+02,0.000000000000000000e+00
1.219559999999999950e-01,-2.189558742570539215e-03,2.941168553134591857e-02,9.978497624397277832e-01,8.037064283682062230e-03,-1.064530364981330912e-02,-1.175443604157943482e-03,6.692971854940229538e-03,9.831691070328657436e-04,-1.122509967535734177e-02,-1.439832611889458637e-02,-1.063401452346320573e-02,3.092638760137137247e-02,-2.291917282538039058e-01,1.385278721661154233e-01,2.281614524150768833e-02,-1.958747327327728105e-01,2.035815060138702337e-01,2.595400214195251257e-02,5.267908051219150067e-01,7.439378499984741211e-01,-1.080980658531188965e+00,8.849201284895524111e+01,0.000000000000000000e+00
1.481089999999999907e-01,-1.920336001757861569e-03,2.967796417791974950e-02,9.969154000282287598e-01,9.175053301624245183e-04,-1.435563431231234865e-02,6.880401560072305230e-05,-3.086687179985342453e-03,9.003971235693476391e-03,-2.336264215409755707e-02,-3.329634686496633911e-02,-1.994754019994989663e-02,3.541566291731599453e-02,-1.534362688300431321e-01,1.222729217104041033e-01,-3.205705088781157786e-02,-1.736906468868255615e-01,2.201321482658386286e-01,-3.235405683517456055e-02,5.278524638287999116e-01,7.488111257553100586e-01,-6.063665151596069336e-01,-2.608619315738203071e+01,0.000000000000000000e+00
1.705160000000000009e-01,-1.794366090912945071e-03,2.989190468970909925e-02,9.961628913879394531e-01,-4.378464430592883712e-03,-1.751407285231332267e-02,2.602192285591351428e-05,6.819833253036072102e-03,8.847899975350820290e-03,-2.218699268996715546e-02,-5.522213895626100488e-02,-3.051450828750596964e-02,3.740852814203918242e-02,5.003645618559691283e-02,1.233816802501678245e-01,-9.250047837842891030e-02,-3.609538078308105469e-03,2.233816802501678300e-01,-9.256153106689453403e-02,5.278476815826749213e-01,7.489306926727294922e-01,-1.215493321418762207e+00,9.420076691952193926e+01,0.000000000000000000e+00
1.981040000000000023e-01,-1.706785601057782048e-03,2.972409869782123917e-02,9.950530529022216797e-01,-1.241731942733647828e-02,-2.258005043931432532e-02,4.385176668071258214e-04,-1.020586803833126513e-02,8.049905039815806462e-03,-2.578230202198028564e-02,-7.730462993376893688e-02,-4.231788906551809532e-02,3.634218883313510007e-02,2.480616927146911677e-01,1.116387009620666282e-01,2.105933608163982063e-01,1.480616927146911621e-01,2.116387009620666337e-01,2.096575140953063909e-01,5.278192289572788409e-01,7.272456884384155273e-01,-1.107259154319763184e+00,9.147909362962276703e+01,0.000000000000000000e+00
2.219859999999999889e-01,-1.765274562607980005e-03,2.970709006346130068e-02,9.943311214447021484e-01,-1.678245149694362892e-02,-2.593833254207722483e-02,1.201830040397317955e-03,-1.834202632913584986e-04,1.888967782605089490e-02,-3.086002543568611145e-02,-9.595431888167235690e-02,-5.309642058209144977e-02,3.376317456442069764e-02,2.863468647003173939e-01,1.087522864341735618e-01,2.216062633404960736e-01,1.863468647003173884e-01,2.087522864341735673e-01,2.186630129814148005e-01,5.282537246302028144e-01,7.261443138122558594e-01,-1.269997954368591309e+00,8.085886664011579228e+01,0.000000000000000000e+00
2.482199999999999962e-01,-1.983476214237400032e-03,2.974058024717884594e-02,9.933379888534545898e-01,-2.043112086042940187e-02,-3.107047691756270602e-02,1.695889800673940030e-03,-2.027503775482980899e-02,1.326890504321725887e-02,-1.788339391350746155e-02,-1.177660176416791271e-01,-6.990997384695049610e-02,3.274901936181767031e-02,3.077592611312865989e-01,-3.065045595169067494e-01,2.287643708626301009e-01,2.077592611312866211e-01,-2.065045595169067438e-01,2.247810602188110296e-01,5.271498852251621514e-01,7.120290994644165039e-01,-9.314509630203247070e-01,1.054701760688819547e+02,0.000000000000000000e+00
2.703150000000000275e-01,-2.196156112396805294e-03,2.973387072463129152e-02,9.927744269371032715e-01,-1.984341952539251178e-02,-3.459126591526540118e-02,6.685062726515005787e-04,-1.155884930836960540e-02,1.190206942749586112e-02,-1.636026054620742798e-02,-1.325238349353465017e-01,-8.754274781436813258e-02,3.106420631524806075e-02,3.141031503677368386e-01,-3.182180881500243919e-01,2.263582786269839608e-01,2.141031503677368053e-01,-2.182180881500244141e-01,2.252686142921447587e-01,5.267114658586122822e-01,6.907968521118164062e-01,-1.281060338020324707e+00,1.574625664084486516e+02,0.000000000000000000e+00
2.978669999999999929e-01,-2.855327956985773564e-03,2.881669250240112209e-02,9.919443130493164062e-01,-1.436170790840695342e-02,-3.889652529833975692e-02,-2.145645397418236618e-03,-1.848264214005155420e-02,1.737500708773721467e-02,-1.896311901509761810e-02,-1.328923729668669562e-01,-1.039683933197464161e-01,2.571388318196560913e-02,3.124774456024169700e-01,-3.217913269996642844e-01,2.173724777292658783e-01,2.124774456024169922e-01,-2.217913269996643066e-01,2.239265441894531250e-01,5.257488970244617033e-01,6.233875751495361328e-01,-9.563885927200317383e-01,8.730202997099894446e+01,0.000000000000000000e+00
3.216100000000000070e-01,-3.323907397736390341e-03,2.826756103642624404e-02,9.913429617881774902e-01,-8.967378484829535701e-03,-3.890485407345800617e-02,-4.518218352802133055e-03,-1.234166138007366555e-02,1.688462369134996130e-02,-3.039356879889965057e-02,-1.240588283982431844e-01,-1.165424797651339883e-01,1.751641655435516240e-02,2.818866107543442356e-01,-3.229359865188598522e-01,2.112946223727208694e-01,1.931891798973083552e-01,-2.229359865188598466e-01,2.241873085498809759e-01,5.261531502748219014e-01,5.959589481353759766e-01,-7.644358873367309570e-01,9.368672688258678249e+01,0.000000000000000000e+00
3.458370000000000055e-01,-3.913376757531371493e-03,2.758585433676452592e-02,9.901612997055053711e-01,-3.474712861275094564e-04,-3.323910461889290069e-02,-8.262517112042674222e-03,-2.326286017031874848e-02,1.856333717991687227e-02,-3.283714130520820618e-02,-1.000016221845250186e-01,-1.156013152969417035e-01,3.258648887420399591e-03,-3.937104880227631359e-02,-3.241552114486694336e-01,2.002222785537218497e-01,-7.323378324508666992e-02,-2.241552114486694280e-01,2.231275856494903398e-01,5.271627818694802903e-01,6.344377994537353516e-01,-1.163856863975524902e+00,1.010454224301967798e+02,0.000000000000000000e+00
3.724410000000000220e-01,-4.356214072669818693e-03,2.715662230239255376e-02,9.892416596412658691e-01,6.328781540270505754e-03,-2.761278597796201772e-02,-1.103274889334559562e-02,-1.457815100792084727e-02,1.296099484096037598e-02,-3.503475338220596313e-02,-6.642387871874974592e-02,-1.036827572432796885e-01,-1.483618243139072680e-02,-2.038597756463796928e-01,-3.112945199012756570e-01,1.859169759485169160e-01,-1.895421266555785966e-01,-2.112945199012756237e-01,2.163781821727752686e-01,5.279476968667977665e-01,6.627693176269531250e-01,-1.486668229103088379e+00,1.658756519186118794e+02,0.000000000000000000e+00
3.981750000000000012e-01,-4.486476590171262213e-03,2.630232620479198979e-02,9.877105355262756348e-01,1.559383397273293205e-02,-1.703513285255398024e-02,-1.482064714473720589e-02,-2.265032198115873169e-02,2.634336727822099780e-02,-6.013536453247070312e-02,-2.168724662984809412e-02,-7.373249175887330864e-02,-3.299744524300277787e-02,-2.200175669922713739e-01,3.160512447357177734e-02,1.184171873941832209e-01,-1.562043428421020508e-01,1.316051244735717829e-01,1.593147218227386475e-01,5.307885983715744382e-01,7.091563940048217773e-01,-7.066351175308227539e-01,8.669453928583966729e+01,0.000000000000000000e+00
4.231500000000000261e-01,-4.597447880018746408e-03,2.581179042777408117e-02,9.865648150444030762e-01,2.009246657353965307e-02,-9.393894306524153137e-03,-1.744230468186695748e-02,-1.650570792299735703e-02,1.740125436019974992e-02,-5.594481900334358215e-02,2.811611646970211403e-02,-3.337406937126732864e-02,-5.069651034930418299e-02,-3.016604900360107533e-01,1.121610807777306540e-01,-3.314794575703503693e-02,-2.016604900360107477e-01,1.872737288475036510e-01,1.529569029808044295e-02,5.309755689192495742e-01,7.281332015991210938e-01,-1.217694401741027832e+00,9.202320015928432895e+01,0.000000000000000000e+00
4.460899999999999865e-01,-4.755866025782908880e-03,2.532663777597509228e-02,9.846385717391967773e-01,2.109097729879791036e-02,2.580830209966356037e-03,-2.099616817662982443e-02,-2.037668181840918483e-02,2.792937693647344621e-02,-6.640323251485824585e-02,7.466434316438848307e-02,1.537764140308755557e-02,-6.566954726927851094e-02,-3.120577168624401598e-01,2.148853995580640719e-01,-9.037475052998050762e-02,-2.122693955898284912e-01,2.166257858276367243e-01,-3.159409761428833008e-02,5.291221370844744198e-01,5.734779834747314453e-01,-1.194799542427062988e+00,9.484098787118391272e+01,0.000000000000000000e+00
4.733280000000000265e-01,-4.958202355403336196e-03,2.514737084096114322e-02,9.833479523658752441e-01,1.975386397521797927e-02,8.500937268396402402e-03,-2.273670403041257171e-02,-1.793960862045331991e-02,2.560036229866173227e-02,-6.211525201797485352e-02,1.145737938487099844e-01,6.543610961181141328e-02,-7.865365964342393990e-02,6.392422373731079799e-02,2.615845256605451308e-01,-2.776755339586232108e-01,1.584781050682067816e-01,2.225728690624237116e-01,-2.138018131256103349e-01,5.311530517084743774e-01,6.926662921905517578e-01,-6.825636625289916992e-01,-1.071126043378382349e+02,0.000000000000000000e+00
4.998340000000000005e-01,-5.690446209571077552e-03,2.579285837064950598e-02,9.814971089363098145e-01,1.492091000329219541e-02,1.232153066756280779e-02,-2.368608571235039997e-02,-3.808284855691337206e-02,3.244125555898283442e-02,-6.486491113901138306e-02,1.347890693221140967e-01,1.100169928272414221e-01,-8.807212870564362639e-02,1.626105161268224797e-01,2.703244667397761147e-01,-2.861784448139743087e-01,2.199126005172729326e-01,2.233479917049407959e-01,-2.196438789367675670e-01,5.322653541376548558e-01,7.311111688613891602e-01,-1.405713438987731934e+00,1.713737151438511930e+01,0.000000000000000000e+00
5.219730000000000203e-01,-6.356728487958247450e-03,2.656559133606326700e-02,9.804082512855529785e-01,1.075228391845665411e-02,1.164089191034212156e-02,-2.300589743390030889e-02,-3.662570889518314277e-02,3.103089921907679211e-02,-5.182912200689315796e-02,1.399053270479167221e-01,1.467483905693646729e-01,-9.337525092561271833e-02,1.900456158545003327e-01,2.691806258674102614e-01,-2.851831947712238913e-01,2.214691400527954157e-01,2.230062961578369030e-01,-2.206003189086913896e-01,5.315167198098010859e-01,7.336945533752441406e-01,-1.197087168693542480e+00,9.070148342280599252e+01,0.000000000000000000e+00
5.483069999999999888e-01,-7.510537530690863071e-03,2.767798258325945837e-02,9.790915846824645996e-01,6.814523390496739393e-03,6.060614087334270650e-03,-2.034715440533393579e-02,-4.163035997849297981e-02,1.949509877548905035e-02,-3.819065913558006287e-02,1.260547770742144469e-01,1.654083266447101408e-01,-8.884960229661051367e-02,2.092646278483554223e-01,2.274439603665576459e-01,-2.760911266421853805e-01,2.229192495346069280e-01,2.223264276981353760e-01,-2.191065788269042913e-01,5.304952747050933892e-01,7.234544754028320312e-01,-1.154522061347961426e+00,1.282994345016784052e+02,0.000000000000000000e+00
5.707510000000000083e-01,-8.316765164900921312e-03,2.835457860842087799e-02,9.783497452735900879e-01,6.342918346853260864e-03,6.976227864583517402e-04,-1.779900147719912229e-02,-4.044621037814970232e-02,3.185722477680284076e-02,-3.205976262688636780e-02,1.032786066898321725e-01,1.695698574723679686e-01,-7.766036491347402815e-02,2.259633180135551533e-01,1.929060779818813909e-01,-2.578774733606411518e-01,2.241466999053955134e-01,2.217589437961578203e-01,-2.081205368041992021e-01,5.302269822120077025e-01,7.271790504455566406e-01,9.218752384185791016e-02,-1.266124733993336520e+02,0.000000000000000000e+00
5.999079999999999968e-01,-9.572967049055960617e-03,2.920245225968701869e-02,9.775398373603820801e-01,8.353151990915056238e-03,-9.091119527910418441e-03,-1.395571626139182307e-02,-4.962111997694429455e-02,2.056343719334269640e-02,-2.513523213565349579e-02,7.647663196226311966e-02,1.488344721305874807e-01,-5.796409526759129655e-02,2.042172925475939926e-01,1.228436470031738226e-01,-2.187778209854683020e-01,2.252986550331115556e-01,2.228436470031738281e-01,-1.799943208694458063e-01,5.298815375477133882e-01,7.300679683685302734e-01,-1.019193530082702637e+00,1.191591933920973077e+02,0.000000000000000000e+00
6.233469999999999844e-01,-1.038768008799130158e-02,2.973144583320666903e-02,9.771009683609008789e-01,1.104612213330435910e-02,-1.514659100610171727e-02,-1.141341983897577010e-02,-3.852941214870080067e-02,3.022873971995820516e-02,-1.824036613106727600e-02,5.039035069250965421e-02,1.139463690209419899e-01,-3.509001292019260643e-02,1.752309251313869942e-01,1.213599205017089622e-01,5.770487119053897829e-02,2.036461830139160156e-01,2.213599205017089677e-01,8.916388750076294223e-02,5.296819817953082321e-01,7.425740957260131836e-01,-1.203408122062683105e+00,9.063140568192164892e+01,0.000000000000000000e+00
6.469489999999999963e-01,-1.161534771811166371e-02,3.045713965477810092e-02,9.765564203262329102e-01,1.609060052191450124e-02,-2.270149540378674224e-02,-7.353990074349848680e-03,-4.288218396515187936e-02,1.619153735585506654e-02,-6.958845537155866623e-03,2.980381806231239411e-02,6.276820412306199914e-02,-1.087777767503964044e-02,-2.576959911900915112e-01,1.217535614967346080e-01,9.194730445725017576e-02,-1.846525847911834606e-01,2.217535614967346136e-01,1.117006659507751437e-01,5.287993998413172969e-01,7.352948188781738281e-01,7.766234874725341797e-02,-8.514226268373838025e+01,0.000000000000000000e+00
6.713059999999999583e-01,-1.247235027685495400e-02,3.085331888859822042e-02,9.762045741081237793e-01,1.985806518121279937e-02,-2.661787319077402181e-02,-5.435857972854914351e-03,-3.895669347460584825e-02,1.482965079801102683e-02,-2.940534614026546478e-02,1.415977768716136787e-02,5.767559330774785394e-03,1.371914560366057668e-02,-3.137418785913405062e-01,1.151982069015502763e-01,-2.206874937160344108e-01,-2.174600243568420299e-01,2.151982069015502819e-01,-2.065819501876831055e-01,5.299253653899352878e-01,7.042040824890136719e-01,-8.542696237564086914e-01,5.192032159853932427e+01,0.000000000000000000e+00
6.993570000000000064e-01,-1.350628775929474217e-02,3.124689870621746163e-02,9.755747318267822266e-01,2.475828767812753711e-02,-3.105370036164023517e-02,-4.854627637383849940e-03,-3.629762735423752718e-02,1.937128803527320489e-02,-2.964226529002189636e-02,8.637601163894930573e-03,-5.078265834730386757e-02,3.432351617220451290e-02,-3.039284586906433328e-01,-3.146826863288879617e-01,1.332589585451418868e-01,-2.039284586906432994e-01,-2.146826863288879284e-01,1.453041672706603948e-01,5.307138965782273177e-01,7.412199974060058594e-01,-1.377476096153259277e+00,-2.879322252170069163e+01,0.000000000000000000e+00
7.227219999999999756e-01,-1.404720971771715801e-02,3.133877127453160716e-02,9.750225543975830078e-01,2.543545731052103756e-02,-3.285380657264824755e-02,-4.470049086581785389e-03,-5.023070618254886488e-02,1.872944576043221107e-02,-3.542671352624893188e-02,8.409440703890175978e-03,-1.034168790784536496e-01,5.278470722168458751e-02,-3.034050703048706277e-01,-3.196649432182311901e-01,1.543788182684089627e-01,-2.034050703048705944e-01,-2.196649432182311845e-01,1.651630640029907171e-01,5.310670948095048693e-01,7.323465347290039062e-01,-8.343096971511840820e-01,-8.593335568397677093e+01,0.000000000000000000e+00
7.469639999999999613e-01,-1.495699468461175047e-02,3.166434351808940229e-02,9.739268422126770020e-01,2.123735681241306281e-02,-3.386443513671832939e-02,-2.888390035673610995e-03,-3.620427824349328055e-02,3.188193362985014545e-02,-5.674309656023979187e-02,1.298097401365078465e-02,-1.419088728370420660e-01,6.573013371108818448e-02,-2.825375858273052043e-01,-3.173924326896667703e-01,1.927460341840304681e-01,-1.912546098232269232e-01,-2.173924326896667369e-01,1.992816925048828125e-01,5.327358160616967320e-01,7.313203811645507812e-01,-1.274468779563903809e+00,-1.111990040654193166e+02,0.000000000000000000e+00
7.710770000000000124e-01,-1.553176320948055321e-02,3.190051858324235989e-02,9.730960726737976074e-01,1.630666676215977023e-02,-3.248514434913363225e-02,-3.609318130109739637e-03,-5.218569248738000321e-02,1.735710527060110864e-02,-4.521584138274192810e-02,1.729287577419357999e-02,-1.667025953867708188e-01,7.186995563744871807e-02,-2.410468827740174236e-01,-3.213891744613647239e-01,1.762529725872902242e-01,-1.687938094139098955e-01,-2.213891744613647461e-01,1.851559281349182129e-01,5.317751884404725571e-01,7.171502113342285156e-01,-1.149839758872985840e+00,2.787793960687854877e+01,0.000000000000000000e+00
7.967210000000000125e-01,-1.631092053094659877e-02,3.260503526603912572e-02,9.715074300765991211e-01,7.164667320357778930e-03,-2.574770633341860737e-02,-5.490483439010851105e-03,-3.112290746632345034e-02,3.143527015983318268e-02,-6.666877865791320801e-02,1.149160034489309437e-02,-1.626608671477455803e-01,6.927386536058886823e-02,-7.051831147387004062e-02,-2.054900288581848200e-01,2.032581359293161027e-01,-7.133722901344298484e-02,-1.054900288581848145e-01,2.180160999298095537e-01,5.335976121824307361e-01,7.216258049011230469e-01,-8.743890523910522461e-01,6.787742959415706423e+01,0.000000000000000000e+00
8.217980000000000285e-01,-1.678745422187676722e-02,3.345184602399150359e-02,9.704401493072509766e-01,1.313887597741919457e-03,-1.991489213169539418e-02,-7.070385852507072959e-03,-4.294365422326252429e-02,2.460632753654274849e-02,-5.353557690978050232e-02,1.218771971046972408e-04,-1.399097110893477991e-01,5.995541405526635254e-02,3.561486972615485885e-02,1.344013214111317023e-03,1.954064084291009251e-01,3.465199470520019618e-03,1.013440132141113226e-01,2.149213671684264970e-01,5.327969161885589555e-01,7.210083007812500000e-01,-1.194500327110290527e+00,1.081009873522524458e+02,0.000000000000000000e+00
8.484260000000000135e-01,-1.751572994784198617e-02,3.471896983987911994e-02,9.688471555709838867e-01,-6.649389360916467193e-03,-1.005794257922532076e-02,-1.025497074960927957e-02,-4.508830687949159227e-02,2.800678468443628527e-02,-5.079207569360733032e-02,-2.142893953546873981e-02,-9.388586661641175335e-02,4.131560107594600684e-02,1.114057814220924120e-01,1.154783725738525169e-01,2.270251308190793932e-02,2.300441265106201172e-02,2.154783725738525224e-01,5.140852332115173479e-02,5.331804541990767810e-01,7.424497604370117188e-01,-1.316924214363098145e+00,1.054419127460964347e+02,0.000000000000000000e+00
8.722879999999999523e-01,-1.807177256074756280e-02,3.553893535843900137e-02,9.678602814674377441e-01,-1.026843090904497151e-02,-4.396230083350438633e-03,-1.206597226993196340e-02,-4.071179345639806130e-02,2.982178977395281289e-02,-5.527170374989509583e-02,-4.701470504553238727e-02,-3.874994350564894136e-02,2.087961723583957666e-02,2.849017620086670144e-01,1.459845783724454393e-01,-2.507676124518898320e-01,1.849017620086669811e-01,2.152203440666198564e-01,-2.169378519058227373e-01,5.338641328663145114e-01,7.541396617889404297e-01,-1.354575753211975098e+00,1.014093895506884166e+02,0.000000000000000000e+00
8.971970000000000223e-01,-1.927957558598627011e-02,3.724980900786614008e-02,9.665167331695556641e-01,-1.209526477463210466e-02,8.816309825143697765e-04,-1.500158857810799523e-02,-4.984225813697453628e-02,3.157122895972787335e-02,-5.022007226943969727e-02,-7.301926572708383745e-02,1.504607079671836656e-02,-1.644854546426122079e-03,2.901704072952270286e-01,1.812758170267853020e-01,4.175958773921813194e-02,1.901704072952270508e-01,2.250939130783080888e-01,8.380554914474487582e-02,5.332867917181869366e-01,7.326052188873291016e-01,-1.046990275382995605e+00,7.006602710990425464e+01,0.000000000000000000e+00
9.222519999999999607e-01,-2.051827974698843329e-02,3.900222104916168525e-02,9.659528732299804688e-01,-1.096878698620744330e-02,1.535131266125810967e-03,-1.529859317274042015e-02,-5.056497101791200544e-02,3.262660664659999821e-02,-3.416207060217857361e-02,-9.701207277191566114e-02,6.246099215183196357e-02,-2.173177353359213512e-02,-1.000725150108337236e-01,1.866201180555522032e-01,1.585932202782692202e-01,-2.000725150108337291e-01,2.266698718070983831e-01,2.014547288417816162e-01,5.324125009512208351e-01,7.422759532928466797e-01,-1.187970042228698730e+00,8.464315344032887367e+01,0.000000000000000000e+00
9.481260000000000243e-01,-2.245831670872674990e-02,4.158250116660817952e-02,9.653402566909790039e-01,-5.937232659574362761e-03,-7.617863424513870996e-07,-1.435447899683746538e-02,-6.359334310773188947e-02,2.961124938903767281e-02,-2.729786746203899384e-02,-1.103023675369462497e-01,9.238899181466153632e-02,-3.397893055643409072e-02,-1.323830059259794578e-01,1.642207709932487769e-01,1.348913762445707321e-01,-2.211335062980651911e-01,2.260900676250457708e-01,1.750584304332733210e-01,5.320198328560482581e-01,7.420392036437988281e-01,-1.144849896430969238e+00,9.858008613984819135e+01,0.000000000000000000e+00
9.714249999999999829e-01,-2.373677142776381074e-02,4.326015872747797364e-02,9.650620818138122559e-01,-1.468698643399624646e-03,-2.436868039523476526e-03,-1.482271049034154450e-02,-5.322445845109013973e-02,3.890978326730924058e-02,-2.788776159286499023e-02,-1.139636591624229034e-01,1.105849698694105487e-01,-4.323731390015633780e-02,-1.544113266635372128e-01,1.569725409587879317e-01,1.123028392349273152e-01,-2.233448803424835094e-01,2.258384406566619762e-01,1.536919713020324652e-01,5.321931738850596005e-01,7.449935674667358398e-01,-3.376251459121704102e-01,1.534810169148164505e+02,0.000000000000000000e+00
9.971849999999999881e-01,-2.561503396190864187e-02,4.590277511400762955e-02,9.644697904586791992e-01,2.651320700985694816e-03,-6.625714513304403752e-03,-1.719362105251328113e-02,-6.055920380099921035e-02,4.252035299387044859e-02,-2.150948531925678253e-02,-1.016820760666886925e-01,1.126627116773680493e-01,-4.981309056678328434e-02,-1.771739932095420245e-01,1.248466491699218583e-01,3.758456336044919965e-02,-2.227376461029052790e-01,2.248466491699218639e-01,8.544681072235106589e-02,5.317772966787333022e-01,7.418551445007324219e-01,-1.038607239723205566e+00,-1.570436162651384109e+02,0.000000000000000000e+00
1.022534000000000054e+00,-2.758032199267706694e-02,4.742852041523700629e-02,9.640157222747802734e-01,2.795257840465658217e-03,-9.524054905778900348e-03,-1.875127468442710360e-02,-5.103917911265456325e-02,5.741807589454064192e-02,-3.382542729377746582e-02,-8.309853243789536159e-02,1.062377857351980148e-01,-5.458579874995851677e-02,-1.670795458683458912e-01,1.253264427185058483e-01,1.641982708171225991e-02,-2.241883456707000621e-01,2.253264427185058538e-01,6.856112480163574496e-02,5.328102360948838712e-01,7.444767951965332031e-01,-1.106248974800109863e+00,9.098493627336151235e+01,0.000000000000000000e+00
1.049050999999999956e+00,-2.955767567475997212e-02,4.903047473078929464e-02,9.634171724319458008e-01,1.696451545098933734e-03,-1.249535175006744048e-02,-2.007894935883361778e-02,-5.139886718801795623e-02,6.584660575294180862e-02,-2.924325503408908844e-02,-5.390102875396333981e-02,8.610249483568163664e-02,-6.002186616564325616e-02,-1.556014637387609922e-01,1.258088469505309892e-01,5.979564000941105240e-02,-2.257959902286529319e-01,2.258088469505309948e-01,1.155896008014678927e-01,5.326069187403471572e-01,7.454699277877807617e-01,-2.177985906600952148e-01,-7.572021992183359806e+00,0.000000000000000000e+00
1.076262999999999970e+00,-3.248776418921915654e-02,5.161866215772408645e-02,9.625034332275390625e-01,-2.572800361318605764e-03,-1.681728492493972382e-02,-2.178165992538922194e-02,-6.006000835071359512e-02,6.574666811034354796e-02,-3.367520123720169067e-02,-3.166766714391523740e-02,5.740137628291068495e-02,-6.356238729265271947e-02,-1.279136841988911810e-01,1.267787337303161455e-01,9.304203641247071888e-02,-2.263786017894744707e-01,2.267787337303161510e-01,1.536481261253356823e-01,5.330960621658158427e-01,7.474346160888671875e-01,-1.190647482872009277e+00,-4.646401814988546874e+00,0.000000000000000000e+00
1.099915999999999894e+00,-3.451768199984736607e-02,5.340598958706033184e-02,9.618677496910095215e-01,-5.884779597205585903e-03,-1.940593416565072893e-02,-2.239571643302890394e-02,-5.414402555064817824e-02,7.938505756386508849e-02,-4.998175799846649170e-02,-1.312345657671248368e-02,2.010657088000074311e-02,-6.130364605942487805e-02,2.632914543151855247e-01,1.272760152816772294e-01,1.635252004497746159e-01,1.632914543151855469e-01,2.272760152816772350e-01,2.258831799030303900e-01,5.344478528408672657e-01,7.501950263977050781e-01,-1.385645031929016113e+00,1.465507381527063160e+02,0.000000000000000000e+00
1.126730999999999927e+00,-3.710429631330419697e-02,5.663011894825803472e-02,9.608685970306396484e-01,-1.103326793350980703e-02,-2.366086395397926090e-02,-2.397264943920837318e-02,-7.175738656760077827e-02,7.643929612056744871e-02,-4.754050821065902710e-02,-2.359073728373945085e-03,-2.179584596815020009e-02,-5.826789522109765418e-02,2.518181800842285156e-01,1.551902294158927220e-03,1.359991689423866446e-01,1.518181800842285101e-01,1.015519022941589328e-01,2.029613971710204912e-01,5.329849814599466606e-01,6.705994606018066406e-01,-9.080990552902221680e-01,1.108113430186969026e+02,0.000000000000000000e+00
1.149423000000000084e+00,-3.878552154905492988e-02,5.895996439169631786e-02,9.601784348487854004e-01,-1.411339978004315723e-02,-2.649841088434978786e-02,-2.542893769658563508e-02,-5.957443647751158033e-02,8.493980763686138913e-02,-3.444280102849006653e-02,-2.785464298649312394e-03,-5.941456020958775508e-02,-5.403350449727552240e-02,2.744554877281188965e-01,-2.588387012481689342e-01,1.229531597008417798e-01,1.744554877281188909e-01,-1.588387012481689287e-01,1.940716266632080134e-01,5.325301052244749700e-01,6.908397674560546875e-01,-5.719257593154907227e-01,-8.830403238261814636e+01,0.000000000000000000e+00
1.171831999999999985e+00,-4.048679991751114038e-02,6.130994680168708189e-02,9.595235586166381836e-01,-1.575704321424081789e-02,-2.957821945126681840e-02,-2.721056463755299956e-02,-8.147349411898623106e-02,7.240798012589953758e-02,-2.479051053524017334e-02,-6.416694843489609452e-03,-9.359722873560831491e-02,-5.279273844248494330e-02,2.718188762664794922e-01,-3.132067918777465820e-01,1.292213893082830023e-01,1.718188762664794866e-01,-2.132067918777465765e-01,2.054977476596832331e-01,5.319498192644952494e-01,6.909346580505371094e-01,-6.639686822891235352e-01,1.010378819013530887e+02,0.000000000000000000e+00
1.198978000000000099e+00,-4.317173484344764833e-02,6.473149005102162012e-02,9.587058424949645996e-01,-1.351528985455088989e-02,-3.405632816689174724e-02,-3.037813375789400611e-02,-6.955191206922665959e-02,9.419251632279287967e-02,-3.302369266748428345e-02,-1.555887756030265370e-02,-1.167180566669310665e-01,-5.781838624190477338e-02,2.837363243103027122e-01,-3.179143905639648660e-01,1.254925142484598632e-01,1.837363243103027344e-01,-2.179143905639648326e-01,2.102846682071685680e-01,5.326760528463766464e-01,6.907894611358642578e-01,-1.095876336097717285e+00,9.187751222428795472e+01,0.000000000000000000e+00
1.225665999999999922e+00,-4.547046299010832487e-02,6.782744730324637150e-02,9.578772187232971191e-01,-7.723256269859584723e-03,-3.474751294997302509e-02,-3.375392434478852177e-02,-8.964840814931263058e-02,8.165430943639281902e-02,-3.107925318181514740e-02,-2.144277088491018668e-02,-1.282990012992480389e-01,-6.526549316338355056e-02,2.341643810272216741e-01,-3.214181423187255637e-01,1.183980411344241479e-01,1.341643810272216686e-01,-2.214181423187255859e-01,2.123319804668426514e-01,5.325162834229748565e-01,6.825249195098876953e-01,-5.458222627639770508e-01,-9.097501200849748670e+01,0.000000000000000000e+00
1.247154000000000096e+00,-4.685080819815399394e-02,6.979726206125189125e-02,9.572558999061584473e-01,-3.189635495833994649e-03,-3.190685247500590904e-02,-3.575113035896712588e-02,-7.258412566305789959e-02,9.542086781615471969e-02,-4.545383900403976440e-02,-2.526380252969042534e-02,-1.250157711538678607e-01,-7.276689588555228239e-02,2.152081012725829967e-01,-3.172260284423827903e-01,1.040547400386430399e-01,1.152081012725830050e-01,-2.172260284423828125e-01,2.032222688198089544e-01,5.337325102555164902e-01,6.856858730316162109e-01,-1.191239476203918457e+00,-3.909751911114872769e+01,0.000000000000000000e+00
1.272097000000000033e+00,-4.888834635789680860e-02,7.280171525533121746e-02,9.562328457832336426e-01,5.092118988049006839e-03,-2.431103191098582528e-02,-3.923015418554983563e-02,-8.124164453285473431e-02,9.440883298171745541e-02,-3.706293925642967224e-02,-1.853045283637217919e-02,-1.049091987914410884e-01,-7.992965755937821160e-02,1.968656691421958038e-01,-2.941174030303955189e-01,5.144129395484922651e-02,1.140950918197631836e-01,-1.941174030303955134e-01,1.514412939548492321e-01,5.332659565436336235e-01,6.846735477447509766e-01,-1.142975926399230957e+00,1.151515662362139949e+02,0.000000000000000000e+00
1.299357000000000095e+00,-5.095327151817727329e-02,7.574947277950275226e-02,9.550316333770751953e-01,1.413153953609782784e-02,-1.439460616677989968e-02,-4.281905780996130007e-02,-8.533339252595704971e-02,8.518557626784148407e-02,-3.993898630142211914e-02,-2.819286040131102709e-03,-6.982294631139528140e-02,-8.425289453745869739e-02,1.339502953528290408e-01,-5.702178478240967768e-02,-2.103117108345033126e-02,1.156555294990539440e-01,4.297821521759032787e-02,7.896882891654967429e-02,5.339550751082907665e-01,7.023434638977050781e-01,-8.122700452804565430e-01,8.270274450845244019e+01,0.000000000000000000e+00
1.322291000000000105e+00,-5.233190866586379802e-02,7.764454228081456300e-02,9.541863799095153809e-01,1.965920403248930248e-02,-7.124884657719876557e-03,-4.461127566310447989e-02,-8.582892239702198667e-02,9.683383246870029548e-02,-5.004809796810150146e-02,2.671075849556605458e-02,-2.624842834781947534e-02,-8.674534967344955938e-02,4.659889596295788139e-02,8.642597198486326460e-02,-1.131769418716431497e-02,5.292971134185790738e-02,1.864259719848632701e-01,8.868230581283569058e-02,5.351203389651288944e-01,7.178523540496826172e-01,-1.042149186134338379e+00,1.033847007492236116e+02,0.000000000000000000e+00
1.349415000000000031e+00,-5.449980430493294586e-02,8.031235116904596183e-02,9.530109167098999023e-01,2.811459081079725406e-02,3.138171968252168043e-03,-4.700387203029524757e-02,-8.862779150951871632e-02,8.081105388632120468e-02,-3.060158528387546539e-02,6.562684126300694087e-02,1.926098113043335849e-02,-8.994871974727206010e-02,-2.568966657958057787e-01,1.299212545657512929e-01,1.125114560127258301e-01,-1.830020427703857311e-01,2.167866826057434082e-01,2.125114560127258356e-01,5.327480328894721451e-01,6.559278964996337891e-01,-1.409278273582458496e+00,8.856285557102661699e+01,0.000000000000000000e+00
1.372592000000000034e+00,-5.593719962709226695e-02,8.206300806179263330e-02,9.522423744201660156e-01,3.293263170178806903e-02,8.882425851936881500e-03,-4.818260197134872913e-02,-8.048439277812491355e-02,8.875104414636326988e-02,-2.857962436974048615e-02,1.083540014693627346e-01,6.493949853091371405e-02,-9.235534239704010218e-02,7.549736086949486447e-02,1.750069491196254989e-01,-6.505519747734070379e-02,1.707889080047607366e-01,2.199652254581451472e-01,3.494480252265930176e-02,5.337271828081954217e-01,7.106423377990722656e-01,-1.098240256309509277e+00,9.531399213158563555e+01,0.000000000000000000e+00
1.396296999999999899e+00,-5.747309781575142551e-02,8.371296712572810772e-02,9.515349864959716797e-01,3.716161114628662582e-02,1.230302381026859848e-02,-4.903824172862261688e-02,-8.117961229006573354e-02,8.365799459545587846e-02,-4.107785224914550781e-02,1.526272360274867623e-01,1.057844819627190847e-01,-9.382446439147820727e-02,1.104331374168395774e-01,1.964113703488221396e-01,-2.543496131896972878e-01,2.104331374168395830e-01,2.222300648689269909e-01,-1.543496131896972545e-01,5.351508711722087197e-01,7.325325012207031250e-01,-1.164179921150207520e+00,1.571852880489028337e+02,0.000000000000000000e+00
1.422892999999999963e+00,-5.979735205329624742e-02,8.654357053199389360e-02,9.505121111869812012e-01,3.953089644505809047e-02,1.362396160046963622e-02,-5.103859688100030600e-02,-8.134224759785943504e-02,8.410079989391731903e-02,-3.337246552109718323e-02,1.879861166876709011e-01,1.370474686876940185e-01,-9.363730530769703853e-02,1.134131073951721025e-01,2.032522935360733529e-01,-2.942036628723144753e-01,2.134131073951721080e-01,2.231412291526794489e-01,-1.942036628723144420e-01,5.349076061861082199e-01,7.411015033721923828e-01,-6.626633405685424805e-01,8.637924409337354348e+01,0.000000000000000000e+00
1.451829000000000036e+00,-6.150609192047278018e-02,8.882624004450088984e-02,9.499108195304870605e-01,3.993946532444834358e-02,1.223964641062180725e-02,-5.151055885204261497e-02,-8.204807086015407369e-02,8.176650044253551408e-02,-2.456414699554443359e-02,2.090854576597994396e-01,1.621145652625716749e-01,-9.011831761877311942e-02,1.126847982406616044e-01,1.923414177583777085e-01,-3.047569036483764870e-01,2.126847982406616100e-01,2.235720098018646185e-01,-2.047569036483764537e-01,5.344489106371125287e-01,7.443946599960327148e-01,-9.560307264328002930e-01,9.024831403175397782e+01,0.000000000000000000e+00
1.481757999999999909e+00,-6.324733470343121833e-02,9.099073154532097418e-02,9.493781328201293945e-01,3.998136384854171499e-02,9.298721479654936672e-03,-5.077103031044003650e-02,-8.170941872953953189e-02,7.173063516212400959e-02,-2.259266003966331482e-02,2.140615215533919480e-01,1.744953164333301054e-01,-8.301212847947893325e-02,1.050261974334716630e-01,1.727046381622072968e-01,-3.091785073280334251e-01,2.050261974334716686e-01,2.239280641078948975e-01,-2.091785073280334473e-01,5.344125558542394128e-01,7.446513175964355469e-01,-1.216375827789306641e-02,-4.636350167096497188e+01,0.000000000000000000e+00
1.502712999999999965e+00,-6.412974999682233279e-02,9.202125137270311672e-02,9.491645097732543945e-01,4.042320596249587145e-02,7.389637740187637860e-03,-5.007063476961997467e-02,-9.842019865291511127e-02,6.976004196739610252e-02,-1.456937845796346664e-02,2.094579910607182460e-01,1.762448061598755333e-01,-7.484958299364694034e-02,1.003824353218078502e-01,1.458710033136922379e-01,-3.010580658912658802e-01,2.003824353218078558e-01,2.239365220069885198e-01,-2.010580658912658747e-01,5.339212139322716544e-01,7.444156408309936523e-01,-7.694684267044067383e-01,-1.970614589707167630e+00,0.000000000000000000e+00
1.527694000000000107e+00,-6.590241311450723005e-02,9.398687248945822303e-02,9.487769007682800293e-01,4.095691097077498039e-02,2.941392156533328972e-03,-4.816465097249467142e-02,-7.825931819137656176e-02,6.851878747883119458e-02,-1.656396500766277313e-02,1.919424595847008252e-01,1.572152348945959621e-01,-6.285087338637665444e-02,-1.512238979339600164e-02,1.345489486949355273e-01,-3.057745695114135742e-01,8.487761020660400391e-02,2.245766043663024736e-01,-2.057745695114135687e-01,5.341152886991089588e-01,7.430424690246582031e-01,-6.775389909744262695e-01,4.812257932566132013e+01,0.000000000000000000e+00
1.549994000000000094e+00,-6.766788953557364983e-02,9.578131320478376620e-02,9.484887719154357910e-01,4.210738498270157060e-02,-1.824524141032179969e-03,-4.598904329410270775e-02,-9.388629313948124167e-02,5.399881900500300147e-02,-1.747458591125905514e-03,1.686371521170578203e-01,1.198382362527389694e-01,-4.710884538803926380e-02,-2.926015079021453968e-01,1.244267046451568437e-01,-1.868751764297485463e-01,-1.926015079021453913e-01,2.244267046451568492e-01,-8.687517642974852683e-02,5.328297407399320562e-01,7.266800403594970703e-01,-1.019433140754699707e+00,9.065981926886891529e+01,0.000000000000000000e+00
1.573663999999999952e+00,-7.042103231967943022e-02,9.855958588016415500e-02,9.483088254928588867e-01,4.414954477224466295e-02,-8.678079153872531037e-03,-4.239933251063504605e-02,-8.228415373202761784e-02,6.094135963481638052e-02,-3.400677116587758064e-03,1.452269270865746420e-01,6.935876627900354474e-02,-2.804478933781653915e-02,-3.195026159286499245e-01,1.217542767524719127e-01,1.014177143573760931e-01,-2.195026159286498912e-01,2.217542767524719183e-01,2.014177143573760986e-01,5.323682379912805240e-01,6.912879943847656250e-01,-4.418038129806518555e-01,4.400381133160355063e+01,0.000000000000000000e+00
1.596786000000000039e+00,-7.316519389506839777e-02,1.010252251358920439e-01,9.483041763305664062e-01,4.615659144438195166e-02,-1.468481209195071635e-02,-3.813473239200844411e-02,-8.404688826602393914e-02,4.484607283133498767e-02,6.977761222515255213e-05,1.201780839868502870e-01,1.487628982666153177e-02,-6.728406827232658385e-03,-3.234964430332183949e-01,1.156530201435088945e-01,1.043840408325195090e-01,-2.234964430332183893e-01,2.156530201435089000e-01,2.043840408325195146e-01,5.320180991076318699e-01,6.834754943847656250e-01,-9.297493696212768555e-01,4.448216363012539887e+01,0.000000000000000000e+00
1.620868999999999893e+00,-7.592101853808307099e-02,1.031885874985779966e-01,9.482585787773132324e-01,4.660105745496526813e-02,-1.971007603868124569e-02,-3.410067836629161742e-02,-8.532907661872711491e-02,3.412841092952521860e-02,7.787765935063362122e-03,9.596285424310230239e-02,-3.713905915398044849e-02,1.441127099163510769e-02,-3.220715820789337158e-01,-1.308469772338867188e-01,1.199308377650577795e-01,-2.220715820789337103e-01,-3.084697723388671667e-02,2.120388507843017634e-01,5.322824928730429672e-01,7.261440753936767578e-01,-1.025925278663635254e+00,7.078708335039333122e+01,0.000000000000000000e+00
1.650309999999999944e+00,-7.939969853654176013e-02,1.053254357834228355e-01,9.480011463165283203e-01,4.038027138364435470e-02,-2.389563296010188687e-02,-3.261121733966436398e-02,-8.816936576608951082e-02,2.831254856120972441e-02,-9.837518446147441864e-03,6.362574341778196030e-02,-8.014374542718184780e-02,3.068132848318448277e-02,-3.082872271537780984e-01,-3.218928933143615501e-01,-1.473320469931603816e-01,-2.082872271537780651e-01,-2.218928933143615723e-01,-5.942051410675048412e-02,5.335292231491858272e-01,7.208015918731689453e-01,-9.779194593429565430e-01,4.234467983503200372e+01,0.000000000000000000e+00
1.675861999999999963e+00,-8.199380797970887147e-02,1.064946802215618604e-01,9.474221467971801758e-01,3.158317897470576396e-02,-2.640093726438785815e-02,-3.354351020580730036e-02,-7.606241149054344952e-02,3.834255610209050258e-02,-1.423186808824539185e-02,2.623876898613588388e-02,-1.073951728555246621e-01,4.006188871987069466e-02,-2.479158790895003572e-01,-3.199294805526733398e-01,-2.369196472215189253e-01,-1.532956659793853760e-01,-2.199294805526733343e-01,-1.460418105125427246e-01,5.334908429527419615e-01,6.956499814987182617e-01,-6.927183866500854492e-01,7.599734289457582292e+01,0.000000000000000000e+00
1.699556000000000067e+00,-8.462959249276745533e-02,1.076077727236649934e-01,9.467570185661315918e-01,2.048406204036650261e-02,-2.676953329321740682e-02,-3.428189895695754608e-02,-9.547115888939175510e-02,2.974892520759367734e-02,-1.374799292534589767e-02,-1.621972189644028256e-02,-1.227417028107558733e-01,4.346320165415611808e-02,-1.847217424341993930e-01,-3.193619608879089133e-01,-4.635857716180968174e-02,-1.546087503433227484e-01,-2.193619608879089355e-01,4.717998504638671459e-02,5.325796277371460663e-01,6.407743692398071289e-01,-1.092362523078918457e+00,9.755426685859313807e+01,0.000000000000000000e+00
1.723519999999999941e+00,-8.644433938286584518e-02,1.083428659013977308e-01,9.462931752204895020e-01,1.279881302168832044e-02,-2.453864410559147835e-02,-3.295071253849592846e-02,-7.762593243084114913e-02,4.321426758974000748e-02,-3.784855827689170837e-02,-5.866526475655607642e-02,-1.235832348763292038e-01,4.554860145632415314e-02,8.501070413401679016e-02,-3.075344920158386008e-01,-1.452950413132449159e-02,5.268545150756835660e-02,-2.075344920158386230e-01,7.587422132492065152e-02,5.346724552476601611e-01,6.546078920364379883e-01,-1.694052040576934814e+00,9.219397537910215590e+01,0.000000000000000000e+00
1.747970000000000024e+00,-8.871867239770445113e-02,1.091717247767435978e-01,9.455983042716979980e-01,2.097712157212377072e-03,-1.779582732801832101e-02,-3.063909840997463413e-02,-9.454487980298884042e-02,3.081129528004522902e-02,-1.682027243077754974e-02,-1.019152621465794495e-01,-1.102201947639001034e-01,4.890038737402578606e-02,2.207078265409701257e-01,-2.580115079879760631e-01,3.310670245443701754e-02,1.296353101730346735e-01,-1.580115079879760576e-01,1.178813695907592746e-01,5.334789311608276741e-01,6.651351451873779297e-01,-9.537478685379028320e-01,9.242694630150211310e+01,0.000000000000000000e+00
1.770790000000000086e+00,-9.024502860201653875e-02,1.096565914659744234e-01,9.452400207519531250e-01,-3.809333770314874204e-03,-1.235769774419370748e-02,-2.979030790263598530e-02,-8.097364979566853971e-02,3.256737259803876156e-02,-1.183577161282300949e-02,-1.402314859368435918e-01,-8.304983442998163656e-02,5.119049668290935606e-02,2.506152272224426159e-01,3.846020698547361616e-02,1.782981004229661215e-02,1.506152272224426103e-01,1.384602069854736217e-01,1.006506979465484619e-01,5.340054062139605318e-01,7.095222473144531250e-01,-9.643701314926147461e-01,3.214580721542311004e+00,0.000000000000000000e+00
1.798483999999999972e+00,-9.248749053515846474e-02,1.103261023535597324e-01,9.448509812355041504e-01,-8.249956297730055149e-03,-4.049865055699486405e-03,-2.913040543445233679e-02,-8.509296936608390372e-02,2.008501514858790013e-02,8.013294063857756555e-06,-1.700121259678381846e-01,-4.193298284605745385e-02,5.161509582895346115e-02,2.969404458999633789e-01,1.124339222908019853e-01,-2.840704363887072148e-01,1.969404458999633734e-01,2.124339222908019909e-01,-2.027656316757202037e-01,5.338153021357832095e-01,7.415539026260375977e-01,-1.143571019172668457e+00,3.607980151695910820e+01,0.000000000000000000e+00
1.820732999999999935e+00,-9.398920243999198121e-02,1.106589353678537890e-01,9.447471499443054199e-01,-7.753055765057284901e-03,1.108346197229215235e-03,-2.910873110722049170e-02,-8.900343976510687038e-02,2.180479889096282112e-02,-8.136567659676074982e-03,-1.919072558513385540e-01,5.781462978211407075e-03,4.608552985998578405e-02,2.918658494949341042e-01,1.191512107849120872e-01,-3.015210662899303617e-01,1.918658494949340709e-01,2.191512107849120927e-01,-2.202605724334716630e-01,5.344148051164132607e-01,7.384361028671264648e-01,-7.396236658096313477e-01,4.813026841111946119e+00,0.000000000000000000e+00
1.846038999999999985e+00,-9.574273229588915746e-02,1.109725534487921994e-01,9.448205828666687012e-01,-4.586272721512176138e-03,4.504623797506379645e-03,-2.852849784426797833e-02,-9.356610950857113806e-02,2.605518690608941978e-02,5.463741254061460495e-03,-2.051632451743735097e-01,5.333374304331522930e-02,3.716194710068414231e-02,2.167754769325256348e-01,1.211061120033264105e-01,-2.959185396114251132e-01,1.167754769325256292e-01,2.211061120033264160e-01,-2.163459420204162653e-01,5.333550560543001140e-01,7.311296463012695312e-01,-1.013871550559997559e+00,7.638245628073781290e+01,0.000000000000000000e+00
1.872573999999999961e+00,-9.883119152576461119e-02,1.113569184189566463e-01,9.450238943099975586e-01,2.801495998289357629e-03,6.157897665398648357e-03,-2.486195812922300380e-02,-1.030044966295419057e-01,2.201900680983859618e-02,1.876701787114143372e-02,-2.008247694235973935e-01,9.100307302049066849e-02,2.978190001829634712e-02,-1.402266280361640083e-02,1.225121974945068137e-01,-2.299332716866270832e-01,-9.982305765151977539e-02,2.225121974945068193e-01,-1.607935309410095104e-01,5.320952752148851994e-01,7.129534482955932617e-01,-7.973772287368774414e-01,9.512299272163539854e+01,0.000000000000000000e+00
1.900695999999999941e+00,-1.019484322096615575e-01,1.117764271483188965e-01,9.455209970474243164e-01,1.150376808786102330e-02,4.789225920741380094e-03,-1.977998152321277722e-02,-9.259417633123141755e-02,2.800660992678110847e-02,2.371282875537872314e-02,-1.747519281434320448e-01,1.133529651630700019e-01,3.044567989365160043e-02,-1.390703500910424883e-01,1.210322082042694092e-01,-1.484340475694360117e-01,-1.752917647361755260e-01,2.210322082042694147e-01,-9.376809597015380027e-02,5.317164337964316312e-01,7.122620344161987305e-01,-6.558510065078735352e-01,-1.010780434136727592e+02,0.000000000000000000e+00
1.922433000000000058e+00,-1.039797654509830166e-01,1.121104075472922207e-01,9.459029436111450195e-01,1.597577371721671177e-02,3.409206101328887684e-03,-1.642613244359295704e-02,-9.884570078806573235e-02,2.323148922170519340e-02,2.219180949032306671e-02,-1.348277827721735267e-01,1.244918469012177703e-01,4.037367773414572703e-02,-2.162986304609955945e-01,1.219860374927520530e-01,-9.748356456479860543e-02,-2.197807431221008301e-01,2.219860374927520585e-01,-5.242438316345214566e-02,5.323684065468777815e-01,7.416301965713500977e-01,-9.617372751235961914e-01,9.756438919894310402e+01,0.000000000000000000e+00
1.948015999999999970e+00,-1.074259290632307989e-01,1.122391289282450993e-01,9.463641643524169922e-01,1.971106030571732545e-02,9.937714822505494539e-04,-1.161651418146251481e-02,-9.284200398250780362e-02,2.852797087497339207e-02,1.970678754150867462e-02,-8.514834849531856265e-02,1.240861001397118440e-01,5.768350304077135560e-02,-2.407917905982046025e-01,1.225513935089111162e-01,5.374971726169854025e-02,-2.260529637336730902e-01,2.225513935089111217e-01,8.511296510696410300e-02,5.327088015972524238e-01,7.505736351013183594e-01,-1.071178317070007324e+00,9.292699811101708463e+01,0.000000000000000000e+00
1.970861999999999892e+00,-1.097658101567085959e-01,1.122412168559595302e-01,9.464929103851318359e-01,1.944498962428830441e-02,-7.148700208794434019e-04,-8.991749368540599349e-03,-8.675190324020562449e-02,3.720839492243187274e-02,1.502634026110172272e-02,-3.597418956128356493e-02,1.163746757506736451e-01,7.375691367996591030e-02,-2.332435777856686765e-01,1.230421304702758734e-01,-7.761760794114902495e-02,-2.270671963691711370e-01,2.230421304702758789e-01,-5.369918346405028881e-02,5.330383831918203974e-01,7.485835552215576172e-01,-1.285353302955627441e+00,1.018444862611965647e+02,0.000000000000000000e+00
1.997489000000000070e+00,-1.131947630234716035e-01,1.123441215511865043e-01,9.465897083282470703e-01,1.573404743298692510e-02,-3.874033974827773008e-03,-6.222383787788436649e-03,-9.221274696916612057e-02,3.636042152563663532e-02,8.869011886417865753e-03,2.993776193380621488e-03,9.808271436939568211e-02,8.480839949004474743e-02,-2.101700970141485991e-01,1.250532865524291715e-01,-2.440939229751710182e-01,-2.269085526466369518e-01,2.250532865524291770e-01,-2.280056476593017578e-01,5.326095732054054732e-01,6.984027624130249023e-01,-8.730670213699340820e-01,1.278498168089948166e+02,0.000000000000000000e+00
2.021421000000000134e+00,-1.154385755323042023e-01,1.124808530205549523e-01,9.464936852455139160e-01,1.150695083483455929e-02,-5.798123139092226097e-03,-4.664295967092960994e-03,-8.683393632378383353e-02,3.991731538279961328e-02,-1.832780428230762482e-03,3.243203762361282494e-02,7.286657263570628373e-02,9.269891118749476466e-02,-1.691044110893996089e-01,1.240413248538970725e-01,-2.393644791541180705e-01,-2.167514562606811523e-01,2.240413248538970781e-01,-2.275522112846374290e-01,5.339939090338778893e-01,7.291800975799560547e-01,-7.185653448104858398e-01,3.169172940921149362e+01,0.000000000000000000e+00
2.045720000000000205e+00,-1.177067324513280805e-01,1.133335577257568449e-01,9.463696479797363281e-01,6.757744564763125579e-03,-8.013466231136190387e-03,-2.458809240360639546e-03,-8.611322870695274634e-02,4.618326098691995230e-02,9.562276303768157959e-03,4.700812705748221715e-02,3.842014181897958347e-02,9.731479108252219512e-02,8.041131541741913802e-02,1.006893515586853027e-01,-2.205661904862307454e-01,-4.136502742767333984e-03,2.006893515586853083e-01,-2.148676872253418024e-01,5.332629932480403845e-01,7.307965755462646484e-01,-6.965242624282836914e-01,1.287621934783251163e+02,0.000000000000000000e+00
2.071846999999999994e+00,-1.212041180429812570e-01,1.156368559024959497e-01,9.462354779243469238e-01,-1.312086040027445836e-03,-1.180357992104186238e-02,2.473745619251413886e-03,-1.009703010930949607e-01,4.606090698948350770e-02,-3.021461598109453917e-04,4.377027143789944535e-02,1.790656423628994576e-03,1.049317237477556813e-01,2.519717454910278542e-01,-1.758460402488709606e-02,-1.495570039026384301e-01,1.519717454910278209e-01,8.241539597511290949e-02,-1.574688434600829967e-01,5.336062767581688515e-01,7.064356803894042969e-01,-1.095853209495544434e+00,1.022924032367768348e+02,0.000000000000000000e+00
2.096963999999999828e+00,-1.235515523726419401e-01,1.172034968368458885e-01,9.462093710899353027e-01,-6.357458870250217234e-03,-1.441429582482744998e-02,6.250559798185526504e-03,-9.173092194589405057e-02,4.959543552211895245e-02,2.629474736750125885e-03,2.872087212751449695e-02,-3.481714478045490335e-02,1.153511807226303976e-01,2.516600370407104381e-01,-2.312120199203491211e-01,-7.816185012762201512e-02,1.516600370407104326e-01,-1.312120199203491155e-01,-9.644708633422850730e-02,5.331451620314376916e-01,6.902453899383544922e-01,-1.661677479743957520e+00,1.415116021679893379e+02,0.000000000000000000e+00
2.122008000000000116e+00,-1.271282740393712418e-01,1.195554584521871799e-01,9.463344812393188477e-01,-1.086063727818951247e-02,-1.842287096168804261e-02,1.162335337947685739e-02,-1.046191875836306184e-01,5.084812572516340251e-02,7.674823515117168427e-03,-9.921348581097195508e-04,-6.461113967040230111e-02,1.257419975640057808e-01,3.049650430679321511e-01,-3.062570095062255859e-01,1.903456001647814977e-01,2.049650430679321178e-01,-2.062570095062255804e-01,1.571538269519805742e-01,5.329055905188553321e-01,6.939883232116699219e-01,-7.289592027664184570e-01,-3.862486660548925954e+01,0.000000000000000000e+00
2.147886000000000184e+00,-1.305682711532009099e-01,1.214988819159101147e-01,9.465577602386474609e-01,-1.076109019926266633e-02,-2.095645557178138496e-02,1.658574703527182850e-02,-9.624430407196220283e-02,4.787060034808385267e-02,2.973047550767660141e-03,-3.568290779487699738e-02,-8.355064921571024594e-02,1.330652076159456187e-01,3.087217092514037975e-01,-3.108256340026855358e-01,2.459022708773681010e-01,2.087217092514037919e-01,-2.108256340026855302e-01,1.987950503826141357e-01,5.329923801940533723e-01,6.790161132812500000e-01,-1.321003556251525879e+00,-4.736829677618107581e+00,0.000000000000000000e+00
2.171914999999999818e+00,-1.325763917007119763e-01,1.222921387974511137e-01,9.467008113861083984e-01,-8.002339466741458657e-03,-2.034466205325013988e-02,1.845886338517108843e-02,-9.119320844881030619e-02,5.560595488040855766e-02,1.268407888710498810e-02,-6.446699600670477426e-02,-9.223216796609533252e-02,1.351605160085236068e-01,3.078244566917419656e-01,-3.103341817855834739e-01,2.401835810488073542e-01,2.078244566917419323e-01,-2.103341817855834961e-01,1.875825762748718206e-01,5.323994761342766280e-01,6.828968524932861328e-01,-1.114642620086669922e-02,1.091571804847465330e+02,0.000000000000000000e+00
2.199151000000000078e+00,-1.353826063802253121e-01,1.234407189329424226e-01,9.468467235565185547e-01,-1.386648980248342874e-03,-1.538912595903463298e-02,1.845918479631792133e-02,-8.738914487888391203e-02,3.976219333276991702e-02,6.758334580808877945e-03,-7.826625412761252509e-02,-8.569615561498601652e-02,1.293492222688021887e-01,2.816444516181945690e-01,-2.949295759201049916e-01,1.689873959006611415e-01,1.816444516181945634e-01,-1.949295759201049860e-01,1.162110328674316323e-01,5.328357541498924821e-01,6.824473142623901367e-01,-1.062875866889953613e+00,4.283767947422893485e+01,0.000000000000000000e+00
2.223567000000000071e+00,-1.371447778128773165e-01,1.242538910539678076e-01,9.468413591384887695e-01,4.426476071012889514e-03,-9.796181517883972845e-03,1.794870264512052338e-02,-7.913539047446876973e-02,5.507060237837325262e-02,5.106817465275526047e-03,-7.818131899834107612e-02,-6.840661357849435464e-02,1.192432774065970841e-01,2.337000012397766058e-01,-2.283799648284912109e-01,7.768833506857779347e-02,1.337000012397766002e-01,-1.283799648284912054e-01,2.610270380973815987e-02,5.330910019715378034e-01,6.869225502014160156e-01,-9.973655939102172852e-01,7.872079886384835845e+01,0.000000000000000000e+00
2.252426999999999957e+00,-1.388666051305556259e-01,1.250612161433948544e-01,9.467281103134155273e-01,1.048633668013942977e-02,-3.725195626568478247e-03,1.719736826288198461e-02,-7.977021101975075024e-02,4.887202165484470090e-02,-2.420158416498452425e-04,-5.964414204071728787e-02,-4.152468233666421066e-02,1.083664172863069847e-01,1.239097109662325724e-01,-5.674648284912110069e-02,6.093837744180683608e-02,4.974081516265869279e-02,4.325351715087890486e-02,1.145585775375366176e-02,5.337539003596077913e-01,6.992788314819335938e-01,-1.168482184410095215e+00,6.926664909020263394e+01,0.000000000000000000e+00
2.273559999999999803e+00,-1.401664339769519430e-01,1.258928762144828351e-01,9.464913010597229004e-01,1.691557258032493766e-02,3.053136024328884091e-03,1.656825127956827737e-02,-7.790486177057806549e-02,4.619681873146867096e-02,-5.432412726804614067e-04,-2.712684534273469145e-02,-7.673308839788370132e-03,9.552075880608065783e-02,-6.064041720185861517e-02,8.099823594093322199e-02,8.898746268576560037e-02,-9.294784069061279297e-02,1.809982359409332275e-01,4.136829972267151018e-02,5.341732841878075178e-01,7.175571918487548828e-01,-9.209302663803100586e-01,1.708512534836693817e+02,0.000000000000000000e+00
2.296924999999999883e+00,-1.414556250853907238e-01,1.267254629534358412e-01,9.461892247200012207e-01,2.338737850751202232e-02,9.802004566807021035e-03,1.634701649409804960e-02,-7.135774407550968257e-02,5.715662992397594483e-02,-1.206873543560504913e-02,1.480803984875908065e-02,3.163707837707217807e-02,8.323569918748603691e-02,-2.152819093931729599e-01,1.240221485924513367e-01,-1.808219921310577349e-01,-2.153126478195190319e-01,2.237940967082977239e-01,-2.275964140892028642e-01,5.349615901353396152e-01,7.106368541717529297e-01,-9.518879652023315430e-01,1.097878255111921533e+02,0.000000000000000000e+00
2.325546999999999809e+00,-1.432670411620913797e-01,1.279427825395481610e-01,9.455972313880920410e-01,3.229272595623570996e-02,1.875643136991711479e-02,1.684622997458637764e-02,-7.861766239564121905e-02,4.288787976641188909e-02,-1.010021008551120758e-02,6.679266580309384249e-02,7.364002429239743797e-02,7.095076463446184367e-02,-2.900167433848642728e-01,1.750281114535069682e-01,-1.799090303718283712e-01,-2.211534261703491100e-01,2.249866068363189642e-01,-2.276557445526122825e-01,5.350604240032844627e-01,7.183843851089477539e-01,-9.765418767929077148e-01,9.075282595479697534e+01,0.000000000000000000e+00
2.348462000000000049e+00,-1.444585362411468787e-01,1.286853845680443753e-01,9.451740384101867676e-01,3.658006992417863618e-02,2.281485179512521277e-02,1.697688234680075001e-02,-7.120411371743876061e-02,5.081979798151551458e-02,-5.165300797671079636e-03,1.183994510489907448e-01,1.137879128758187697e-01,5.670072838721129660e-02,-6.809841411721692661e-02,2.063206194461735810e-01,-1.686651503459875856e-01,1.914249658584594657e-02,2.244238078594207597e-01,-2.164329528808593694e-01,5.350319748851706247e-01,7.314517498016357422e-01,-7.245563268661499023e-01,6.953635960014810280e+01,0.000000000000000000e+00
2.376100000000000101e+00,-1.466674341992940389e-01,1.297793000348998471e-01,9.445950984954833984e-01,3.882717998223392947e-02,2.522108378665843809e-02,1.955894183842575573e-02,-6.640230157894615182e-02,4.530570467073641999e-02,-1.039386633783578873e-02,1.591519540943619748e-01,1.476358517115454183e-01,4.418150801113575332e-02,7.931740283966062788e-02,2.227364155062873385e-01,-6.345639835887550984e-02,1.793174028396606334e-01,2.239098966121673417e-01,-1.182364225387573242e-01,5.356313242113103223e-01,7.386181354522705078e-01,-1.289527773857116699e+00,9.473294793889265009e+01,0.000000000000000000e+00
2.398308999999999802e+00,-1.482334540557569413e-01,1.304765943585821375e-01,9.441706538200378418e-01,3.748910932410540880e-02,2.522530709363279833e-02,2.216246606763032714e-02,-7.235208309346655153e-02,5.446808799798573408e-02,-6.769199389964342117e-03,1.854046011388134629e-01,1.731338289519796514e-01,3.305613395626363915e-02,1.193285116796551915e-01,2.158567267845361293e-01,2.139230978551958512e-02,2.067489981651306208e-01,2.235916078090667558e-01,-4.076431989669799388e-02,5.355334014184883751e-01,7.416212558746337891e-01,-1.042132019996643066e+00,9.436164519523242689e+01,0.000000000000000000e+00
2.425841000000000136e+00,-1.504604004672571438e-01,1.315102700416397874e-01,9.436104297637939453e-01,3.233616068636931823e-02,2.265965932958935447e-02,2.600504799443579054e-02,-6.198894705563123830e-02,5.331339813277272827e-02,-1.747225038707256317e-02,1.885334240668150030e-01,1.834288569692005821e-01,2.711565188921718356e-02,1.602598531980879148e-01,2.066091581346272132e-01,7.790555154051527487e-02,2.151169538497924860e-01,2.232387900352477972e-01,4.890847206115722830e-03,5.364145751880189383e-01,7.427093982696533203e-01,-9.796146154403686523e-01,9.702750900942341161e+01,0.000000000000000000e+00
