timestamp,x,y,z,roll,pitch,yaw,vx,vy,vz,p,q,r,psp,qsp,rsp,pres,qres,rres,thrust_sp, thrust_res,wind_mag,wind_angle,wind_obs
0.000000000000000000e+00,2.845126688976338126e-03,-3.283366258279446503e-02,1.008635163307189941e+00,3.666575572750810363e-03,-1.062879599106891781e-02,-2.322713113924290695e-03,-2.476226243433861038e-02,-1.622858595545513885e-02,-1.348359975963830948e-02,-5.925465523649676297e-02,-4.045475193584831958e-02,2.137332903844719589e-03,9.309925949342227891e-02,1.327226057914058788e-01,1.572111381644855643e-01,1.507362040382967117e-01,2.200200730152627737e-01,1.637435513749562199e-01,5.071049953538724342e-01,-2.771129012107849121e-01,-1.983630657196044922e-02,8.042215117477434205e+01,3.755805730819702370e-01
2.594000000000000125e-02,2.679728906707400278e-03,-3.311850328882318117e-02,1.008409857749938965e+00,3.381118885526655272e-03,-1.063314794288383602e-02,-1.380738515199597671e-03,-1.391812856551628841e-02,-4.959587202602645274e-04,-1.364629995077848434e-02,-7.090825491272144962e-04,2.166116110539351158e-02,3.589385931334845847e-02,-4.725099924486562269e-02,1.506608461751078321e-01,2.006960888633601003e-01,-6.258643761133003344e-03,2.257804546253650291e-01,2.045547733242519817e-01,5.122493647966794850e-01,-5.431354045867919922e-03,6.418391466140747070e-01,-4.044466464190702482e+01,3.755805730819702370e-01
4.915900000000000131e-02,2.307323225650517815e-03,-3.357809181184721187e-02,1.008125066757202148e+00,3.118255826690726189e-03,-1.108973780842070767e-02,-1.055254879188893824e-03,-7.737425328048505059e-03,-1.095680434392493074e-02,-1.356859598308801651e-02,-3.407483354221749888e-02,-7.492873688630836970e-02,-2.734346339268014202e-03,-1.465877092879293020e-01,1.388121805713133650e-01,-9.104045905899332825e-02,-9.611297693390966068e-02,2.137611705659681061e-01,-8.806106478985875619e-02,5.169419403885059383e-01,2.444806098937988281e-01,7.511578798294067383e-01,9.051673363594630928e+01,4.882638692855835183e-01
7.624000000000000221e-02,1.766464938756669980e-03,-3.419808780363859518e-02,1.007585763931274414e+00,2.727565086930920299e-03,-1.161387776595801391e-02,-8.184633999117618686e-04,-2.718719388124634859e-02,-5.426051295819709318e-03,-1.915118843317031860e-02,-5.199184404826127232e-02,-4.657634419365776386e-03,9.138145782205753589e-03,1.694910831283719943e-01,1.276401352362176445e-01,1.918910555494507397e-01,2.119349785043654899e-01,2.229931943591304533e-01,1.942048112695196060e-01,5.129384116027946305e-01,5.352973937988281250e-03,-8.734095096588134766e-02,1.183376035972148230e+02,4.882638692855835183e-01
9.843599999999999572e-02,1.374056919795958384e-03,-3.457827600620621417e-02,1.007230877876281738e+00,3.075286001598516884e-03,-1.333807154663291250e-02,-1.555873667706153540e-03,-9.383747621997012497e-03,-1.490730176670846795e-03,-2.035632357001304626e-02,3.214408935566064052e-02,-9.645500848000310157e-02,-6.012904052307879027e-02,-2.651422236358346174e-01,1.359956410752518052e-01,-2.198204832178030088e-01,-2.224621135355821788e-01,2.256339220595487693e-01,-2.154560229986239306e-01,5.157030761238254879e-01,1.465182304382324219e-01,5.860391855239868164e-01,-3.331836969590129627e+01,4.882638692855835183e-01
1.248699999999999949e-01,6.350974206494982470e-04,-3.503968146217193574e-02,1.006694912910461426e+00,2.158491575648208149e-03,-1.694903355853361049e-02,-1.375164412327434249e-03,-3.445690123831935542e-02,-6.152790171398313072e-03,-6.969065871089696884e-03,-5.763138757175784166e-02,-1.520884669510292331e-01,-2.314123604112009250e-02,-1.234307178745692735e-01,9.957578831409091835e-02,-1.303232935305934648e-01,-8.184811785612253199e-02,1.995757883140909239e-01,-1.264116924067403280e-01,5.176381308570565665e-01,3.009457588195800781e-01,-2.021132707595825195e-01,8.916107085929300524e+01,4.882638692855835183e-01
1.504560000000000064e-01,2.499438796214132263e-04,-3.551323066388252514e-02,1.006111264228820801e+00,2.000814417993099833e-03,-2.087921598697772829e-02,-1.863192703181582033e-03,-2.434862244152981997e-02,-2.528827457835072356e-03,-1.884008944034576416e-02,-2.451737684668613484e-02,-8.925321532609255260e-02,3.808991263802007782e-02,-1.296405989951255888e-01,7.392782374976875071e-02,-7.476351429157959694e-02,-9.236082209108346930e-02,1.739278237497687563e-01,-6.949040830315214579e-02,5.211986670641503006e-01,4.431636333465576172e-01,8.282458782196044922e-02,7.890767966972907743e+01,4.882638692855835183e-01
1.747980000000000089e-01,-9.525158462715033376e-05,-3.573542703827559813e-02,1.005701422691345215e+00,1.372196899961508317e-03,-2.351321570479458778e-02,-6.251572107143221757e-04,-2.322123184739899662e-02,3.814510180507226043e-03,-1.174698956310749054e-02,-2.231281260233923536e-02,-1.477319317353351091e-01,7.661040420740330981e-02,-1.273150118828881017e-01,6.265438852162591443e-02,-7.086763019920017115e-02,-9.839296740204404867e-02,1.626543885216259200e-01,-6.905529367490248482e-02,5.216288571308093092e-01,4.925512075424194336e-01,-6.620846986770629883e-01,9.818890071551405185e+01,4.882638692855835183e-01
2.011129999999999862e-01,-6.836113084912444696e-04,-3.587818472502245920e-02,1.005133271217346191e+00,-1.545346827704862074e-03,-2.633859998292376048e-02,1.353387830343999454e-03,-4.095990784834147025e-02,6.917294738805334665e-03,-1.403497345745563507e-02,-1.156169417074980194e-01,-6.352628704638653423e-02,2.529020996192624798e-02,2.024746256825171453e-01,5.213546297747040370e-02,1.345480027308938731e-01,2.110773127566860086e-01,1.521354629774704093e-01,1.309505726967681583e-01,5.169929422259628149e-01,2.308504581451416016e-01,5.527948141098022461e-01,3.859248980127611084e+00,4.882638692855835183e-01
2.260780000000000012e-01,-1.161179565781724670e-03,-3.590475486190612686e-02,1.004805088043212891e+00,-4.491054347239841447e-03,-2.802766771044185035e-02,2.525138870101306665e-03,-3.568432959075726330e-02,1.436764820965913229e-02,-2.446230314671993256e-02,-1.895179907116720797e-01,-6.014604553481836535e-02,6.618569369015323001e-02,2.301628911237172948e-01,-5.115800543617959190e-02,2.029770984911962728e-01,2.141717042854210662e-01,4.884199456382041366e-02,1.961968003941572114e-01,5.159916644232789285e-01,1.337600946426391602e-01,7.836705446243286133e-01,-7.188270033477672882e+01,4.882638692855835183e-01
2.465660000000000074e-01,-1.764345543667056098e-03,-3.578266694685754840e-02,1.004525423049926758e+00,-7.328721544198725860e-03,-2.997214424489569318e-02,3.357140457036500436e-03,-3.884657868022878269e-02,1.769963438366293357e-02,-1.026234868913888931e-02,-1.026899872951336085e-01,-9.845371784652762193e-02,1.169534032372548764e-02,2.489515816914977253e-01,-1.983683215159730562e-01,6.323755836750374892e-02,2.129743415154002895e-01,-9.836832151597303675e-02,5.427591572544751553e-02,5.152280352921378981e-01,1.474978923797607422e-01,-6.461993455886840820e-01,1.080625060664685861e+02,4.882638692855835183e-01
2.719130000000000158e-01,-2.804506531915170776e-03,-3.543483984681820853e-02,1.004142761230468750e+00,-9.371164783584524927e-03,-3.256909636919225193e-02,2.384751221767400509e-03,-4.629695627711691991e-02,3.934581063619686271e-03,-3.988516051322221756e-03,-8.901472234387414542e-03,-9.533377832124156903e-02,-1.187469908917079958e-01,1.980472401931396287e-01,-1.700103897920287876e-01,-1.226827053708073600e-01,1.602832571498016556e-01,-7.001038979202878210e-02,-1.286738804023937199e-01,5.189801572267132013e-01,3.721520900726318359e-01,-3.246172666549682617e-01,1.041800967686391033e+02,4.882638692855835183e-01
3.021199999999999997e-01,-3.927002981532241518e-03,-3.518488832215722201e-02,1.003785848617553711e+00,-7.195467022250271599e-03,-3.410086911123433318e-02,8.609051290562330649e-04,-3.557421967276774150e-02,9.710269861411728945e-03,-9.530636481940746307e-03,8.702728815034442567e-02,-1.380502036649524505e-02,-1.187155600157834955e-03,-1.885250880251854166e-01,1.263453457068918762e-01,-2.240050071199968518e-01,-2.189516382949907580e-01,2.263453457068918817e-01,-2.258984446319451111e-01,5.198413914188655394e-01,3.951522111892700195e-01,3.889477252960205078e-02,2.554980132638800328e+01,4.882638692855835183e-01
3.260290000000000132e-01,-4.762001266055790327e-03,-3.493858104360227784e-02,1.003521323204040527e+00,-4.040711962738696705e-03,-3.354160670633055119e-02,5.776790984535207230e-04,-5.456970778598831118e-02,1.249602380824419746e-02,-5.955811939202249050e-04,2.251232405844902917e-01,3.546987579959946096e-02,-1.506191572810555192e-02,-2.071639236635337833e-01,1.248266728747794152e-01,-2.226611607935146120e-01,-2.185514051860428242e-01,2.248266728747794208e-01,-2.239223915178945590e-01,5.146656100925519617e-01,1.512252092361450195e-01,-3.318394422531127930e-01,7.203262298705851663e+01,4.882638692855835183e-01
3.486969999999999792e-01,-5.919152912445138116e-03,-3.471287873160529280e-02,1.003273248672485352e+00,-6.806850344284193092e-04,-3.135871246242927235e-02,1.467293542974701381e-03,-4.794181447508134158e-02,1.643631907802089662e-02,-6.481265183538198471e-03,1.254057875670087085e-01,1.321185642345568123e-01,7.868466166001374107e-02,-1.773838314651093873e-01,1.187518056834911684e-01,-1.829521064754757176e-01,-1.697927097631468651e-01,2.187518056834911739e-01,-1.869297032068623632e-01,5.220288108675719130e-01,5.232204198837280273e-01,3.190532922744750977e-01,6.186409689793199362e+01,4.882638692855835183e-01
3.772519999999999762e-01,-8.289215657403569901e-03,-3.427907952446310191e-02,1.002982258796691895e+00,2.801122732789169695e-03,-2.857815792483409112e-02,4.025026278030141569e-03,-7.147128016070332379e-02,2.703974247328767497e-02,-1.613130979239940643e-02,4.791575766792097874e-02,7.953499264841444594e-02,1.416178335737845739e-01,-5.210378126939364113e-02,1.102607918371515672e-01,-1.489094964619943062e-01,-3.016111423629684596e-02,2.102607918371515727e-01,-1.602955086035476873e-01,5.239005776782276191e-01,5.843229293823242188e-01,1.691929101943969727e-01,9.722374034427788558e+01,4.882638692855835183e-01
3.981459999999999999e-01,-1.004616382521863159e-02,-3.380379796643211837e-02,1.002799034118652344e+00,3.062748258072931200e-03,-2.795075817459657941e-02,6.074025214265255102e-03,-7.275880518295775590e-02,3.163852748735839632e-02,-1.394339487887918949e-03,2.412237252677253922e-03,-7.286280902156008765e-03,7.449080027108606616e-02,4.761510200334444221e-02,9.813075879400540158e-02,1.970176876004181565e-01,6.881395320078267930e-02,1.981307587940054071e-01,1.798644256202586722e-01,5.148440222697625579e-01,1.537828445434570312e-01,3.372704982757568359e-02,1.085154432310888097e+02,4.882638692855835183e-01
4.257730000000000126e-01,-1.292385502509526586e-02,-3.292549990507879359e-02,1.002730607986450195e+00,3.529284116687676168e-04,-2.954177473787122921e-02,9.360959691000925176e-03,-7.036707737418805564e-02,3.575256976374061035e-02,1.766520144883543253e-04,-9.622677514129805709e-02,-1.083851203557322229e-01,7.060585317450150666e-02,2.057864790126064380e-01,-2.706689480456289099e-01,1.550486839034470876e-01,2.061712047021033722e-01,-1.706689480456288766e-01,1.288050329324683940e-01,5.081548886002118515e-01,-1.964216232299804688e-01,-3.839024305343627930e-01,9.270934730292546533e+01,4.882638692855835183e-01
4.519759999999999889e-01,-1.570006259470903970e-02,-3.178770801304189181e-02,1.002894639968872070e+00,-2.966493682953227993e-03,-3.292678633337486893e-02,1.015535061071726197e-02,-9.670487693268728369e-02,2.674300713264391935e-02,1.477107685059309006e-02,-8.891574913567172611e-02,-1.426309111130820151e-01,-6.614524071275722228e-02,2.308495072101019174e-01,-2.944200701461328618e-01,-8.359669910698792894e-02,2.167200526105572955e-01,-1.944200701461328562e-01,-1.117897608752561750e-01,5.052696037607008472e-01,-2.905008792877197266e-01,9.775531291961669922e-02,8.531779171521853300e+01,4.882638692855835183e-01
4.736310000000000242e-01,-1.663154525570241862e-02,-3.136996169305909798e-02,1.003013134002685547e+00,-3.437092065258693947e-03,-3.429424280806903091e-02,9.933775385241760958e-03,-7.710717866118040054e-02,3.547948448064223992e-02,1.236309856176376343e-02,-2.251141644042325279e-02,-1.200952009976072182e-01,-5.483805200776122740e-02,2.323816460991544597e-01,-3.048415784040369170e-01,-9.157989040967218219e-02,2.066733687848676393e-01,-2.048415784040369114e-01,-1.192132195319196009e-01,5.085272916662127995e-01,-1.259038448333740234e-01,5.626642704010009766e-02,2.062423431209540325e+01,4.882638692855835183e-01
4.994410000000000238e-01,-1.940249208310822204e-02,-3.022307206499861426e-02,1.003455400466918945e+00,-2.525315153975828380e-03,-3.645723168667180936e-02,8.236456838471184483e-03,-8.947087925809074638e-02,2.531999550012927619e-02,1.720661297440528870e-02,9.976589782044564814e-02,-2.435703810047388021e-02,-6.888123889933034372e-02,-2.089982208281123688e-01,1.227098727058709426e-01,-2.014802580804926635e-01,-2.200382990983506815e-01,2.227098727058709482e-01,-2.243130843319164625e-01,5.209907809891245467e-01,5.626840591430664062e-01,1.150659322738647461e-01,1.104005617816339964e+02,4.882638692855835183e-01
5.274450000000000527e-01,-2.216262329217061344e-02,-2.908557080696174205e-02,1.003806471824645996e+00,1.412470681163237448e-03,-3.275470318490469879e-02,8.266079000339487948e-03,-8.675995637314115605e-02,3.463199732882943360e-02,9.999540634453296661e-03,1.365957335796864069e-01,2.200289393487981082e-01,1.225590700896981959e-02,6.760349943530701011e-02,3.032145486495263498e-02,2.114086917107612928e-01,7.232653596246572947e-02,1.303214548649526405e-01,1.881359087168308630e-01,5.158390953267150136e-01,2.590930461883544922e-01,-3.622907400131225586e-01,1.163852759852367171e+02,4.882638692855835183e-01
5.481679999999999886e-01,-2.403126388518931830e-02,-2.833475369400147159e-02,1.004013061523437500e+00,5.413034764069658833e-03,-2.829611092970996111e-02,8.983185994463127599e-03,-8.258057953451714006e-02,4.143514319343521990e-02,1.276565156877040863e-02,2.244110327738656763e-01,2.348061842613224648e-01,7.071588795841757258e-02,-2.444546825730543604e-01,1.153519390498748132e-01,-1.804020443008231001e-01,-2.184551818115789967e-01,2.153519390498748187e-01,-2.059312121282969310e-01,5.189286897358168504e-01,4.377299547195434570e-01,4.483848810195922852e-01,1.360221518112934120e+02,4.882638692855835183e-01
5.750619999999999621e-01,-2.685440483794647795e-02,-2.669790944283442075e-02,1.004428267478942871e+00,9.005376546009313116e-03,-2.172973270899447584e-02,1.019642207453919092e-02,-1.019201377139184739e-01,3.863411872636714900e-02,1.497585792094469070e-02,8.181405318732946907e-02,2.183711540182019517e-01,-4.784247340053442848e-02,-2.129912429388395034e-01,1.238677983943989036e-01,2.336788333830751019e-01,-1.617192815994385191e-01,2.238677983943989092e-01,2.046236471351555730e-01,5.231206193235936608e-01,6.749274730682373047e-01,1.033793807029724121e+00,-6.138992467518219343e+01,4.882638692855835183e-01
5.998780000000000223e-01,-2.994093797447517150e-02,-2.495440229217165198e-02,1.004981637001037598e+00,9.760373759280313241e-03,-1.959494357157565148e-02,1.049289103884465391e-02,-1.027762693099006086e-01,4.095922414578127835e-02,1.625041104853153229e-02,-2.187040460693580324e-02,-2.085729422788566018e-02,8.032106915928228022e-03,1.335252503355305320e-01,-6.769510105424411672e-02,1.423376982764867349e-01,1.861945454019076074e-01,3.230489894575589577e-02,1.124207673789687778e-01,5.081889100547586358e-01,-1.171204447746276855e-01,-3.544255495071411133e-01,-9.070778768740990472e+01,4.882638692855835183e-01
6.234060000000000157e-01,-3.208248372848952062e-02,-2.371003536395406217e-02,1.005406260490417480e+00,7.819232463362784519e-03,-1.944849541362425605e-02,1.088550887296380054e-02,-1.222449145330345432e-01,4.614369588480801004e-02,1.551842130720615387e-02,-8.580744692999703327e-02,-1.120099299923852341e-02,1.242980706962042853e-02,1.721965415133583921e-01,-1.435645116707210955e-01,2.396743321084233991e-01,2.073507395006949916e-01,-4.356451167072107611e-02,2.086791767777627926e-01,5.011903219209830063e-01,-4.869832992553710938e-01,-1.392220258712768555e-01,1.832836184524399670e+01,4.882638692855835183e-01
6.474560000000000315e-01,-3.427664768306614568e-02,-2.242317583970694639e-02,1.005837559700012207e+00,4.708777065473587417e-03,-2.061252854702844139e-02,9.354340192859966763e-03,-1.085540996897392807e-01,4.539816599540480446e-02,1.624785736203193665e-02,-1.564100413084396068e-01,-7.205701289956527311e-02,-1.387330613979755045e-01,1.754641704406356417e-01,2.349715820653561216e-02,2.284132647556991191e-01,1.910700246766487975e-01,1.234971582065356177e-01,2.018741040549041355e-01,4.981297893229177376e-01,-6.408649682998657227e-01,-5.692185163497924805e-01,1.277290368663541820e+01,4.882638692855835183e-01
6.747049999999999992e-01,-3.805654945168648884e-02,-2.056683190162761701e-02,1.006496191024780273e+00,5.778453009199791554e-04,-2.271046724472047806e-02,6.850653917526372538e-03,-1.123787288856153421e-01,4.761856020500892378e-02,1.904851943254470825e-02,-1.332966381668291844e-01,-6.241062996749525971e-02,-7.443563485029726368e-02,2.213215078157902138e-01,-2.407935203279354675e-01,2.256544412174401326e-01,2.069828996292953915e-01,-1.407935203279354619e-01,2.062918769735167246e-01,5.006508172781142241e-01,-4.944692850112915039e-01,-6.432616710662841797e-02,1.124208087947187096e+02,4.882638692855835183e-01
7.005770000000000053e-01,-4.057652901168119774e-02,-1.940194583129341982e-02,1.006953716278076172e+00,2.693635124494761393e-04,-2.363707262047309854e-02,4.449873568900475362e-03,-1.111351128524093734e-01,4.338247252326635911e-02,1.793743483722209930e-02,6.231519973176341542e-02,-7.610989770982076741e-02,-1.429935874166518572e-01,-2.087155208461878853e-01,1.119410974301316142e-01,-2.077563796250349593e-01,-2.219887086836966616e-01,2.119410974301316197e-01,-2.203587764150179429e-01,5.222505618423526341e-01,6.545753479003906250e-01,3.985620737075805664e-01,9.494267572754706919e+01,4.882638692855835183e-01
7.214399999999999702e-01,-4.310624836660596065e-02,-1.830674927688710416e-02,1.007300734519958496e+00,1.291295505084771780e-03,-2.397476130327369503e-02,2.017665537951351951e-03,-1.140747922754168781e-01,4.436829225450007047e-02,9.415791369974613190e-03,8.350558712988533083e-02,2.015787838620529057e-02,-1.119597236850310568e-01,-2.131229918723309136e-01,1.226723463138795489e-01,-2.152498358075755347e-01,-2.218271834041339041e-01,2.226723463138795545e-01,-2.211239837283751897e-01,5.214338384476482346e-01,5.787150859832763672e-01,5.190598964691162109e-02,8.580761190135683592e+01,4.882638692855835183e-01
7.489369999999999639e-01,-4.686485230298188115e-02,-1.673534702818502834e-02,1.007617592811584473e+00,5.543530557326833627e-03,-2.341496531037678963e-02,-1.558952720254414004e-03,-1.064646582451805878e-01,4.273096046237732926e-02,4.254173487424850464e-03,2.000892841896583785e-01,2.166136258597467848e-02,-2.755196981660626432e-02,-2.399770919355652399e-01,1.205200973499984396e-01,-2.205428422206408834e-01,-2.204621588346919181e-01,2.205200973499984451e-01,-2.166308064117811460e-01,5.142713941678650480e-01,1.751859188079833984e-01,2.603284120559692383e-01,1.049727197312515727e+02,4.882638692855835183e-01
7.773619999999999974e-01,-5.180273137096740033e-02,-1.470508481788248417e-02,1.007826328277587891e+00,8.494779954381954587e-03,-2.076787587718631478e-02,-1.751438033257723959e-03,-1.304027953488661462e-01,5.679159266309347781e-02,1.975103281438350677e-03,6.197775349503212988e-02,1.050987095955496775e-01,1.714182252103088611e-02,-2.356064595838672782e-01,1.192787826910228222e-01,-1.856036995410621504e-01,-2.099093307021835664e-01,2.192787826910228277e-01,-1.814498280584761480e-01,5.215464486495277052e-01,5.574119091033935547e-01,-6.670820713043212891e-02,9.944474027744760747e+01,4.882638692855835183e-01
7.966659999999999853e-01,-5.347681748444021305e-02,-1.396687265183593589e-02,1.007917404174804688e+00,8.481934589850491368e-03,-2.017173875006883499e-02,-1.243107436576185165e-03,-1.142600041321208820e-01,5.889999930005038881e-02,6.337523926049470901e-03,1.550400394702620109e-02,6.241733590193880576e-02,6.624284599826707476e-02,-9.772811230048226994e-02,1.115352308609446341e-01,-1.929332265729976625e-01,-7.245495580553458492e-02,2.115352308609446397e-01,-1.901518568823581390e-01,5.215511097627996140e-01,5.767351388931274414e-01,-3.182390928268432617e-01,-1.905344448224879628e+01,4.882638692855835183e-01
8.216020000000000545e-01,-5.861988654955593847e-02,-1.165405674274491536e-02,1.008229136466979980e+00,6.134574837184547658e-03,-1.947232700816337037e-02,5.481395764181939967e-04,-1.379272046732160917e-01,6.490626790503017940e-02,6.606188137084245682e-03,-1.005375639535534549e-01,1.265877105758324989e-02,8.319426117654510344e-02,1.995095594603497613e-01,-2.735967052640961850e-01,2.115727619187418307e-01,2.031937414542909215e-01,-1.735967052640961794e-01,2.093603312042427722e-01,5.095098929425091461e-01,-6.695562601089477539e-02,3.362380266189575195e-01,7.208018842443848939e+01,4.882638692855835183e-01
8.473730000000000429e-01,-6.386115455461222057e-02,-9.230922852925708272e-03,1.008586883544921875e+00,1.034990250965263934e-03,-2.085054841558786620e-02,2.444438701827422733e-03,-1.369243490391696960e-01,7.038199643609616141e-02,2.575919032096862793e-02,-1.655848545940181715e-01,-5.490152964157477694e-02,4.993739269318850371e-02,2.455404644892774102e-01,-2.758315820717575084e-01,2.096146574797359552e-01,2.104516451735904681e-01,-1.758315820717574751e-01,2.023243605959549885e-01,5.038177889763693074e-01,-2.892231941223144531e-01,1.032650828361511230e+00,9.479952862292194027e+01,4.882638692855835183e-01
8.721989999999999466e-01,-6.891924352932946030e-02,-6.088758238204291899e-03,1.009283304214477539e+00,-4.457033624479344106e-03,-2.331244415227518019e-02,2.884150979388655500e-03,-1.507220790924592158e-01,6.093154290394370981e-02,2.915398217737674713e-02,-9.776522154035509338e-02,-8.557008286351601434e-02,-9.410791412699504033e-02,2.723843331557384007e-01,-2.989760511031507306e-01,2.105857100327392095e-01,2.078340255806759296e-01,-1.989760511031507528e-01,2.024447623024890064e-01,4.988607402768278076e-01,-5.319774746894836426e-01,1.276155710220336914e-01,7.294069663721171537e+01,4.882638692855835183e-01
8.988810000000000411e-01,-7.207023837467152472e-02,-3.891508432385824313e-03,1.009839534759521484e+00,-6.844189904496704620e-03,-2.316651652887302681e-02,1.179088595218980018e-03,-1.358548762152777811e-01,6.576875307515576974e-02,2.064313739538192749e-02,-1.104304963195909817e-01,6.389280067062325097e-02,-7.498578497799396336e-02,2.930476741436333632e-01,-2.535474590581678900e-01,2.124576377605706667e-01,2.062610931988939911e-01,-1.535474590581678844e-01,2.091784704385849236e-01,5.019533217679642556e-01,-3.992984294891357422e-01,1.420062780380249023e-01,7.252971732466286880e+01,4.882638692855835183e-01
9.241160000000000485e-01,-7.665357726786270476e-02,-7.211985763337363121e-04,1.010690927505493164e+00,-5.444249761952009263e-03,-2.009946031358844643e-02,-2.673195918114767977e-03,-1.364927954500560481e-01,6.049309496333150210e-02,2.209957689046859741e-02,1.650993926689254265e-01,1.239507354454981586e-01,-1.311029197567160909e-01,-1.215752913911713473e-01,-2.783907153062353812e-02,-1.525951906916215850e-01,-1.961647456449157056e-01,7.216092846937646743e-02,-1.451486132596135903e-01,5.169034699291507051e-01,4.049029350280761719e-01,2.981275320053100586e-01,4.874187257770638126e+01,4.400336027145385631e-01
9.485749999999999460e-01,-7.962392763954002917e-02,1.307288624263523236e-03,1.011178612709045410e+00,-2.505673243462110643e-03,-1.607293137546728090e-02,-5.493003586814149131e-03,-1.324051745019069748e-01,5.912839387895642979e-02,1.585267484188079834e-02,1.410235246040817958e-01,2.323951766915716421e-01,-1.473333061994165083e-01,9.260749227857825727e-02,1.052943112020238992e-01,2.101990620573915003e-01,3.626474827925364047e-02,2.052943112020239047e-01,2.253725197207298858e-01,5.213880932585172046e-01,6.251677274703979492e-01,8.796346187591552734e-02,7.340404301012704025e+01,4.400336027145385631e-01
9.737190000000000012e-01,-8.396760179916712419e-02,3.188943670762463441e-03,1.011831045150756836e+00,4.505787229535681074e-03,-8.987746520644046555e-03,-9.026039940200680789e-03,-1.350570593674202402e-01,6.491273365656936856e-02,5.499483551830053329e-03,2.163967234087936509e-01,2.600633434541182454e-01,-4.295495041772989797e-02,-9.215451301887316038e-02,1.253994805226351095e-01,-2.143736104544214094e-01,-1.087028211280115925e-01,2.253994805226351150e-01,-1.896484283156076589e-01,5.222805384528734773e-01,6.354844570159912109e-01,1.424769043922424316e+00,1.017687667840578030e+02,4.849538087844848522e-01
9.992010000000000058e-01,-8.679074614785296793e-02,4.157637924657737148e-03,1.012127399444580078e+00,8.511097297240283188e-03,-3.980254415401507373e-03,-1.034576774880546779e-02,-1.332377779189578282e-01,6.422913631142157520e-02,1.071102451533079147e-02,1.385309488547568912e-01,2.282891191254619034e-01,-1.079034416226148513e-01,-2.233122741563262903e-01,1.309807916894120128e-01,1.649012129998594367e-01,-2.131134658207457788e-01,2.309807916894120183e-01,1.932435376088599277e-01,5.233636172413839160e-01,7.170147895812988281e-01,-5.174831151962280273e-01,9.944872227773372231e+01,4.849538087844848522e-01
1.028065000000000007e+00,-9.109784806765748588e-02,5.678093325121625311e-03,1.012679457664489746e+00,1.284962043616189736e-02,-2.335600423668537928e-04,-1.319171713410738356e-02,-1.320143342901547168e-01,6.224881817787356053e-02,2.133869566023349762e-02,1.312783440391016021e-01,2.876705420188111623e-02,-7.927526610213639358e-02,-2.629339585665285695e-01,1.268586927223916971e-01,-2.584132332663884313e-01,-2.239172008727454144e-01,2.268586927223917027e-01,-2.221855700125203725e-01,5.210399156198730619e-01,6.369088888168334961e-01,2.018710374832153320e-01,-1.142944184765124049e+02,4.849538087844848522e-01
1.051984000000000030e+00,-9.402924259974786148e-02,6.747649086640584125e-03,1.013176441192626953e+00,1.406480252405521714e-02,4.528538998047615394e-04,-1.352458923355648324e-02,-1.433688173874885508e-01,6.364907642850002600e-02,1.354089006781578064e-02,3.197265832523867035e-02,8.782743050905707574e-03,8.339092814114264923e-03,-2.654472170654265106e-01,1.248174398422050579e-01,-2.445619425485567322e-01,-2.206449823831685975e-01,2.248174398422050635e-01,-2.074929303137192371e-01,5.205865358592196568e-01,5.840356349945068359e-01,-1.760731935501098633e-01,1.215268374867472119e+02,4.849538087844848522e-01
1.077490999999999977e+00,-9.703863203324619713e-02,7.792035013042874179e-03,1.013777971267700195e+00,1.386750013141002658e-02,-7.779279511166414807e-05,-1.523302161892314821e-02,-1.359801829142599505e-01,7.336570911549482321e-02,2.732937037944793701e-02,-5.818034516381870996e-02,-8.584305316580843545e-03,-1.330362383727504427e-01,-1.358580201342274585e-01,8.124692434163580113e-02,-2.384285229761822500e-01,-1.010048478494267044e-01,1.812469243416358067e-01,-1.966149695091895799e-01,4.996532893650971197e-01,-4.695742130279541016e-01,4.191707372665405273e-01,5.663192269179752003e+01,4.849538087844848522e-01
1.101820999999999939e+00,-1.001710486470920314e-01,8.890779050366294164e-03,1.014527201652526855e+00,1.145346403163384139e-02,-1.686247462241885486e-03,-1.575126343506916271e-02,-1.260553009347384901e-01,7.379518130869809622e-02,2.897813543677330017e-02,-2.000976325056299798e-01,-9.637328351130809712e-02,2.980670315649437685e-02,1.904676688875615864e-01,-2.091214841224206256e-01,1.424600012312309816e-01,2.096709256563636659e-01,-1.091214841224206200e-01,1.857866567447709061e-01,4.989312295784699147e-01,-4.953881502151489258e-01,-3.920046091079711914e-01,4.627782719311091597e+01,4.849538087844848522e-01
1.125893999999999950e+00,-1.032968600584797808e-01,1.010772019995659354e-02,1.015339016914367676e+00,7.511971530840621560e-03,-3.233140901701458958e-03,-1.498848672895713996e-02,-1.477375104916586468e-01,8.225315963899365590e-02,3.516003489494323730e-02,-2.038247253098874334e-01,-9.259033976607532190e-02,5.138854522296679161e-02,2.229929073689801422e-01,-2.632609464303690139e-01,1.402270478687638322e-01,2.086550133784864092e-01,-1.632609464303689806e-01,1.813984763773400233e-01,4.996928782985445849e-01,-4.272439479827880859e-01,1.102841734886169434e+00,-6.334236754660254931e+00,4.849538087844848522e-01
1.151928000000000063e+00,-1.064368120620292207e-01,1.138268771618413527e-02,1.016294836997985840e+00,2.067807289461108360e-03,-5.267199960584889595e-03,-1.411619467374469750e-02,-1.402282836560116985e-01,7.709683715921981928e-02,4.652484506368637085e-02,-2.784376018284815957e-01,-1.233139378491431015e-01,3.037888137741654327e-03,2.568896401679632291e-01,-1.458838771831003078e-01,1.274503641365240802e-01,2.110983262170684771e-01,-4.588387718310030922e-02,1.664373718717791217e-01,4.968386461993595793e-01,-5.238360762596130371e-01,4.591320753097534180e-01,1.676792180104670820e+02,4.849538087844848522e-01
1.177130000000000010e+00,-1.095691741126294944e-01,1.269774672809330200e-02,1.017356038093566895e+00,-3.685867915726935909e-03,-7.623025435328223409e-03,-1.283775963084199390e-02,-1.375242630134559385e-01,8.628043252598370516e-02,3.733852878212928772e-02,-3.009733046793554023e-01,-8.672252471326150070e-02,7.172420159687804830e-02,3.116340586202878682e-01,-1.313093380930165088e-02,1.365319124801179229e-01,2.188719287682405479e-01,8.686906619069835467e-02,1.721154246309652414e-01,4.989015712049474915e-01,-4.459614753723144531e-01,-1.241949796676635742e-01,9.212948473295888618e+01,4.849538087844848522e-01
1.202390999999999988e+00,-1.125843609567625525e-01,1.397691335220575988e-02,1.018471717834472656e+00,-7.432282746900534601e-03,-9.722801947777526266e-03,-1.385141891250030177e-02,-1.364046061038469981e-01,7.402268712105838921e-02,5.487079173326492310e-02,-1.090957730639842277e-01,-1.260122651409469052e-01,-1.101446647422305580e-01,3.062130370423745696e-01,-3.075237775663630657e-01,1.422130186944520758e-01,2.062130370423745918e-01,-2.075237775663630324e-01,1.808938575618392886e-01,4.926232419698568510e-01,-6.950178742408752441e-01,5.645934343338012695e-01,-6.841284812319436526e+01,4.849538087844848522e-01
1.227951000000000015e+00,-1.154383147381808777e-01,1.521622254358730164e-02,1.019580960273742676e+00,-9.275628031850101721e-03,-1.002850615879280483e-02,-1.545233768506903971e-02,-1.273355615524515705e-01,7.365529833128353632e-02,4.952418431639671326e-02,-8.204615492563016588e-02,5.063865856812650723e-02,-8.730351993029880631e-02,3.068984495203239682e-01,4.676952371459261459e-02,1.375088219144778301e-01,2.068984495203239626e-01,1.467695237145926201e-01,1.807501305806872849e-01,4.937072306798425680e-01,-6.518792510032653809e-01,1.079179048538208008e-01,-6.923700606920478151e+01,4.849538087844848522e-01
1.255338000000000065e+00,-1.181965707416296474e-01,1.638948943268547787e-02,1.020636916160583496e+00,-8.082746318572401126e-03,-9.013611448654534897e-03,-1.762348765733556810e-02,-1.127999820187934044e-01,7.101126646465312497e-02,4.601236432790756226e-02,1.368891671258674891e-01,4.379840339546012956e-02,-1.243650721128157915e-01,-3.037900225191147996e-02,1.158400123111344993e-01,-2.638742800383839793e-01,-1.303790022519114855e-01,2.158400123111345048e-01,-2.146042020343296164e-01,5.163694784315635555e-01,5.376381874084472656e-01,2.789963483810424805e-01,7.303263781362925045e+01,4.849538087844848522e-01
1.272685000000000066e+00,-1.195288908115689497e-01,1.696324186554375515e-02,1.021165490150451660e+00,-6.822691360690357441e-03,-7.817999677870002273e-03,-1.880651342028949458e-02,-1.248702028511996936e-01,6.751031367182068477e-02,3.737635537981987000e-02,1.453403219116839173e-01,1.134750555117233772e-01,-1.030319012305546539e-01,2.389396194247674354e-01,1.106140413842266190e-01,-2.433182651354899584e-01,1.389396194247674299e-01,2.106140413842266246e-01,-1.907882342083600247e-01,5.136459257061485317e-01,3.617372512817382812e-01,2.407766580581665039e-01,8.518769027190813858e+01,4.849538087844848522e-01
1.296728000000000103e+00,-1.235135201493331863e-01,1.865643325754299739e-02,1.022571086883544922e+00,3.301144007399272489e-04,-4.315485581230626977e-03,-2.250661879202486837e-02,-1.176932852484966346e-01,7.072042424007182748e-02,4.068398103117942810e-02,3.138628083660052193e-01,1.115515645649798604e-01,-9.867523275215976664e-02,-1.583224582455681484e-01,1.257730363571228360e-01,-2.798505416307649485e-01,-2.178874614432355361e-01,2.257730363571228416e-01,-2.173073267925387797e-01,5.148584008902600262e-01,4.485652446746826172e-01,7.436171770095825195e-01,6.470605664930425860e+01,4.849538087844848522e-01
1.323409000000000058e+00,-1.273912905034013110e-01,2.019073858618394834e-02,1.023730635643005371e+00,9.458564435793232264e-03,1.932745306165717381e-04,-2.675991848201264567e-02,-1.132638582137699690e-01,6.695579054213157688e-02,2.998173609375953674e-02,3.060287199146498049e-01,1.886688833414425781e-01,-1.973611100481157121e-01,-2.228593301071501720e-01,1.307370272735006445e-01,-2.951369957200057348e-01,-2.199385231449152156e-01,2.307370272735006500e-01,-2.209711233644193473e-01,5.196875166220675801e-01,6.730318069458007812e-01,8.679640293121337891e-02,7.286818051879367886e+01,4.849538087844848522e-01
1.350865999999999900e+00,-1.312991255097011034e-01,2.149772018124786882e-02,1.024496912956237793e+00,1.953752798065165955e-02,4.167247009940089342e-03,-2.972020008821973924e-02,-1.215080279107242922e-01,5.707337698364585432e-02,1.614476554095745087e-02,2.665900619292086993e-01,6.970486717886063832e-02,-4.618373337287310504e-02,-2.950477145415978386e-01,1.284765563572549119e-01,-2.993483091704301491e-01,-2.192199423389748214e-01,2.284765563572549174e-01,-2.171657298878478248e-01,5.189828192923725547e-01,5.847926139831542969e-01,3.273476362228393555e-01,1.017789164451644410e+02,4.849538087844848522e-01
1.372003000000000084e+00,-1.339583433444634375e-01,2.242259916327705646e-02,1.024924397468566895e+00,2.537132090951801228e-02,5.842649820154699469e-03,-2.929402632442945631e-02,-1.163680302217059842e-01,7.470238219007582781e-02,1.532492041587829590e-02,2.909549483622563826e-01,8.068856695070759921e-02,3.463555315890372993e-02,-3.165859473485069242e-01,1.272555154957255297e-01,-2.972330632636653869e-01,-2.197179620936278166e-01,2.272555154957255352e-01,-2.164451873110661284e-01,5.174828477432020790e-01,5.043280124664306641e-01,-1.966336965560913086e-01,1.864168174700215843e+02,4.849538087844848522e-01
1.397183000000000064e+00,-1.380243339327561491e-01,2.385776965120980225e-02,1.025534629821777344e+00,3.142405853352651240e-02,5.330790350201342065e-03,-2.757371023524712861e-02,-1.299101666586569559e-01,6.722448692536898973e-02,1.366071961820125580e-02,1.561655383287430532e-01,-6.576322747291052373e-02,5.578887275452126121e-02,-3.207164948806393578e-01,1.254002792570712288e-01,-2.832741502575006898e-01,-2.207164948806393800e-01,2.254002792570712344e-01,-2.076350715864708485e-01,5.119170104989005932e-01,2.031868696212768555e-01,2.310746908187866211e-01,1.701996807576068704e+02,4.849538087844848522e-01
1.425567000000000029e+00,-1.438434663927600221e-01,2.466350648483843847e-02,1.026286244392395020e+00,3.044161103830335044e-02,2.456561043778338060e-03,-2.336117462375275622e-02,-1.215979499964567750e-01,7.173676890097292758e-02,8.829636499285697937e-03,-1.455726719121789581e-01,-7.000034520783518510e-02,1.557206412230169867e-01,9.883091918534170350e-02,-2.969404901298610677e-01,-1.186785716053618406e-01,1.988309191853417091e-01,-1.969404901298610622e-01,-5.495113665172864093e-02,5.039671137892086650e-01,-2.321311235427856445e-01,-1.313861608505249023e-01,-3.320426797072164504e+01,4.849538087844848522e-01
1.452437999999999896e+00,-1.482127802348327805e-01,2.516258134796197157e-02,1.026902794837951660e+00,2.371091925863589786e-02,-6.285336919154005386e-04,-1.967679320579596158e-02,-1.233736756796925127e-01,7.357720519775526324e-02,1.326139923185110092e-02,-3.191162831918580856e-01,-6.133385115923355169e-02,1.367475413005251328e-01,1.249167131024558064e-01,-2.726604390518395649e-01,6.607103084887067102e-02,2.098343239662171233e-01,-1.726604390518395871e-01,1.195500329152706653e-01,4.969828274658489864e-01,-5.765916109085083008e-01,6.528238058090209961e-01,-1.241844367720424884e+02,4.849538087844848522e-01
1.473543999999999965e+00,-1.510871921292407660e-01,2.550590060497123779e-02,1.027413368225097656e+00,1.784145808407142098e-02,-3.760341251767940207e-03,-1.724713027776259011e-02,-1.094578696596561346e-01,6.563156427967350992e-02,3.852885589003562927e-02,-2.713749146120558731e-01,-2.151442365729682726e-01,1.034488293356414651e-01,1.561648005688731355e-01,-2.777614506114986503e-01,-1.157471883190840101e-03,2.081680144312313130e-01,-1.777614506114986448e-01,4.575826103372524628e-02,4.973078872140170859e-01,-4.536628723144531250e-01,2.273885011672973633e-01,9.193397739815644343e+01,4.849538087844848522e-01
1.498701999999999979e+00,-1.552974579769066665e-01,2.604592533535020002e-02,1.028328537940979004e+00,7.963118580809936536e-03,-7.646032368999966522e-03,-1.388957847729543893e-02,-1.181607823184316758e-01,6.658740400655512037e-02,4.290135204792022705e-02,-2.797742791201085488e-01,-1.176814430741242867e-01,7.037158486214800668e-02,2.237941799754431249e-01,-1.798429082714547156e-01,5.887126785244520266e-02,2.083977046021429080e-01,-7.984290827145472391e-02,9.669610124583224997e-02,4.941608255593237242e-01,-5.940335392951965332e-01,3.123263120651245117e-01,1.088956662018050849e+02,4.849538087844848522e-01
1.524920999999999971e+00,-1.592145394197661823e-01,2.714710671313224494e-02,1.029427170753479004e+00,1.336893165110506236e-03,-8.444660103224865821e-03,-1.286229759699364372e-02,-1.101661709084007928e-01,5.095742224868524128e-02,3.875232115387916565e-02,-1.682388191573477298e-01,5.857842423584359859e-02,-5.861469120862237286e-02,2.542405452528673226e-01,3.490678175332462274e-02,7.476518442354505856e-02,2.076107727319529972e-01,1.349067817533246283e-01,1.101968655928744906e-01,4.931951485828762749e-01,-6.520235538482666016e-01,-2.263168096542358398e-01,1.019723610628375496e+02,4.849538087844848522e-01
1.552224000000000048e+00,-1.627846167954661305e-01,2.805020960265551880e-02,1.030486464500427246e+00,2.991505565139679725e-04,-4.875402184904009673e-03,-1.323637118716169958e-02,-1.001412770858298162e-01,3.879033459483102048e-02,3.164718300104141235e-02,1.852334105953636068e-02,1.521664685953526552e-01,-6.304350466864716562e-02,2.592096256153644807e-01,4.373778483645285320e-02,1.717141072342688868e-01,2.128156494854180625e-01,1.437377848364528587e-01,2.083596964962859399e-01,5.069347544888740398e-01,4.685366153717041016e-02,2.261663675308227539e-01,9.465121106509511151e+01,4.849538087844848522e-01
1.573007999999999962e+00,-1.650255679567382561e-01,2.860318715161920891e-02,1.031095147132873535e+00,1.973333430435726416e-03,-8.018317301146105081e-04,-1.357941650476446327e-02,-9.452622831100017387e-02,4.869681471062024120e-02,2.757362835109233856e-02,1.309151550500932126e-01,2.337344791676295164e-01,-1.745139418630377998e-02,8.005579105940764661e-02,1.236025835226882141e-01,-2.488651969402176367e-01,3.409928415867496260e-02,2.236025835226882197e-01,-2.113627872638828009e-01,5.157278154715211338e-01,5.041542053222656250e-01,-4.000753164291381836e-01,1.102110240321661365e+02,4.849538087844848522e-01
1.597636999999999974e+00,-1.681253764819277685e-01,2.895705799671384126e-02,1.031830787658691406e+00,7.201229485714652490e-03,4.696398255688238876e-03,-1.494783855625647639e-02,-1.032182096451133013e-01,2.883136894634506439e-02,2.142119593918323517e-02,2.700265618008385604e-01,1.189595106389557261e-01,-7.512429986371342572e-02,-2.272880217265692837e-01,1.275781716638043073e-01,-2.560971855399365449e-01,-2.214024460907935143e-01,2.275781716638043128e-01,-2.148073123149580599e-01,5.184925995532778664e-01,6.333676576614379883e-01,-4.420554637908935547e-02,1.555478936293648395e+01,4.849538087844848522e-01
1.622241999999999962e+00,-1.707784546026427097e-01,2.849255844057705517e-02,1.032214999198913574e+00,1.471173100320950083e-02,6.862240005716335745e-03,-1.671564277555481759e-02,-9.236580965960046463e-02,3.555234344614430220e-02,1.283602043986320496e-02,2.714251163812051448e-01,6.234444966874986551e-04,-3.991544140321066220e-02,-2.702859124130525537e-01,1.267432466200923147e-01,-2.619919160158308280e-01,-2.236672299807756781e-01,2.267432466200923202e-01,-2.159994058788853033e-01,5.135430597316820167e-01,3.383074998855590820e-01,7.967722415924072266e-02,1.024965644212576876e+02,4.849538087844848522e-01
1.646601999999999899e+00,-1.735389515782873593e-01,2.822636828629267527e-02,1.032340049743652344e+00,2.070370273577536863e-02,6.399748069860544675e-03,-1.519901518155419851e-02,-1.010226062300810246e-01,3.677443537578268390e-02,3.133544931188225746e-03,9.669527046570434992e-02,-2.199511171099196444e-02,4.824896384292940571e-02,-3.088520442425641832e-01,1.245744354221275663e-01,-2.466556201003136384e-01,-2.233922392431937076e-01,2.245744354221275718e-01,-2.052080006622737096e-01,5.144312233069580076e-01,3.487466573715209961e-01,-5.429446697235107422e-02,9.563624728681601539e+01,4.849538087844848522e-01
1.671470999999999929e+00,-1.753947326537717843e-01,2.815397052614646359e-02,1.032367110252380371e+00,2.229927569821495495e-02,4.946979436043719147e-03,-1.294961331599631116e-02,-8.318851728943532642e-02,4.557916373131566667e-02,1.310644205659627914e-03,4.934142343018353000e-02,-7.966153022591269950e-02,1.650776171958364680e-01,-2.812244624007195770e-01,4.516226663388886453e-02,-1.014117208577154927e-01,-1.931885594873120060e-01,1.451622666338888701e-01,-6.633394315435259259e-02,5.154179849973054006e-01,3.972083330154418945e-01,5.346810817718505859e-02,-9.094038294940551737e+01,4.849538087844848522e-01
1.698703999999999992e+00,-1.782486358552349548e-01,2.778788168843121173e-02,1.032378196716308594e+00,1.955959011006570478e-02,2.520270712606187402e-03,-9.511681546146011357e-03,-9.920303248169003163e-02,5.057298671273014606e-02,2.328100148588418961e-03,-1.537537865345241783e-01,-9.913192050176336534e-02,1.357878760511098404e-01,1.446025901150009008e-01,-1.773345773792126823e-01,2.833759011140836448e-03,2.115165387081352211e-01,-7.733457737921267672e-02,2.815903201767542413e-02,5.086367660420803016e-01,3.981268405914306641e-02,1.286691427230834961e-01,9.143969709849012872e+01,4.849538087844848522e-01
1.723152000000000017e+00,-1.810714865187326994e-01,2.735306520027868879e-02,1.032473683357238770e+00,1.280639892266096334e-02,-6.651987176578000316e-04,-6.294797763627846265e-03,-8.628494297513709943e-02,4.825920496373758278e-02,1.283990312367677689e-02,-1.892107819218839804e-01,-1.207566159272013828e-01,8.094785746684936278e-02,1.897835831679110519e-01,-8.623157544171425326e-02,1.487696148721792677e-02,2.146391651361188591e-01,1.376842455828575403e-02,3.146561826964686115e-02,5.008927556645883516e-01,-3.233345746994018555e-01,3.270307779312133789e-01,9.089698392741925659e+01,4.849538087844848522e-01
1.748586999999999891e+00,-1.828558613996540128e-01,2.709930815447070956e-02,1.032579779624938965e+00,7.113998578097504612e-03,-2.622317108963878596e-03,-5.293727904434941678e-03,-9.172263528452120895e-02,3.204718574440561935e-02,2.034801058471202850e-03,-2.947183728043957784e-01,-9.919720848684734915e-02,2.516156507565077763e-02,2.141228490907345627e-01,-1.003875288971927127e-01,1.311895345034121488e-03,2.148257191566684265e-01,-3.875288971927035335e-04,1.539722457804521168e-02,4.977658410238270381e-01,-5.278099775314331055e-01,6.826388835906982422e-02,8.983191154900414688e+01,4.849538087844848522e-01
1.774483999999999950e+00,-1.853804034588927008e-01,2.665755379803481581e-02,1.032778382301330566e+00,2.236405650236643079e-03,-3.890926541997297150e-03,-4.521624549021607820e-03,-7.340611994939330587e-02,3.879947254664100481e-02,-7.764767360640689731e-05,-1.144549623608454858e-01,-6.708445994112149750e-03,6.941480671395662549e-02,2.581115608560052288e-01,-3.057112438497125440e-02,6.489380608153563768e-02,2.190531873592362622e-01,6.942887561502875116e-02,7.701850744708496621e-02,4.975798548942584887e-01,-5.424168109893798828e-01,-6.507253646850585938e-01,1.252094159400296292e+02,4.849538087844848522e-01
1.799722000000000044e+00,-1.868213425958428486e-01,2.714097031853910172e-02,1.032929420471191406e+00,2.026704954183287770e-03,-3.672716544137699657e-03,-4.400064393940583685e-03,-8.267663242335124285e-02,2.730646679350402437e-02,1.176011282950639725e-02,6.727614068264635427e-02,-1.248390604826601739e-02,-2.299243026000937981e-02,-1.941484067158221749e-01,1.251395839002718280e-01,-2.257212479275834405e-01,-2.247756514604550560e-01,2.251395839002718335e-01,-2.138724088358852915e-01,5.151546598414157296e-01,4.350910186767578125e-01,-9.901034832000732422e-02,9.607852252614183897e+01,4.849538087844848522e-01
1.824994000000000005e+00,-1.888689211907184917e-01,2.775580706365506772e-02,1.033145189285278320e+00,5.122360267516462388e-03,-2.288935044233886273e-03,-4.091200440485165402e-03,-6.713870216710175753e-02,2.103779887613980992e-02,7.519812323153018951e-03,1.556544117784836589e-01,2.830027685282724553e-02,-3.561021802536187136e-02,-2.166466379306296597e-01,1.249758381619262004e-01,-2.228808626444106211e-01,-2.243625326456863134e-01,2.249758381619262060e-01,-2.119848715826015695e-01,5.121324522134022006e-01,2.608466148376464844e-01,1.528495550155639648e-01,9.609983271635228164e+01,4.849538087844848522e-01
1.847515000000000018e+00,-1.901971481142810116e-01,2.813796986987230145e-02,1.033143639564514160e+00,8.549868055874539768e-03,-1.311653408063717663e-03,-3.552731437568290573e-03,-7.680685806849807395e-02,3.133010967425236409e-02,-9.847633540630340576e-03,1.603722714907718783e-01,4.029235592958867879e-02,6.629689596942620056e-02,-2.278850690765656661e-01,1.233279838050886923e-01,-2.064582573904135687e-01,-2.230018397573166333e-01,2.233279838050886978e-01,-1.973246822221090269e-01,5.153809054198867923e-01,3.658008575439453125e-01,-3.993347883224487305e-01,9.997244069272279887e+01,4.849538087844848522e-01
1.874393999999999894e+00,-1.922811476994020496e-01,2.889955984065063072e-02,1.032862424850463867e+00,1.163688707655834154e-02,-8.909722303434008950e-04,-3.619267762269284816e-04,-6.878581360111366005e-02,3.537297684107219148e-02,-1.832825876772403717e-02,7.286721934024500968e-02,-2.571769150587531819e-02,1.469893317133662836e-01,-2.262289541392789871e-01,5.990416087923886024e-02,-4.305790471064035313e-02,-2.042110503277189959e-01,1.599041608792388658e-01,-4.298971750665669250e-02,5.195439880507480845e-01,5.561379194259643555e-01,-3.766628503799438477e-01,7.141431328225394282e+01,4.849538087844848522e-01
1.897810999999999915e+00,-1.936892584192741462e-01,3.016863068361389302e-02,1.032585024833679199e+00,1.081840110001942683e-02,-1.360544756048298609e-03,2.104396042397649325e-03,-7.777771378847726791e-02,3.537869955396952953e-02,-8.686260320246219635e-03,-9.077242801619071766e-02,-4.234429995233576077e-02,9.838395327628976506e-02,2.017632357132919385e-01,-2.643952472869426362e-01,1.982784087269822693e-01,2.174716375309315441e-01,-1.643952472869426029e-01,1.914195600853741408e-01,5.031992996439494936e-01,-2.770577669143676758e-01,1.868617534637451172e-02,9.845570156487308111e+01,4.319967985153198020e-01
1.925013000000000085e+00,-1.958687679461293407e-01,3.309658267781843966e-02,1.032057523727416992e+00,5.823863583884284108e-03,-3.429431277013117452e-03,5.844063976572222430e-03,-6.886686444741649260e-02,4.752895808976576042e-02,-1.815244369208812714e-02,-2.347140720088629895e-01,-1.112888428874385521e-01,9.099416660607244356e-02,2.463268175146172134e-01,-8.880016625659831186e-02,1.234664808492647037e-01,2.170626415459224190e-01,1.119983374340169369e-02,1.062745200051936068e-01,4.994952601247313329e-01,-5.097976922988891602e-01,2.328935861587524414e-01,1.124347150598688501e+02,4.319967985153198020e-01
1.948841999999999963e+00,-1.972201155331644307e-01,3.505597610528463776e-02,1.031692385673522949e+00,1.801238884962324052e-03,-5.046409004285212774e-03,7.113151301366249513e-03,-7.974899758290279750e-02,4.244859766708568988e-02,-1.805897615849971771e-02,-1.605545356297662374e-01,-6.559914555971591010e-02,4.361097025927732768e-02,2.675179902870538085e-01,-1.126345431998226898e-01,1.198100329205070008e-01,2.162787649396203105e-01,-1.263454319982268079e-02,9.925440015266427662e-02,4.990939598933653576e-01,-5.321716070175170898e-01,1.402715444564819336e-01,9.775636532594464256e+01,4.319967985153198020e-01
1.974007000000000067e+00,-1.990308100434714234e-01,3.781563624614622116e-02,1.031224012374877930e+00,-8.100674754584031526e-04,-5.363901110125635086e-03,6.195182869090487543e-03,-5.198658442689138570e-02,4.909588658971453246e-02,-2.163195796310901642e-02,1.914084768745875909e-02,5.247557973154272359e-02,-6.162956241198452173e-02,-1.283272534863204861e-01,1.189256109884561929e-01,-5.108762241822425998e-02,-2.044310001961381629e-01,2.189256109884561985e-01,-6.895348109836837991e-02,5.177322482561974581e-01,4.422495365142822266e-01,-5.704399347305297852e-01,9.279579700725031444e+01,4.319967985153198020e-01
1.998518999999999934e+00,-1.998414526518016987e-01,3.919985090482775575e-02,1.030876398086547852e+00,2.810137361464523772e-04,-3.863647215101462251e-03,5.505008616350171025e-03,-6.895460366933156560e-02,3.473711389648938969e-02,-3.013925626873970032e-02,7.212447500740207240e-02,9.615246626077575409e-02,-5.477565713428087651e-03,-1.518029921890786116e-01,1.155976706062952497e-01,-1.751390516622015336e-01,-2.091607303944347518e-01,2.155976706062952553e-01,-1.910537082623224026e-01,5.174197994541123169e-01,3.890900611877441406e-01,8.318911790847778320e-01,-5.647775849204116128e+00,4.319967985153198020e-01
2.022920000000000051e+00,-2.006238735140524476e-01,4.070642086703895463e-02,1.030322194099426270e+00,5.825201263872918644e-03,-9.964458490760996767e-04,4.986494850536260515e-03,-4.494913590790360070e-02,4.418214502280888578e-02,-3.035382553935050964e-02,2.197850699689311293e-01,1.083606021563151139e-01,2.634829239269332810e-02,-1.916392308981483550e-01,1.224828513483705028e-01,-1.981404105700738660e-01,-2.238620105419158735e-01,2.224828513483705084e-01,-2.128577147074596221e-01,5.167499198005889305e-01,3.516396284103393555e-01,3.962837457656860352e-01,1.097193870157086195e+02,4.319967985153198020e-01
2.046567000000000025e+00,-2.011739956427429366e-01,4.179154660848514308e-02,1.029867768287658691e+00,8.620315624292676504e-03,1.841650723071186491e-04,5.718683556858783490e-03,-6.438074763599757611e-02,4.011468544608418063e-02,-2.784612961113452911e-02,8.606205716360630642e-02,2.197198365352713567e-02,5.166961184153832237e-02,-2.149948865634685180e-01,1.220993092871595631e-01,-1.840889752816825542e-01,-2.255803059963519819e-01,2.220993092871595687e-01,-2.010101709287376859e-01,5.206397079956871510e-01,5.675275325775146484e-01,-5.158474445343017578e-01,9.549077791787307490e+01,4.319967985153198020e-01
2.071730000000000071e+00,-2.021106340704857396e-01,4.362005930001094239e-02,1.029045701026916504e+00,9.197426097809007287e-03,8.221326917854376859e-04,8.676735278439817733e-03,-4.887301802158745129e-02,5.455010284821722177e-02,-3.064069151878356934e-02,-7.050261414310647623e-02,2.384390878087831386e-02,1.134924105201669670e-01,2.330296764137758103e-01,2.840060963392074256e-02,-1.324444165049456779e-01,2.119908508905667122e-01,1.284006096339207481e-01,-1.576935325960638623e-01,5.045393643887141621e-01,-3.049341440200805664e-01,5.469208955764770508e-01,7.902953707471127132e+01,4.319967985153198020e-01
2.096265999999999963e+00,-2.030446011893142777e-01,4.447469130556440386e-02,1.028452277183532715e+00,7.180259021926461982e-03,-4.886086068707218288e-04,1.134726897987214933e-02,-4.789068322852843562e-02,6.187673631772437621e-02,-3.525184839963912964e-02,-9.805193591832501998e-02,-1.154706548361063012e-01,1.519030153754392098e-01,2.567237874891217242e-01,-1.005927586977271582e-01,2.301821096488045892e-01,2.174973110832711387e-01,-5.927586977271576043e-04,1.974663933809375771e-01,5.105849961950448268e-01,-6.152391433715820312e-03,4.099595546722412109e-02,9.288412501359691475e+01,4.319967985153198020e-01
2.125694000000000194e+00,-2.048316209115769448e-01,4.521923129679708553e-02,1.027693629264831543e+00,2.306391261914469363e-03,-3.650288755475017410e-03,1.503776223022246228e-02,-5.607223796636711527e-02,6.687616062882940915e-02,-1.833623461425304413e-02,-1.161002853911690946e-01,-1.037929261249558865e-01,9.987172254831584717e-02,2.902570297014954726e-01,-1.557481857103397427e-02,2.069289864147509928e-01,2.145327708102682251e-01,8.442518142896603128e-02,1.639772874965442773e-01,5.011941043454555267e-01,-4.388021826744079590e-01,1.426683664321899414e-01,8.944856718183719124e+01,4.319967985153198020e-01
2.149134000000000100e+00,-2.059814204032206497e-01,4.562930638517790488e-02,1.027281999588012695e+00,4.602886213528997912e-04,-6.581081623648454837e-03,1.594220349542774251e-02,-4.230836012235075078e-02,5.089374984998122631e-02,-3.256501629948616028e-02,-6.360652685036945198e-02,-1.667051390447697179e-01,9.350666371385801118e-03,2.856698167076567874e-01,-1.538672850508593648e-01,2.278516957641690266e-01,2.113736367170908070e-01,-5.386728505085935925e-02,1.825561218900097482e-01,4.997030522120957663e-01,-5.735224485397338867e-01,4.225448369979858398e-01,-3.034583380307131151e+01,4.319967985153198020e-01
2.175161999999999818e+00,-2.074760367327847799e-01,4.612435482813203452e-02,1.026658058166503906e+00,2.076136826080764251e-03,-9.179319293317167450e-03,1.514029530792493361e-02,-4.969979249581780306e-02,4.958870469541528520e-02,-3.527452424168586731e-02,6.449636755236685948e-02,-5.904587709898248896e-03,-1.213901588520302846e-02,-1.620921994198193383e-01,1.207630501487833297e-01,-1.692905999422183172e-01,-2.277266088184085602e-01,2.207630501487833352e-01,-2.125261861230653138e-01,5.197419770314851695e-01,4.763964414596557617e-01,1.644033193588256836e-01,8.649266621473077521e+01,4.319967985153198020e-01
2.201029999999999820e+00,-2.084373978150676487e-01,4.666752558466513018e-02,1.026211857795715332e+00,6.046649897683689830e-03,-1.038220078913387745e-02,1.376319856992846979e-02,-3.018832070357742314e-02,4.166912558817020829e-02,-3.141763433814048767e-02,2.304712245566691575e-01,-2.740471449708342666e-02,-9.117078449340410007e-02,-1.936532000128895481e-01,1.208786718858016751e-01,-1.772599994745490126e-01,-2.275797838879750068e-01,2.208786718858016807e-01,-2.168040138353699575e-01,5.183079312669942595e-01,4.139101505279541016e-01,3.765670061111450195e-01,8.622673962958549509e+01,4.319967985153198020e-01
2.222091999999999956e+00,-2.094041315942746506e-01,4.749334763298869444e-02,1.025662541389465332e+00,1.104786534815485437e-02,-9.866600907943556820e-03,1.250832969191928434e-02,-5.260843026123517702e-02,3.460305359950294896e-02,-3.728611022233963013e-02,2.616835429876736008e-01,1.225580374820502312e-02,-2.410688408811720654e-02,-2.290380510278951787e-01,1.203442023451708753e-01,-1.714499796412028987e-01,-2.266723017633859305e-01,2.203442023451708809e-01,-2.078284736751331852e-01,5.160069131921558583e-01,2.624301910400390625e-01,4.639009237289428711e-01,1.088612283880098772e+02,4.319967985153198020e-01
2.247485000000000177e+00,-2.108704602437095343e-01,4.883999364453207176e-02,1.024622678756713867e+00,1.688608717596794956e-02,-8.069128001342962264e-03,1.368199074136522420e-02,-3.028402852939933443e-02,5.197819341120058639e-02,-4.041912034153938293e-02,1.461304726692116696e-01,5.379694069287316305e-02,5.206941671517851394e-02,-2.505811284141658546e-01,1.192426286464697560e-01,-1.681136700273900830e-01,-2.265288831236658695e-01,2.192426286464697616e-01,-2.081042758626390765e-01,5.187321288566284494e-01,3.929018974304199219e-01,4.520004987716674805e-01,1.128079029357400032e+02,5.096510648727416992e-01
2.272676000000000140e+00,-2.124169632982361444e-01,5.047453630623858351e-02,1.023506641387939453e+00,1.715676832812462749e-02,-7.082006543283725364e-03,1.646372871030066243e-02,-5.814695090277494094e-02,4.871935101345768043e-02,-3.773058578372001648e-02,-5.715677674565534244e-02,-2.040885058074757077e-02,8.248403063684922598e-02,1.815543834799285272e-01,4.876693239858290174e-02,-5.727326334367471850e-02,2.103505468914932119e-01,1.487669323985829073e-01,-1.051673982752143743e-01,5.154751852010706070e-01,2.209812402725219727e-01,2.511626482009887695e-01,1.017637124440719987e+02,5.096510648727416992e-01
2.298792000000000169e+00,-2.134913805174154244e-01,5.163462352889027634e-02,1.022752165794372559e+00,1.445600169155641240e-02,-7.089295393104100285e-03,1.878258590395298633e-02,-4.586765186652244641e-02,6.104531240163622863e-02,-4.576521739363670349e-02,-1.851750987968540096e-01,3.691467749310720081e-02,1.209396721309437539e-01,2.114499060413073672e-01,8.199350700790511426e-02,-1.086369699438133329e-01,2.110854520907638199e-01,1.819935070079051198e-01,-1.628866137064368669e-01,5.001275940396702202e-01,-6.269585490226745605e-01,2.499269247055053711e-01,1.336535241694030276e+02,5.096510648727416992e-01
2.325543000000000138e+00,-2.146520351744904131e-01,5.277887674568430831e-02,1.021646499633789062e+00,8.773396915195507198e-03,-9.540370349925275661e-03,2.188908018095192531e-02,-5.522318273612892431e-02,5.933861848746671552e-02,-4.445790871977806091e-02,-1.836214537859207352e-01,-1.170635332702831544e-01,1.132861684616470049e-01,2.430346416665430664e-01,1.050410316620586371e-01,-9.843528540744897470e-03,2.071936656926455511e-01,2.050410316620586426e-01,-7.257094698019468659e-02,5.052289789005215415e-01,-3.601989746093750000e-01,1.607319116592407227e-01,8.751672330717994441e+01,5.096510648727416992e-01
2.349123000000000072e+00,-2.154678159151727224e-01,5.353313760503104757e-02,1.021021723747253418e+00,6.413183596908623475e-03,-1.197773927489476087e-02,2.347048323549638660e-02,-5.949850295743770723e-02,5.434127644359964399e-02,-2.784942276775836945e-02,-5.558636412006089794e-02,-1.229747507159008740e-01,5.717442217314430003e-02,2.471763743783997880e-01,1.031045842778049171e-01,8.396616706119137963e-02,1.983407478261414170e-01,2.031045842778049226e-01,1.690178607366239760e-02,5.059115319554737811e-01,-2.616719603538513184e-01,-4.791535139083862305e-01,6.849750148776750791e+01,5.096510648727416992e-01
2.374608999999999970e+00,-2.167615945073118333e-01,5.446116871415763311e-02,1.020187258720397949e+00,6.441687236763352607e-03,-1.648950302992280292e-02,2.592150913965030057e-02,-5.274167699753233574e-02,4.412189785230336003e-02,-2.142498269677162170e-02,9.044477276365035789e-02,-1.790228756352855444e-01,2.357873830454229602e-02,-1.793653129986376438e-01,1.041231181707067410e-01,-1.147630743054360025e-01,-2.217014855526304173e-01,2.041231181707067466e-01,-1.887271039676601536e-01,5.206121089926014633e-01,5.460758209228515625e-01,-7.182085514068603516e-02,1.643365370910411798e+02,5.096510648727416992e-01
2.397606999999999822e+00,-2.176054716319554549e-01,5.499034722397444508e-02,1.019618511199951172e+00,8.476154390478746192e-03,-1.964647016554321723e-02,2.697192963196681781e-02,-6.080070402055154366e-02,4.213451682188809611e-02,-3.828204423189163208e-02,1.056879573323512289e-01,-1.227912843188102565e-01,7.190518076772071943e-02,-1.958978742563056707e-01,1.098672860022896769e-01,-1.074980896986190704e-01,-2.255116073384139108e-01,2.098672860022896824e-01,-1.846850258327132899e-01,5.213771770260756666e-01,5.167710781097412109e-01,5.197161436080932617e-01,7.881691328584878420e+01,5.096510648727416992e-01
2.423974999999999991e+00,-2.192974335403198305e-01,5.705779215395617027e-02,1.018617153167724609e+00,1.389256509242009670e-02,-2.435722330751000086e-02,2.818823705897255394e-02,-5.221175064831863610e-02,4.606465485802930387e-02,-4.324780032038688660e-02,2.225806618868456932e-01,-1.557527978023674486e-01,8.441668937779132909e-02,-2.281216371220457784e-01,1.144014180266294811e-01,-1.058835132374672527e-01,-2.274567655708403802e-01,2.144014180266294867e-01,-1.871124358766984019e-01,5.212241707302200933e-01,4.841579198837280273e-01,3.225685358047485352e-01,9.649491817870250543e+01,5.096510648727416992e-01
