timestamp,x,y,z,roll,pitch,yaw,vx,vy,vz,p,q,r,psp,qsp,rsp,pres,qres,rres,thrust_sp, thrust_res
0.000000000000000000e+00,-7.065709141058885371e-04,2.376882421954726668e-02,9.920423626899719238e-01,1.496240949276146127e-02,-4.994844116492203057e-03,-1.376649888264484291e-03,-5.640575616697876028e-03,1.059882468828911989e-02,1.285223383456468582e-02,5.362940444507621057e-02,-2.297803246897863957e-02,-3.629631199428027394e-02,-2.865623298224286852e-01,-2.102096094398503701e-01,1.016415864938342017e-01,-2.129070103168487493e-01,-1.726659893989563044e-01,1.053459048271179199e-01,5.160025300391499758e-01,2.359964847564697266e-01,-9.362741708755493164e-01,9.602463233359044636e+01,-8.217740058898925087e-03
3.482999999999999985e-02,-6.530690139556485311e-04,2.430175627952855730e-02,9.923863410949707031e-01,1.511761182940735138e-02,-5.198943106012210436e-03,-1.542781911054106952e-03,3.615921037226255737e-03,5.463836161152913623e-03,1.550996862351894379e-02,2.425906146257702806e-03,5.901401153525523587e-03,-4.216315250202213455e-02,-2.936322713773238391e-01,-1.942352386975857714e-01,9.916621732961516944e-02,-2.137191295623779297e-01,-1.637214660644531194e-01,1.033681333065032959e-01,5.158520711927270241e-01,2.402294874191284180e-01,-1.204220175743103027e+00,8.108769846787872382e+01,-8.217740058898925087e-03
7.085900000000000531e-02,-8.709766157977619347e-04,2.430996076874993722e-02,9.929226040840148926e-01,1.596527662299538838e-02,-4.947580561900366547e-03,-1.863320568330043957e-03,-9.294255629995990670e-03,2.409574273958529737e-03,1.357907988131046295e-02,2.713251667820604923e-02,-2.764972943253132462e-02,-4.698921164080061691e-02,-3.007843538771200476e-01,-2.151312317236032112e-01,1.111248072234592293e-01,-2.137305021286010631e-01,-1.742647647857666071e-01,1.161789715290069552e-01,5.164813654011017885e-01,2.687990665435791016e-01,-1.454411029815673828e+00,1.329150031352062342e+02,-8.217740058898925087e-03
1.062189999999999940e-01,-1.023799752230963216e-03,2.428853939172713125e-02,9.933220148086547852e-01,1.624481588805224558e-02,-4.858965376155710558e-03,-1.843070810097211572e-03,2.906415170752419449e-03,7.793391087746248842e-03,6.709615699946880341e-03,-3.755559718166638639e-02,3.640330715374925225e-02,-3.466285390831595759e-03,-2.970066451071002311e-01,-1.946097560012919614e-01,6.998323541553590210e-02,-2.130229532718658503e-01,-1.659852862358093262e-01,7.502324581146239957e-02,5.121989028089360962e-01,1.414132118225097656e-02,-6.249223947525024414e-01,8.094935981642929335e+01,-5.922234058380126953e-02
1.408139999999999947e-01,-1.107984659242354725e-03,2.428912710079849865e-02,9.938554167747497559e-01,1.622072688109553462e-02,-5.480980958393111280e-03,-2.038177506228062465e-03,-6.274730006219402662e-03,7.397907860178627119e-04,2.416762523353099823e-03,-4.202289962181093158e-02,-3.945957710247489231e-02,-2.718336002000938667e-02,-3.042660818416281221e-01,-2.020580035238766503e-01,6.793582088722693868e-02,-2.140176951885223444e-01,-1.601107835769653154e-01,7.347509264945983887e-02,5.123722291459436029e-01,8.390903472900390625e-03,-9.459170103073120117e-01,9.240377146964826238e+01,-5.922234058380126953e-02
1.771939999999999904e-01,-8.287643483423513379e-04,2.438532800292513708e-02,9.942749142646789551e-01,1.569995156249653218e-02,-4.905322820016655427e-03,-2.322713688277230036e-03,7.447018506694295589e-03,9.631929662120820856e-03,2.029210008913651109e-05,-5.212276708531813491e-02,5.457983041340061514e-02,1.668165323997096786e-02,-2.936695139276021549e-01,-1.640095650420146101e-01,1.326215664254214721e-01,-2.152060389518737626e-01,-1.383936166763305720e-01,1.390186071395873857e-01,5.149756088678248966e-01,1.393486261367797852e-01,-8.116449117660522461e-01,7.781002728897300358e+01,-5.922234058380126953e-02
2.149610000000000132e-01,-2.829187577067627884e-04,2.458201689777238588e-02,9.944733381271362305e-01,1.232462343444599290e-02,-2.328086112393767948e-03,-3.852390256034210567e-03,1.174066954470454147e-03,1.085319458790273348e-02,-1.428780518472194672e-02,-1.205888851178463644e-01,9.260805455017627474e-02,-3.242931815630224757e-02,-2.704395027537999652e-01,-1.562293859869691715e-01,-2.056497419327839304e-02,-2.137480258941650280e-01,-1.405924558639526367e-01,-9.831798076629637631e-03,5.106937448187710560e-01,-1.458919048309326172e-01,-9.384697675704956055e-01,2.218264442407136272e+01,-5.922234058380126953e-02
2.493720000000000103e-01,3.731014201268536938e-04,2.525547819722059190e-02,9.938550591468811035e-01,2.592401908846216855e-03,4.417815321320794908e-03,-6.225964830805036376e-03,2.351767405023351756e-02,2.595288724983161113e-02,-4.090604931116104126e-02,-2.486539982632033907e-01,2.118167438761042187e-01,-8.037948276861885122e-02,-1.826048930479632071e-01,-4.005689302223168491e-02,-1.059675254730482880e-01,-2.015476226806640625e-01,-8.745785951614379328e-02,-8.845202922821045199e-02,5.077792465991541881e-01,-4.107629656791687012e-01,-8.888181447982788086e-01,-9.830053332730872739e+01,-5.922234058380126953e-02
2.841060000000000252e-01,8.896940847886938711e-04,2.602369950099471876e-02,9.929136633872985840e-01,-6.503246597552462226e-03,1.013800257009189743e-02,-7.841253551255634308e-03,1.374776000082265914e-02,1.625877403280101205e-02,-5.492553114891052246e-02,-3.338452467455088613e-01,1.676248395014226233e-01,-3.970221016467236769e-02,-7.782780924576440662e-02,2.159632542719100434e-01,-1.385235040606124790e-01,-1.463674128055572343e-01,1.419880270957946666e-01,-1.166073560714721569e-01,5.051814767414199991e-01,-6.100908517837524414e-01,-9.938942193984985352e-01,8.803699247663816152e+01,-5.922234058380126953e-02
3.216840000000000255e-01,1.803495405674729714e-03,2.732940372257387091e-02,9.909142851829528809e-01,-1.876387178254111665e-02,1.862722247657178087e-02,-9.958111970304535029e-03,3.407719969470710680e-02,4.006911236019906897e-02,-8.795145899057388306e-02,-3.401930858091812837e-01,2.304177189562200967e-01,-2.117583374222165981e-03,2.738745212554931641e-01,3.098877012729644997e-01,-1.775997953297197285e-01,1.738745212554931585e-01,2.098877012729644664e-01,-1.500825405120849443e-01,5.070370445774949886e-01,-6.557292342185974121e-01,-9.453037977218627930e-01,9.677477834975459814e+01,-5.922234058380126953e-02
3.566389999999999838e-01,2.790056824074448397e-03,2.849424493656348839e-02,9.887559413909912109e-01,-2.830317347494042124e-02,2.478653228827876198e-02,-1.215665470646652528e-02,2.691638601650490209e-02,4.148651449582335671e-02,-9.262266010046005249e-02,-2.826866089581605568e-01,1.900274266004688128e-01,-1.001410652496599329e-01,3.009869337081909069e-01,3.144887089729309082e-01,-2.264470132885638975e-01,2.009869337081909013e-01,2.144887089729309027e-01,-1.932332754135131780e-01,5.070330505777495000e-01,-6.880077123641967773e-01,-9.474114179611206055e-01,1.115165327297440285e+02,-5.922234058380126953e-02
3.924050000000000038e-01,4.496413840876576154e-03,3.011970085397824154e-02,9.850776791572570801e-01,-4.070077011258801253e-02,3.156618237292163620e-02,-1.367997719167660629e-02,4.299842806365112430e-02,5.880005272255791476e-02,-1.172975376248359680e-01,-2.821659911530006171e-01,1.395215723103959971e-01,-8.890655089835308375e-03,3.209571599960326926e-01,3.204938352108001598e-01,-2.367640955457312457e-01,2.209571599960327148e-01,2.204938352108001542e-01,-2.000807404518127330e-01,5.088987728798261001e-01,-7.082640528678894043e-01,-1.363348364830017090e+00,1.645868771845005085e+02,-5.922234058380126953e-02
4.291570000000000107e-01,6.035119488113407579e-03,3.184736347972178666e-02,9.817581772804260254e-01,-4.893175205518637827e-02,3.600567083774364185e-02,-1.351141080538770418e-02,5.530171350066276359e-02,8.013692072028204272e-02,-1.348847597837448120e-01,-2.754121823729903107e-01,1.696576970432541465e-01,2.668466095083422279e-02,3.220701336860656849e-01,3.222784161567687766e-01,-2.415687532255588466e-01,2.220701336860656794e-01,2.222784161567687988e-01,-2.059598922729492243e-01,5.105879410290342646e-01,-7.093578577041625977e-01,-8.354715108871459961e-01,9.524076567349392519e+01,-5.922234058380126953e-02
4.721480000000000121e-01,8.142217839028527415e-03,3.427191388768684177e-02,9.767504334449768066e-01,-5.635733131483272595e-02,3.719664191104610218e-02,-1.165114093514746894e-02,5.366550264033653067e-02,9.084570368205006907e-02,-1.514237672090530396e-01,-1.741290288613392134e-01,-8.157412463731231189e-02,6.805653736045029489e-02,3.233482599258422630e-01,3.227193534374236950e-01,-2.389794469177461411e-01,2.233482599258422852e-01,2.227193534374236894e-01,-2.090151786804199108e-01,5.126550702092422807e-01,-6.932896971702575684e-01,-1.423620581626892090e+00,1.585555332794340870e+02,-5.922234058380126953e-02
5.077220000000000066e-01,1.018220278826980837e-02,3.687525638082382595e-02,9.713203310966491699e-01,-5.721399493731357117e-02,2.996324407107620047e-02,-7.647926522237717684e-03,6.171958555464859136e-02,1.111045607039236188e-01,-1.610581576824188232e-01,3.676204864563452357e-02,-2.951036836420558029e-01,1.154275795673504468e-01,3.238785505294800027e-01,3.224848210811614990e-01,-2.285376118366300446e-01,2.238785505294799694e-01,2.224848210811614935e-01,-2.093247413635253851e-01,5.142631315387872215e-01,-6.771578788757324219e-01,-9.728952646255493164e-01,9.274077983348585974e+01,-5.922234058380126953e-02
5.416490000000000471e-01,1.240891310744842227e-02,4.013352593180786326e-02,9.655769467353820801e-01,-4.929910336107287683e-02,1.702174108153498011e-02,-2.236762921796750687e-03,6.610496542023870659e-02,1.242176824075979652e-01,-1.695288717746734619e-01,2.587086452738686648e-01,-3.485398838114531772e-01,1.139897144698007181e-01,3.224401354789733776e-01,3.199127256870269997e-01,-2.155492937643399276e-01,2.224401354789733720e-01,2.199127256870269664e-01,-2.104272365570068193e-01,5.154880191111256282e-01,-6.784393191337585449e-01,-9.253717660903930664e-01,-4.076272606098700635e+01,-5.922234058380126953e-02
5.774700000000000388e-01,1.365051329625207276e-02,4.288658120446195432e-02,9.608757495880126953e-01,-4.070898764726747776e-02,6.360174847686472788e-03,2.535885809489443667e-03,6.821087749900456298e-02,1.349910424610339110e-01,-1.940262466669082642e-01,2.654153799752647647e-01,-3.765382860817911292e-01,1.813242363794029810e-01,3.217249155044555886e-01,3.071464076779576446e-01,-1.992781605048834503e-01,2.217249155044555553e-01,2.130020678043365312e-01,-2.068426609039306641e-01,5.180595547436317450e-01,-6.678197979927062988e-01,-5.716336965560913086e-01,-1.008715599648741090e+02,-5.922234058380126953e-02
6.117219999999999880e-01,1.536682500543307128e-02,4.718397365028180468e-02,9.538865685462951660e-01,-2.801972778662264324e-02,-7.541539783788575591e-03,9.068970809394805502e-03,6.386539627902262928e-02,1.521273825442419902e-01,-2.162324041128158569e-01,2.683559111689555188e-01,-3.301580485043582591e-01,2.016695151696370203e-01,3.172740936279296875e-01,1.550614277319309620e-01,-1.677557984425995796e-01,2.172740936279296819e-01,1.534767508506774958e-01,-1.931497335433959850e-01,5.210587018852270713e-01,-6.352897286415100098e-01,-9.065235853195190430e-01,8.954113673565836962e+01,-5.922234058380126953e-02
6.460810000000000164e-01,1.663504322498599031e-02,5.081269877868685447e-02,9.482819437980651855e-01,-1.785968636368753457e-02,-1.827683273644886697e-02,1.398942329845318661e-02,6.163785986039992115e-02,1.626705201058242234e-01,-2.258443683385848999e-01,3.685375615683199602e-01,-3.335542346780017153e-01,1.820104415519201435e-01,3.027550816535949929e-01,-1.547500292241945907e-01,-1.595112783472570073e-01,2.027550816535949596e-01,-8.687989711761474887e-02,-1.987270832061767412e-01,5.245458681133017276e-01,-5.208458900451660156e-01,-1.120651841163635254e+00,9.267147390397774132e+01,-5.922234058380126953e-02
6.818790000000000129e-01,1.886861528291541509e-02,5.662863276298171072e-02,9.402463436126708984e-01,-3.838100854515287628e-03,-3.209191225105190171e-02,2.027967062595241107e-02,5.478213647699562566e-02,1.669819155113382025e-01,-2.419290542602539062e-01,3.890070663779604532e-01,-3.581053585140405726e-01,1.809751090023198339e-01,2.099353790283203236e-01,-2.629147648811340221e-01,-6.862766002397913123e-02,1.099353790283203042e-01,-1.629147648811340165e-01,-1.260303139686584362e-01,5.292092032222576181e-01,-3.773201107978820801e-01,-9.254509210586547852e-01,9.459120102304737543e+01,-5.922234058380126953e-02
7.172429999999999639e-01,2.066480144213809003e-02,6.272843701036345809e-02,9.314824342727661133e-01,9.689134752650223684e-03,-4.546730771861295928e-02,2.675729436395100913e-02,4.347215555945882492e-02,1.660172448305300696e-01,-2.574758529663085938e-01,3.622565764228200536e-01,-3.296543175396577374e-01,2.075510339386918146e-01,-6.940155294190021584e-02,-2.982323050498962291e-01,1.940108468299296673e-02,-1.486159980297088457e-01,-1.982323050498962236e-01,-5.724538564682006558e-02,5.298881414527381040e-01,-4.525412321090698242e-01,-8.972345590591430664e-01,1.045700459287334780e+02,-5.922234058380126953e-02
7.539700000000000291e-01,2.159689933727882913e-02,6.733040306041365719e-02,9.245582222938537598e-01,1.950550387615511416e-02,-5.571368567524515036e-02,3.113830479724120567e-02,2.209754843856890152e-02,1.615494829685872880e-01,-2.642830610275268555e-01,3.476565315364243958e-01,-3.097525595677975141e-01,1.270574883262156063e-01,-1.730314748265016633e-01,-2.971585988998413086e-01,1.999081368798205638e-02,-1.876671910285949707e-01,-1.971585988998413030e-01,-7.015979290008544922e-02,5.283905272765967442e-01,-6.054553985595703125e-01,-6.619876623153686523e-01,6.483969613060472170e+01,-5.922234058380126953e-02
7.889770000000000394e-01,2.260484356221439603e-02,7.447850571644303030e-02,9.148050546646118164e-01,3.256315589572995883e-02,-6.781073770841228310e-02,3.647622958186792080e-02,8.219395714703337311e-03,1.574325583125573691e-01,-2.774891853332519531e-01,3.605045652455598493e-01,-2.303889006487070124e-01,9.933007629490164803e-02,-2.820338127295399233e-01,-3.029205560684203880e-01,7.514911890029907227e-02,-2.126022219657897894e-01,-2.029205560684204102e-01,-2.485088109970092635e-02,5.287542163981554522e-01,-6.944724917411804199e-01,-6.408284902572631836e-01,1.055859887564486854e+02,-5.922234058380126953e-02
8.254700000000000371e-01,2.301678486715825686e-02,7.964039875662268231e-02,9.071550369262695312e-01,4.148793825998475099e-02,-7.155484713435855681e-02,4.034358934342262976e-02,7.239449000586846775e-03,1.510651250644869659e-01,-2.972410917282104492e-01,2.504391240659482598e-01,-5.504816054162581934e-02,1.739671307031092351e-01,-3.127549648284911887e-01,-3.043320417404175027e-01,1.147380590438842884e-01,-2.127549648284912109e-01,-2.043320417404174694e-01,1.473805904388427596e-02,5.309084374323799205e-01,-7.042465209960937500e-01,-8.387871980667114258e-01,9.289980712793126827e+01,-7.414910793304443914e-02
8.611360000000000126e-01,2.330290584434019027e-02,8.654907304201300833e-02,8.965666890144348145e-01,5.142197726691747489e-02,-6.787171239097733455e-02,4.458217593363193038e-02,-8.807251105430621146e-03,1.497390460614572705e-01,-3.086981177330017090e-01,1.782697060772134579e-01,2.067038592728281665e-01,1.299017412963479057e-01,-3.136175096035003773e-01,-3.068409442901611217e-01,2.544892132282257080e-01,-2.136175096035003718e-01,-2.068409442901611162e-01,1.544892132282257025e-01,5.329308529774028358e-01,-7.010915279388427734e-01,-9.519006013870239258e-01,-6.984694879227609476e+01,-7.414910793304443914e-02
8.963999999999999746e-01,2.350662127394100714e-02,9.212648957278289641e-02,8.884856104850769043e-01,5.572574253394497329e-02,-6.051659161124267605e-02,4.635348510487451168e-02,-2.424439146041008561e-02,1.362802835395363066e-01,-3.168920576572418213e-01,1.139464362209079151e-01,3.035569575713096824e-01,5.861383193206501363e-02,-3.127529263496399148e-01,-3.042141675949096569e-01,2.725890636444091575e-01,-2.127529263496398815e-01,-2.042141675949096513e-01,1.725890636444091797e-01,5.351131350675212284e-01,-6.661809682846069336e-01,-1.019936680793762207e+00,-1.449403434709574015e+02,-7.414910793304443914e-02
9.288689999999999447e-01,2.338703613220085784e-02,9.748061857189881108e-02,8.801440000534057617e-01,5.594986417267529960e-02,-5.137432978476108580e-02,4.781773673728214463e-02,-2.194533131199697534e-02,1.345988112907848533e-01,-3.325864374637603760e-01,-7.966461273799246845e-02,3.152506173201285455e-01,4.797075654739428596e-02,-2.983630537986755593e-01,-2.944611549377441628e-01,2.739111423492431863e-01,-1.983630537986755260e-01,-1.944611549377441295e-01,1.739111423492431530e-01,5.403575274454913702e-01,-4.935961365699768066e-01,-7.738581895828247070e-01,9.069468055439264731e+01,-7.414910793304443914e-02
9.628109999999999724e-01,2.294324864021185170e-02,1.026184174320441539e-01,8.719285726547241211e-01,5.293406099117882457e-02,-4.099695033177463976e-02,4.873212583274055820e-02,-4.161033145192599009e-02,1.257086775978787374e-01,-3.326023817062377930e-01,-1.446948380166718506e-01,3.189893184260547687e-01,4.084141739001197202e-02,-2.884138107299804576e-01,-2.870197415351867787e-01,2.750124752521515004e-01,-1.884138107299804521e-01,-1.870197415351867731e-01,1.750124752521514948e-01,5.453512045763200256e-01,-2.703969478607177734e-01,-1.429139614105224609e+00,1.542070113820754500e+02,-7.414910793304443914e-02
9.960149999999999837e-01,2.174461711295247804e-02,1.081510382758265887e-01,8.635796904563903809e-01,4.618077406662875195e-02,-3.055464467042834364e-02,4.884911864373905899e-02,-4.929663374743008947e-02,1.273165549899225035e-01,-3.425914943218231201e-01,-2.679715286492131421e-01,3.308585488003587538e-01,-3.602966531118909077e-02,-2.832911133766174427e-01,-2.783402919769287220e-01,2.772880434989929421e-01,-1.832911133766174372e-01,-1.783402919769287165e-01,1.772880434989929088e-01,5.510982737774838824e-01,-4.409843683242797852e-02,-1.103897452354431152e+00,8.555865833629903250e+01,-7.414910793304443914e-02
1.029406999999999961e+00,1.988398439236050558e-02,1.151239081009871185e-01,8.524342179298400879e-01,3.370036796715771693e-02,-1.735750746591846472e-02,4.750345147594384893e-02,-4.921166972908785908e-02,1.142895824695601692e-01,-3.429160118103027344e-01,-3.711432315330019382e-01,2.980739210576154874e-01,-6.544413115247264823e-02,-2.618028736049912708e-01,-2.674558877944946400e-01,2.822132945060730203e-01,-1.846587717533111628e-01,-1.674558877944946345e-01,1.822132945060729869e-01,5.523008400495286185e-01,-4.562956094741821289e-02,-9.886134862899780273e-01,9.004764307393899969e+01,-7.414910793304443914e-02
1.063495000000000079e+00,1.765610265558444775e-02,1.218388243949774380e-01,8.415541052818298340e-01,2.050890188754631374e-02,-4.354048067655158505e-03,4.345017359253078998e-02,-4.851847488494981375e-02,1.175430244628546533e-01,-3.454039096832275391e-01,-3.368386396914980763e-01,3.019325821005025001e-01,-7.605111699492965449e-02,-1.019930392520717044e-01,-1.443969558141521836e-01,2.639488458633422741e-01,-1.193759322166442760e-01,-1.066544294357299749e-01,1.639488458633422685e-01,5.562769792234064647e-01,1.012818813323974609e-01,-1.074125647544860840e+00,-7.618514577599448501e+01,-7.414910793304443914e-02
1.102959999999999940e+00,1.541531255239978263e-02,1.271697906937248046e-01,8.335573077201843262e-01,1.049799286881418665e-02,5.920641786677727225e-03,3.923298550973093601e-02,-5.432625685746624716e-02,1.087442096983227552e-01,-3.441717326641082764e-01,-3.458640478374961358e-01,3.451974060479968132e-01,-1.815372716929611052e-01,9.415262846322317025e-02,1.048168375848030145e-02,2.465999424457550049e-01,1.435818672180175747e-02,-1.173019409179687500e-02,1.465999424457549993e-01,5.571892663295026082e-01,1.011205911636352539e-01,-5.722182989120483398e-01,7.750676688982444773e+01,-7.414910793304443914e-02
1.136276000000000064e+00,1.264870832411219177e-02,1.342092774824708290e-01,8.233173489570617676e-01,-3.286315245696831526e-03,1.884807601250604314e-02,3.349480917766416849e-02,-4.549836644564030086e-02,1.198553534169644885e-01,-3.277479708194732666e-01,-3.739319757965928193e-01,3.121143165875063241e-01,-1.651154938420543450e-01,2.982177495956420676e-01,2.840687394142150657e-01,9.941195623871391940e-02,1.982177495956420898e-01,1.840687394142150879e-01,6.130295991897583181e-03,5.507634823282332448e-01,-2.648651599884033203e-01,-1.124232888221740723e+00,-1.402209559620453945e+02,-7.414910793304443914e-02
1.171694999999999931e+00,1.011300059419922674e-02,1.409408949983231574e-01,8.138218522071838379e-01,-1.633563287112016135e-02,3.124545730969408019e-02,2.690944092316549519e-02,-3.143607667515811721e-02,1.353111797407709482e-01,-3.180673420429229736e-01,-3.284370466007573430e-01,2.819506713057710057e-01,-1.607031075198986914e-01,3.146084070205688588e-01,3.123856961727142223e-01,3.196379930523902957e-02,2.146084070205688532e-01,2.123856961727142167e-01,-4.292936325073241910e-02,5.484180035230196149e-01,-4.225406646728515625e-01,-6.997712850570678711e-01,1.467956550759646461e+01,-7.414910793304443914e-02
1.211923000000000084e+00,8.371459988620984921e-03,1.454280381268820976e-01,8.071472644805908203e-01,-2.512014006704177752e-02,4.039601907222389876e-02,2.130428618473574620e-02,-2.302184928146096266e-02,1.364430854516531233e-01,-3.080428540706634521e-01,-3.095270855451567327e-01,2.857932528614887668e-01,-1.412028138937869715e-01,3.205295443534851296e-01,3.186517655849456787e-01,-2.791964866964519176e-02,2.205295443534850963e-01,2.186517655849456732e-01,-8.744359016418457031e-02,5.476550450014087135e-01,-4.774012565612792969e-01,-7.380863428115844727e-01,6.751575058703738819e+01,-7.414910793304443914e-02
1.248142000000000085e+00,6.677645833238959015e-03,1.517809155149274780e-01,7.988798022270202637e-01,-3.576584545324559827e-02,5.064847351747170379e-02,1.400154049925255231e-02,-5.430443187702327715e-03,1.591992028699093231e-01,-2.819724380970001221e-01,-2.428493292149384863e-01,2.402057201107584417e-01,-1.394189412030605590e-01,3.244375944137573020e-01,3.225608885288238636e-01,-1.128369216507857653e-01,2.244375944137573242e-01,2.225608885288238581e-01,-1.524138092994689886e-01,5.468157026034902168e-01,-4.801945686340332031e-01,-1.300961136817932129e+00,-6.551624685846199725e+01,-7.414910793304443914e-02
1.292383999999999977e+00,5.305583354199354743e-03,1.581204252562526391e-01,7.918753623962402344e-01,-4.064013446635070248e-02,5.535690255115710556e-02,6.645978173472281980e-03,5.687676868727683556e-03,1.735829474058995237e-01,-2.519896030426025391e-01,-5.065324298773318801e-02,6.104776674704270878e-02,-1.162743355791938660e-01,3.256790995597839133e-01,3.244125962257385365e-01,-1.562575325850435182e-01,2.256790995597839355e-01,2.244125962257385309e-01,-1.755199670791625921e-01,5.449243355760843288e-01,-5.196037888526916504e-01,-1.043650984764099121e+00,3.740780202747386340e+01,-7.414910793304443914e-02
1.337622000000000089e+00,4.032437284736483350e-03,1.660865707599298857e-01,7.852165699005126953e-01,-3.334740509218382665e-02,5.007741867465242969e-02,5.571375444184919253e-04,1.663004021780336780e-02,1.836424760789976407e-01,-1.869224458932876587e-01,2.526857215343146223e-01,-1.836840544052575075e-01,-1.383607290689808922e-01,3.252406120300292969e-01,3.242433130741119163e-01,-1.597840663464996092e-01,2.252406120300292913e-01,2.242433130741119385e-01,-1.612683534622192383e-01,5.396320806458815289e-01,-6.052355766296386719e-01,-1.846816956996917725e+00,1.112664248627165051e+02,-7.414910793304443914e-02
1.375391000000000030e+00,3.486595112142488323e-03,1.727273290716191956e-01,7.812842726707458496e-01,-2.178829774128010835e-02,3.891008095866088645e-02,-1.803817417157457543e-03,3.580891527631883953e-02,1.997994320465594220e-01,-1.725531518459320068e-01,3.621526503793406349e-01,-3.271004799739682944e-01,-5.887864888539992569e-02,3.240054726600646862e-01,3.228583276271820290e-01,-1.464330830973785136e-01,2.240054726600646806e-01,2.228583276271819957e-01,-1.404776573181152344e-01,5.389058565516575694e-01,-6.256626844406127930e-01,-1.036795258522033691e+00,9.150002132923968645e+01,-7.414910793304443914e-02
1.412301999999999946e+00,3.033792692195253805e-03,1.773654971206974629e-01,7.789189219474792480e-01,-1.223233156799050439e-02,2.894852212634280164e-02,-2.768666182280883886e-03,3.606388902745057135e-02,1.993219195036616542e-01,-1.352152228355407715e-01,3.497687991980540922e-01,-3.243868018959922273e-01,-3.239923149935742402e-02,3.207823514938354381e-01,3.211886703968048207e-01,-1.343235359875303292e-01,2.207823514938354326e-01,2.211886703968048151e-01,-1.254227757453918457e-01,5.366326871082356398e-01,-6.314227581024169922e-01,-9.420450925827026367e-01,1.883114299835130794e+02,-7.414910793304443914e-02
1.452468000000000092e+00,2.909409380636291537e-03,1.855598836504702420e-01,7.760147452354431152e-01,3.972804152928570767e-03,1.217344929195918191e-02,-2.574559902626654979e-03,4.121374018715830145e-02,1.952650837244576942e-01,-1.271294802427291870e-01,2.892734442866295441e-01,-3.940051945042381543e-01,3.241533540714704870e-02,3.137322187423706166e-01,3.145604491233825462e-01,-8.778481814116939619e-02,2.137322187423706110e-01,2.145604491233825684e-01,-7.960349321365356445e-02,5.379073704757432184e-01,-5.583580732345581055e-01,-9.725338220596313477e-01,9.983424547524592185e+01,-7.414910793304443914e-02
1.487799000000000094e+00,3.637577060876142146e-03,1.903250629789941806e-01,7.746717929840087891e-01,1.366656676384972111e-02,2.294223522627092393e-03,-1.453735595256500394e-03,5.253205024770231379e-02,2.119548307935847919e-01,-1.220787167549133301e-01,2.463491152377710047e-01,-2.923219032136026296e-01,6.526070561914702750e-02,3.067937374114990123e-01,2.485135366439847893e-01,-5.580817148643683889e-02,2.067937374114990068e-01,1.962735593318939153e-01,-5.112905502319335660e-02,5.388501348298000426e-01,-5.109056830406188965e-01,-1.576949715614318848e+00,9.346867992352329679e+01,-7.414910793304443914e-02
1.526056000000000079e+00,5.083873579760298834e-03,1.964695377462027381e-01,7.733748555183410645e-01,2.681493675065028948e-02,-1.149541337099191374e-02,-6.481892194882484827e-05,3.070955640433367315e-02,1.949434110013432697e-01,-9.355231374502182007e-02,2.732844611361329723e-01,-3.267996698551316470e-01,3.185599911941978252e-02,2.614061213579369491e-01,2.334840693899378067e-02,3.022645492636608436e-02,1.830416321754455566e-01,7.668467760086059015e-02,2.965312600135803014e-02,5.370688051362042525e-01,-5.167080163955688477e-01,-5.660952329635620117e-01,-3.740842528223562446e+00,-7.414910793304443914e-02
1.563682000000000016e+00,6.418303363622425775e-03,2.024115492184500320e-01,7.723856568336486816e-01,4.006631833269302945e-02,-2.516807869990445035e-02,1.452445885077254233e-03,3.640388771416296076e-02,1.831022563670089143e-01,-8.065389096736907959e-02,3.511747869937563160e-01,-3.796577316287874648e-01,1.092697695962171166e-02,3.093605936247541960e-02,-2.540123701095581277e-01,1.323610228820887857e-01,4.011147022247314037e-02,-1.540123701095580944e-01,1.260224461555480846e-01,5.387929914405320542e-01,-3.894876241683959961e-01,-1.094166636466979980e+00,-9.853622949518752705e+01,-7.414910793304443914e-02
1.598894999999999955e+00,7.480379239874452441e-03,2.071980350023996664e-01,7.716862559318542480e-01,4.941549484517290813e-02,-3.519077897890721118e-02,2.610772102897260943e-03,3.677130796071261670e-02,1.823036257810871086e-01,-8.434297889471054077e-02,2.677747104669506717e-01,-3.103094542607840456e-01,4.397371421751256927e-03,-2.003329911359361670e-01,-2.938029050827026256e-01,1.505069559845900740e-01,-1.348750591278076172e-01,-1.938029050827026201e-01,1.393986940383911133e-01,5.400733163608336662e-01,-3.519408702850341797e-01,-1.317976593971252441e+00,-2.565293718285519375e+01,-7.414910793304443914e-02
1.635868000000000100e+00,8.653330951328795997e-03,2.134121517659105238e-01,7.707087993621826172e-01,6.241891158078213125e-02,-4.899267390732409133e-02,3.542625806947394956e-03,3.186618871221368055e-03,1.493403829602651389e-01,-6.362017244100570679e-02,3.540248563915932012e-01,-3.535259232845341382e-01,-2.354787714735943199e-02,-2.953919708728790505e-01,-3.116766452789306863e-01,1.812168517461781037e-01,-1.953919708728790172e-01,-2.116766452789306530e-01,1.646521747112274225e-01,5.337944908162993718e-01,-6.335414648056030273e-01,-1.195524334907531738e+00,9.777593381791673721e+01,-7.414910793304443914e-02
1.670851000000000086e+00,9.185719910363295340e-03,2.188590564354581658e-01,7.696898579597473145e-01,7.498907142694224981e-02,-6.098591495798033613e-02,3.570634187482079388e-03,9.671899573598714828e-03,1.343690240741349240e-01,-6.818998605012893677e-02,3.193935574420047607e-01,-2.832752825973711142e-01,-1.750067638097667702e-02,-3.071650087833404652e-01,-3.146336913108825906e-01,2.074130691319636954e-01,-2.071650087833404597e-01,-2.146336913108825573e-01,1.883235812187194769e-01,5.335062931336503889e-01,-6.861774325370788574e-01,-1.049516081809997559e+00,-6.771937218657380697e+01,-7.414910793304443914e-02
1.713575000000000070e+00,9.913219542169327686e-03,2.247334056353205434e-01,7.684510946273803711e-01,8.575063203656749233e-02,-6.788097648846380672e-02,2.305022872759251908e-03,-7.157399155195901322e-03,1.109988682878721156e-01,-7.122481614351272583e-02,2.471304425990950571e-01,-4.243663045640587439e-02,-6.242909614521921502e-02,-3.110753297805786133e-01,-3.156190991401672252e-01,2.186728699115964014e-01,-2.110753297805786077e-01,-2.156190991401672197e-01,2.008911073207855225e-01,5.338105207666759000e-01,-7.002511024475097656e-01,-1.057863593101501465e+00,1.179745790428286369e+02,-7.414910793304443914e-02
1.750779000000000085e+00,1.016493901930697052e-02,2.284930570300941488e-01,7.672415375709533691e-01,9.118303822408604931e-02,-6.732858148153120226e-02,4.504003337316214912e-04,-1.877414135524527183e-02,9.942098276457957129e-02,-7.625692337751388550e-02,1.264425009668618261e-01,7.156761477265188853e-02,-4.062764140528356965e-02,-3.115710914134979248e-01,-3.152526378631591575e-01,2.159409872473256886e-01,-2.115710914134979193e-01,-2.152526378631591797e-01,2.027975499629974254e-01,5.346326255263885718e-01,-6.948217153549194336e-01,-1.605363488197326660e+00,7.065123771799095209e+01,-7.414910793304443914e-02
1.790875999999999912e+00,1.035872040465169591e-02,2.329482967171724317e-01,7.649647593498229980e-01,9.070734748613419607e-02,-5.758145541411296975e-02,-2.269201155924749011e-03,-2.890262294401134066e-02,8.138215737328149957e-02,-8.766189962625503540e-02,-1.287413610036048928e-01,3.704809404442253040e-01,-4.163085559640909705e-02,-3.090465605258941872e-01,-3.131595134735107311e-01,2.062417672893485932e-01,-2.090465605258941539e-01,-2.131595134735107255e-01,2.023980438709258867e-01,5.364595107021753462e-01,-6.633258461952209473e-01,-1.058719515800476074e+00,6.641130899824632650e+01,-7.414910793304443914e-02
1.832702000000000053e+00,1.077854512121374959e-02,2.377144888506626530e-01,7.612017393112182617e-01,7.931225316249958246e-02,-4.023251995005860948e-02,-6.343511056797323383e-03,-4.967481068720102505e-02,6.077393475089540309e-02,-1.043587699532508850e-01,-2.909352252712616993e-01,3.664653597759305881e-01,-6.199113397792151842e-02,-3.026560366153717152e-01,-3.073405861854553445e-01,1.722154662955867055e-01,-2.026560366153717097e-01,-2.073405861854553112e-01,1.831889033317565807e-01,5.425629046969360214e-01,-4.216396808624267578e-01,-1.286418318748474121e+00,7.895100355963447214e+01,-7.414910793304443914e-02
1.868721999999999994e+00,1.059952800941820275e-02,2.399096984101105612e-01,7.585284113883972168e-01,7.019855474610589563e-02,-2.944778719612117790e-02,-9.675934475350313549e-03,-5.025943236351705645e-02,3.558226096916666109e-02,-9.236290305852890015e-02,-2.889945373111386107e-01,3.673403589975310357e-01,-1.169726190416318368e-01,-2.948774337768554910e-01,-2.945419430732726940e-01,1.590216482028359024e-01,-1.948774337768554576e-01,-1.945419430732726884e-01,1.815436720848083441e-01,5.503962039769302317e-01,3.901612758636474609e-02,-1.275215029716491699e+00,1.010514398268555567e+02,-7.414910793304443914e-02
1.903788000000000036e+00,9.934431231440528712e-03,2.424455240988960536e-01,7.544875144958496094e-01,5.678014973611389404e-02,-1.468262249907281713e-02,-1.463781888750171137e-02,-5.783407977369442454e-02,2.587185421643716648e-02,-1.081652268767356873e-01,-3.134880533362882082e-01,3.601393069812014458e-01,-1.381795163991223208e-01,-2.895221352577209695e-01,-2.897280216217040794e-01,1.480260969625392387e-01,-1.895221352577209362e-01,-1.897280216217041016e-01,1.867280960083007868e-01,5.494456543267531856e-01,-1.105183959007263184e-01,-1.446425199508666992e+00,1.251580392570927955e+02,-7.414910793304443914e-02
1.939027000000000056e+00,9.168555699124981972e-03,2.442080000686663588e-01,7.510440945625305176e-01,4.560792773988436161e-02,-3.835347425965140999e-03,-1.851423866752210587e-02,-6.671064394077660942e-02,1.144931634984426398e-02,-1.107482537627220154e-01,-3.807409868408078157e-01,3.607010870708078909e-01,-1.424115379558169303e-01,-2.476950526237487737e-01,-2.183703582771540919e-01,1.555477339557094496e-01,-1.476950526237487682e-01,-1.572192907333374023e-01,2.064485013484954889e-01,5.502427867147343665e-01,-1.068283319473266602e-01,-4.113328456878662109e-02,-4.761659976572042652e+00,-8.226656913757323872e-03
1.977967000000000031e+00,8.136258586575512500e-03,2.461467376704405685e-01,7.460663914680480957e-01,3.033769107404253942e-02,1.015844374077778944e-02,-2.387250318433915830e-02,-4.586294501383024469e-02,1.074938746290036648e-02,-1.172422766685485840e-01,-4.130461673379074439e-01,3.305676575671548933e-01,-1.319089160913956560e-01,1.761578846760636363e-01,2.509212228882373719e-01,1.280232127882378612e-01,1.922582030296325628e-01,2.063201308250427191e-01,1.954518556594848633e-01,5.422649605255842609e-01,-6.180241107940673828e-01,-1.183622241020202637e+00,9.788348197658775973e+01,-8.226656913757323872e-03
2.011750999999999845e+00,6.198416997124273770e-03,2.471289638311146286e-01,7.409275174140930176e-01,1.586579753265348822e-02,2.458946445963272609e-02,-2.932657223182609865e-02,-5.134367991774800577e-02,3.086287923691583349e-03,-1.091247946023941040e-01,-3.557158294990491743e-01,3.778134118025534005e-01,-1.041319112678288222e-01,2.896655472031427481e-01,3.210240006446838379e-01,2.700736883203110061e-02,2.167526721954345648e-01,2.210240006446838323e-01,1.103494942188262967e-01,5.412586635179154060e-01,-6.804499030113220215e-01,-1.058815121650695801e+00,9.584693813214339286e+01,-8.226656913757323872e-03
2.049446999999999797e+00,4.736432629370738306e-03,2.476545910780827420e-01,7.368979454040527344e-01,4.945034946257604452e-03,3.548727957790132059e-02,-3.332448190919054531e-02,-2.926696602025236765e-02,1.478333043670075793e-02,-1.103728264570236206e-01,-3.542376521821972157e-01,3.827117417948588951e-01,-1.032325522293560810e-01,3.242243051528930775e-01,3.231259584426879883e-01,-1.564864465991403775e-01,2.242243051528930720e-01,2.231259584426879827e-01,-6.159464120864868025e-02,5.416903837823873191e-01,-6.966938376426696777e-01,-1.302210211753845215e+00,7.649102896778433092e+01,-8.226656913757323872e-03
2.085890000000000022e+00,3.277962267695579395e-03,2.484784040955384243e-01,7.317475676536560059e-01,-9.622220998093847927e-03,4.882611502712985718e-02,-3.828373808905780745e-02,-1.865718153956603606e-02,1.588006276131875144e-02,-9.070155024528503418e-02,-3.388657640746907118e-01,3.198533842409186922e-01,-6.523190835049083591e-02,3.272684335708617720e-01,3.264381825923919900e-01,-2.691573381423950084e-01,2.272684335708617942e-01,2.264381825923919567e-01,-1.691573381423950029e-01,5.402624697855251679e-01,-7.367793917655944824e-01,2.831047773361206055e-01,-6.742003231600882884e+01,5.662095546722412109e-02
2.119526000000000021e+00,1.734554193550488050e-03,2.488995221873324393e-01,7.272100448608398438e-01,-2.234309816989762248e-02,6.082548971926793335e-02,-4.388127515822700525e-02,4.328876031670525308e-03,2.751571410882314855e-02,-8.011803776025772095e-02,-3.304611051473791972e-01,3.373599964258245931e-01,-7.188901055657132000e-02,3.276299238204956055e-01,3.267880320549011453e-01,-2.810604810714721902e-01,2.276299238204955999e-01,2.267880320549011119e-01,-1.810604810714721569e-01,5.400587828427592108e-01,-7.427209019660949707e-01,-9.812880754470825195e-01,8.505370245095998882e+01,5.662095546722412109e-02
2.157900000000000151e+00,1.111380417342900176e-03,2.494420060707045472e-01,7.243850827217102051e-01,-2.727404990520709144e-02,6.536611348455578785e-02,-4.759016076822815411e-02,1.150539296542195042e-02,2.747638599142851468e-02,-5.216455087065696716e-02,-7.392969438369519086e-02,6.680385804320061738e-02,-6.481980446072624358e-02,3.274867296218871848e-01,3.268883109092712291e-01,-2.826806068420409934e-01,2.274867296218872070e-01,2.268883109092712236e-01,-1.826806068420410156e-01,5.385021808099016427e-01,-7.462551593780517578e-01,-1.241366028785705566e+00,9.800335862671065001e+01,5.662095546722412109e-02
2.197255000000000180e+00,5.191087088727598664e-04,2.498090060760780051e-01,7.214969396591186523e-01,-2.404318845150060086e-02,5.977162026521232185e-02,-5.034183468515543436e-02,2.213894814790079088e-02,2.556977990764111239e-02,-1.764413900673389435e-02,1.011431022454994111e-01,-2.544879003271882656e-01,-4.349970913222640095e-02,3.275283932685851829e-01,3.268839120864868164e-01,-2.892859220504760964e-01,2.275283932685852051e-01,2.268839120864868109e-01,-1.892859220504760631e-01,5.365173477900218035e-01,-7.460568547248840332e-01,-1.120589137077331543e+00,1.056632791770965554e+02,5.662095546722412109e-02
2.235200999999999993e+00,5.661250126277368603e-05,2.492452545720560408e-01,7.194227576255798340e-01,-1.322510144047642743e-02,4.665356830322253678e-02,-4.919203460463882072e-02,2.769970191037694762e-02,3.721329437323468020e-02,8.125053718686103821e-03,3.122251550227320149e-01,-3.889586004031522770e-01,2.719783814978687583e-02,3.274695277214050293e-01,3.267173826694488303e-01,-2.922754764556884655e-01,2.274695277214050237e-01,2.267173826694488525e-01,-1.922754764556884599e-01,5.351308908089381644e-01,-7.435889840126037598e-01,-3.363207578659057617e-01,-6.141217060130892946e+01,5.662095546722412109e-02
2.279907000000000128e+00,3.594207893834156734e-04,2.490144736479364684e-01,7.173113822937011719e-01,2.284138856622252960e-03,2.878551690843433875e-02,-4.442872854380267023e-02,4.951758195548290609e-02,3.615924933996043922e-02,1.761885173618793488e-02,2.804191495516418220e-01,-3.948292887692450015e-01,1.501370227282394776e-01,3.271081447601318359e-01,3.256765425205230269e-01,-2.608606934547424427e-01,2.271081447601318304e-01,2.256765425205230491e-01,-1.608606934547424372e-01,5.350041721512273085e-01,-7.347282171249389648e-01,-1.148509860038757324e+00,1.024681098531754202e+02,5.662095546722412109e-02
2.313282000000000060e+00,1.468636843786609971e-03,2.487772619071575986e-01,7.162365913391113281e-01,1.264279033330178992e-02,1.880968006089345224e-02,-4.075612189050586975e-02,5.386916040552334334e-02,4.012462306170254400e-02,2.194909751415252686e-02,2.891694119568024024e-01,-3.025822048303604128e-01,1.293909597994928606e-01,3.264729976654052734e-01,3.236171066761016624e-01,-2.399393200874328502e-01,2.264729976654052679e-01,2.236171066761016846e-01,-1.399393200874328447e-01,5.352135765385011013e-01,-7.237960696220397949e-01,-9.696587324142456055e-01,1.012634147477469071e+02,5.662095546722412109e-02
2.348240000000000105e+00,2.913990797076106056e-03,2.484247305051631438e-01,7.153054475784301758e-01,2.354470351783738077e-02,7.910199296134790004e-03,-3.658858126327055316e-02,4.781454701914950728e-02,3.214884763959176273e-02,2.770819887518882751e-02,3.303425246849877595e-01,-3.812896232265690077e-01,1.678406928715191759e-01,2.794058233458094898e-01,2.981073711233582224e-01,-8.224779963493347723e-02,2.258038759231567327e-01,2.215815424919128362e-01,1.775220036506652832e-02,5.353238257765183805e-01,-7.108860611915588379e-01,-1.075774788856506348e+00,1.037427119447590087e+02,5.662095546722412109e-02
2.387102000000000057e+00,4.928891751698537965e-03,2.478826553276778366e-01,7.142853140830993652e-01,3.771063736822453244e-02,-7.482146688559510039e-03,-3.085890768135790899e-02,6.510124545600189105e-02,2.386633030127676205e-02,3.283825889229774475e-02,3.009092327312746229e-01,-4.044096772787822425e-01,1.332172497858395144e-01,1.519018226748089506e-01,1.788678397528292996e-01,1.207492440796566202e-01,1.937803745269775224e-01,1.870143949985504095e-01,2.070761561393737737e-01,5.408082119843804492e-01,-4.033033251762390137e-01,-6.776431798934936523e-01,-1.085690397255059025e+02,5.662095546722412109e-02
2.424421000000000159e+00,7.810211062527829332e-03,2.473437581992105616e-01,7.132375836372375488e-01,5.227498469073482007e-02,-2.278237835945029488e-02,-2.485826537804181405e-02,5.956111376963838661e-02,1.616045824401601480e-02,4.737832024693489075e-02,3.647251313448370835e-01,-3.816223953312952721e-01,9.731044226358165350e-02,-2.770779550075531117e-01,-2.841885089874267578e-01,1.454092730443094228e-01,-1.770779550075531061e-01,-1.841885089874267523e-01,2.130654215812683161e-01,5.513361654539410406e-01,2.285240888595581055e-01,-9.952009916305541992e-01,8.873938181012559312e+01,5.662095546722412109e-02
2.459699000000000080e+00,9.948758235655620272e-03,2.466736221334230594e-01,7.123237848281860352e-01,6.306862078895862644e-02,-3.396409253483101409e-02,-2.044512436833387931e-02,3.638697632259155906e-02,-1.299664085517553309e-02,5.411870777606964111e-02,3.422882619935452286e-01,-4.295811691602420268e-01,1.286426442250370727e-01,-3.153017759323120117e-01,-3.105008363723754661e-01,1.597372458225118641e-01,-2.153017759323120062e-01,-2.105008363723754883e-01,2.131543457508087158e-01,5.561850201934112059e-01,5.165938138961791992e-01,-5.815736055374145508e-01,-4.146496854540728094e+01,5.662095546722412109e-02
2.496487000000000123e+00,1.240049552732017113e-02,2.451440748826228533e-01,7.113128304481506348e-01,7.685823495467228317e-02,-4.856407177201060854e-02,-1.478709395651314588e-02,3.360013745977520616e-02,-2.867130896345225152e-02,4.691433906555175781e-02,3.597235892053359252e-01,-3.960030067179846625e-01,1.362093205966133924e-01,-3.225249111652374046e-01,-3.167328238487243652e-01,1.831579707283136627e-01,-2.225249111652374268e-01,-2.167328238487243597e-01,2.181619048118591253e-01,5.483862382291515569e-01,3.165864944458007812e-02,-1.281738638877868652e+00,-1.307198230246464554e+01,5.662095546722412109e-02
2.534222000000000197e+00,1.539146194251096028e-02,2.443750102401408830e-01,7.106848955154418945e-01,8.651266451792109791e-02,-5.910480548558960656e-02,-1.239210611863200175e-02,2.459909965674619142e-02,-4.438302442579608598e-02,3.756929934024810791e-02,2.856017919453063825e-01,-3.153814545442333306e-01,3.831450902813225701e-02,-3.205290436744689941e-01,-3.181146621704101785e-01,1.956866410532459299e-01,-2.205290436744689886e-01,-2.181146621704101451e-01,2.217348754405975286e-01,5.392391982092211711e-01,-5.305458307266235352e-01,-9.389775991439819336e-01,1.485885660727146558e+02,5.662095546722412109e-02
2.568452999999999875e+00,1.876424638916340468e-02,2.424072888960543681e-01,7.098436355590820312e-01,9.829703671063269588e-02,-7.138483800317119154e-02,-1.246517806441950829e-02,7.136873753931822530e-03,-7.774570593316453004e-02,3.925345465540885925e-02,2.287229367338504959e-01,-2.989748961647482606e-01,-2.550812310297942767e-02,-3.213820755481719971e-01,-3.173752665519714578e-01,1.966234359714095214e-01,-2.213820755481719915e-01,-2.173752665519714244e-01,2.199258685111999401e-01,5.361629668041735242e-01,-7.084276676177978516e-01,-1.075346112251281738e+00,6.316438050079482736e+01,5.662095546722412109e-02
2.604408999999999974e+00,2.176976699850660321e-02,2.398866869010990721e-01,7.086346745491027832e-01,1.011645196916221845e-01,-7.399640834452503313e-02,-1.392392900196917291e-02,1.479945750525624854e-02,-8.830355056039332351e-02,1.883727125823497772e-02,-1.056231148480805543e-01,6.014827460806757009e-02,-2.049988899447046861e-02,-3.217719256877898948e-01,-3.150776863098144753e-01,1.911667907745043526e-01,-2.217719256877899170e-01,-2.150776863098144420e-01,2.181394636631011907e-01,5.377642190740511419e-01,-7.187113165855407715e-01,-1.015648484230041504e+00,9.938977774519651120e+01,5.662095546722412109e-02
2.637735000000000163e+00,2.416319224833194529e-02,2.383241145067385713e-01,7.075380682945251465e-01,9.578370921423438877e-02,-6.824034214898611062e-02,-1.522059133663868601e-02,-1.022278913057278471e-02,-9.845506613221530201e-02,2.243401296436786652e-02,-2.184826027930972525e-01,2.497395701022363801e-01,-6.914371243048041127e-02,-3.213584184646606223e-01,-3.152078986167907715e-01,1.868881434422396404e-01,-2.213584184646606445e-01,-2.152078986167907659e-01,2.186092436313629150e-01,5.382308098104090499e-01,-6.959587335586547852e-01,-1.341539502143859863e+00,1.045447264174802342e+02,5.662095546722412109e-02
2.670345999999999886e+00,2.603375712480888310e-02,2.361140144386544848e-01,7.064130902290344238e-01,8.698982874998609227e-02,-5.961124886782598331e-02,-1.656051689778524974e-02,-1.657820257640860162e-02,-1.204023160955107336e-01,2.705703489482402802e-02,-3.108285551512438016e-01,3.170439691462729748e-01,-6.953237287165030256e-02,-3.213593482971191517e-01,-3.155637741088866965e-01,1.841323282989419663e-01,-2.213593482971191462e-01,-2.155637741088867188e-01,2.219136714935302790e-01,5.405916293565290465e-01,-5.635594129562377930e-01,3.884049654006958008e-01,-9.123352783839330016e+01,7.768099308013916293e-02
2.704525999999999986e+00,2.787885290099744590e-02,2.323941188603796948e-01,7.052030563354492188e-01,7.444375850511322779e-02,-4.613903633289107020e-02,-1.927969959243257952e-02,-2.872205014679439505e-02,-1.466805240318498904e-01,2.479837648570537567e-02,-3.420422179058304479e-01,3.373091962391156495e-01,-9.064130620730123655e-02,-3.214158713817596436e-01,-3.117219209671020508e-01,1.679653359494457654e-01,-2.214158713817596380e-01,-2.117219209671020452e-01,2.161692023277282659e-01,5.474747114061052633e-01,-2.052379846572875977e-01,-1.043084979057312012e+00,9.900787454794442510e+01,7.768099308013916293e-02
2.739599000000000117e+00,2.906941410767235195e-02,2.291977333310119547e-01,7.043738365173339844e-01,6.424819934647617303e-02,-3.546869323770729387e-02,-2.131785696793931859e-02,-3.908777103302311234e-02,-1.461121373621789843e-01,2.523732371628284454e-02,-3.167044211884123550e-01,3.671293326758146569e-01,-6.242476651087511264e-02,-3.167489349842071422e-01,-3.049235582351684792e-01,1.501053036349537240e-01,-2.167489349842071367e-01,-2.049235582351684459e-01,2.057514667510986217e-01,5.545390943873849121e-01,1.783421039581298828e-01,-9.615560770034790039e-01,1.008457623403789682e+02,7.768099308013916293e-02
2.772489000000000203e+00,3.006627241182127305e-02,2.243472274478560402e-01,7.032212018966674805e-01,5.005273990376320203e-02,-2.138598438514982547e-02,-2.457381969175704423e-02,-4.764225929265501064e-02,-1.582349918665125754e-01,2.696665003895759583e-02,-2.980085124508257688e-01,3.739407640878423811e-01,-7.444371496781282405e-02,-3.100745081901550293e-01,-2.966580629348755105e-01,1.248073783234622536e-01,-2.100745081901550237e-01,-1.966580629348754772e-01,1.915770828723907526e-01,5.587959064349098393e-01,4.098098278045654297e-01,-9.601193666458129883e-01,1.084012014870311731e+02,7.768099308013916293e-02
2.806201999999999863e+00,3.054292668997233423e-02,2.203915748236804084e-01,7.024059295654296875e-01,3.931041358629404348e-02,-1.135435124560535414e-02,-2.736703498728572728e-02,-4.438397558361808354e-02,-1.730892969970678485e-01,2.492295578122138977e-02,-3.553158151578306168e-01,3.355117651799248146e-01,-1.254999718679929155e-01,-3.124354958534240612e-01,-2.721924660169610100e-01,1.185277591196201019e-01,-2.124354958534240556e-01,-1.907617807388305720e-01,1.942760646343231201e-01,5.565828504036071100e-01,2.592033147811889648e-01,-1.014029622077941895e+00,8.917871323791915472e+01,7.768099308013916293e-02
2.839239000000000068e+00,3.062359830785320314e-02,2.157106477075817763e-01,7.016389966011047363e-01,2.911153280232548629e-02,-7.088019007395196525e-04,-3.028848914921420180e-02,-4.532408487744261916e-02,-1.715586820503005039e-01,1.875921711325645447e-02,-3.531574251671338316e-01,3.882950077353855001e-01,-8.831574669052637272e-02,-3.169431090354919434e-01,-1.691075588139792085e-01,1.152309965527849311e-01,-2.169431090354919378e-01,-1.558602333068847545e-01,1.999314486980438288e-01,5.548521632617897659e-01,1.194840669631958008e-01,-8.286026716232299805e-01,-1.413418446463578562e+02,7.768099308013916293e-02
2.871338999999999864e+00,3.072409353421977699e-02,2.093259037675053447e-01,7.005627155303955078e-01,1.486517073359040764e-02,1.357315089305166644e-02,-3.415760885297717403e-02,-3.983155821336720193e-02,-1.704531061061106134e-01,1.765860058367252350e-02,-3.690332054168660170e-01,3.758003901261068869e-01,-5.971727616405069633e-02,-2.376889284299923411e-01,2.832837244077032191e-01,9.114577907101983900e-02,-2.109603345394134577e-01,1.992513298988342341e-01,1.872561156749725231e-01,5.505209847687630997e-01,-1.481549143791198730e-01,-7.288044691085815430e-01,7.594470945683170271e+01,7.768099308013916293e-02
2.903973999999999833e+00,3.085686262454977180e-02,2.045516349576127491e-01,6.999236941337585449e-01,3.575735320957282477e-03,2.371923262421238299e-02,-3.703391522937494323e-02,-3.091669877381024445e-02,-1.643265091885069140e-01,2.912916988134384155e-02,-3.500513008828170514e-01,3.511978537860395710e-01,-6.781174738132429713e-02,-4.768126367936877802e-02,3.194151759147644265e-01,-5.713656544685364463e-02,-9.569896459579467496e-02,2.194151759147643932e-01,4.286343455314636092e-02,5.413378086858157134e-01,-6.335644125938415527e-01,-1.213507533073425293e+00,9.587382858690573073e+01,7.768099308013916293e-02
2.936561000000000199e+00,3.098991790839277990e-02,1.987917263807917057e-01,6.997704505920410156e-01,-7.163696914841449770e-03,3.349118892665359226e-02,-4.004972457601928271e-02,-2.210901270482119874e-02,-1.663246435892976882e-01,5.264461040496826172e-02,-3.180733694546292734e-01,3.269941821048722441e-01,-1.149468800977543753e-01,1.737352490425109752e-01,3.198347270488738903e-01,-7.171948552131653110e-02,7.373524904251098355e-02,2.198347270488738847e-01,2.828051447868347099e-02,5.392738894179217590e-01,-6.682265400886535645e-01,-1.147230744361877441e+00,9.486619126922126100e+01,7.768099308013916293e-02
2.970695000000000086e+00,3.144784233610345425e-02,1.931937662466245709e-01,7.000951170921325684e-01,-1.739217010158565502e-02,4.308489796466785648e-02,-4.288749121857127200e-02,-9.257929360010186404e-03,-1.580485427685410782e-01,7.002881169319152832e-02,-3.305742966560013540e-01,3.004184916033303399e-01,-1.031087939834981065e-01,2.983188509941100963e-01,3.219237387180328147e-01,-1.283677935600280873e-01,1.983188509941100908e-01,2.219237387180328369e-01,-2.836779356002807478e-02,5.375975848230875043e-01,-7.028512954711914062e-01,-9.404863119125366211e-01,8.043432257187531320e+01,7.768099308013916293e-02
3.004534000000000038e+00,3.262704067152764204e-02,1.861244026556604092e-01,7.012655138969421387e-01,-3.108517954575735001e-02,5.552711915139418863e-02,-4.679966613513651674e-02,1.513927929431707620e-02,-1.419072010533523609e-01,9.059219807386398315e-02,-3.651156839179218183e-01,3.037668718458215733e-01,-1.079264315055714907e-01,3.156465649604797141e-01,3.246482729911804310e-01,-2.282110571861267201e-01,2.156465649604797363e-01,2.246482729911804255e-01,-1.282110571861267145e-01,5.358244276412407192e-01,-7.258970737457275391e-01,-8.178174495697021484e-02,9.741018401805172289e+01,7.768099308013916293e-02
3.038022999999999918e+00,3.346505830859081848e-02,1.808847996928861779e-01,7.026488184928894043e-01,-4.141762138815428124e-02,6.138931267284886140e-02,-4.936392878866505823e-02,2.605606606251914190e-02,-1.330998955788405547e-01,1.093929260969161987e-01,-3.476439203039990433e-01,1.128729448708523236e-01,-8.396182423013658080e-02,3.197123289108276256e-01,3.251252412796020730e-01,-2.523927092552185059e-01,2.197123289108276201e-01,2.251252412796020397e-01,-1.523927092552185003e-01,5.349204368935240872e-01,-7.056067585945129395e-01,-1.211030125617980957e+00,9.760189376767563374e+01,7.768099308013916293e-02
3.071849999999999969e+00,3.449640177356221721e-02,1.760545354113029759e-01,7.047114968299865723e-01,-4.965477439958449618e-02,5.958776200425797143e-02,-5.021017338800441709e-02,3.076549398179111508e-02,-1.122771016890681817e-01,1.289569735527038574e-01,-2.701488606471427190e-01,-1.686625404088775704e-01,8.936844432212782269e-03,3.238053441047668568e-01,3.251964271068572554e-01,-2.751131296157837136e-01,2.238053441047668513e-01,2.251964271068572776e-01,-1.751131296157836803e-01,5.340483534531913490e-01,-6.770749688148498535e-01,-7.629140615463256836e-01,9.615736339973129532e+01,7.768099308013916293e-02
3.107038999999999884e+00,3.626213962134484936e-02,1.703616198723271191e-01,7.083083987236022949e-01,-5.437296944833663881e-02,4.824613864056859214e-02,-4.946216901006272176e-02,4.931583217010002129e-02,-9.396466893952901134e-02,1.576119959354400635e-01,-3.014210269525350108e-02,-3.151841309113785350e-01,-1.265462524140629694e-02,3.246980190277099498e-01,3.254442453384399636e-01,-2.939996719360351562e-01,2.246980190277099443e-01,2.254442453384399303e-01,-1.939996719360351507e-01,5.319131825797484003e-01,-6.744837760925292969e-01,-1.098085761070251465e+00,-6.481981344993081962e+01,7.768099308013916293e-02
3.139727999999999852e+00,3.757112896173690764e-02,1.659251224621675069e-01,7.114524841308593750e-01,-5.218139236956566285e-02,3.687242109356114739e-02,-4.805317590350521861e-02,6.132029275150022857e-02,-8.753891294814269974e-02,1.723364889621734619e-01,1.509092829056004614e-01,-4.520549062446920230e-01,6.218916882537142872e-03,3.230459213256836049e-01,3.250742435455322155e-01,-3.015438318252563477e-01,2.230459213256835993e-01,2.250742435455322099e-01,-2.015438318252563421e-01,5.305578389577141341e-01,-6.842750906944274902e-01,-8.559373617172241211e-01,6.856963511559200697e+01,7.768099308013916293e-02
3.171698000000000128e+00,3.941625803977502618e-02,1.602427216346576366e-01,7.159966826438903809e-01,-4.353421130181156506e-02,2.212806151849755487e-02,-4.397756036671494895e-02,7.952277229062686137e-02,-6.610192214605577210e-02,1.748619377613067627e-01,2.739948398176301758e-01,-3.769357303636176604e-01,1.324810223509473028e-01,3.193437576293945424e-01,3.231152474880218395e-01,-3.035650014877319114e-01,2.193437576293945368e-01,2.231152474880218339e-01,-2.035650014877319336e-01,5.300405735947515407e-01,-6.911600828170776367e-01,-1.102662920951843262e+00,-1.271539844571105959e+02,7.768099308013916293e-02
3.205544999999999867e+00,4.102173960404499609e-02,1.565428608048177461e-01,7.195075750350952148e-01,-3.437999030149873486e-02,1.076451876341488756e-02,-4.008772388931836766e-02,6.219853344421899521e-02,-5.767298408831431078e-02,1.826947033405303955e-01,3.498623173323958668e-01,-3.930750783292030759e-01,1.033927276618300944e-01,3.154067754745483176e-01,3.209070920944213645e-01,-3.084653973579406516e-01,2.154067754745483398e-01,2.209070920944213867e-01,-2.084653973579406738e-01,5.291966802986595164e-01,-6.970509886741638184e-01,-6.594895124435424805e-01,1.036554152969770684e+02,7.768099308013916293e-02
3.237579999999999902e+00,4.284325787930950286e-02,1.526554556825736875e-01,7.227497100830078125e-01,-2.399799538766476253e-02,-4.567797576688903405e-04,-3.576910617985812335e-02,7.460695753417292964e-02,-4.890108922131884694e-02,1.792879104614257812e-01,3.682619359194516107e-01,-4.034755803286256826e-01,1.110623719760659989e-01,3.110292315483093040e-01,2.863683969212292846e-01,-3.078289985656738059e-01,2.110292315483093262e-01,2.137123703956604059e-01,-2.078289985656738281e-01,5.292798629797795806e-01,-6.986500024795532227e-01,-1.104334473609924316e+00,8.478577462038789747e+01,7.768099308013916293e-02
3.270713000000000203e+00,4.539293156557674958e-02,1.476282893526126294e-01,7.270847558975219727e-01,-9.663298000455082873e-03,-1.476274060297244617e-02,-2.903856699546940312e-02,7.431693966962586717e-02,-3.974756332663671038e-02,1.707122325897216797e-01,3.851338135102375659e-01,-3.504775936982549300e-01,1.850432396332991614e-01,3.110009074211120828e-01,1.377022137308807070e-01,-2.649613826807799555e-01,2.110009074211120494e-01,1.583988547325134166e-01,-1.836965918540954534e-01,5.302366510268611277e-01,-6.682998538017272949e-01,-7.462641000747680664e-01,1.432036995725899544e+02,7.768099308013916293e-02
3.304984999999999840e+00,4.713708185910588794e-02,1.441809877164781928e-01,7.302461266517639160e-01,7.695110456726019432e-04,-2.586120623184662293e-02,-2.366459882663604977e-02,6.062553756711802633e-02,-3.806388940032823243e-02,1.718980818986892700e-01,3.539496660916319204e-01,-3.789515149585685472e-01,1.829342608329429798e-01,2.625275611877441184e-01,-2.660879611968994252e-01,-2.156138764699380428e-01,1.625275611877441406e-01,-1.660879611968994196e-01,-1.497721910476684515e-01,5.323932457291608022e-01,-5.373356342315673828e-01,-7.731200456619262695e-01,9.562438324822770142e+01,7.768099308013916293e-02
3.343084000000000167e+00,4.920623397351027439e-02,1.412945326651745548e-01,7.331196069717407227e-01,1.125583348742516775e-02,-3.742261431035731611e-02,-1.790834579701854404e-02,5.003400762706609883e-02,-4.455751827934054804e-02,1.739110052585601807e-01,3.888015696740719784e-01,-4.152189509782704402e-01,1.720866702863333986e-01,2.310365138189482415e-03,-3.055712938308715598e-01,8.867564819218073935e-02,-3.834266066551208357e-02,-2.055712938308715820e-01,1.377035737037658747e-01,5.440420405523441749e-01,1.232984066009521484e-01,-9.997855424880981445e-01,1.003912337416821288e+02,7.768099308013916293e-02
3.375754000000000143e+00,5.180013923837045731e-02,1.377871448355737771e-01,7.368339896202087402e-01,2.502491842236762715e-02,-5.263453734351286606e-02,-1.023473233705221586e-02,4.140058113002178380e-02,-3.920521304095955784e-02,1.606775522232055664e-01,3.893820045977693378e-01,-3.886876910457538470e-01,2.072848225054214899e-01,-1.439892064186088505e-01,-3.096359133720397727e-01,1.674723092171148398e-01,-9.749354124069213590e-02,-2.096359133720397949e-01,1.935268878936767523e-01,5.478401853004698507e-01,2.933458089828491211e-01,-8.464297056198120117e-01,1.047988572659289019e+02,7.768099308013916293e-02
3.412291000000000185e+00,5.326204628163039301e-02,1.351881762464128833e-01,7.393041253089904785e-01,3.503094780916670564e-02,-6.373552884336142199e-02,-4.444287240843175155e-03,2.055967615847953747e-02,-5.064514687851712910e-02,1.563442498445510864e-01,3.381115325516445558e-01,-3.750705854157037056e-01,1.630063501105264989e-01,-2.984609901905059814e-01,-3.153994798660278431e-01,1.920056541145905293e-01,-1.984609901905059759e-01,-2.153994798660278376e-01,2.004090249538421631e-01,5.426438262911807975e-01,-9.274661540985107422e-03,-3.418418169021606445e-01,-6.057908559805330384e+01,7.768099308013916293e-02
3.446963000000000221e+00,5.475133139546399519e-02,1.321582881483717442e-01,7.425380945205688477e-01,4.743214787665296639e-02,-7.623191628138870080e-02,3.206054894302255362e-03,-6.170695469859233465e-03,-6.988829879524015298e-02,1.431260406970977783e-01,2.919873659198808369e-01,-2.992254780067469255e-01,1.757377442673890844e-01,-3.170313000679015891e-01,-3.207860350608825462e-01,2.150371509583791918e-01,-2.170313000679016113e-01,-2.207860350608825684e-01,1.999581813812255915e-01,5.317596904452250861e-01,-6.557515859603881836e-01,-1.151065230369567871e+00,1.193519140097183993e+02,7.768099308013916293e-02
3.479188000000000169e+00,5.564418699212642094e-02,1.301357898802205371e-01,7.447000145912170410e-01,5.562092621165210665e-02,-8.076051156593111457e-02,8.809946647327596830e-03,3.735903421433966771e-03,-6.379933516622442180e-02,1.215988472104072571e-01,2.384235911924733886e-01,-5.964361398085595706e-02,2.177414175491512727e-01,-3.182598769664764515e-01,-3.211616516113281472e-01,2.404203554075459714e-01,-2.182598769664764460e-01,-2.211616516113281139e-01,2.085004448890686035e-01,5.325833774616905991e-01,-6.941367387771606445e-01,-7.530692815780639648e-01,-4.245311591829512565e+01,7.768099308013916293e-02
