timestamp,x,y,z,roll,pitch,yaw,vx,vy,vz,p,q,r,psp,qsp,rsp,pres,qres,rres,thrust_sp, thrust_res
0.000000000000000000e+00,3.327234708327976229e-03,3.668727651508478342e-03,1.002493143081665039e+00,1.493861607185728232e-02,-3.085869952594411103e-03,2.868434470756771023e-04,1.015970667921196197e-02,-2.237923393731058863e-02,7.894496084190905094e-04,-3.652360099662022713e-02,-3.322835017693611531e-02,-1.305605954750749774e-02,-1.000000000000000056e-01,-9.715602306160486118e-03,8.293101553302206774e-04,0.000000000000000000e+00,0.000000000000000000e+00,0.000000000000000000e+00,5.117072473525261511e-01,0.000000000000000000e+00,-1.666224300861358643e+00,8.954256424519491020e+01,-2.714178562164306502e-02
2.384000000000000008e-02,3.747781081631288043e-03,3.040910177318356580e-03,1.002518653869628906e+00,1.527269223578853023e-02,-3.335091669638412526e-03,1.918267369423936133e-04,1.675189419626672057e-03,-2.022642853903813473e-02,2.656782744452357292e-03,-1.766605861744363886e-03,-1.839964095434440741e-02,-3.947695948642710589e-02,-1.000000000000000056e-01,-1.940207406223598205e-02,5.936884781057583105e-04,0.000000000000000000e+00,0.000000000000000000e+00,0.000000000000000000e+00,5.115611607741012978e-01,0.000000000000000000e+00,-8.223100900650024414e-01,9.254949355559048740e+01,-2.714178562164306502e-02
4.736599999999999838e-02,4.326475108923704023e-03,2.114987577679043086e-03,1.002630949020385742e+00,1.565378739969492533e-02,-3.546983299170580750e-03,2.821839949672520667e-04,3.738954011490883828e-03,-1.860909181491402289e-02,-1.692644669674336910e-03,1.831026150745186654e-02,-2.184497895920149355e-02,4.303009958405699248e-02,-1.000000000000000056e-01,-1.747187534053203442e-02,8.426972142107636010e-04,0.000000000000000000e+00,0.000000000000000000e+00,0.000000000000000000e+00,5.118744735458830020e-01,0.000000000000000000e+00,-4.633058309555053711e-01,1.895594011675227932e+02,-2.714178562164306502e-02
7.326799999999999979e-02,4.879133612730359414e-03,1.284137608233288036e-03,1.002506971359252930e+00,1.545318293844907993e-02,-3.558147702302116855e-03,2.518616463527477249e-04,2.376958269183427046e-03,-1.959995648049656092e-02,-6.081736180931329727e-03,-3.356558573338461887e-02,8.783626833734656941e-03,-3.896204325285031189e-02,-1.000000000000000056e-01,-1.858128328537807586e-02,7.593383601278702599e-04,0.000000000000000000e+00,0.000000000000000000e+00,0.000000000000000000e+00,5.122123485424698863e-01,0.000000000000000000e+00,-7.129777669906616211e-01,9.641387115401113306e+01,-2.714178562164306502e-02
9.744500000000000384e-02,5.373246568141673389e-03,4.714062033146317380e-04,1.002268910408020020e+00,1.478042996180549927e-02,-3.689278141964624780e-03,3.847690880266142928e-04,5.636839441975256999e-03,-1.251164141311353513e-02,-1.550478674471378326e-02,-2.798924320344183675e-02,-2.067993964718538302e-02,2.056686697187166263e-02,-1.000000000000000056e-01,-1.626960838246907862e-02,1.125254993677882176e-03,0.000000000000000000e+00,0.000000000000000000e+00,0.000000000000000000e+00,5.129397987798126612e-01,0.000000000000000000e+00,-1.095588326454162598e+00,9.955480877592236766e+01,-2.714178562164306502e-02
1.218690000000000051e-01,5.553349387634514724e-03,3.679415801073064227e-04,1.002022981643676758e+00,1.369430272547230397e-02,-3.243429104986539357e-03,4.911665672189543348e-04,6.101848915412841877e-03,-1.377880676444873803e-02,-2.198114059865474701e-02,-9.855986910600615658e-02,5.609723951652804963e-02,3.644503897481991828e-02,-9.837536488708933935e-02,-1.333420727064538354e-02,1.410446935550035974e-03,0.000000000000000000e+00,0.000000000000000000e+00,0.000000000000000000e+00,5.134558775213429183e-01,0.000000000000000000e+00,-7.599571943283081055e-01,1.023612583737997284e+02,-2.714178562164306502e-02
1.453039999999999887e-01,5.595616498240133484e-03,7.866685692724355305e-04,1.001373171806335449e+00,1.150831935164767228e-02,-2.870165850257677675e-03,4.456504502632387663e-04,-3.696247469678890993e-03,-2.008642097973498131e-02,-3.255917131900787354e-02,-1.002506571345927605e-01,-2.564146308470161744e-04,-2.561346858672931825e-02,-8.881772710153652828e-02,-1.881806114800316579e-02,1.285717417478737801e-03,0.000000000000000000e+00,0.000000000000000000e+00,0.000000000000000000e+00,5.143149056402024355e-01,0.000000000000000000e+00,-9.872978925704956055e-01,-4.699174930101191450e+01,-2.714178562164306502e-02
1.720009999999999872e-01,5.597158339965080907e-03,1.235007308217154912e-03,1.000318408012390137e+00,9.051386877905928316e-03,-2.389548381298345348e-03,7.798379152956392158e-04,7.291946586334919524e-03,-2.617844026483492730e-03,-4.796602949500083923e-02,-4.596729058639058285e-02,-2.395150512366902087e-02,7.421642807310720874e-03,-5.766650639402227940e-02,-5.438631429540163181e-03,2.194354458710523481e-03,0.000000000000000000e+00,0.000000000000000000e+00,0.000000000000000000e+00,5.155735069745580601e-01,0.000000000000000000e+00,-8.537195920944213867e-01,8.985402087134748683e+01,-2.714178562164306502e-02
1.967810000000000115e-01,5.594101329048362103e-03,1.758311517973764823e-03,9.988214373588562012e-01,6.075313932859120400e-03,-1.840578349275423520e-03,1.018535489325715897e-03,1.022748579558250756e-02,1.433916949139807688e-03,-7.350356876850128174e-02,-1.366661873202170974e-01,6.588024255854281475e-02,3.668420045573206334e-02,-3.731516774723236257e-02,-1.141573974056990558e-03,2.853471215875480471e-03,0.000000000000000000e+00,0.000000000000000000e+00,0.000000000000000000e+00,5.176326824263352000e-01,0.000000000000000000e+00,-5.525354146957397461e-01,8.777382528791757466e+01,-2.714178562164306502e-02
2.216539999999999899e-01,5.820111905825420089e-03,1.766660045175790601e-03,9.970842003822326660e-01,3.594719024525183226e-03,-1.587285762899570685e-03,1.104299995723934070e-03,4.098644220120600270e-04,-4.606401683882536090e-03,-7.326779514551162720e-02,-1.046818611202389726e-01,5.518016436748263837e-02,-2.966699722333617992e-02,-2.656749001790594672e-02,-7.557211539560921426e-03,3.097087272583176620e-03,0.000000000000000000e+00,0.000000000000000000e+00,0.000000000000000000e+00,5.178134325126759752e-01,0.000000000000000000e+00,-8.108602762222290039e-01,7.803144836148648267e+01,-2.714178562164306502e-02
2.474810000000000065e-01,6.100727526184625618e-03,1.624611877584785855e-03,9.950026869773864746e-01,1.713038279782682326e-03,-1.340954838512375957e-03,1.355495616032052373e-03,-1.861975782774299027e-03,-8.444746281846613042e-04,-7.955241948366165161e-02,-4.141810781229141730e-02,-2.907624259009334092e-02,2.808426971447117865e-02,-1.056567426462651574e-02,-6.152813950632285596e-03,3.797773638370138816e-03,0.000000000000000000e+00,0.000000000000000000e+00,0.000000000000000000e+00,5.185062159153613903e-01,0.000000000000000000e+00,-1.100582242012023926e+00,-1.659293372054881743e+01,-2.714178562164306502e-02
2.715170000000000083e-01,6.301922319937601318e-03,1.528106816380077034e-03,9.936732649803161621e-01,6.231764603605057093e-04,-9.720301590252500290e-04,1.527203813179441082e-03,1.244219247993184722e-02,4.796582817218108044e-03,-9.447631239891052246e-02,-7.688518688532056111e-02,4.706091410573010753e-02,3.380064476449320260e-02,3.703067524023413194e-04,8.029110025175173471e-03,4.273907185250391816e-03,0.000000000000000000e+00,0.000000000000000000e+00,0.000000000000000000e+00,5.197921941078664787e-01,0.000000000000000000e+00,-6.158021688461303711e-01,1.038647674252271287e+02,-2.714178562164306502e-02
2.988000000000000100e-01,6.571435425558764046e-03,1.537323957758559255e-03,9.911217093467712402e-01,-4.667470015210491781e-04,-1.036768744725247160e-03,1.544957696322206940e-03,-3.874537533815218537e-03,3.861711730066515798e-03,-9.776469320058822632e-02,-3.596564412090434704e-02,7.047202772450497470e-03,-4.153082338081023894e-02,5.943588462837419949e-03,-7.141674466459194820e-03,4.325851905068844871e-03,0.000000000000000000e+00,0.000000000000000000e+00,0.000000000000000000e+00,5.203177264199839724e-01,0.000000000000000000e+00,-5.941942930221557617e-01,9.327271496604645051e+01,-2.714178562164306502e-02
3.246950000000000114e-01,6.653389509160125524e-03,1.468717398128809677e-03,9.883300065994262695e-01,-1.052197893662481197e-03,-1.065304488989893272e-03,1.903428760441132567e-03,-2.074794759020120657e-03,1.420383667698048476e-02,-1.068312898278236389e-01,2.086278322296467730e-02,-2.103645327627434378e-02,2.009372602815015160e-02,1.799753657156016179e-02,-3.498801495046519570e-03,5.330102124284030740e-03,0.000000000000000000e+00,0.000000000000000000e+00,0.000000000000000000e+00,5.212951417001778776e-01,0.000000000000000000e+00,-8.666549921035766602e-01,9.497692912623467976e+01,-2.714178562164306502e-02
3.476879999999999971e-01,6.544027574960809869e-03,1.227341691468634586e-03,9.862941503524780273e-01,-1.563832222735923915e-03,-1.065061828019686629e-03,2.073252384767351481e-03,-1.498304827622995038e-04,1.287879396735072852e-02,-1.181969046592712402e-01,-3.045581561719848743e-02,4.119425315738056009e-02,3.524149483861836740e-02,1.867388739603588824e-02,-2.309264605503400999e-03,5.804978123771731280e-03,0.000000000000000000e+00,0.000000000000000000e+00,0.000000000000000000e+00,5.223954370440001549e-01,0.000000000000000000e+00,-8.121420145034790039e-01,9.390612621910592850e+01,-2.714178562164306502e-02
3.750760000000000205e-01,6.429246957601454301e-03,1.022347565503230020e-03,9.842134714126586914e-01,-1.320385135982146208e-03,-1.183097732504467814e-03,2.140252606895879078e-03,2.523382865297461950e-03,1.262952608215830476e-02,-1.149989515542984009e-01,-1.470001537735739390e-02,2.116701499272489323e-02,9.048538023037858147e-03,1.700522745639519023e-02,-1.299495048420266398e-03,5.992697826169735009e-03,0.000000000000000000e+00,0.000000000000000000e+00,0.000000000000000000e+00,5.224347768984222151e-01,0.000000000000000000e+00,-6.955550909042358398e-01,8.950303794046803318e+01,-2.714178562164306502e-02
3.985339999999999994e-01,6.311211814104223869e-03,8.533522187907495535e-04,9.822302460670471191e-01,-1.091016704694844786e-03,-1.352194902650483144e-03,2.138268628268908712e-03,-2.577967229737443064e-03,1.135698699276154085e-02,-1.162463128566741943e-01,-2.078902202265755020e-03,1.964716202320960364e-03,-1.768984994283350973e-02,1.449465842260682161e-02,-6.832338940250918223e-03,5.987222680652493079e-03,0.000000000000000000e+00,0.000000000000000000e+00,0.000000000000000000e+00,5.227939132000641864e-01,0.000000000000000000e+00,-8.906489610671997070e-01,9.197455555201548805e+01,-2.714178562164306502e-02
4.265570000000000195e-01,6.196174234644470126e-03,7.822595099431174561e-04,9.800211191177368164e-01,-8.185125029287353051e-04,-1.469480165659842186e-03,2.513069822268133077e-03,8.395439980616601142e-03,2.189400993283927704e-02,-1.236858367919921875e-01,1.469247654103313268e-02,-1.883921829231644668e-02,3.130269871076470783e-02,2.111447382475953316e-02,1.677748485950934180e-03,7.036010255050129114e-03,0.000000000000000000e+00,0.000000000000000000e+00,0.000000000000000000e+00,5.236307889676149463e-01,-0.000000000000000000e+00,-1.492033123970031738e+00,-3.182669650853188426e+00,-2.714178562164306502e-02
4.512459999999999805e-01,6.100324380277692866e-03,7.512973193257730178e-04,9.777712225914001465e-01,-4.790126958208105979e-04,-1.740781716166539539e-03,2.655612245563179503e-03,-2.470028738719237346e-04,1.657842877777314372e-02,-1.335805803537368774e-01,-3.935671704537112639e-03,-4.625343277684191429e-02,3.661860386716455501e-02,1.329250660583454653e-02,-8.437833547708764245e-03,7.437691988225747508e-03,0.000000000000000000e+00,0.000000000000000000e+00,0.000000000000000000e+00,5.246570131118933888e-01,0.000000000000000000e+00,-9.910424947738647461e-01,1.010561663177612104e+02,-3.561785221099853654e-02
4.743069999999999786e-01,5.944741740620918674e-03,6.071813540987700940e-04,9.753820896148681641e-01,-1.774598018179515430e-06,-1.705606742524512498e-03,2.610489379120815596e-03,7.687265959860562978e-03,2.315724662041668269e-02,-1.381149739027023315e-01,-1.511392576649330313e-02,4.086887633790492469e-02,-3.127231323892520204e-02,1.600707464419260512e-02,-8.719664532850639497e-04,7.309834544954374458e-03,0.000000000000000000e+00,0.000000000000000000e+00,0.000000000000000000e+00,5.253109087548810674e-01,0.000000000000000000e+00,-1.257612347602844238e+00,1.706461292425155705e+02,-3.561785221099853654e-02
4.977670000000000150e-01,5.749525961896313590e-03,5.057539293187730389e-04,9.729310274124145508e-01,9.063405958909410282e-04,-1.756076830965902502e-03,2.595272077403987330e-03,-6.566196711712943626e-03,2.662182160186857272e-02,-1.373466253280639648e-01,7.216541572838197638e-02,-2.596424289118189413e-02,-6.348606713822231573e-02,1.190445020114849588e-02,-1.348822371117541601e-02,7.277366784360750351e-03,0.000000000000000000e+00,0.000000000000000000e+00,0.000000000000000000e+00,5.255841215890535434e-01,0.000000000000000000e+00,-1.115867018699645996e+00,9.991708883968901489e+01,-3.561785221099853654e-02
5.219549999999999468e-01,5.485195489149143934e-03,4.663784609308117878e-04,9.692579507827758789e-01,1.699658746068700250e-03,-1.629925859846226288e-03,3.084861209510702130e-03,9.369734504192234192e-03,3.324505726632375618e-02,-1.448249518871307373e-01,5.603854334818871713e-02,1.265065240341103035e-02,5.678430816313491392e-02,1.138539350579346153e-02,1.574686857920445460e-03,8.635889036946564623e-03,0.000000000000000000e+00,0.000000000000000000e+00,0.000000000000000000e+00,5.265558711833041583e-01,0.000000000000000000e+00,-1.003522038459777832e+00,9.106873586428839928e+01,-3.561785221099853654e-02
5.469910000000000050e-01,5.229669235885424199e-03,5.671187051205890065e-04,9.655508995056152344e-01,2.292121126596379042e-03,-1.340389314001599885e-03,3.118803913448361075e-03,4.690478285027185543e-03,3.166224147980237213e-02,-1.495823115110397339e-01,-3.748848702733349053e-02,5.692954783620114700e-02,-8.726962665457629539e-03,5.519429859363184955e-03,-2.541664286801578049e-03,8.735659159700925880e-03,0.000000000000000000e+00,0.000000000000000000e+00,0.000000000000000000e+00,5.273373003862963371e-01,0.000000000000000000e+00,-1.211701989173889160e+00,6.760500749911111029e+01,-9.298634529113770225e-03
5.715130000000000488e-01,4.892988448320386048e-03,9.505156932038768712e-04,9.616868495941162109e-01,3.371637983186747973e-03,-1.388881766451133259e-03,3.332307640470968425e-03,-1.028469585474534737e-02,2.903753324435832256e-02,-1.469516456127166748e-01,9.117413034913784964e-02,-1.978205544161544538e-02,-5.033402720774121999e-03,-2.949834308071802580e-03,-1.395214094038060848e-02,9.349400410006203366e-03,0.000000000000000000e+00,0.000000000000000000e+00,0.000000000000000000e+00,5.275961451918418366e-01,0.000000000000000000e+00,-7.362853288650512695e-01,9.356853045899970311e+01,-9.298634529113770225e-03
5.965770000000000239e-01,4.364162489871794594e-03,1.911233258942312066e-03,9.575467705726623535e-01,4.094461397603867993e-03,-1.257999509296503504e-03,3.426430641214225654e-03,4.515719006156889738e-03,3.882133082309582872e-02,-1.653629243373870850e-01,2.708654947332963039e-02,-1.002747902947174162e-02,1.809396640845219520e-02,7.909345923006301732e-04,1.016621520948823192e-04,9.593899547760631474e-03,0.000000000000000000e+00,0.000000000000000000e+00,0.000000000000000000e+00,5.294185846322431166e-01,0.000000000000000000e+00,-9.782513380050659180e-01,1.088981523906629718e+02,-9.298634529113770225e-03
6.206310000000000437e-01,3.879044228739148177e-03,2.892953419279831965e-03,9.534932374954223633e-01,5.041808530002782167e-03,-6.997604520400102501e-04,3.338906485396856381e-03,2.422021933643039512e-03,3.876408207016154156e-02,-1.576385349035263062e-01,3.219200310025588374e-02,5.335485377234072679e-02,-3.345169024654245232e-02,-6.030551778735668278e-03,-2.102798285549334139e-04,9.349437312383801491e-03,0.000000000000000000e+00,0.000000000000000000e+00,0.000000000000000000e+00,5.293397680107110315e-01,0.000000000000000000e+00,1.672526597976684570e-01,9.079904584491045227e+01,3.345053195953369418e-02
6.450050000000000505e-01,3.431699022734601388e-03,3.927576473215087238e-03,9.496696591377258301e-01,5.916197186422744204e-03,-5.819777200233300363e-04,3.687075919244668393e-03,-5.177805812919571669e-03,4.843734221090296999e-02,-1.577688753604888916e-01,3.954063891950768128e-02,-1.648110194487328178e-02,1.574349436668405836e-02,-3.529635634878458550e-03,-5.207322397556922618e-03,1.033662899308973593e-02,0.000000000000000000e+00,0.000000000000000000e+00,0.000000000000000000e+00,5.298173110256924057e-01,0.000000000000000000e+00,-1.185784220695495605e+00,1.143512388202177448e+02,3.345053195953369418e-02
6.697250000000000147e-01,3.156191318486132897e-03,5.053237668934240819e-03,9.454404711723327637e-01,6.124910867214768649e-03,-4.573356685200202776e-04,3.796742050933754262e-03,5.491136510224758037e-03,4.308060606527581299e-02,-1.655691415071487427e-01,-1.661663136746713287e-02,9.822461353742329912e-03,3.236318227532483660e-02,-9.621869280102704827e-03,4.661168519034338334e-03,1.062018739902387265e-02,0.000000000000000000e+00,0.000000000000000000e+00,0.000000000000000000e+00,5.308846081624101210e-01,0.000000000000000000e+00,-9.856773614883422852e-01,9.140632479420544598e+01,3.345053195953369418e-02
6.975869999999999571e-01,2.899315849668447978e-03,6.463389993087252129e-03,9.401918649673461914e-01,6.646923085593444552e-03,-1.073920423284580039e-04,3.752123764525527524e-03,-1.540239352889809709e-03,4.961919894907711182e-02,-1.585284769535064697e-01,7.610639455937089071e-02,2.060823032786291906e-02,-3.002048029217490102e-02,-6.237252093409207873e-03,-4.024435764543623215e-05,1.050623494631675037e-02,0.000000000000000000e+00,0.000000000000000000e+00,0.000000000000000000e+00,5.309562169692061406e-01,0.000000000000000000e+00,-9.947084188461303711e-01,9.330340300598732028e+01,3.345053195953369418e-02
7.215819999999999457e-01,2.697866756877270646e-03,7.611790502946027062e-03,9.364819526672363281e-01,7.169595564994961367e-03,3.259661754622111829e-04,3.750261510945462114e-03,-6.866167177061824681e-03,4.878504233306876769e-02,-1.685216873884201050e-01,-8.237486650301032668e-04,-1.381714852562779521e-03,1.020394581954854087e-02,-1.042201179601416096e-02,-4.299060827875295174e-04,1.050209207627322838e-02,0.000000000000000000e+00,0.000000000000000000e+00,0.000000000000000000e+00,5.321537609591995288e-01,0.000000000000000000e+00,-1.398831248283386230e+00,1.056592357051079034e+02,3.345053195953369418e-02
7.449919999999999876e-01,2.610392089615395841e-03,8.927017394702078945e-03,9.325026273727416992e-01,7.380065566136517763e-03,3.548787365925676340e-04,3.766289077660407540e-03,7.505692616667908150e-03,5.836304063372448059e-02,-1.675380468368530273e-01,1.543554152764520411e-02,4.741838553040425910e-03,-1.030584977267893360e-02,-3.478631592732892106e-03,1.141614759397860043e-02,1.051087549167400992e-02,0.000000000000000000e+00,0.000000000000000000e+00,0.000000000000000000e+00,5.325860339223333906e-01,0.000000000000000000e+00,-1.264746546745300293e+00,1.105410860936178352e+02,3.345053195953369418e-02
7.736929999999999641e-01,2.677283273723286144e-03,1.046938811788596796e-02,9.279465079307556152e-01,7.368040745994115619e-03,2.296530433945065397e-04,3.834231868592054629e-03,1.147908402768758190e-02,5.742963602598571277e-02,-1.624318063259124756e-01,-1.556980907513932401e-02,7.832209468606786754e-03,2.547189194061831238e-02,-4.320760188227774391e-03,1.170867636350798532e-02,1.070059983677595916e-02,0.000000000000000000e+00,0.000000000000000000e+00,0.000000000000000000e+00,5.327595573621137781e-01,0.000000000000000000e+00,-9.383846521377563477e-01,5.139370035315300100e+01,3.345053195953369418e-02
7.972620000000000262e-01,2.778989748110395619e-03,1.178640533497388523e-02,9.244363307952880859e-01,7.754519454610375902e-03,3.897585314496243569e-04,3.398683045185202367e-03,-4.984181235331117295e-03,5.605929602740538503e-02,-1.543998569250106812e-01,8.400512121139474056e-03,2.408314698291106823e-02,-5.768440367625557452e-02,-6.680791051401830868e-03,-2.555108461240309455e-04,9.517337073007836601e-03,0.000000000000000000e+00,0.000000000000000000e+00,0.000000000000000000e+00,5.326434721184377663e-01,0.000000000000000000e+00,-7.324148416519165039e-01,8.842634058008556508e+01,3.345053195953369418e-02
8.215050000000000407e-01,2.886758154238575156e-03,1.310537630869326384e-02,9.211754202842712402e-01,8.212392368604184284e-03,4.337917539340985229e-04,3.572362162552535601e-03,1.404387808244395019e-03,6.252765173197961934e-02,-1.593633443117141724e-01,4.622427043680594344e-02,-1.095685826798539590e-02,3.564537609471794127e-02,-3.659348058224286271e-03,7.254687301054518235e-03,9.978127817498350094e-03,0.000000000000000000e+00,0.000000000000000000e+00,0.000000000000000000e+00,5.334530234680664451e-01,0.000000000000000000e+00,-1.194489121437072754e+00,3.589218988083720063e+01,3.345053195953369418e-02
8.482340000000000435e-01,2.333672046131057918e-03,1.603879930586199487e-02,9.172389507293701172e-01,8.141897602267415129e-03,1.661890043902491954e-04,3.354713105479807667e-03,3.953837538579852567e-03,6.203554157574006633e-02,-1.535959839820861816e-01,-3.616938194957741715e-02,4.122040697254397007e-03,-6.047377418461680719e-03,-2.491575010911374014e-03,6.247489520395204526e-03,9.372085777535621443e-03,0.000000000000000000e+00,0.000000000000000000e+00,0.000000000000000000e+00,5.335366689916465344e-01,0.000000000000000000e+00,-9.122205972671508789e-01,9.479153730159302427e+01,3.345053195953369418e-02
8.710090000000000332e-01,1.948155786184775726e-03,1.776212287683695892e-02,9.152016043663024902e-01,8.498675577708824161e-03,-2.012853878821108111e-04,3.184445836293959154e-03,2.132969042491167887e-03,6.490249581614516983e-02,-1.531941890716552734e-01,5.576498505274272294e-02,-4.356262272959725984e-02,-1.991279791944092215e-02,-1.326454540600860215e-03,1.914365548255492341e-03,8.909832810697515537e-03,0.000000000000000000e+00,0.000000000000000000e+00,0.000000000000000000e+00,5.338715947466725620e-01,0.000000000000000000e+00,-5.131481885910034180e-01,6.474279623684975604e+01,3.345053195953369418e-02
8.975530000000000452e-01,1.365547511875483998e-03,2.039410610977501412e-02,9.122335314750671387e-01,9.051934947354487587e-03,-2.136829717427346509e-04,3.119222041287954012e-03,1.144724575073542564e-03,6.993336657105996002e-02,-1.500849425792694092e-01,5.719160471539050904e-03,2.788424354279192552e-02,1.333405808198661127e-02,3.049526027403210229e-04,1.014780840582051730e-03,8.730214335061048381e-03,0.000000000000000000e+00,0.000000000000000000e+00,0.000000000000000000e+00,5.340797924459143031e-01,0.000000000000000000e+00,-9.391165971755981445e-01,9.554845886541383493e+01,3.345053195953369418e-02
9.202099999999999724e-01,9.930866910250889419e-04,2.205149861438230122e-02,9.107222557067871094e-01,9.143372148955589487e-03,-3.267244752667153307e-04,2.966370325802467761e-03,-2.928284557233630948e-03,6.907512191106469912e-02,-1.441241800785064697e-01,1.363625088866374257e-04,1.032800290233085345e-02,-2.923085956319281323e-02,-3.234056764933931753e-04,-2.895585928786167332e-03,8.317555042917146313e-03,0.000000000000000000e+00,0.000000000000000000e+00,0.000000000000000000e+00,5.339725318175327917e-01,0.000000000000000000e+00,-3.681455850601196289e-01,-4.835820719164842529e+01,3.345053195953369418e-02
9.470709999999999962e-01,-7.709532601058411856e-06,2.633242577596035111e-02,9.072259664535522461e-01,9.438293732814944520e-03,-7.325653104490736922e-04,2.979138799087445617e-03,1.026042464558933219e-03,8.001799873639471594e-02,-1.398330926895141602e-01,3.293305825955922944e-02,-3.854906121569827426e-02,3.052671595650226569e-02,8.983191311935050452e-03,-2.538777906006151053e-03,8.353127425930362282e-03,0.000000000000000000e+00,0.000000000000000000e+00,0.000000000000000000e+00,5.341325954843880730e-01,0.000000000000000000e+00,-9.768296480178833008e-01,6.382227115183962951e+01,3.345053195953369418e-02
9.699470000000000036e-01,-6.927685051373144286e-04,2.883767146415341584e-02,9.056811928749084473e-01,9.319006275108385196e-03,-7.715724310497495964e-04,2.855322372205336846e-03,5.552724010860338438e-04,6.954536952185072507e-02,-1.316588073968887329e-01,-2.766357600115576174e-02,3.670823468862283168e-02,3.125257633872332436e-02,2.193711068971023869e-03,-4.121233725979419130e-03,8.012113599560166666e-03,0.000000000000000000e+00,0.000000000000000000e+00,0.000000000000000000e+00,5.338581712433413395e-01,0.000000000000000000e+00,-8.948758840560913086e-01,1.384846672335147844e+02,3.345053195953369418e-02
9.960360000000000325e-01,-1.612535141888430269e-03,3.248383726469195737e-02,9.035288691520690918e-01,9.828178990723570804e-03,-9.327887736032547394e-04,2.497112311765219660e-03,2.057967862043060155e-03,7.496448321986745600e-02,-1.220302730798721313e-01,3.419803491175309185e-02,-6.929311528280440724e-03,-4.683298433468884026e-02,7.002090177218577363e-03,-4.509282917232153819e-03,7.012450031024131114e-03,0.000000000000000000e+00,0.000000000000000000e+00,0.000000000000000000e+00,5.335245672806917527e-01,-0.000000000000000000e+00,-1.168123483657836914e-01,-1.257927550762837399e+02,3.345053195953369418e-02
1.023052000000000072e+00,-2.458235120242975753e-03,3.597485876976629082e-02,9.019883275032043457e-01,9.971006299862127456e-03,-5.237195429665941759e-04,2.529809585144629849e-03,6.987322621141576345e-03,8.057585391754919224e-02,-1.135030612349510193e-01,3.217274751019403439e-02,2.413820935566829071e-02,1.640759936491313631e-02,1.208410661556566165e-02,1.210304094033487314e-03,7.078243406940909477e-03,0.000000000000000000e+00,0.000000000000000000e+00,0.000000000000000000e+00,5.332188670837394451e-01,-0.000000000000000000e+00,-8.613568544387817383e-01,9.295690750939257896e+01,3.345053195953369418e-02
1.046586000000000016e+00,-3.078001439968345090e-03,3.839029070734400334e-02,9.009372591972351074e-01,9.961380211762861300e-03,-5.329672363041382255e-04,2.514665797752081971e-03,-4.966328753474609633e-04,7.834543442913695366e-02,-1.058488711714744568e-01,2.416828492677316250e-03,1.044542966290399645e-02,1.890377753262916308e-02,1.157631913590066904e-02,-5.581682714678934225e-03,7.067610522364264902e-03,0.000000000000000000e+00,0.000000000000000000e+00,0.000000000000000000e+00,5.329304895046997892e-01,-0.000000000000000000e+00,-8.836075067520141602e-01,9.943459061634096940e+01,3.345053195953369418e-02
1.070102000000000109e+00,-4.183081572028840914e-03,4.206175612441696854e-02,8.995819687843322754e-01,1.039256753465953205e-02,-7.441056627388586975e-04,2.243020683977800696e-03,4.715722873236749720e-03,7.698853252036748362e-02,-1.033761799335479736e-01,5.540672767845600255e-02,-3.324058617664301524e-02,-2.687102383150423782e-02,1.058720672271050087e-02,-2.629961746548781232e-03,6.293581764524658340e-03,0.000000000000000000e+00,0.000000000000000000e+00,0.000000000000000000e+00,5.330366605618345188e-01,-0.000000000000000000e+00,-8.603504896163940430e-01,8.510367894511698239e+01,3.345053195953369418e-02
1.096435000000000048e+00,-5.186825134104519966e-03,4.561531050059683401e-02,8.983930945396423340e-01,1.108978416759690520e-02,-7.048343227087361385e-04,2.023716988842193948e-03,1.212426621742386914e-03,7.992057254311135672e-02,-1.047325804829597473e-01,9.059094869078016324e-03,2.945627687183534002e-02,1.187265113242806820e-02,1.089989727138504158e-02,-6.359891105655356321e-03,5.699523715180676575e-03,0.000000000000000000e+00,0.000000000000000000e+00,0.000000000000000000e+00,5.334101330653993056e-01,-0.000000000000000000e+00,-1.672441244125366211e+00,1.084945291918502335e+02,3.345053195953369418e-02
1.119175000000000031e+00,-6.145716317246684504e-03,4.934554844577421218e-02,8.972380757331848145e-01,1.168991270823185880e-02,-6.932273158388735368e-04,1.879207026468238118e-03,4.424801759243890756e-03,8.830307513595471447e-02,-9.790848195552825928e-02,2.603784027549437344e-02,-2.865423862508336209e-03,-3.913796092103359603e-02,1.565601806881010069e-02,-3.933508098064549159e-03,5.284113442097004842e-03,0.000000000000000000e+00,0.000000000000000000e+00,0.000000000000000000e+00,5.331915739895582984e-01,-0.000000000000000000e+00,-7.024170160293579102e-01,7.848765718671914726e+01,3.345053195953369418e-02
1.147229999999999972e+00,-7.064117669396458368e-03,5.312337759272196813e-02,8.961386680603027344e-01,1.191567533217307955e-02,-6.109033094070515091e-04,2.115427089454783877e-03,-1.583848950564441726e-03,8.812013912451338582e-02,-9.274481236934661865e-02,3.071515142476776913e-02,2.362143476733285369e-02,4.474870947659905646e-02,1.563162665272016874e-02,-8.941706529675529785e-03,5.974288580909592472e-03,0.000000000000000000e+00,0.000000000000000000e+00,0.000000000000000000e+00,5.330795963057736175e-01,-0.000000000000000000e+00,-8.798986673355102539e-01,1.023237128239321692e+02,3.345053195953369418e-02
1.170026000000000010e+00,-7.675573673253072854e-03,5.595641088525905860e-02,8.955967426300048828e-01,1.228812207345722149e-02,-8.187745593544182299e-04,2.037615742985198538e-03,1.225280044601891917e-02,8.718718931637274572e-02,-9.148471802473068237e-02,2.907597054120805019e-02,-3.314962545388085158e-02,3.642228212654038261e-02,1.462815689556277478e-02,6.763429371759853859e-04,5.701975842600459643e-03,0.000000000000000000e+00,0.000000000000000000e+00,0.000000000000000000e+00,5.332072157118822320e-01,-0.000000000000000000e+00,-9.192384481430053711e-01,-1.404833581695789348e+02,3.345053195953369418e-02
1.197391000000000094e+00,-8.549795033496966276e-03,6.011581659654981896e-02,8.947389721870422363e-01,1.306559234061616635e-02,-6.846178717052620044e-04,1.738821126201080388e-03,1.995878307918811084e-03,9.131158355386090331e-02,-9.313397854566574097e-02,1.711536693376184207e-02,3.506492250924417298e-02,-6.561661952541125720e-02,1.569729742568513886e-02,-8.684047649619400233e-03,4.922638776237220348e-03,0.000000000000000000e+00,0.000000000000000000e+00,0.000000000000000000e+00,5.335722569769925094e-01,-0.000000000000000000e+00,-8.758484125137329102e-01,9.593077187401613060e+01,3.345053195953369418e-02
1.220928999999999931e+00,-9.405185573014467407e-03,6.415743693755052157e-02,8.940541744232177734e-01,1.387853171802474854e-02,-4.869249362693395256e-04,1.819568611574129587e-03,-8.570073799671219100e-03,9.038854437180367241e-02,-8.154428750276565552e-02,5.637390536688321324e-02,1.085928773886002700e-03,2.385811295787840236e-02,1.223655657409588107e-02,-1.454837621109064151e-02,5.188266797541418729e-03,0.000000000000000000e+00,0.000000000000000000e+00,0.000000000000000000e+00,5.329615859641114728e-01,-0.000000000000000000e+00,-1.020634293556213379e+00,8.578951873024546160e+01,3.345053195953369418e-02
1.246512000000000064e+00,-1.007137695120913917e-02,6.823481806321614329e-02,8.934936523437500000e-01,1.422527316030484240e-02,-1.164730048845985522e-04,1.714741944354366068e-03,-8.037752368025488777e-04,9.330065905271830995e-02,-8.276262879371643066e-02,-3.440656417784871551e-02,3.940545069739803501e-03,-2.666579077995772859e-02,1.516114599833066207e-02,-5.216741073165010942e-03,4.836485165824633281e-03,0.000000000000000000e+00,0.000000000000000000e+00,0.000000000000000000e+00,5.332653741818683679e-01,-0.000000000000000000e+00,-7.341257333755493164e-01,1.096063064038098958e+02,3.345053195953369418e-02
1.272609000000000101e+00,-1.038185796782661180e-02,7.128275770966979730e-02,8.927962779998779297e-01,1.437327591254048027e-02,-1.089783286631895720e-04,1.809975443622818727e-03,-1.483087078670931869e-03,9.855759489951868013e-02,-7.951171696186065674e-02,4.396424506283416744e-02,-2.209169765446810513e-02,-1.761382957145214700e-02,2.015206232812435591e-02,-6.960200708976681770e-03,5.116389410378119340e-03,0.000000000000000000e+00,0.000000000000000000e+00,0.000000000000000000e+00,5.332571292561710807e-01,-0.000000000000000000e+00,-1.109794020652770996e+00,1.037351236045911236e+02,3.345053195953369418e-02
1.295684999999999976e+00,-1.075135128514515155e-02,7.527259943835229450e-02,8.922849297523498535e-01,1.483834299892027551e-02,5.750868906417849757e-05,1.743573875515000557e-03,5.896623480807969969e-03,9.388792584207686365e-02,-7.414015382528305054e-02,-6.929875884977259714e-04,7.290337344080829833e-03,3.075163205976548519e-02,1.583674070866325848e-02,-4.351916167720994589e-04,4.885700920936597580e-03,0.000000000000000000e+00,0.000000000000000000e+00,0.000000000000000000e+00,5.330720610682890825e-01,-0.000000000000000000e+00,-2.084347009658813477e-01,-1.057821449592222791e+02,3.345053195953369418e-02
1.321528000000000036e+00,-1.110650859753693070e-02,7.947438149492255799e-02,8.915982842445373535e-01,1.601146814410845179e-02,5.918024375344277388e-04,1.368042988425829986e-03,-4.726739152030587539e-03,9.716326373914305203e-02,-6.974182277917861938e-02,5.612383921606546588e-02,4.397503988025923405e-02,-6.206292727321520430e-02,1.445593011874004435e-02,-6.332003752929648427e-03,3.877830314087227226e-03,0.000000000000000000e+00,0.000000000000000000e+00,0.000000000000000000e+00,5.329736626771761632e-01,-0.000000000000000000e+00,-9.596966505050659180e-01,8.216324835648063640e+01,3.345053195953369418e-02
1.344403000000000015e+00,-1.133498920300603750e-02,8.205547902982883446e-02,8.911965489387512207e-01,1.645439321528226195e-02,8.093443967158719943e-04,1.558705335235067426e-03,5.198028305238195116e-04,1.002201111675104783e-01,-6.435801833868026733e-02,3.767402202014052265e-02,2.246490035290994725e-02,1.168320650144514736e-02,1.564374164011445370e-02,3.849304901069490730e-04,4.362178771443792069e-03,0.000000000000000000e+00,0.000000000000000000e+00,0.000000000000000000e+00,5.327768259581031618e-01,-0.000000000000000000e+00,-1.133933424949645996e+00,-7.021355919597652928e+01,3.345053195953369418e-02
1.372522999999999938e+00,-1.151067888942211223e-02,8.768736222400147495e-02,8.903041481971740723e-01,1.693427740863825623e-02,1.053673953185452206e-03,1.433745293553467066e-03,6.231109419436821513e-03,9.778230472254849370e-02,-6.341979652643203735e-02,-2.913121470916828562e-02,4.615871252451076573e-02,-1.482278664527191502e-02,1.413568339832372428e-02,5.446793117349831362e-03,3.972894222046441381e-03,0.000000000000000000e+00,0.000000000000000000e+00,0.000000000000000000e+00,5.329325063830917530e-01,-0.000000000000000000e+00,-7.170981168746948242e-01,1.044165784082724571e+02,-2.336246967315673898e-02
1.396673999999999971e+00,-1.152864823143561444e-02,9.048441464793280375e-02,8.897371292114257812e-01,1.779403182970325931e-02,9.901239489562563278e-04,1.343309025498734630e-03,2.078534101374875011e-03,1.019258441941912618e-01,-6.363359093666076660e-02,5.171860604047379129e-02,-1.061160953741909115e-02,-3.610894170761137778e-02,1.424444878522911767e-02,1.053438686093576123e-03,3.753406398976644187e-03,0.000000000000000000e+00,0.000000000000000000e+00,0.000000000000000000e+00,5.331526818709438897e-01,-0.000000000000000000e+00,-6.508551836013793945e-01,1.049309121433419278e+02,-2.336246967315673898e-02
1.419999000000000011e+00,-1.155742510215746789e-02,9.461089342534892421e-02,8.888503909111022949e-01,1.810432675297202199e-02,1.035918880126551755e-03,1.292357367977008510e-03,7.793365203098943927e-03,1.045226503228675607e-01,-6.223061308264732361e-02,-1.108304427895005946e-03,-2.789389186227152814e-04,1.375397930284670035e-03,1.666840783867388348e-02,6.226477905420189571e-03,3.567326593347242003e-03,0.000000000000000000e+00,0.000000000000000000e+00,0.000000000000000000e+00,5.332778509555599067e-01,-0.000000000000000000e+00,-6.900769472122192383e-01,1.084005594492492008e+02,-2.336246967315673898e-02
1.447718999999999978e+00,-1.150665749930080903e-02,9.873042419283353799e-02,8.878830671310424805e-01,1.872201377320617532e-02,1.248874606456507053e-03,1.393487698205798627e-03,-6.998868432749833467e-03,9.509859491941764775e-02,-4.756783694028854370e-02,3.031863277823942937e-02,2.772871930471972404e-02,-1.717116617685369995e-02,8.566474576791504453e-03,-4.437152086664382031e-03,3.939568814552707465e-03,0.000000000000000000e+00,0.000000000000000000e+00,0.000000000000000000e+00,5.324352706419961390e-01,-0.000000000000000000e+00,-7.680135965347290039e-01,9.849892300194092343e+01,-2.336246967315673898e-02
1.469945000000000057e+00,-1.172125903234326125e-02,1.016377372689240832e-01,8.871755599975585938e-01,1.924203103049167488e-02,8.608884207899070162e-04,1.377763664943543968e-03,2.673991349295327599e-03,1.041282739105300337e-01,-5.786506459116935730e-02,4.711902702599436027e-02,-3.137815793898438704e-02,-1.370052719842850160e-02,1.535622452967778072e-02,2.300729458158571033e-03,3.838351254411065394e-03,0.000000000000000000e+00,0.000000000000000000e+00,0.000000000000000000e+00,5.333917337781145518e-01,-0.000000000000000000e+00,-5.488439798355102539e-01,1.085252240619802677e+02,-2.336246967315673898e-02
1.500269000000000075e+00,-1.209659960647596795e-02,1.074979904790927532e-01,8.856245279312133789e-01,1.975259548965224363e-02,2.632798515518341986e-04,1.374110828205634066e-03,8.530420940024078039e-03,9.890669379409508521e-02,-5.037878826260566711e-02,4.801126412151674946e-03,-1.022495594357148395e-02,-1.592751073327215716e-02,1.108448860016925976e-02,1.281664076344391379e-03,3.836987924128287819e-03,0.000000000000000000e+00,0.000000000000000000e+00,0.000000000000000000e+00,5.331141411701291188e-01,-0.000000000000000000e+00,-9.333914518356323242e-01,9.963616998931556168e+01,-2.336246967315673898e-02
1.525533000000000028e+00,-1.217804140440826612e-02,1.088641105843561746e-01,8.853101730346679688e-01,1.989811150975869664e-02,1.707044559096093650e-04,1.258959312096134776e-03,7.990396614708432030e-03,9.657487137519121800e-02,-5.506444349884986877e-02,-4.944956130955953572e-05,-1.725490692182296603e-03,-4.701056504169435352e-02,1.038106992672002855e-02,-6.124323027064612363e-04,3.531335471692320649e-03,0.000000000000000000e+00,0.000000000000000000e+00,0.000000000000000000e+00,5.336277315514140751e-01,-0.000000000000000000e+00,-7.760914564132690430e-01,9.676331046213815057e+01,-2.336246967315673898e-02
1.557825000000000015e+00,-1.229102970978147337e-02,1.116970763149869039e-01,8.844797015190124512e-01,2.053708293685601455e-02,3.110936957848586815e-04,1.274102220698671841e-03,3.364780165143803846e-04,1.025714852901016966e-01,-5.357719585299491882e-02,7.122145190910474100e-02,-2.978717775657108505e-03,-4.057410997998577018e-02,1.343082034022292058e-02,-5.509154939790884484e-03,3.619557756587510333e-03,0.000000000000000000e+00,0.000000000000000000e+00,0.000000000000000000e+00,5.337427903971991849e-01,-0.000000000000000000e+00,-6.311391592025756836e-01,7.917066927353124584e+01,-2.336246967315673898e-02
1.587028000000000105e+00,-1.234870488247515226e-02,1.131707792757344205e-01,8.840088844299316406e-01,2.083560999805628838e-02,2.884897737811531471e-04,1.380989091367002290e-03,1.811541477542918466e-03,1.039158118617510285e-01,-5.460675060749053955e-02,8.030755798649556743e-02,1.167057485730911386e-02,-3.268937963952054000e-03,1.315827090956404703e-02,-3.529013467072014427e-03,3.900958211152993904e-03,0.000000000000000000e+00,0.000000000000000000e+00,0.000000000000000000e+00,5.340072741827199820e-01,-0.000000000000000000e+00,-9.600750207901000977e-01,1.028127065571809027e+02,-2.336246967315673898e-02
1.602260999999999935e+00,-1.239860954353218768e-02,1.144981903805672718e-01,8.836485147476196289e-01,2.099731888650391981e-02,3.245237908060527587e-04,1.435690067044801017e-03,1.970881827618608043e-03,1.037490165599417452e-01,-4.990667104721069336e-02,3.557389773996086357e-02,-1.210757256233769771e-02,1.803367732788949129e-02,1.337834093078026435e-02,-3.434133034674359541e-03,4.053547676019009227e-03,0.000000000000000000e+00,0.000000000000000000e+00,0.000000000000000000e+00,5.338484490049768549e-01,-0.000000000000000000e+00,-5.132960081100463867e-01,8.773214064341298979e+01,-2.336246967315673898e-02
1.622192000000000078e+00,-1.262863178970254942e-02,1.173713195514524826e-01,8.828154802322387695e-01,2.123913235066315561e-02,2.801598567232499448e-04,1.591737769970547793e-03,3.930445957493931657e-03,1.020189907638382465e-01,-5.022484064102172852e-02,-6.100937012208540455e-03,1.619207813660694705e-03,5.170123480882093947e-02,1.284076632766278751e-02,-2.397820184841527660e-03,4.480984215252392655e-03,0.000000000000000000e+00,0.000000000000000000e+00,0.000000000000000000e+00,5.340842776336883757e-01,-0.000000000000000000e+00,-5.571151971817016602e-01,7.913410727090416685e+01,-2.336246967315673898e-02
1.646870999999999974e+00,-1.309382962740551597e-02,1.217358705007544201e-01,8.817150592803955078e-01,2.159904197087157349e-02,-1.120898388000668433e-04,1.608022345930791358e-03,5.173179940461776136e-03,9.818174882392462222e-02,-4.027300328016281128e-02,1.357676218646207758e-02,1.082806442318194791e-02,-3.168272906878071005e-02,1.135549231305422492e-02,-4.577761418390952596e-03,4.547972139612166398e-03,0.000000000000000000e+00,0.000000000000000000e+00,0.000000000000000000e+00,5.335941845043262743e-01,-0.000000000000000000e+00,-6.527522802352905273e-01,1.046613518975582053e+02,-2.336246967315673898e-02
1.670428000000000024e+00,-1.355702820889457746e-02,1.259827877214106939e-01,8.805734515190124512e-01,2.197698417145283259e-02,-5.820734704973240525e-04,1.723023280234327456e-03,-3.871761694060359138e-03,9.859280157026410751e-02,-4.509674757719039917e-02,6.096859792781601783e-02,-5.768109550046814776e-02,1.429354178425006928e-02,1.273476692792948652e-02,-1.493509565455469583e-02,4.973511634457472574e-03,0.000000000000000000e+00,0.000000000000000000e+00,0.000000000000000000e+00,5.341768625140944637e-01,-0.000000000000000000e+00,-8.576357364654541016e-02,-5.898532157315971247e+00,-1.715271472930908134e-02
1.698727000000000098e+00,-1.406867439267941999e-02,1.314279657745048846e-01,8.790878653526306152e-01,2.261923456037035624e-02,-6.707507399428269679e-04,1.792615622127379784e-03,7.554163656911928957e-04,9.910267562352402526e-02,-2.951921336352825165e-02,2.884437875435796189e-02,-1.867927088762444138e-03,-2.216528879050319936e-02,1.325729038665841679e-02,-1.111053590091044124e-02,5.133953178127315109e-03,0.000000000000000000e+00,0.000000000000000000e+00,0.000000000000000000e+00,5.333078472813430615e-01,-0.000000000000000000e+00,-7.965317964553833008e-01,-2.017560016665228417e+01,-1.715271472930908134e-02
1.722561999999999927e+00,-1.445011483158615585e-02,1.353582580422323656e-01,8.778375387191772461e-01,2.281040280657250716e-02,-7.604039968140963168e-04,1.991023572348645226e-03,9.913078526173343258e-03,1.044819729091715499e-01,-4.370054602622985840e-02,4.125101910393465417e-03,-1.909633280318025553e-02,3.127652222798715104e-02,1.850962149257292383e-02,-5.589708397577632798e-03,5.634978590717543145e-03,0.000000000000000000e+00,0.000000000000000000e+00,0.000000000000000000e+00,5.345741110627253434e-01,-0.000000000000000000e+00,-9.614456892013549805e-01,-3.952619544383706796e+01,-1.715271472930908134e-02
1.747583000000000109e+00,-1.488012537820012672e-02,1.392829269319819097e-01,8.764529228210449219e-01,2.299403441257885303e-02,-8.359092261316369843e-04,2.053346543216137167e-03,-6.934441869822388985e-03,9.513282908789474912e-02,-3.214537352323532104e-02,-2.366712537584359996e-02,2.213174672181761338e-02,-2.320237916904287559e-02,1.290651342321762207e-02,-2.040181885276527024e-02,5.961936784168064829e-03,0.000000000000000000e+00,0.000000000000000000e+00,0.000000000000000000e+00,5.339811062658187391e-01,-0.000000000000000000e+00,-9.042099714279174805e-01,9.721216317363470694e+01,-1.715271472930908134e-02
1.771085999999999938e+00,-1.529692596415007863e-02,1.429184788435861886e-01,8.751938343048095703e-01,2.346433921835113998e-02,-1.178781099346437600e-03,2.160260527237946229e-03,5.210165476613909689e-04,9.640980517205369194e-02,-3.080681152641773224e-02,6.589434235354389713e-02,-3.419889414324346621e-02,-1.716255889954426683e-02,1.495948014822790287e-02,-1.493141221084178655e-02,6.209013756447334664e-03,0.000000000000000000e+00,0.000000000000000000e+00,0.000000000000000000e+00,5.341228417046016697e-01,-0.000000000000000000e+00,-9.633656740188598633e-01,1.032925000256176133e+02,-1.715271472930908134e-02
1.794418000000000069e+00,-1.561861597058945839e-02,1.464297492358027919e-01,8.738594055175781250e-01,2.365770995985957970e-02,-7.872972317186643920e-04,2.348916668627088530e-03,-9.325976324977163813e-04,9.553848907176820671e-02,-4.053080826997756958e-02,-1.906093333712676960e-02,4.357161797987108010e-02,4.214255443838648557e-02,1.527643679529253930e-02,-1.469562860397792894e-02,6.736333444667785830e-03,0.000000000000000000e+00,0.000000000000000000e+00,0.000000000000000000e+00,5.350690681916172586e-01,-0.000000000000000000e+00,-5.076164007186889648e-01,-4.841146729924888703e+00,-1.715271472930908134e-02
1.822508999999999935e+00,-1.654639419681088949e-02,1.516420335562325139e-01,8.720442056655883789e-01,2.391548555836104165e-02,-5.848004876372048244e-04,2.566457978969447894e-03,-1.978858917671783512e-04,9.280760795070537583e-02,-2.611394599080085754e-02,4.452710576634918982e-02,-1.840135240677247264e-02,-4.658749237884919452e-03,1.591015862520196028e-02,-1.320393517567666763e-02,7.331492122375105058e-03,0.000000000000000000e+00,0.000000000000000000e+00,0.000000000000000000e+00,5.343088229225786412e-01,-0.000000000000000000e+00,-9.985960721969604492e-01,1.103596899296406377e+02,-1.715271472930908134e-02
1.846519000000000021e+00,-1.719523212398955947e-02,1.553197944760669746e-01,8.708062171936035156e-01,2.369754498536974507e-02,-3.328953179519977823e-04,2.733392287635449600e-03,4.992486201250900466e-03,9.433740574106143362e-02,-3.716280311346054077e-02,-2.048116751456094051e-02,2.929631138589057493e-02,2.140049884821441234e-02,2.131335450752205873e-02,-8.113454701228204821e-03,7.744707896180202944e-03,0.000000000000000000e+00,0.000000000000000000e+00,0.000000000000000000e+00,5.353455718114678019e-01,-0.000000000000000000e+00,-8.120940923690795898e-01,1.069532013829884818e+02,-1.715271472930908134e-02
1.870702000000000087e+00,-1.778635810848484128e-02,1.588767774942264066e-01,8.693921566009521484e-01,2.388978938450923156e-02,1.122948138208013091e-04,2.656351440014439319e-03,-1.991114582741009519e-03,8.818493265584294305e-02,-1.942532323300838470e-02,1.625814220885827763e-02,5.693548063392379899e-02,-3.363212569779823469e-02,1.866214661798062946e-02,-1.165649257084150174e-02,7.567503612748882613e-03,0.000000000000000000e+00,0.000000000000000000e+00,0.000000000000000000e+00,5.343104310960822279e-01,-0.000000000000000000e+00,-9.935208559036254883e-01,9.091228355116008686e+01,-1.715271472930908134e-02
1.898306999999999967e+00,-1.871942458827167283e-02,1.642336240290416804e-01,8.676741719245910645e-01,2.370584322064007640e-02,5.835645784857401708e-04,3.116615579396341332e-03,-4.726886762066895287e-03,8.507511512943427556e-02,-2.733393572270870209e-02,-1.429923689843747014e-02,-8.898754466228210591e-03,5.355489765683830311e-02,2.191058379447506296e-02,-1.020369612612512938e-02,8.841160282424431749e-03,0.000000000000000000e+00,0.000000000000000000e+00,0.000000000000000000e+00,5.351482991243847742e-01,-0.000000000000000000e+00,-1.335510134696960449e+00,1.070119136890939018e+02,-1.715271472930908134e-02
1.922369999999999912e+00,-1.939119469756053066e-02,1.681839522525866715e-01,8.663268089294433594e-01,2.388131216001816021e-02,7.544475648035842141e-04,3.074333518642748380e-03,2.269256689178401724e-03,8.782071687208233002e-02,-1.491476967930793762e-02,2.318729317011857319e-02,-1.788120331249441058e-02,-2.463794028195582728e-02,2.676332486002844929e-02,-3.905346285959191734e-03,8.654933194632896676e-03,0.000000000000000000e+00,0.000000000000000000e+00,0.000000000000000000e+00,5.344978736168733979e-01,-0.000000000000000000e+00,-1.073750615119934082e+00,2.384909788343316706e+01,-1.715271472930908134e-02
1.945459000000000049e+00,-1.998949611013412300e-02,1.719609217698362946e-01,8.651474118232727051e-01,2.385830688402488034e-02,1.046208968953576957e-03,3.157092762145482373e-03,4.535170293258580440e-03,9.354483806794115786e-02,-2.214924618601799011e-02,4.524501864580345251e-04,2.417655845147386601e-02,2.011322012625968263e-03,3.354027133725006465e-02,-1.613801291798846148e-03,8.861669088356671775e-03,0.000000000000000000e+00,0.000000000000000000e+00,0.000000000000000000e+00,5.352531301635103933e-01,-0.000000000000000000e+00,-6.616557836532592773e-01,1.141699929204022936e+02,-1.715271472930908134e-02
1.972831999999999919e+00,-2.050924612833863667e-02,1.757842174629396792e-01,8.638694882392883301e-01,2.393942537479114632e-02,1.302261937321746998e-03,3.376365122350743347e-03,-5.314267522611828068e-03,8.637419445302639553e-02,-1.643992960453033447e-02,-1.139869033706942397e-02,2.117903342643340237e-02,2.525341579498288289e-02,3.005513785605592320e-02,-8.044764125487210288e-03,9.548370794284721796e-03,0.000000000000000000e+00,0.000000000000000000e+00,0.000000000000000000e+00,5.350703846435476141e-01,-0.000000000000000000e+00,-1.492206692695617676e+00,1.251459361618835260e+02,-1.715271472930908134e-02
1.996436000000000099e+00,-2.101064843529190998e-02,1.798961549795380366e-01,8.625028133392333984e-01,2.434986567039521682e-02,1.478957546154457958e-03,3.352481782286924079e-03,1.774655170381933805e-03,8.553978831718922482e-02,-1.171644125133752823e-02,3.524025256514745630e-02,-2.201162647941677306e-02,-1.764965387308000191e-02,3.107385119574176957e-02,-5.519532528655837159e-04,9.396994349043674699e-03,0.000000000000000000e+00,0.000000000000000000e+00,0.000000000000000000e+00,5.349701213116705434e-01,-0.000000000000000000e+00,-8.014932870864868164e-01,9.818950177216100883e+01,-1.715271472930908134e-02
2.022658999999999985e+00,-2.145763253911444138e-02,1.838305724156690246e-01,8.612663745880126953e-01,2.439759742593676159e-02,1.241766952527978418e-03,3.656870491161472170e-03,1.672136514618017536e-03,8.245693045042869207e-02,-2.387317270040512085e-02,-2.279264660996706965e-02,-1.251113866668513959e-03,3.947842390435426368e-02,3.113463488617591521e-02,-3.376109619819190298e-03,1.028224572720831675e-02,0.000000000000000000e+00,0.000000000000000000e+00,0.000000000000000000e+00,5.360770023676577622e-01,-0.000000000000000000e+00,-5.811671018600463867e-01,1.123901549057236906e+02,-1.715271472930908134e-02
2.045803999999999956e+00,-2.176963986517785332e-02,1.864325318175046042e-01,8.602579832077026367e-01,2.489103616843848024e-02,1.146246392247807222e-03,3.558274218749233730e-03,1.383092543377084259e-03,8.096728664935026742e-02,-1.505889557301998138e-02,8.748259911079250871e-04,-8.796974590947055986e-03,-3.483968281645485193e-02,2.986672145281383389e-02,-4.473478204101981326e-03,1.001959483827208341e-02,0.000000000000000000e+00,0.000000000000000000e+00,0.000000000000000000e+00,5.356617090698728711e-01,-0.000000000000000000e+00,-9.163540601730346680e-01,1.048116177668457816e+01,-1.715271472930908134e-02
2.069774999999999920e+00,-2.214101117708875549e-02,1.901062270542758503e-01,8.586736917495727539e-01,2.594758339642681128e-02,1.341976219793927783e-03,3.735030717857669869e-03,-2.327055038645811126e-03,8.308237955039300682e-02,-3.405697410926222801e-03,6.664030723315325644e-02,2.496259963954468655e-02,9.849610010021282377e-03,2.819353722119794653e-02,-6.223041024724531786e-03,1.053794689324810685e-02,0.000000000000000000e+00,0.000000000000000000e+00,0.000000000000000000e+00,5.350803935769851138e-01,-0.000000000000000000e+00,-9.371043443679809570e-01,8.467313797078521986e+01,-1.715271472930908134e-02
2.096220000000000194e+00,-2.263968688768253773e-02,1.938500488652605547e-01,8.569989204406738281e-01,2.621335386692379144e-02,1.814688245787010601e-03,3.898959526390551825e-03,5.136412848259591830e-03,8.324713302432014406e-02,-1.125221699476242065e-02,-2.575750839760849661e-02,-8.807142306974723861e-03,4.633549575370734391e-02,2.891725288293640200e-02,2.697757676141356725e-03,1.088882489006304244e-02,0.000000000000000000e+00,0.000000000000000000e+00,0.000000000000000000e+00,5.359052525417060675e-01,-0.000000000000000000e+00,-6.116639375686645508e-01,1.145567182312084071e+02,-1.715271472930908134e-02
2.122856000000000076e+00,-2.305362771863897139e-02,1.974229696413365431e-01,8.555327653884887695e-01,2.698719121927460260e-02,2.139481080454030959e-03,4.075861412723690361e-03,6.889696816205798970e-03,7.910030198188057471e-02,3.654149768408387899e-04,3.389013433432312705e-02,3.650714578146248279e-02,-3.302254239551613568e-02,2.409836539163188324e-02,4.830144077499028653e-03,1.135746646833796225e-02,0.000000000000000000e+00,0.000000000000000000e+00,0.000000000000000000e+00,5.353094642348735777e-01,-0.000000000000000000e+00,-6.535986661911010742e-01,1.007341092380167709e+02,-1.715271472930908134e-02
2.150062000000000140e+00,-2.330874163694904647e-02,1.997571836583837135e-01,8.545643091201782227e-01,2.750123649516894586e-02,1.886947909883307517e-03,4.252293704525747509e-03,5.471384247192377821e-03,8.452878661525956017e-02,-6.737526506185531616e-03,5.987506783954502088e-02,-4.011533540305254469e-02,2.610762774408787248e-02,2.729349574486734931e-02,1.756791813359852728e-03,1.188963402978338024e-02,0.000000000000000000e+00,0.000000000000000000e+00,0.000000000000000000e+00,5.360359745414369215e-01,-0.000000000000000000e+00,-3.699696063995361328e-02,-5.347201421946657929e-01,-7.399392127990722483e-03
2.174638999999999989e+00,-2.353359166329194521e-02,2.020122730003987288e-01,8.535523414611816406e-01,2.808631800244566767e-02,2.215306538723149643e-03,4.170883297744775245e-03,-2.376665530703272588e-03,7.043217879675718607e-02,-5.576553754508495331e-03,2.907524120403372561e-02,2.850222901877337220e-02,2.370553990911462502e-02,1.432163729555246783e-02,-2.064318609003829453e-03,1.170958415643374995e-02,0.000000000000000000e+00,0.000000000000000000e+00,0.000000000000000000e+00,5.361486323466936321e-01,-0.000000000000000000e+00,-4.845575094223022461e-01,1.061646287225538288e+02,-7.399392127990722483e-03
2.197518999999999778e+00,-2.375923051402034289e-02,2.041728719928561087e-01,8.527289628982543945e-01,2.885468389585154475e-02,2.115381382167935698e-03,4.088442905699025617e-03,9.712471361022418856e-03,7.359953534433882893e-02,2.095644827932119370e-03,2.344496234996764836e-02,-6.858516160102847044e-03,-1.651176223699727524e-02,1.599357473470067181e-02,7.269207551403837272e-03,1.135881865328403073e-02,0.000000000000000000e+00,0.000000000000000000e+00,0.000000000000000000e+00,5.357999893840007521e-01,-0.000000000000000000e+00,-5.427786111831665039e-01,9.572758740658659349e+01,-7.399392127990722483e-03
2.225217999999999918e+00,-2.416940789155282154e-02,2.076484549748525699e-01,8.513849377632141113e-01,2.958471669044108326e-02,2.546777788525744768e-03,4.474549146091899403e-03,7.705543265181151805e-04,7.290091182630450972e-02,-9.904277976602315903e-04,1.938177231962434285e-02,4.163793559451775539e-02,3.995800751353995039e-02,1.300869405310050089e-02,1.482379740338313255e-03,1.251524221494992872e-02,0.000000000000000000e+00,0.000000000000000000e+00,0.000000000000000000e+00,5.362561025862141451e-01,-0.000000000000000000e+00,-8.591960668563842773e-01,1.076700024156246371e+02,-7.399392127990722483e-03
2.249079000000000050e+00,-2.442014533877492205e-02,2.099312089285059191e-01,8.504028320312500000e-01,2.948861966129318057e-02,2.342081370910964466e-03,4.522641014993876787e-03,1.048044239809800202e-02,7.441389528923893215e-02,-8.465074002742767334e-03,-4.567503349158898163e-02,-1.999899205032844990e-02,3.344886647228392795e-02,1.664970109330331238e-02,8.515929688251872368e-03,1.255675236920461568e-02,0.000000000000000000e+00,0.000000000000000000e+00,0.000000000000000000e+00,5.370079448779467857e-01,-0.000000000000000000e+00,-7.549918889999389648e-01,9.712742784679153374e+01,-7.399392127990722483e-03
2.274007999999999807e+00,-2.477179859291961384e-02,2.131255459138098884e-01,8.489750623703002930e-01,2.987188929817012617e-02,2.257344606914513108e-03,4.528529873206338721e-03,5.322452033852889328e-03,6.535767781478629690e-02,1.633284729905426502e-03,1.370080273158203778e-02,3.840828762584509552e-03,-5.278134639006688139e-02,1.024982571667989485e-02,2.476783435738703562e-03,1.265327010437450328e-02,0.000000000000000000e+00,0.000000000000000000e+00,0.000000000000000000e+00,5.365172981074927128e-01,-0.000000000000000000e+00,-8.144861459732055664e-01,-7.981320565932186639e+01,-7.399392127990722483e-03
2.298627999999999894e+00,-2.508922231975537626e-02,2.161445862403238993e-01,8.475457429885864258e-01,3.052632434744389014e-02,1.836993236715489530e-03,4.944012324303991880e-03,-2.255930512365959459e-04,7.044959954967774940e-02,1.872641732916235924e-03,7.332483709013769280e-02,-7.511508777648303464e-03,6.335552189329467232e-02,1.363658213619750766e-02,-3.848055927504976867e-03,1.390270977619639803e-02,0.000000000000000000e+00,0.000000000000000000e+00,0.000000000000000000e+00,5.367519621177629929e-01,-0.000000000000000000e+00,-1.692821860313415527e+00,2.504521768635872547e+01,-7.399392127990722483e-03
2.322265999999999941e+00,-2.508747056931969963e-02,2.193370163676943152e-01,8.459986448287963867e-01,3.103505451817341679e-02,2.082145246378841463e-03,4.723509766491024164e-03,5.217370766326417941e-03,6.353568359464606408e-02,2.958022058010101318e-03,-4.006673538668794471e-02,3.170463139462573882e-02,-1.863088731573327855e-02,7.117681835805440317e-03,2.473871119349190136e-03,1.319886350788473939e-02,0.000000000000000000e+00,0.000000000000000000e+00,0.000000000000000000e+00,5.369155659198543429e-01,-0.000000000000000000e+00,1.594687700271606445e-01,-9.424290747915362587e+00,3.189375400543213029e-02
2.345458999999999961e+00,-2.504438189251574284e-02,2.222521979021259420e-01,8.446232676506042480e-01,3.149547649187934423e-02,1.864647811923081377e-03,4.929543736090642204e-03,7.568859282669656609e-03,6.445196791772336842e-02,3.639971604570746422e-03,5.114009035504327866e-02,-6.015546808761904757e-02,1.040420023307503383e-02,8.276333108762147159e-03,2.115505035540512103e-03,1.378069741906096102e-02,0.000000000000000000e+00,0.000000000000000000e+00,0.000000000000000000e+00,5.371093610330318624e-01,-0.000000000000000000e+00,-9.771078824996948242e-01,-1.482978356555984867e+00,3.189375400543213029e-02
2.373291000000000039e+00,-2.495748606467112357e-02,2.259457997435940779e-01,8.424332737922668457e-01,3.125518089409956568e-02,1.695617818761041562e-03,5.173129427247729652e-03,1.020244300633207230e-02,5.705002175544482412e-02,4.555563442409038544e-03,-3.035152063147009832e-02,3.724612350176862742e-03,-9.299716952070933781e-03,7.102189996240746220e-03,2.717407626732461744e-03,1.445497613394192138e-02,0.000000000000000000e+00,0.000000000000000000e+00,0.000000000000000000e+00,5.373338769794345771e-01,-0.000000000000000000e+00,-7.816001176834106445e-01,1.060476139216931699e+02,3.189375400543213029e-02
2.397940999999999878e+00,-2.484938243867845439e-02,2.284056289019496255e-01,8.410019278526306152e-01,3.157574604188369966e-02,1.499814319886327851e-03,5.306406748722586157e-03,4.758850195106281190e-03,5.355608512531062626e-02,1.886278390884399414e-02,5.166806387956347085e-02,8.090024235996567253e-03,4.041220408331411967e-03,6.274697514923556138e-03,-2.987203630116817138e-03,1.490693869693288098e-02,0.000000000000000000e+00,0.000000000000000000e+00,0.000000000000000000e+00,5.365431688028288182e-01,-0.000000000000000000e+00,-8.948758840560913086e-01,1.097269685256873402e+02,3.189375400543213029e-02
2.421689999999999898e+00,-2.474998312231899839e-02,2.306852587219642425e-01,8.394536375999450684e-01,3.182768830044756941e-02,1.686595492824682907e-03,5.479807083465887581e-03,4.470435072299619450e-03,5.192889454652416942e-02,3.530286485329270363e-03,-6.896649985098418992e-03,-2.424999337053495782e-02,3.934339970159586586e-02,5.318882659998479950e-03,-1.158110648752678270e-03,1.536760379919999142e-02,0.000000000000000000e+00,0.000000000000000000e+00,0.000000000000000000e+00,5.378919040973730858e-01,-0.000000000000000000e+00,-9.930125474929809570e-01,9.963724915920441561e+01,3.189375400543213029e-02
