timestamp,x,y,z,roll,pitch,yaw,vx,vy,vz,p,q,r,psp,qsp,rsp,pres,qres,rres,thrust_sp, thrust_res
0.000000000000000000e+00,9.773786593596496194e-03,3.912575243808182057e-02,9.911624193191528320e-01,1.695442639179944172e-02,-8.367182519514848593e-03,3.482774876697873698e-03,2.623686612678314840e-03,-3.214696147731504333e-02,1.069546956568956375e-02,3.883914925820503017e-02,-3.289248265027312768e-02,-1.550630638742316221e-02,-1.000000000000000056e-01,-4.601917803721262273e-02,9.917498332327301380e-03,0.000000000000000000e+00,0.000000000000000000e+00,0.000000000000000000e+00,5.118130744069252502e-01,0.000000000000000000e+00,-9.829448461532592773e-01,8.631420703209667522e+01,0.000000000000000000e+00
2.280199999999999935e-02,9.789406770741856251e-03,3.882500291235373852e-02,9.908295273780822754e-01,1.682077540909051802e-02,-7.907067603638129327e-03,3.616664135152764751e-03,-7.417798457096777716e-03,-3.094728699675024924e-02,7.641167612746357918e-04,-2.186402992469628492e-02,2.966210896325862170e-02,7.169212712214720687e-03,-1.000000000000000056e-01,-5.148646898924251480e-02,1.032012545547095206e-02,0.000000000000000000e+00,0.000000000000000000e+00,0.000000000000000000e+00,5.125811423018874491e-01,0.000000000000000000e+00,-4.401530027389526367e-01,-1.417282557684621338e+02,0.000000000000000000e+00
4.649799999999999767e-02,9.728722795407712329e-03,3.843749342942661545e-02,9.906086921691894531e-01,1.659920122708068504e-02,-7.866013330510845947e-03,3.893056594765019560e-03,-8.708081314122456023e-04,-2.795536040056176980e-02,3.579538548365235329e-03,-1.364441902531733815e-02,2.619606219434732989e-03,1.875639702478779092e-02,-1.000000000000000056e-01,-4.446025055756328004e-02,1.106845811422613179e-02,0.000000000000000000e+00,0.000000000000000000e+00,0.000000000000000000e+00,5.123947123974508244e-01,0.000000000000000000e+00,-9.959977865219116211e-01,1.038994238050757701e+02,0.000000000000000000e+00
7.226000000000000478e-02,9.630280329201349951e-03,3.784568378821865503e-02,9.902639389038085938e-01,1.596590356931035931e-02,-7.701186238559865060e-03,3.886359534726058391e-03,-1.239142482334248648e-03,-3.217654420429664347e-02,1.172164338640868664e-03,-8.818598408980844391e-03,2.063379072546231083e-02,-4.780821186052390537e-02,-1.000000000000000056e-01,-4.470180904401963723e-02,1.103828075716223323e-02,0.000000000000000000e+00,0.000000000000000000e+00,0.000000000000000000e+00,5.126063355714876035e-01,0.000000000000000000e+00,-9.956110715866088867e-01,9.761985033500360487e+01,0.000000000000000000e+00
9.713399999999999812e-02,9.574037127821091037e-03,3.740138034254768262e-02,9.899055361747741699e-01,1.477067806286327771e-02,-7.452989289003619788e-03,4.357215936086151521e-03,-6.571731688144447601e-03,-2.918721547594286050e-02,-7.777531165629625320e-03,-5.771104870056939506e-02,-7.945369561031570896e-03,7.166411001452115126e-02,-9.134126116719437638e-02,-4.734358034567857920e-02,1.235811581266338388e-02,0.000000000000000000e+00,0.000000000000000000e+00,0.000000000000000000e+00,5.133118123167516034e-01,0.000000000000000000e+00,-1.137500643730163574e+00,1.080067307417062636e+02,0.000000000000000000e+00
1.217170000000000057e-01,9.478563433449193817e-03,3.653846018086265302e-02,9.891596436500549316e-01,1.285511208885873821e-02,-6.085137226156334123e-03,4.253867695692807767e-03,-1.876812343594941833e-03,-2.764034161004177634e-02,-1.988100446760654449e-02,-3.757335744593361115e-02,6.061421758220789102e-02,-1.673559310437479700e-02,-7.861976558147232286e-02,-3.395934533880141243e-02,1.201039726943925467e-02,0.000000000000000000e+00,0.000000000000000000e+00,0.000000000000000000e+00,5.142902825728878913e-01,0.000000000000000000e+00,-1.240808844566345215e+00,1.698232280513124408e+02,0.000000000000000000e+00
1.492789999999999950e-01,9.479919842491886864e-03,3.564194820330032071e-02,9.885225296020507812e-01,1.117154537690302415e-02,-4.971682248603226384e-03,4.367461116221943961e-03,-1.326941066733839042e-03,-2.747192649867379044e-02,-3.493531793355941772e-02,-1.246762668692310283e-01,6.933501249458830229e-02,2.162188607697287240e-02,-6.831248610910041485e-02,-2.696854092159209002e-02,1.229761481281071989e-02,0.000000000000000000e+00,0.000000000000000000e+00,0.000000000000000000e+00,5.154913375794621944e-01,0.000000000000000000e+00,-8.284362554550170898e-01,9.418675137134506770e+01,0.000000000000000000e+00
1.742579999999999962e-01,9.445209817469827490e-03,3.434012201747066451e-02,9.871972799301147461e-01,8.553786368297334325e-03,-3.669166902094289640e-03,4.718811486772053060e-03,2.965444005256503372e-03,-2.359638728080636072e-02,-4.722162336111068726e-02,-6.023151606296299476e-02,1.370050478388104044e-02,3.429315764360467422e-02,-4.903073575667642181e-02,-1.516288325032873197e-02,1.324390879370496155e-02,0.000000000000000000e+00,0.000000000000000000e+00,0.000000000000000000e+00,5.165501643330610015e-01,0.000000000000000000e+00,-1.056719660758972168e+00,1.028770742599190982e+02,0.000000000000000000e+00
2.000170000000000003e-01,9.403128715230460108e-03,3.349306349911762570e-02,9.861409068107604980e-01,6.702563479992000930e-03,-2.888822270890045729e-03,4.731936371223261287e-03,-7.342317784201194547e-03,-3.146554845924719873e-02,-4.971548914909362793e-02,-1.075103010469253273e-01,1.580544942679443232e-02,-2.139509175814104103e-02,-4.430764330060062844e-02,-1.897761606710465787e-02,1.327633494046409623e-02,0.000000000000000000e+00,0.000000000000000000e+00,0.000000000000000000e+00,5.168701427456208197e-01,0.000000000000000000e+00,-9.995132684707641602e-01,1.086880557717933726e+02,0.000000000000000000e+00
2.243559999999999999e-01,9.483384292852186162e-03,3.216357102202922064e-02,9.842835664749145508e-01,4.315913326798766214e-03,-2.101285002179098527e-03,5.053711978380187424e-03,6.825908741631586327e-03,-2.609523473310894001e-02,-6.694613397121429443e-02,-1.237022027679902797e-01,5.222023964446821653e-02,2.204127044965946761e-02,-2.425010539304091675e-02,-1.041068847386499756e-03,1.415146945287942826e-02,0.000000000000000000e+00,0.000000000000000000e+00,0.000000000000000000e+00,5.183503210370055125e-01,0.000000000000000000e+00,-9.129902124404907227e-01,1.181593083391208125e+02,0.000000000000000000e+00
2.488680000000000059e-01,9.695212525617240631e-03,3.119889609431906671e-02,9.828524589538574219e-01,3.425210721698530511e-03,-1.791363445049043435e-03,5.071300207130612081e-03,3.694642123752870950e-03,-2.474415325697936971e-02,-6.599476188421249390e-02,-1.861647564979870481e-02,2.579891943425521861e-02,-1.797893371839616797e-02,-1.872465669601330526e-02,-3.386943248681543138e-03,1.420252718663250757e-02,0.000000000000000000e+00,0.000000000000000000e+00,0.000000000000000000e+00,5.184624064702211266e-01,0.000000000000000000e+00,-1.046360850334167480e+00,8.501399856131470756e+01,0.000000000000000000e+00
2.739699999999999913e-01,1.002777832106147883e-02,2.982977917446304195e-02,9.804800748825073242e-01,1.767525678715695017e-03,-8.088489652500197025e-04,5.317080379866663369e-03,-1.423647847698206875e-03,-3.368960803552954741e-02,-7.755789905786514282e-02,-9.444587409744682749e-02,3.882845267073335715e-02,8.959484469340127724e-03,-1.605001917714259096e-02,-4.250891283882495984e-04,1.488791167005742988e-02,0.000000000000000000e+00,0.000000000000000000e+00,0.000000000000000000e+00,5.195742125078609552e-01,0.000000000000000000e+00,-9.872080087661743164e-01,1.106298375716929741e+02,0.000000000000000000e+00
2.993910000000000182e-01,1.026093897455869833e-02,2.897166463686710186e-02,9.787959456443786621e-01,9.934345396223115323e-04,-3.416215925751142635e-04,5.488081051227795999e-03,9.018313499927413726e-03,-1.612242543745274689e-02,-8.303703367710113525e-02,-2.898939254972341534e-02,4.500716985499705891e-02,-1.628469005642678435e-02,3.585458944988737136e-03,1.182601226460761046e-02,1.536013632377469795e-02,0.000000000000000000e+00,0.000000000000000000e+00,0.000000000000000000e+00,5.201964276615872462e-01,0.000000000000000000e+00,-1.089742302894592285e+00,1.053428476823745683e+02,0.000000000000000000e+00
3.239060000000000272e-01,1.061364321939855734e-02,2.775401972898333333e-02,9.760149717330932617e-01,-2.001653496800935616e-04,-3.635384725422241559e-04,5.858089067301066981e-03,2.948474528920129890e-03,-2.544606119888114665e-02,-8.509083837270736694e-02,-1.435076984443919151e-02,-4.352606613664141560e-02,1.744657155137555298e-03,7.609959522117757790e-04,5.600291269095466692e-03,1.640297482485358893e-02,0.000000000000000000e+00,0.000000000000000000e+00,0.000000000000000000e+00,5.206503040584642417e-01,0.000000000000000000e+00,-1.137514472007751465e+00,1.774572963356898470e+01,0.000000000000000000e+00
3.481330000000000258e-01,1.097013557437055697e-02,2.721850624040276709e-02,9.740225672721862793e-01,-5.631309943886568222e-04,-2.370535367295367735e-04,6.095415532007576742e-03,-1.641797295060351981e-03,-2.173018853056474589e-02,-1.000074073672294617e-01,1.847706396103376489e-02,-1.199843448264082887e-02,1.981993878303142664e-02,7.065898747118180834e-03,3.927966940094598271e-03,1.706718584802568994e-02,0.000000000000000000e+00,0.000000000000000000e+00,0.000000000000000000e+00,5.220023652310744611e-01,0.000000000000000000e+00,-1.151335835456848145e+00,1.019163125305084208e+02,0.000000000000000000e+00
3.741189999999999793e-01,1.152315615910026042e-02,2.645314118021921054e-02,9.708469510078430176e-01,-6.893972015700912523e-04,-1.966137807460910381e-04,6.082344489530823808e-03,8.534185387698194417e-03,-1.028924299907123252e-02,-1.050116196274757385e-01,2.290958084953319263e-02,7.328263166599529969e-03,-1.081535923670184050e-02,1.583415520886043149e-02,1.322701650475236607e-02,1.702751291454551730e-02,0.000000000000000000e+00,0.000000000000000000e+00,0.000000000000000000e+00,5.227242762195215553e-01,0.000000000000000000e+00,-1.150214314460754395e+00,1.576007957768713652e+02,0.000000000000000000e+00
3.985690000000000066e-01,1.189625401310412910e-02,2.600717399436811364e-02,9.687172174453735352e-01,-1.000581180500244045e-03,-2.023388209504428659e-04,6.110974513810259016e-03,1.188311581855155605e-02,-1.653313071073888099e-02,-1.160908341407775879e-01,-3.411050402523899822e-02,-8.658677668353575649e-03,3.743302190386652711e-02,1.108180349206746781e-02,1.457651277935232033e-02,1.711160133351802282e-02,0.000000000000000000e+00,0.000000000000000000e+00,0.000000000000000000e+00,5.238223884005638320e-01,0.000000000000000000e+00,-1.185129761695861816e+00,1.025008196291106088e+02,0.000000000000000000e+00
4.242219999999999880e-01,1.248975492345660333e-02,2.547364208317809756e-02,9.653651714324951172e-01,-1.219180645643246595e-03,-1.385914832781054429e-04,6.434973396277355630e-03,7.764999256303458351e-03,-7.875100021718510132e-03,-1.211956068873405457e-01,1.451206989211452358e-02,-1.696870062606457147e-02,3.334958989378738331e-02,1.985495294678056924e-02,1.174351514976008579e-02,1.801633329808272066e-02,0.000000000000000000e+00,0.000000000000000000e+00,0.000000000000000000e+00,5.245813739495179817e-01,0.000000000000000000e+00,-1.321382641792297363e+00,1.114051733255161452e+02,0.000000000000000000e+00
4.481189999999999896e-01,1.278210456794767053e-02,2.522793510055595934e-02,9.631344676017761230e-01,-1.422319820540688578e-03,-2.627320334771532373e-04,6.333269153817495944e-03,1.507300797030004282e-02,-1.123162798782466679e-02,-1.193175464868545532e-01,-3.056238324587479474e-02,-2.413606080854953720e-02,-2.682986536743696068e-02,1.719882627959001820e-02,1.744074910588320343e-02,1.773381425554748647e-02,0.000000000000000000e+00,0.000000000000000000e+00,0.000000000000000000e+00,5.247512799447295873e-01,0.000000000000000000e+00,-1.284869313240051270e+00,1.065537445995694554e+02,0.000000000000000000e+00
4.726090000000000013e-01,1.328477700254249855e-02,2.493678798391603044e-02,9.597800374031066895e-01,-9.738577099890836485e-04,-7.266482868184542809e-04,6.488810695195980881e-03,1.331852142841555113e-02,-3.374668240774028691e-03,-1.258231997489929199e-01,3.152797060768622057e-03,2.577115287957885015e-03,3.344857884083964061e-02,2.072490573091232899e-02,1.241466180097791812e-02,1.816529731903260281e-02,0.000000000000000000e+00,0.000000000000000000e+00,0.000000000000000000e+00,5.256206797080479332e-01,0.000000000000000000e+00,-1.250985980033874512e+00,8.156948635155309546e+01,0.000000000000000000e+00
4.971970000000000001e-01,1.363244425685463355e-02,2.479076096618920699e-02,9.575647115707397461e-01,-2.640353994798488066e-04,-1.117531244387182099e-03,6.441619470938303969e-03,1.451046704887843167e-02,-1.213611001542629379e-03,-1.277874708175659180e-01,5.716313142089139016e-02,-2.282808018761448010e-02,-1.844181411247656447e-03,1.663398839603816987e-02,1.133514111041265988e-02,1.803151889131815455e-02,0.000000000000000000e+00,0.000000000000000000e+00,0.000000000000000000e+00,5.260807298891535533e-01,0.000000000000000000e+00,-1.426775097846984863e+00,1.021726563602481690e+02,0.000000000000000000e+00
5.219679999999999875e-01,1.419039002377603213e-02,2.466359074631948797e-02,9.542285799980163574e-01,5.507282383700689123e-04,-1.127585630714467158e-03,6.304505665985172570e-03,1.353979107139021906e-02,-3.033099840302734551e-03,-1.319044977426528931e-01,8.642301757556151293e-03,2.372099890890552384e-02,-3.382123403453312499e-02,9.597907738138455880e-03,1.074058053641459981e-02,1.764660260899858502e-02,0.000000000000000000e+00,0.000000000000000000e+00,0.000000000000000000e+00,5.267840918021093888e-01,0.000000000000000000e+00,-1.738047778606414795e+00,1.409005188033266336e+02,0.000000000000000000e+00
5.500500000000000389e-01,1.464838774405861042e-02,2.447479644888508887e-02,9.519809484481811523e-01,8.362128987028554297e-04,-1.412084713216188447e-03,6.694220652116310462e-03,2.037695175278726387e-02,8.378820669517573691e-03,-1.315246969461441040e-01,2.688770887500466938e-04,-2.263265096343932553e-02,3.989829230041847669e-02,1.674776326557754491e-02,1.473510754923692059e-02,1.873027009915795293e-02,0.000000000000000000e+00,0.000000000000000000e+00,0.000000000000000000e+00,5.270864133814229247e-01,0.000000000000000000e+00,-1.254507422447204590e+00,1.013826698506553328e+02,0.000000000000000000e+00
5.742070000000000229e-01,1.530780583985965476e-02,2.422906880372047850e-02,9.486226439476013184e-01,1.212946582916943784e-03,-2.058834038338730466e-03,6.778111573264310012e-03,1.311057707088530110e-02,1.019887177226793014e-02,-1.344666779041290283e-01,5.276475426227941745e-02,-1.979189409530953542e-02,-2.394725389228327325e-02,1.404879298096753208e-02,4.426857073829106211e-03,1.897433934401876465e-02,0.000000000000000000e+00,0.000000000000000000e+00,0.000000000000000000e+00,5.277119813731123710e-01,0.000000000000000000e+00,-1.198067784309387207e+00,1.182053984556400508e+02,0.000000000000000000e+00
5.991640000000000299e-01,1.577459556926196285e-02,2.411769951414819216e-02,9.463844299316406250e-01,1.330831103932687961e-03,-2.717727310443285305e-03,6.830222679877681440e-03,6.285727416549011064e-03,5.471630771288166044e-03,-1.397703588008880615e-01,-2.534855536955569338e-02,-2.527403911184348054e-02,4.232764253131560128e-02,9.395566971337317164e-03,-3.782749024552806583e-03,1.912797797516807563e-02,0.000000000000000000e+00,0.000000000000000000e+00,0.000000000000000000e+00,5.284336014135379012e-01,0.000000000000000000e+00,-8.892444372177124023e-01,2.405076946396155080e+01,0.000000000000000000e+00
6.231799999999999562e-01,1.648034994639915873e-02,2.404210981087429727e-02,9.430848360061645508e-01,2.128239965069103276e-03,-3.485242859452508668e-03,6.709284410826010618e-03,2.751518593462383769e-02,1.725170585290026343e-02,-1.432760208845138550e-01,2.995754890555321973e-02,-1.146875269062092592e-03,-4.317154494646078568e-03,1.386615445012128779e-02,9.061433742379309750e-03,1.877343043452622817e-02,0.000000000000000000e+00,0.000000000000000000e+00,0.000000000000000000e+00,5.291136271375627143e-01,0.000000000000000000e+00,-1.026253819465637207e+00,1.157336212969041327e+02,0.000000000000000000e+00
6.482029999999999736e-01,1.681551464691240574e-02,2.420400956610588641e-02,9.408494234085083008e-01,2.593026171629328816e-03,-3.718847969987226776e-03,6.569189704242145954e-03,2.025511332150988636e-02,1.194738199630051081e-02,-1.354574710130691528e-01,-1.753374505382730708e-02,-2.152333564232492003e-02,-1.756638315866377101e-02,5.406647553326161468e-03,-6.816379860930909911e-04,1.839458714320568733e-02,0.000000000000000000e+00,0.000000000000000000e+00,0.000000000000000000e+00,5.288853098928998353e-01,0.000000000000000000e+00,-1.218398213386535645e+00,1.181460031306176148e+02,0.000000000000000000e+00
6.727560000000000207e-01,1.734366825283116184e-02,2.450058607568663879e-02,9.374241232872009277e-01,2.917062393662747145e-03,-3.553680743699327849e-03,6.556261387707429389e-03,1.396298794746118378e-02,1.864304506004832093e-02,-1.446383148431777954e-01,-7.729864319998542774e-03,3.250623838011043598e-02,2.233602842522577903e-02,9.431280447032027933e-03,-3.027154033069584613e-03,1.836234073800296906e-02,0.000000000000000000e+00,0.000000000000000000e+00,0.000000000000000000e+00,5.299855512206379515e-01,0.000000000000000000e+00,-9.617985486984252930e-01,1.124742891759199068e+02,0.000000000000000000e+00
6.972140000000000004e-01,1.768814203149168124e-02,2.476527909784835210e-02,9.350507855415344238e-01,3.074152557979805724e-03,-3.791195123880930495e-03,6.510767231657862801e-03,1.611417581504910948e-02,1.735321961833609719e-02,-1.443545073270797729e-01,1.513000342827089742e-02,5.944538759369510060e-03,-1.543384092378244886e-02,6.745845501773066986e-03,-1.758612817206922901e-03,1.823289109931730545e-02,0.000000000000000000e+00,0.000000000000000000e+00,0.000000000000000000e+00,5.303274718534977117e-01,0.000000000000000000e+00,-4.948259592056274414e-01,-1.320057768906305995e+01,0.000000000000000000e+00
7.224899999999999656e-01,1.820853541974181561e-02,2.525784926479279074e-02,9.316119551658630371e-01,3.345732440158533019e-03,-4.155667404909468843e-03,6.408292774248449536e-03,2.595603431869497948e-02,1.865129139015591839e-02,-1.421306580305099487e-01,-3.730423863483663983e-03,-1.926277399808127742e-04,-5.529419488439471508e-02,6.530252534688154274e-03,3.533296333593923758e-03,1.793731437903428594e-02,0.000000000000000000e+00,0.000000000000000000e+00,0.000000000000000000e+00,5.306091699718193944e-01,0.000000000000000000e+00,-1.174718737602233887e+00,6.774310026375042071e+01,0.000000000000000000e+00
7.499430000000000263e-01,1.861110072279851049e-02,2.560472479422173236e-02,9.292769432067871094e-01,3.801196994053892761e-03,-4.352323322886153534e-03,6.620273573110811716e-03,2.138963149865337129e-02,2.405242202940604396e-02,-1.345026791095733643e-01,5.327982466069297596e-02,-1.635548851182795638e-02,4.176527332366002793e-02,7.919638678555154451e-03,-2.180707577255987847e-03,1.854096523597398294e-02,0.000000000000000000e+00,0.000000000000000000e+00,0.000000000000000000e+00,5.304149333275177680e-01,0.000000000000000000e+00,-1.169214606285095215e+00,7.888488049827957127e+01,0.000000000000000000e+00
7.747920000000000362e-01,1.926399389173748949e-02,2.625149677924790495e-02,9.258897900581359863e-01,4.408855886112466975e-03,-4.209775878831756302e-03,6.190179152183957791e-03,1.735396558188151764e-02,2.615680980608519127e-02,-1.418214142322540283e-01,6.062412316703966186e-02,1.058254779323125096e-02,-2.693467606016460708e-02,5.310628288996357624e-03,-3.257604424096000387e-03,1.733936067855151864e-02,0.000000000000000000e+00,0.000000000000000000e+00,0.000000000000000000e+00,5.313831612742296873e-01,0.000000000000000000e+00,-1.249337077140808105e+00,1.090396056083739325e+02,0.000000000000000000e+00
7.992909999999999737e-01,1.970421235308483787e-02,2.670731389296811947e-02,9.235948920249938965e-01,4.215232658373819184e-03,-3.975949310382365098e-03,6.366676805367559901e-03,1.772343568727090257e-02,2.454439845215843422e-02,-1.437024176120758057e-01,-3.600498475509289475e-02,1.538051924773274279e-02,2.692037912781796230e-02,5.434788630112484184e-03,-5.464120470071768230e-04,1.782785867026420723e-02,0.000000000000000000e+00,0.000000000000000000e+00,0.000000000000000000e+00,5.318841583373349335e-01,0.000000000000000000e+00,-6.957570314407348633e-01,1.754065525279610256e+02,0.000000000000000000e+00
8.240720000000000267e-01,2.037717863747001007e-02,2.751459663090642313e-02,9.202475547790527344e-01,4.387217397066896403e-03,-3.974805482073184848e-03,6.301563213412475668e-03,3.144290448495698498e-02,2.873316806887175195e-02,-1.390225887298583984e-01,2.187109551514963834e-02,-2.037689019711927743e-02,7.532727868077180797e-03,8.329514837808941682e-03,1.042523720146158392e-02,1.762177569848127900e-02,0.000000000000000000e+00,0.000000000000000000e+00,0.000000000000000000e+00,5.319913703612569877e-01,0.000000000000000000e+00,-1.304727911949157715e+00,-8.617543124854036307e+01,0.000000000000000000e+00
8.482199999999999740e-01,2.073298040047600113e-02,2.827772442280283502e-02,9.179979562759399414e-01,4.522511250775062067e-03,-4.211268311375526707e-03,6.238875248265165867e-03,2.414489038057759246e-02,2.942520692013554304e-02,-1.241220086812973022e-01,4.198910212908377182e-02,-4.616260247862639249e-02,-3.005219683370535105e-02,8.155042662201945555e-03,1.861018565049022636e-03,1.746480694289465063e-02,0.000000000000000000e+00,0.000000000000000000e+00,0.000000000000000000e+00,5.312669993432891369e-01,0.000000000000000000e+00,-6.780160665512084961e-01,1.934140457463761607e+02,0.000000000000000000e+00
8.743349999999999733e-01,2.110156843876046656e-02,2.986260201469769643e-02,9.147916436195373535e-01,4.761546175739782283e-03,-4.466656432625892847e-03,6.069935234405613236e-03,2.037873825820210941e-02,2.654479836256702641e-02,-1.324042677879333496e-01,-2.769788298369558685e-03,1.278085696361665148e-03,-8.191638221331874053e-03,5.339651436582838404e-03,-1.386700546330295065e-03,1.699900070479160030e-02,0.000000000000000000e+00,0.000000000000000000e+00,0.000000000000000000e+00,5.322911384625443887e-01,0.000000000000000000e+00,-1.246657729148864746e+00,1.033640052760384691e+02,0.000000000000000000e+00
8.973619999999999930e-01,2.136512831935782550e-02,3.093289329310054334e-02,9.126745462417602539e-01,5.338738759079149354e-03,-4.383831780870428574e-03,6.046561989603807530e-03,2.617594279719082095e-02,3.775518507000023838e-02,-1.252595782279968262e-01,5.597577070750804629e-02,3.422723139281397264e-02,-1.604407481145159881e-02,1.136545467051414474e-02,4.460711527764034748e-03,1.691859546252105773e-02,0.000000000000000000e+00,0.000000000000000000e+00,0.000000000000000000e+00,5.321276573751528849e-01,0.000000000000000000e+00,-1.511719584465026855e+00,1.231580096039513137e+02,0.000000000000000000e+00
9.224869999999999459e-01,2.179627408185002418e-02,3.260427883692368356e-02,9.096547961235046387e-01,5.952871544646553756e-03,-4.449412638770411377e-03,5.693076645033104226e-03,2.730043673155638922e-02,3.401812942909739068e-02,-1.206453591585159302e-01,3.329520037403432137e-02,-1.698438671054255944e-02,-4.923862798686295256e-02,4.188424417528424648e-03,4.472996370012396507e-03,1.592864416237882441e-02,0.000000000000000000e+00,0.000000000000000000e+00,0.000000000000000000e+00,5.322040318085178301e-01,0.000000000000000000e+00,-1.228615164756774902e+00,1.016138171125468972e+02,0.000000000000000000e+00
9.476949999999999541e-01,2.208723249659323012e-02,3.373446541498117263e-02,9.076220989227294922e-01,5.901934357367413612e-03,-4.429119593739150318e-03,6.011513995675290926e-03,1.906197297217298095e-02,4.136017767400917977e-02,-1.265684217214584351e-01,2.191807292979072383e-02,-8.946475578934397557e-03,4.709436419836920268e-02,1.144366287480069917e-02,-1.515305265952243945e-03,1.683696193648287487e-02,0.000000000000000000e+00,0.000000000000000000e+00,0.000000000000000000e+00,5.329761072748172568e-01,0.000000000000000000e+00,-1.045088410377502441e+00,1.111963744425888621e+02,0.000000000000000000e+00
9.728459999999999885e-01,2.252834034584909675e-02,3.545369489223805515e-02,9.047510027885437012e-01,6.164245838698557273e-03,-4.718166218728780947e-03,5.754919479912361420e-03,2.665877512320755788e-02,4.141174598682079849e-02,-1.299468725919723511e-01,2.750175027963711050e-02,-2.460284667123749033e-02,-4.722404727208176847e-03,9.908719140524326410e-03,3.856538566948433146e-03,1.610247566594197322e-02,0.000000000000000000e+00,0.000000000000000000e+00,0.000000000000000000e+00,5.336313412887181418e-01,0.000000000000000000e+00,-1.346193432807922363e+00,1.067636226523856067e+02,0.000000000000000000e+00
9.988669999999999494e-01,2.284136054562434584e-02,3.661267963126407787e-02,9.029697775840759277e-01,6.382983944897648032e-03,-4.930105749247237767e-03,5.648414039295302294e-03,2.528125416847968460e-02,4.500833253554289981e-02,-1.206404864788055420e-01,-7.114999114555513836e-03,1.937740257580454831e-02,-3.343574727860088719e-02,1.222090203028335272e-02,7.788727613696380236e-04,1.581338698149642452e-02,0.000000000000000000e+00,0.000000000000000000e+00,0.000000000000000000e+00,5.332900661783414042e-01,0.000000000000000000e+00,-1.243870615959167480e+00,9.499736505223135907e+01,0.000000000000000000e+00
1.023555999999999910e+00,2.315484755625495106e-02,3.778319746400508189e-02,9.012695550918579102e-01,6.867910469693996010e-03,-5.360909338415265069e-03,5.643227934691238262e-03,2.781177167706584685e-02,4.418082689646267436e-02,-1.215130984783172607e-01,1.906574097224007780e-02,-2.941683351771021485e-02,3.053793522512786296e-02,8.835387672740831894e-03,4.055582431916841661e-04,1.579998411080529852e-02,0.000000000000000000e+00,0.000000000000000000e+00,0.000000000000000000e+00,5.336754151078048070e-01,0.000000000000000000e+00,-1.409435391426086426e+00,1.025716077096686121e+02,0.000000000000000000e+00
1.052694999999999936e+00,2.364720383780235038e-02,3.951321960275638173e-02,8.989403843879699707e-01,8.046660331528525736e-03,-5.268976453243867653e-03,5.286554335873969862e-03,1.904442697019416084e-02,4.940465729358181624e-02,-1.162847429513931274e-01,5.810202064369607289e-02,1.512492279297710136e-02,-3.195147879707607719e-02,6.598502471822665152e-03,-5.532795196612769542e-03,1.482317476077349427e-02,0.000000000000000000e+00,0.000000000000000000e+00,0.000000000000000000e+00,5.336655723602791168e-01,0.000000000000000000e+00,-1.362942814826965332e+00,1.108500292101558529e+02,0.000000000000000000e+00
1.073382999999999976e+00,2.394613635392548248e-02,4.076190867081691538e-02,8.974692225456237793e-01,8.385892900527977534e-03,-5.309997728279558515e-03,5.235104024191110025e-03,1.850867144451152912e-02,4.759417998653508314e-02,-1.200891435146331787e-01,-3.154899535332172239e-02,4.226973341005980803e-04,3.607131591596760695e-02,3.232154100406463629e-03,-4.730503873381794455e-03,1.467629733511410794e-02,0.000000000000000000e+00,0.000000000000000000e+00,0.000000000000000000e+00,5.342458140846353398e-01,0.000000000000000000e+00,-8.841265439987182617e-01,-4.059892104921717504e+01,0.000000000000000000e+00
1.106649999999999912e+00,2.439385202863254831e-02,4.266126581417154645e-02,8.954051136970520020e-01,8.806636637221297928e-03,-5.558934195791120914e-03,5.457032605556706023e-03,2.247972001187704266e-02,5.374500783011868649e-02,-1.102342903614044189e-01,2.713911603620243473e-02,1.026058234516751336e-02,2.789895259835819055e-02,6.875359063698075618e-03,-2.777192676713972561e-03,1.529136884222481729e-02,0.000000000000000000e+00,0.000000000000000000e+00,0.000000000000000000e+00,5.338861662123279839e-01,0.000000000000000000e+00,-1.276378750801086426e+00,1.190811243298840623e+02,0.000000000000000000e+00
1.127094000000000040e+00,2.453168726074217779e-02,4.329437314989519059e-02,8.947412371635437012e-01,8.827418905659920392e-03,-5.749049027377495236e-03,5.352568338171648926e-03,1.920507195309527002e-02,5.380911764870288660e-02,-1.129099950194358826e-01,-3.365026477620462059e-02,5.785674776535643712e-04,2.634860307932603354e-02,6.570907824637118970e-03,-6.855065340270425148e-03,1.501528075276942209e-02,0.000000000000000000e+00,0.000000000000000000e+00,0.000000000000000000e+00,5.343228864315003879e-01,0.000000000000000000e+00,-1.064742445945739746e+00,1.134565660012161175e+02,0.000000000000000000e+00
1.147585999999999995e+00,2.481565440386547527e-02,4.453246765602257573e-02,8.935225605964660645e-01,9.435593973512942934e-03,-6.175918391098988991e-03,5.158995862879513054e-03,2.690446168679145114e-02,5.248867062830599867e-02,-1.046108901500701904e-01,6.638208846385465489e-02,-3.808780708157862016e-02,-1.365300197294772380e-02,2.699813945473585833e-03,-2.997264823620173282e-03,1.445809296391847854e-02,0.000000000000000000e+00,0.000000000000000000e+00,0.000000000000000000e+00,5.340086254245751674e-01,0.000000000000000000e+00,4.609477519989013672e-02,-1.951894748739455121e+00,0.000000000000000000e+00
1.181035000000000057e+00,2.519954622567128003e-02,4.650881045259445262e-02,8.917944431304931641e-01,1.031602781105547297e-02,-6.427951346428928403e-03,4.847184222583071807e-03,1.290260703352462228e-02,4.632794480599244230e-02,-9.410624206066131592e-02,4.568719187391886982e-02,-2.608659940691360896e-02,-3.230689628332206881e-02,-5.891091075976606292e-03,-1.591941383762860221e-02,1.364027127961203734e-02,0.000000000000000000e+00,0.000000000000000000e+00,0.000000000000000000e+00,5.335583462977466773e-01,0.000000000000000000e+00,-8.092402219772338867e-01,1.380935569412615109e+02,0.000000000000000000e+00
1.202472999999999903e+00,2.538989960157293779e-02,4.792960596365788278e-02,8.908153176307678223e-01,1.083683104636395771e-02,-6.233730769270584560e-03,4.950320315559916112e-03,2.112701897815649418e-02,4.942784931665764048e-02,-9.430610388517379761e-02,5.385926733211231221e-02,1.734607285553878058e-03,1.455893702909212897e-02,-5.002622815140198367e-03,-6.229692450450479216e-03,1.388948023440039758e-02,0.000000000000000000e+00,0.000000000000000000e+00,0.000000000000000000e+00,5.338320138326956288e-01,0.000000000000000000e+00,-9.737013578414916992e-01,1.158238754165966924e+02,0.000000000000000000e+00
1.221641999999999895e+00,2.557779740245773314e-02,4.937262495927511458e-02,8.898347020149230957e-01,1.123378300443817097e-02,-5.959145148101807621e-03,4.668087211931356596e-03,2.551979761263501942e-02,5.377604599424485460e-02,-8.860205858945846558e-02,3.129439971614590005e-02,2.656791666953906006e-02,-5.423782072918952035e-02,-3.493549264425943254e-03,-1.961285650780889359e-03,1.308046461635486990e-02,0.000000000000000000e+00,0.000000000000000000e+00,0.000000000000000000e+00,5.336765764178008631e-01,0.000000000000000000e+00,-9.857915639877319336e-01,7.699155206035204912e+01,0.000000000000000000e+00
1.248814000000000091e+00,2.591335642497671551e-02,5.225927553388093338e-02,8.881042599678039551e-01,1.100617409941341898e-02,-5.799984464649243776e-03,4.729635907165809748e-03,1.335620018505037816e-02,5.397327981873466241e-02,-8.171691745519638062e-02,2.922124480227519458e-02,-6.818061186154142708e-03,-3.187138174347203812e-02,-3.372670434323983384e-04,-1.038284942577901229e-02,1.329277232579595402e-02,0.000000000000000000e+00,0.000000000000000000e+00,0.000000000000000000e+00,5.334810270626100248e-01,0.000000000000000000e+00,-1.314970850944519043e+00,1.252250570732289532e+02,0.000000000000000000e+00
1.271679999999999922e+00,2.609217672027130605e-02,5.442046452146477586e-02,8.869136571884155273e-01,1.063530474406067065e-02,-5.960774612528307870e-03,4.618449566207417055e-03,2.301855043380800561e-02,5.088303865869821252e-02,-8.684131503105163574e-02,-4.995735628315180893e-02,-1.097060478995446134e-02,-4.342902764427586382e-03,1.169289815457168809e-03,-2.243092587576199851e-03,1.294257103445861645e-02,0.000000000000000000e+00,0.000000000000000000e+00,0.000000000000000000e+00,5.341175274589586852e-01,0.000000000000000000e+00,-1.683035910129547119e+00,9.929281637973902264e+01,0.000000000000000000e+00
1.297029999999999905e+00,2.615125076641327748e-02,5.588969756808463002e-02,8.864126801490783691e-01,1.106973333976736702e-02,-5.989433683249334450e-03,4.567990208649095468e-03,1.951930702384038069e-02,6.101118452053386210e-02,-7.821770757436752319e-02,3.952515379194528056e-02,2.400219391314307657e-02,-2.476092603844746998e-02,7.789613175689914792e-03,-6.146884656667276139e-03,1.282203318718311280e-02,0.000000000000000000e+00,0.000000000000000000e+00,0.000000000000000000e+00,5.337137129115417933e-01,0.000000000000000000e+00,-1.213948130607604980e+00,1.031754852247569545e+02,0.000000000000000000e+00
1.325415999999999928e+00,2.626166724709983608e-02,5.877216941243083859e-02,8.855264186859130859e-01,1.157778994065331024e-02,-5.998077993311978773e-03,4.322324646769020937e-03,2.017030702223061162e-02,5.968986155111646180e-02,-7.307859510183334351e-02,4.257252332257053379e-02,-1.084347104473945729e-02,8.055865747664009424e-03,4.216054359942261222e-03,-5.010293564247691837e-03,1.212891814430677728e-02,0.000000000000000000e+00,0.000000000000000000e+00,0.000000000000000000e+00,5.335790306577637976e-01,0.000000000000000000e+00,-1.120889067649841309e+00,1.150899989110354937e+02,0.000000000000000000e+00
1.347183000000000019e+00,2.632798558567862532e-02,6.022161422505405842e-02,8.852491974830627441e-01,1.143420363061640153e-02,-5.943381115999679665e-03,4.139978328558519688e-03,1.648091390404992848e-02,5.962924292168649693e-02,-7.317649573087692261e-02,-1.575312514733667041e-02,2.111788190535138741e-03,-1.355324351737791609e-02,6.510270342866401362e-03,-7.382876361384778027e-03,1.163063071790521041e-02,0.000000000000000000e+00,0.000000000000000000e+00,0.000000000000000000e+00,5.337768197799004355e-01,0.000000000000000000e+00,-9.692343473434448242e-01,1.391844474347392691e+02,0.000000000000000000e+00
1.371466999999999992e+00,2.642996475396646242e-02,6.180541238733439774e-02,8.849345445632934570e-01,1.141260161314874670e-02,-6.069864453674966853e-03,4.134940474754587349e-03,1.536310436011262270e-02,5.645614003982626222e-02,-7.441958039999008179e-02,-2.837831170329609652e-03,-2.472183835549676689e-02,1.322856581006959589e-02,5.520873851300497903e-03,-8.370797065232797596e-03,1.162123294876549195e-02,0.000000000000000000e+00,0.000000000000000000e+00,0.000000000000000000e+00,5.340598490317087776e-01,0.000000000000000000e+00,-9.492665529251098633e-01,1.119266309478899473e+02,0.000000000000000000e+00
1.397890000000000077e+00,2.669700473439555466e-02,6.434425192246109870e-02,8.848511576652526855e-01,1.144564193313096258e-02,-6.414377305070217972e-03,3.990276516064362317e-03,1.333087554543764368e-02,6.297104903804387477e-02,-6.251760572195053101e-02,1.123480345227158284e-02,1.501654426323102871e-02,-3.609049571670124718e-02,1.276555095162662697e-02,-1.162919940160009498e-02,1.123585582239455816e-02,0.000000000000000000e+00,0.000000000000000000e+00,0.000000000000000000e+00,5.333779512963573444e-01,0.000000000000000000e+00,-1.180984139442443848e+00,1.012187862917100460e+02,0.000000000000000000e+00
1.422504999999999908e+00,2.685551695696740404e-02,6.599195558288611929e-02,8.847929835319519043e-01,1.151083923607113327e-02,-6.674842531437574777e-03,3.847654481739503154e-03,2.311167763148803955e-02,5.927196276302003353e-02,-6.692140549421310425e-02,-2.345860453203115620e-02,-2.294157478541472214e-02,3.299390305445253080e-02,9.888750427623221526e-03,-5.446746538640475678e-03,1.080291394311649888e-02,0.000000000000000000e+00,0.000000000000000000e+00,0.000000000000000000e+00,5.338640866821101616e-01,0.000000000000000000e+00,-2.155345678329467773e-01,4.515754981072917928e+01,0.000000000000000000e+00
1.448002999999999929e+00,2.714765798730806728e-02,6.844538142659820079e-02,8.849519491195678711e-01,1.232811679798233827e-02,-6.282666169745043661e-03,3.488972156671050606e-03,8.790565435320474297e-03,5.986390267695411438e-02,-5.344720557332038879e-02,5.336396618084272153e-02,-6.552618769958624273e-03,1.748975793420642563e-02,7.667376400088126744e-03,-1.474049092277637113e-02,9.851932036254451575e-03,0.000000000000000000e+00,0.000000000000000000e+00,0.000000000000000000e+00,5.330376269219443408e-01,0.000000000000000000e+00,-8.642362356185913086e-01,1.061970038192196881e+02,0.000000000000000000e+00
1.471980999999999984e+00,2.710296342907556402e-02,7.008956916519333558e-02,8.850433826446533203e-01,1.263857893243675382e-02,-5.869547786831796898e-03,3.129345238615153634e-03,1.583897503509307941e-02,5.453979996109263595e-02,-4.651785641908645630e-02,5.517191823021776013e-03,1.873814420216471030e-02,-3.455811352918793794e-02,3.001894864648912108e-03,-4.614626775417454349e-03,8.788376242809980976e-03,0.000000000000000000e+00,0.000000000000000000e+00,0.000000000000000000e+00,5.326799933267176712e-01,0.000000000000000000e+00,-9.794789552688598633e-01,8.386108311998407316e+01,0.000000000000000000e+00
1.497052999999999967e+00,2.670871402647502502e-02,7.260432325900240125e-02,8.853658437728881836e-01,1.255663490178035406e-02,-5.537672497191836740e-03,3.110697331376372464e-03,1.628740036337286701e-02,6.537220361198424479e-02,-5.222884565591812134e-02,-2.754182341217866273e-02,1.394590675769335000e-02,9.825000935944022337e-03,1.428914496593223886e-02,-3.209019351500924742e-03,8.729608460929738634e-03,0.000000000000000000e+00,0.000000000000000000e+00,0.000000000000000000e+00,5.332265008507597326e-01,0.000000000000000000e+00,-5.647698640823364258e-01,9.779020208309289330e+01,0.000000000000000000e+00
1.523058999999999941e+00,2.641903497965076078e-02,7.425415724716613597e-02,8.855111598968505859e-01,1.268033879428632528e-02,-5.696012536474226451e-03,2.947183365201321362e-03,1.403277488119641057e-02,6.036509575050313242e-02,-4.065867885947227478e-02,4.004654545496147411e-02,-5.507682381812400996e-02,6.602067116884079547e-04,9.815298259277373955e-03,-6.003239349622016725e-03,8.287559802559740785e-03,0.000000000000000000e+00,0.000000000000000000e+00,0.000000000000000000e+00,5.325226338130351067e-01,0.000000000000000000e+00,-6.332744359970092773e-01,1.163143649612736397e+02,0.000000000000000000e+00
1.548386000000000040e+00,2.600897228191639127e-02,7.668026679583522798e-02,8.858785629272460938e-01,1.277872497854999623e-02,-6.018258051938341069e-03,2.675818840392368055e-03,3.571976073214325371e-03,5.658437037436599149e-02,-3.303775191307067871e-02,3.383838825543603046e-02,-1.412372524754159503e-02,-4.783739453573229022e-02,9.022037391108411394e-03,-1.586384861405925120e-02,7.585038902221341583e-03,0.000000000000000000e+00,0.000000000000000000e+00,0.000000000000000000e+00,5.320803518887070593e-01,0.000000000000000000e+00,-9.703043699264526367e-01,-7.107136948402759913e+01,0.000000000000000000e+00
1.575247000000000064e+00,2.561165428134259611e-02,7.901819388778062725e-02,8.862532377243041992e-01,1.325449308873995202e-02,-6.179030035900145990e-03,2.336043413635077899e-03,1.470593465300626401e-02,6.131413938493741195e-02,-3.680518269538879395e-02,-4.942358020119846755e-03,1.776823035845563267e-02,-4.110871655623658805e-02,1.178193760580995182e-02,-7.148263441950217928e-03,6.585149679448842885e-03,0.000000000000000000e+00,0.000000000000000000e+00,0.000000000000000000e+00,5.324680699791233263e-01,0.000000000000000000e+00,-1.006662011146545410e+00,9.155350854063006238e+01,0.000000000000000000e+00
1.599614000000000091e+00,2.536718984573905350e-02,8.053469896558661245e-02,8.866303563117980957e-01,1.403340474950249932e-02,-6.072052970109709236e-03,2.145198332798709667e-03,9.589131203232795914e-03,6.241228494162029405e-02,-3.082197904586791992e-02,5.668041913400802267e-02,2.733900863583686378e-03,6.421728357136501607e-03,8.383927361424386299e-03,-1.189564023528011730e-02,6.082402847952417257e-03,0.000000000000000000e+00,0.000000000000000000e+00,0.000000000000000000e+00,5.321419580661225224e-01,0.000000000000000000e+00,-1.130050301551818848e+00,1.002580655434343839e+02,0.000000000000000000e+00
1.623097999999999930e+00,2.511491897050374678e-02,8.201490415270945578e-02,8.870150446891784668e-01,1.456722881341213083e-02,-5.654078834506082174e-03,1.780881882482716460e-03,1.350208552986688175e-02,5.817520384839326014e-02,-2.703071944415569305e-02,-3.812019823910710748e-03,1.129774611209322793e-02,-4.831268180304772522e-03,2.943763902273117180e-03,-5.536023918686604380e-03,5.022249404354472979e-03,0.000000000000000000e+00,0.000000000000000000e+00,0.000000000000000000e+00,5.319683506336596590e-01,0.000000000000000000e+00,-7.546840906143188477e-01,1.017838546719343640e+02,0.000000000000000000e+00
1.649958999999999953e+00,2.479449540824900378e-02,8.422046009024641844e-02,8.876923322677612305e-01,1.505828630422753611e-02,-4.988329100342747680e-03,1.669347626312521872e-03,1.790407274113860452e-03,5.991608917396185063e-02,-3.495124727487564087e-02,-1.606768063158002524e-02,3.606275761840965072e-02,2.749550982381243625e-02,3.275222529120725475e-03,-1.080418773201800679e-02,4.745967178621246507e-03,0.000000000000000000e+00,0.000000000000000000e+00,0.000000000000000000e+00,5.326240235291959113e-01,0.000000000000000000e+00,1.829892396926879883e-01,-1.189081976004776919e+01,0.000000000000000000e+00
1.673589999999999911e+00,2.457145177092811064e-02,8.565413541069449854e-02,8.881893157958984375e-01,1.531730644943478208e-02,-4.747692339082565383e-03,1.277766693182914989e-03,1.002413971914223670e-02,5.720557605519439870e-02,-2.453517355024814606e-02,-1.129115781009485189e-02,3.176255316017375513e-02,-4.561078665051668257e-02,8.140607515394469081e-04,-1.367673120944403820e-03,3.587197479279546908e-03,0.000000000000000000e+00,0.000000000000000000e+00,0.000000000000000000e+00,5.319643739961830153e-01,0.000000000000000000e+00,-1.170704483985900879e+00,-2.670465654144292955e+01,0.000000000000000000e+00
1.698326999999999920e+00,2.417948423211856157e-02,8.754353306847117988e-02,8.889707922935485840e-01,1.552508844722534989e-02,-4.768706736147265701e-03,1.204126602036528293e-03,1.094062118130821604e-02,5.929129164374815492e-02,-2.437418326735496521e-02,-1.789344311276972951e-02,1.234071284315453121e-03,-1.201632542707794030e-02,3.021016822625872868e-03,-2.072861121922887212e-03,3.386018504752952296e-03,0.000000000000000000e+00,0.000000000000000000e+00,0.000000000000000000e+00,5.320226759529967930e-01,0.000000000000000000e+00,-1.347436785697937012e+00,-2.841135432916809478e+00,0.000000000000000000e+00
1.723932000000000020e+00,2.379538462269228938e-02,8.933127591589931638e-02,8.897644877433776855e-01,1.616788288331617515e-02,-4.811479383161065826e-03,9.173279153506004461e-04,-2.644840455582366835e-03,5.640141094749517858e-02,-2.829329669475555420e-02,4.311771315545961589e-03,1.320171308636537699e-02,4.207614251872632272e-03,-2.187026593527786715e-03,-1.301107096291161461e-02,2.658514678562373668e-03,0.000000000000000000e+00,0.000000000000000000e+00,0.000000000000000000e+00,5.323706785006407927e-01,0.000000000000000000e+00,-8.452805280685424805e-01,8.823011607542026979e+01,0.000000000000000000e+00
1.747190000000000021e+00,2.357909736646672180e-02,9.048568081192086276e-02,8.902627825736999512e-01,1.690039934761382659e-02,-4.751863606096140558e-03,6.731790767371412590e-04,-3.814914794499335224e-03,5.465318899639282080e-02,-1.467679161578416824e-02,6.255126616921673210e-02,2.169616623901430424e-02,-1.804444760159177458e-02,-6.428950303531319119e-03,-1.166455531073360037e-02,1.967580279460645620e-03,0.000000000000000000e+00,0.000000000000000000e+00,0.000000000000000000e+00,5.314690252147417082e-01,0.000000000000000000e+00,-1.153313755989074707e+00,1.128549765994997358e+02,0.000000000000000000e+00
1.771754999999999969e+00,2.337756738157183156e-02,9.159618787431839104e-02,8.908103704452514648e-01,1.728119855112215594e-02,-4.717058114083627629e-03,3.254173056656878477e-04,1.354850133764387392e-02,5.442846034839361746e-02,-2.196448296308517456e-02,-5.302821280975719351e-03,2.740227543889381043e-03,-3.745419877460802634e-03,-7.866161152827432987e-03,1.856353301602716365e-03,8.979422244830281841e-04,0.000000000000000000e+00,0.000000000000000000e+00,0.000000000000000000e+00,5.320771911103582275e-01,0.000000000000000000e+00,-6.758579015731811523e-01,6.734619114089181835e+01,0.000000000000000000e+00
1.797711999999999977e+00,2.296809733677766807e-02,9.304352428261136732e-02,8.916316032409667969e-01,1.798893252153428712e-02,-4.392373962704976265e-03,1.175089513677178007e-04,4.085374138578501228e-03,5.422486385919694785e-02,-1.020894292742013931e-02,3.010874915323719786e-02,-3.119723411263982532e-02,4.123544522553244940e-02,-1.098521972556964522e-02,-5.756619093926213307e-03,3.715855409838209056e-04,0.000000000000000000e+00,0.000000000000000000e+00,0.000000000000000000e+00,5.312791014694917546e-01,0.000000000000000000e+00,1.211537122726440430e-01,-8.755236152672178918e+00,0.000000000000000000e+00
1.825360000000000094e+00,2.254848774788198104e-02,9.448019653519768024e-02,8.924570679664611816e-01,1.804808392355835428e-02,-3.693674057831497493e-03,-3.219729099889010317e-04,-1.845409950050079951e-03,5.398962204255849939e-02,-7.594285067170858383e-03,4.207922589100200617e-02,1.582747783702166677e-02,-2.983589008326124198e-02,-1.011635355188461941e-02,-4.637084958253324431e-03,-8.671477280490780259e-04,0.000000000000000000e+00,0.000000000000000000e+00,0.000000000000000000e+00,5.311367944990276202e-01,0.000000000000000000e+00,-8.959676027297973633e-01,5.324869776945842403e+01,0.000000000000000000e+00
1.847112000000000087e+00,2.228436986297030117e-02,9.535864183924690207e-02,8.929846882820129395e-01,1.738448382054024258e-02,-3.742197050798701241e-03,-2.373564439485320793e-04,1.518194889983855546e-03,5.101536750001542386e-02,-8.145287632942199707e-03,-5.794094114104402643e-02,-6.371050889368323408e-03,2.101336790389980377e-02,-7.058670201978816880e-03,-1.638054160791002373e-03,-6.527999776669290988e-04,0.000000000000000000e+00,0.000000000000000000e+00,0.000000000000000000e+00,5.312429567519862950e-01,0.000000000000000000e+00,-1.426098942756652832e+00,1.073019918231443484e+02,0.000000000000000000e+00
1.873410000000000020e+00,2.202174120824799616e-02,9.624802861655984421e-02,8.934945464134216309e-01,1.733960735625412336e-02,-3.912678229081922865e-03,-3.747252504166316729e-04,6.043485769148694738e-03,4.967514916457705515e-02,-4.204327240586280823e-03,2.311723336292016012e-02,-1.903359097461716429e-02,-2.116703104202246472e-02,-6.284607783124587094e-03,1.738287206101470507e-04,-1.050629084391685453e-03,0.000000000000000000e+00,0.000000000000000000e+00,0.000000000000000000e+00,5.310242807075343796e-01,0.000000000000000000e+00,-8.062371015548706055e-01,9.406152668310205911e+01,0.000000000000000000e+00
1.902126999999999901e+00,2.165166734402661566e-02,9.721902565351212000e-02,8.942126631736755371e-01,1.731869852902294393e-02,-4.153135367154003887e-03,-7.444317969501038253e-04,3.352389529703089441e-03,4.494505815589687481e-02,2.839003223925828934e-03,1.026223991387256382e-02,-8.179813839049126373e-03,-2.820601689852333602e-02,-8.364590332850075499e-03,-4.213874722052754658e-03,-2.054401542462669372e-03,0.000000000000000000e+00,0.000000000000000000e+00,0.000000000000000000e+00,5.305564092192633918e-01,0.000000000000000000e+00,-9.692569971084594727e-01,4.280025686776643568e+01,0.000000000000000000e+00
1.922439999999999927e+00,2.143408285612787706e-02,9.776617206134675941e-02,8.945795893669128418e-01,1.744549880345181575e-02,-4.060796900186458558e-03,-8.909611726962811135e-04,-1.408856457101895611e-03,4.261847967006455323e-02,-8.178883232176303864e-03,-3.003362868906745906e-03,-3.126112143056336209e-03,1.080740887355726050e-02,-9.772820575421574743e-03,-7.001563245444385013e-03,-2.444656219398211316e-03,0.000000000000000000e+00,0.000000000000000000e+00,0.000000000000000000e+00,5.314263126427343220e-01,0.000000000000000000e+00,-8.195565938949584961e-01,8.796908673590989736e+01,0.000000000000000000e+00
1.949047999999999892e+00,2.111396974687871492e-02,9.851145953955593726e-02,8.951212167739868164e-01,1.770495809454136066e-02,-3.730958741849033089e-03,-1.077286544630688854e-03,4.422635792414757357e-03,4.386190920760538875e-02,1.692899386398494244e-03,-2.501202330944234803e-04,2.000698351573910669e-02,1.436836441199355191e-02,-9.059177573924617755e-03,1.659264333409376201e-04,-3.018012731944352822e-03,0.000000000000000000e+00,0.000000000000000000e+00,0.000000000000000000e+00,5.307731824289682043e-01,0.000000000000000000e+00,-7.767282724380493164e-01,2.015795778802614180e+01,0.000000000000000000e+00
1.974066000000000098e+00,2.090756946741186006e-02,9.899607912863107873e-02,8.954555392265319824e-01,1.774964596496214631e-02,-3.489936563344731013e-03,-1.501189843288987464e-03,1.237805265979803268e-02,4.012980902135237365e-02,-6.255091633647680283e-03,-5.458872019363909811e-02,3.791061180282472715e-02,-3.469917886645698668e-02,-1.179753242640717119e-02,6.879727948127177875e-03,-4.253764549987049115e-03,0.000000000000000000e+00,0.000000000000000000e+00,0.000000000000000000e+00,5.314217275503120286e-01,0.000000000000000000e+00,-8.052259683609008789e-01,9.109094763946927742e+01,0.000000000000000000e+00
1.998390000000000111e+00,2.066279899571725476e-02,9.982691750091303440e-02,8.958797454833984375e-01,1.720789615092008229e-02,-3.624706642114894350e-03,-1.187024556331614088e-03,-1.729984068017097762e-03,3.907207395832529989e-02,-5.501079838722944260e-03,-6.073656511532766339e-02,-1.728498777314771417e-02,6.483810160492137209e-02,-7.629373977570768316e-03,-5.895724130339580898e-03,-3.281880960330774144e-03,0.000000000000000000e+00,0.000000000000000000e+00,0.000000000000000000e+00,5.314350759631125687e-01,0.000000000000000000e+00,-7.161761522293090820e-01,7.326214583012001924e+01,0.000000000000000000e+00
2.023903999999999925e+00,2.051987534505851987e-02,1.004254986143072320e-01,8.961093425750732422e-01,1.699125411932154647e-02,-3.593146661068580272e-03,-1.453647614438324841e-03,-5.300805393368831012e-03,3.407521178938365675e-02,-1.775318756699562073e-03,-1.772525512203560610e-02,3.137056701146045956e-02,-4.621105373935514848e-02,-9.014412153770209532e-03,-6.497912781105667779e-03,-4.025090908457429340e-03,0.000000000000000000e+00,0.000000000000000000e+00,0.000000000000000000e+00,5.312441393948297286e-01,0.000000000000000000e+00,-1.416812777519226074e+00,8.959045753165503356e+01,0.000000000000000000e+00
2.046418000000000070e+00,2.036263972331522551e-02,1.012638729622736267e-01,8.963575959205627441e-01,1.635336968748051303e-02,-4.052623362286178477e-03,-1.434227634072485647e-03,9.391725776830197464e-03,3.652765549928355809e-02,3.251836402341723442e-03,-4.847792078235359237e-02,-1.290120619281443989e-02,-1.878116226230456751e-02,-1.244967419645432154e-03,2.237543037935533011e-03,-4.031996952365612952e-03,0.000000000000000000e+00,0.000000000000000000e+00,0.000000000000000000e+00,5.309608285939714234e-01,0.000000000000000000e+00,-7.784255743026733398e-01,1.085021926640989847e+02,0.000000000000000000e+00
2.074910000000000032e+00,2.019312985912932040e-02,1.020164664881897248e-01,8.964718580245971680e-01,1.645514405471502559e-02,-4.347927640852455866e-03,-1.427956336281940635e-03,-3.326153602365534718e-03,3.201560168543211155e-02,1.386147341690957546e-03,-4.357927013402095560e-03,6.979743802854792255e-03,3.377795457392758494e-02,-4.871629450185491900e-03,-1.147831719751761688e-02,-3.919251110073074251e-03,0.000000000000000000e+00,0.000000000000000000e+00,0.000000000000000000e+00,5.311755052913612607e-01,0.000000000000000000e+00,-7.553728818893432617e-01,9.552246316543276805e+01,0.000000000000000000e+00
2.097977999999999899e+00,1.997861579195181481e-02,1.026044613210283368e-01,8.965297341346740723e-01,1.680341592918400614e-02,-4.362060933811973129e-03,-1.666082182347299089e-03,-1.821280993597039922e-03,3.040190954888951497e-02,6.812542676925659180e-03,3.857146173381172799e-02,-2.436809051688487108e-03,-1.352590344197420434e-02,-6.843800900859603638e-03,-8.728292715614975605e-03,-4.604398967735900960e-03,0.000000000000000000e+00,0.000000000000000000e+00,0.000000000000000000e+00,5.308692047134907499e-01,0.000000000000000000e+00,-8.571699857711791992e-01,6.722246909426620221e+01,0.000000000000000000e+00
2.121501999999999999e+00,1.979577592878526207e-02,1.031187363344429897e-01,8.965230584144592285e-01,1.681398875815572069e-02,-4.121230282348342655e-03,-1.776535511636108573e-03,5.299816403417043640e-04,3.120172629300149020e-02,-2.753399778157472610e-03,-1.737037403274400982e-02,2.533244575083038949e-02,2.529985959960762577e-03,-5.559235473915735692e-03,-5.682832428293337068e-03,-4.934803978081325759e-03,0.000000000000000000e+00,0.000000000000000000e+00,0.000000000000000000e+00,5.316568146868906330e-01,0.000000000000000000e+00,-1.235187411308288574e+00,9.398642875317777623e+01,0.000000000000000000e+00
2.146326999999999874e+00,1.953341867481276153e-02,1.039509787257686807e-01,8.964973688125610352e-01,1.661363304019257067e-02,-4.069856697897167308e-03,-1.460630702765141524e-03,6.677450345625386523e-03,2.908604420464754037e-02,7.886911742389202118e-03,-1.125537606070856414e-02,-1.335382630563404331e-02,5.127065440666716406e-02,-4.839737562247442386e-03,-9.798763193489927470e-04,-4.083403476519920083e-03,0.000000000000000000e+00,0.000000000000000000e+00,0.000000000000000000e+00,5.309799260409959754e-01,0.000000000000000000e+00,-7.999519109725952148e-01,1.008575444166972375e+02,0.000000000000000000e+00
2.171616000000000213e+00,1.934831173921409617e-02,1.044536130280627195e-01,8.964916467666625977e-01,1.635767339803822010e-02,-4.113735078630664788e-03,-1.610253805743503243e-03,3.716727498755345149e-03,2.989182503444792402e-02,8.382846601307392120e-03,-3.732757600788063571e-03,-1.525710544522146904e-02,-3.750509884705686275e-02,-1.535638421538348258e-03,-4.431869274179001290e-03,-4.478267360656984497e-03,0.000000000000000000e+00,0.000000000000000000e+00,0.000000000000000000e+00,5.310321232614709785e-01,0.000000000000000000e+00,-1.283658385276794434e+00,1.296360478807365553e+02,0.000000000000000000e+00
2.198348000000000191e+00,1.910852114565198337e-02,1.053184420543291783e-01,8.964464664459228516e-01,1.557003534132650642e-02,-4.292885722156691841e-03,-1.310216727668928917e-03,-3.252518087865191500e-03,2.250728271171127670e-02,2.810823498293757439e-03,-6.036500538193793897e-02,-2.598020392756583002e-02,3.053314573898300785e-02,-1.375930591066821390e-03,-1.057475712269606398e-02,-3.598579702847659600e-03,0.000000000000000000e+00,0.000000000000000000e+00,0.000000000000000000e+00,5.315236017051371276e-01,0.000000000000000000e+00,-1.178403019905090332e+00,1.378623823586132744e+02,0.000000000000000000e+00
2.223669999999999813e+00,1.897725306564330278e-02,1.059960283998565150e-01,8.963909149169921875e-01,1.547208219195905440e-02,-4.477118548918523899e-03,-1.183993225677725577e-03,-3.404556697753757647e-04,2.970004652664732375e-02,1.508750487118959427e-02,3.693606170210263911e-02,1.988827620694650494e-02,-2.185472842441870539e-02,6.868653579905800201e-03,-8.547937876150544720e-03,-3.256682732887927756e-03,0.000000000000000000e+00,0.000000000000000000e+00,0.000000000000000000e+00,5.307308470828995262e-01,0.000000000000000000e+00,-8.999565839767456055e-01,1.032137752652440525e+02,0.000000000000000000e+00
2.249124999999999819e+00,1.881013206660011802e-02,1.069656968564079436e-01,8.964284062385559082e-01,1.563986572787213689e-02,-4.615295534948327116e-03,-1.311068951736411772e-03,8.709102498669945430e-03,2.147375794950853733e-02,1.630473695695400238e-02,2.814094115940254243e-02,-2.230402527089713621e-02,-2.221314035123169925e-02,-4.848179962079596748e-04,-2.959385660921715067e-03,-3.651514739324901448e-03,0.000000000000000000e+00,0.000000000000000000e+00,0.000000000000000000e+00,5.307160124396872458e-01,0.000000000000000000e+00,-1.557524323463439941e+00,9.922813448829899130e+01,0.000000000000000000e+00
2.274842000000000031e+00,1.867251567140062324e-02,1.079018048744442848e-01,8.964259028434753418e-01,1.563266022205444736e-02,-3.986821303501475455e-03,-1.175622322603799659e-03,-4.486764808676312402e-03,2.377438014391348303e-02,1.162557490170001984e-02,-9.953868157648827417e-03,2.834162123270729527e-02,2.001655610325841356e-02,3.313901366273495647e-03,-1.025036342646236907e-02,-3.221997660747433212e-03,0.000000000000000000e+00,0.000000000000000000e+00,0.000000000000000000e+00,5.311383629560079145e-01,0.000000000000000000e+00,-8.364659547805786133e-01,-1.537234203284602074e+02,0.000000000000000000e+00
2.296790000000000109e+00,1.866994960526710198e-02,1.083627002015492419e-01,8.964216709136962891e-01,1.561725892645650197e-02,-3.598816448310282468e-03,-9.516797352248648019e-04,5.959049266149875693e-03,2.290169424274341933e-02,1.409815158694982529e-02,1.785461397808132261e-03,2.333355182312726178e-02,1.351376032721002610e-02,3.171230662011551189e-03,2.181231872156707153e-03,-2.679928148619503681e-03,0.000000000000000000e+00,0.000000000000000000e+00,0.000000000000000000e+00,5.310435895417690011e-01,0.000000000000000000e+00,-5.406628847122192383e-01,-1.558784952757609688e+02,0.000000000000000000e+00
2.323933999999999944e+00,1.884420212129756661e-02,1.088102572522641753e-01,8.963353633880615234e-01,1.556177862854763415e-02,-3.248164124537433750e-03,-8.674932680017167358e-04,4.344727714451610337e-03,2.192305963254066736e-02,2.080397494137287140e-02,1.354945862592150420e-02,-6.345462880549253802e-03,-3.779607081447465544e-02,3.727867448901074025e-03,1.991590042637883355e-03,-2.442874983622944640e-03,0.000000000000000000e+00,0.000000000000000000e+00,0.000000000000000000e+00,5.306418341799079563e-01,0.000000000000000000e+00,-8.311177492141723633e-01,1.035008754368163579e+02,0.000000000000000000e+00
2.348075999999999830e+00,1.895303910035008726e-02,1.090663096468061921e-01,8.962607979774475098e-01,1.524889043325596862e-02,-3.174786470697243956e-03,-3.662485885451783663e-04,4.149082119218200533e-03,1.886811947083657723e-02,1.165144145488739014e-02,-9.270792815471020709e-04,-2.865280149911155622e-02,7.651852048044206767e-02,3.907054897796947111e-03,2.687364010814135423e-03,-1.043618265169854453e-03,0.000000000000000000e+00,0.000000000000000000e+00,0.000000000000000000e+00,5.313890616003981160e-01,0.000000000000000000e+00,-3.976575136184692383e-01,2.954204689626045521e+01,0.000000000000000000e+00
2.372940999999999967e+00,1.906527065335906351e-02,1.093425423580012129e-01,8.961257934570312500e-01,1.553556088434284756e-02,-3.114664435398539766e-03,-3.217064384539857912e-04,-7.210265255057795621e-04,2.043748082976258595e-02,2.060391008853912354e-02,3.635730906406017121e-02,-2.416902110673690984e-03,-4.187816875348283202e-02,4.430405924160801812e-03,-4.404708769504110406e-04,-8.978774995932470304e-04,0.000000000000000000e+00,0.000000000000000000e+00,0.000000000000000000e+00,5.308312226863444172e-01,0.000000000000000000e+00,-7.130540609359741211e-01,1.131817465097714859e+02,0.000000000000000000e+00
2.399913000000000185e+00,1.923044209620827782e-02,1.096195173584963434e-01,8.959730863571166992e-01,1.579283313457660251e-02,-2.980653989963943928e-03,-4.330750421042299026e-05,9.116294875946289941e-03,1.507328520842348210e-02,1.621766388416290283e-02,-3.305892993911902639e-02,1.662931130561494386e-02,5.672001786753455869e-04,-1.099926782824194125e-03,8.802032661476156400e-03,-1.808395829234754615e-04,0.000000000000000000e+00,0.000000000000000000e+00,0.000000000000000000e+00,5.312366965601145186e-01,0.000000000000000000e+00,-7.199860811233520508e-01,9.585987451043139629e+01,0.000000000000000000e+00
2.421311000000000213e+00,1.933786866169327420e-02,1.097704050504059864e-01,8.959214091300964355e-01,1.650220927914209171e-02,-2.755781212192554008e-03,1.168496017450335544e-04,8.317759991590427046e-03,2.261351188446604835e-02,1.824650354683399200e-02,5.007066629851866096e-02,2.882593429767152382e-02,4.090337665957725910e-03,1.327103667775113034e-03,8.464403028687141756e-03,2.666733532178944266e-04,0.000000000000000000e+00,0.000000000000000000e+00,0.000000000000000000e+00,5.311781116850806672e-01,0.000000000000000000e+00,-6.946223974227905273e-01,5.234054898722435922e+01,0.000000000000000000e+00
