timestamp,x,y,z,roll,pitch,yaw,vx,vy,vz,p,q,r,psp,qsp,rsp,pres,qres,rres,thrust_sp, thrust_res
0.000000000000000000e+00,3.391344620103096952e-02,5.301039903962159912e-03,9.926785230636596680e-01,1.233449591014960760e-02,-1.176778267849964976e-02,-3.503966887293517157e-03,-1.237509690996740734e-02,-6.004573737984757615e-05,2.539163222536444664e-03,4.572654995564716385e-02,-6.669909133605511631e-02,-1.823562552937077128e-02,-9.463066677093520673e-02,-1.693806236219327077e-01,4.662907211971411767e-03,-1.783586740493774483e-02,-1.041453480720520020e-01,1.429336667060852016e-02,5.126641014963153609e-01,1.880395412445068359e-02,-1.149656176567077637e+00,1.025290078198152486e+02,3.009202480316162248e-02
2.636700000000000155e-02,3.421716824181916111e-02,5.112151283823548539e-03,9.925286769866943359e-01,1.161125360771299818e-02,-1.211721062578607899e-02,-3.395318459870541854e-03,1.358065051527581127e-03,4.501653899806320157e-03,-1.046750694513320923e-02,-8.136400713340675994e-02,4.344437126731271609e-02,7.600766743281221413e-03,-1.963458952821992010e-01,-4.418770340367980665e-02,5.513258456146089004e-02,-1.278668045997619629e-01,1.018910408020019462e-02,6.449081897735595148e-02,5.156255305602273076e-01,1.241985559463500977e-01,-1.436280012130737305e+00,1.145670591376118068e+02,3.009202480316162248e-02
4.783099999999999852e-02,3.443792143587085658e-02,5.302164303423100716e-03,9.923779964447021484e-01,1.148422936164291731e-02,-1.276560172099050483e-02,-3.238712646501992060e-03,5.646752232059661092e-03,1.860469835301316408e-03,-1.034001540392637253e-02,1.200567040058104183e-02,-6.970691178171489755e-02,-1.177273045346443822e-02,-2.406626540708652895e-01,-2.210749829047153614e-01,7.237847292452158354e-02,-1.703623294830322321e-01,-1.642021894454956110e-01,8.129791617393493375e-02,5.131206146620612696e-01,-1.080256700515747070e-02,-5.676254034042358398e-01,4.727024001913542861e+01,3.009202480316162248e-02
7.426900000000000168e-02,3.476208252957061623e-02,5.535587499842629759e-03,9.921238422393798828e-01,1.097694856253045130e-02,-1.267672719195589437e-02,-3.391834141560925997e-03,-8.668355627131408420e-03,3.558064463287712118e-03,-8.492236956954002380e-03,-4.794210233636313212e-02,3.117836894120171176e-02,-3.312654606113980132e-02,-2.544361527985036231e-01,6.223918022394064886e-02,4.864645633729380858e-02,-1.893394947052002009e-01,1.303773701190948375e-01,5.796834826469421387e-02,5.131486892117915755e-01,-3.730833530426025391e-03,-9.757775068283081055e-01,6.227510353123751230e+01,7.522213459014892578e-02
1.012030000000000013e-01,3.508164177221092389e-02,5.761215401018308056e-03,9.917587637901306152e-01,9.102968780083783504e-03,-1.154788720437482930e-02,-4.031699133864987371e-03,2.469653372048370450e-03,1.641875108889349465e-03,-1.750362105667591095e-02,-1.178230701917864220e-01,1.121867190384548268e-01,-3.925633086655295340e-02,-1.961890615389055847e-01,1.389219765025750397e-01,6.531064485769506878e-02,-1.416874766349792425e-01,1.883892595767974742e-01,7.649466991424559714e-02,5.116348885891228715e-01,-1.228853464126586914e-01,-8.981906175613403320e-01,1.056754232534408260e+02,7.522213459014892578e-02
1.264919999999999933e-01,3.533575400393180327e-02,5.992607861498891811e-03,9.913511872291564941e-01,6.432661843211842471e-03,-9.689795041508686424e-03,-4.750381134120791431e-03,8.425619731382703176e-03,8.171601423870170425e-03,-1.743063889443874359e-02,-1.358878228391477427e-01,5.856644596102797418e-02,-4.451438893823773946e-02,-1.592108056715781372e-01,1.254017918092066863e-01,-6.904296186539647662e-02,-1.278039872646331843e-01,1.593532919883728083e-01,-5.580074787139892301e-02,5.156718542685205797e-01,9.015345573425292969e-02,-1.247750639915466309e+00,7.491281130721533543e+01,7.522213459014892578e-02
1.481139999999999957e-01,3.563387680690947856e-02,6.369112063309558674e-03,9.908704757690429688e-01,2.468415112146673737e-03,-7.581599611791167703e-03,-5.322884713990961789e-03,-1.109966443761368788e-03,1.570786740772608936e-02,-3.251847624778747559e-02,-2.084130385104723537e-01,9.312596393074965007e-02,-1.882745656961035477e-02,-1.598132359119533788e-02,1.713622941590227378e-01,-1.215921177559166066e-01,-1.565850377082824568e-02,1.999023914337158259e-01,-1.067181229591369629e-01,5.142768797621558585e-01,-4.805839061737060547e-02,-1.131382822990417480e+00,1.015965845452709573e+02,7.522213459014892578e-02
1.753049999999999886e-01,3.605288185827445341e-02,7.203035358182723925e-03,9.897876977920532227e-01,-4.341749796196184286e-03,-7.056305214325098163e-03,-5.987595567868099836e-03,-7.609007574753163562e-03,1.797049370607642707e-02,-3.418028354644775391e-02,-2.270658428584134969e-01,-3.939838531808324135e-02,1.621344133311354921e-02,1.293702101836320673e-01,-6.499893191932619441e-02,-2.288764160427515792e-01,8.412623405456542969e-02,-3.645619153976440568e-02,-2.121006488800048773e-01,5.120677143011429511e-01,-1.790651082992553711e-01,-1.293269395828247070e-01,-1.193160008750624712e+02,7.522213459014892578e-02
2.013359999999999872e-01,3.620027899635078900e-02,8.139976774208839555e-03,9.886517524719238281e-01,-1.026155357092892705e-02,-9.571177969741384572e-03,-5.127600073171978412e-03,-1.075663843704030911e-02,1.583763359130460624e-02,-2.518973313271999359e-02,-1.054208292802012309e-01,-1.640577925028484096e-01,4.290025675664098370e-02,1.167504119312930827e-01,-2.369441534410278438e-01,-2.363995505022304655e-01,3.437740802764892301e-02,-1.907467603683471735e-01,-2.219643115997314287e-01,5.022622495048529867e-01,-6.686954498291015625e-01,-1.058277487754821777e+00,9.829659913834680651e+01,7.522213459014892578e-02
2.265800000000000036e-01,3.619216523950861270e-02,8.799058886445089434e-03,9.878963232040405273e-01,-1.338682652304250958e-02,-1.246300956407697669e-02,-3.759682002492124864e-03,-2.055533874719436827e-02,2.026571552337857671e-02,-3.199151158332824707e-02,-1.540002618857889971e-01,-1.384692298203157867e-01,8.610066604644847632e-02,2.872494459152221680e-01,-2.586966000767106921e-01,-2.356205260218268704e-01,1.872494459152221624e-01,-1.863546252250671276e-01,-2.249328374862670787e-01,5.030264509495535608e-01,-6.605865955352783203e-01,-7.161663770675659180e-01,1.224912875183096901e+02,7.522213459014892578e-02
2.481899999999999940e-01,3.607505881824350086e-02,9.409747854144804788e-03,9.871236681938171387e-01,-1.486240069669657327e-02,-1.535331586016375205e-02,-1.806638080262697047e-03,-1.924197761232290110e-02,2.253474059593938220e-02,-3.853588923811912537e-02,-2.063237364768316304e-02,-1.350198526300336599e-01,9.632058265833347288e-02,2.542270541191101185e-01,-2.954819627788232705e-01,-2.311833061374167220e-01,1.542270541191101130e-01,-2.067885160446167048e-01,-2.259042263031005859e-01,5.065258929794459464e-01,-5.075870752334594727e-01,-1.311302781105041504e+00,1.121726133806587740e+02,7.522213459014892578e-02
2.738229999999999831e-01,3.583917179317179513e-02,1.032635770895405820e-02,9.859340786933898926e-01,-1.477686936324311591e-02,-1.631928886331435180e-02,1.586421381824389566e-03,-1.116150607209645887e-02,2.510810926935024001e-02,-3.828465938568115234e-02,7.900777197718557299e-02,-8.561289028891341715e-04,9.330572230920444743e-02,8.015403151512145996e-02,-1.917211727699169033e-01,-1.033397832880335737e-01,-1.984596848487853865e-02,-1.029192209243774414e-01,-1.075692057609558133e-01,5.237869413655977802e-01,4.104901552200317383e-01,-1.028263449668884277e+00,7.624849578054634947e+01,7.522213459014892578e-02
3.010809999999999875e-01,3.574459828591410732e-02,1.125655127949712168e-02,9.846324324607849121e-01,-1.134237326172924699e-02,-1.269659106279585892e-02,5.073499982203107453e-03,-1.096172212434683504e-02,2.238289438350637983e-02,-3.481266647577285767e-02,1.721293427279758093e-01,1.850850362187629328e-01,1.054389451615927037e-01,-1.477297316902345670e-02,-9.051320201110407693e-04,1.617161534903099052e-01,-1.103989183902740479e-01,6.532487869262694480e-02,1.476242780685424749e-01,5.166172705955827116e-01,2.967512607574462891e-02,-8.715413808822631836e-01,8.278090236312489480e+01,7.522213459014892578e-02
3.276919999999999833e-01,3.572946219840250626e-02,1.187214862761264318e-02,9.836778044700622559e-01,-7.510612932332935525e-03,-8.155625142824973750e-03,7.270584767876274793e-03,-1.298741377011915785e-03,2.230206314825795497e-02,-4.740345478057861328e-02,2.213859269363118998e-01,2.198789974330440655e-01,1.059396730431709788e-01,-8.619240170252273625e-02,6.135135427912336709e-02,1.804902997308460433e-01,-1.576120555400848389e-01,9.031269550323485495e-02,1.601580619812011663e-01,5.168899659105936628e-01,-1.244914531707763672e-02,-1.204875111579895020e+00,1.003967115533964716e+02,7.522213459014892578e-02
3.492370000000000196e-01,3.587293334362901681e-02,1.252369805065652215e-02,9.826232790946960449e-01,-3.305500758558532239e-03,-2.979969911181212794e-03,8.502524918756252520e-03,-4.821528165945191020e-03,2.413014619204018399e-02,-4.399332776665687561e-02,2.043557455623279950e-01,2.977057096908425904e-01,2.060886143093645061e-03,-1.352395826036166537e-01,1.678236571879237748e-01,2.113814796301450027e-01,-1.813829004764556940e-01,1.670702397823333740e-01,1.875746011734008845e-01,5.144529530765071801e-01,-1.368176937103271484e-01,-2.631820440292358398e-01,2.444612471878398097e+01,7.522213459014892578e-02
3.756059999999999954e-01,3.635894639175110687e-02,1.355176416864889780e-02,9.808461070060729980e-01,7.541858664423425592e-04,3.626262664470969455e-03,8.105899247836509738e-03,3.667250885200438060e-03,3.613406679714265685e-02,-6.405235081911087036e-02,1.042178803050391039e-01,1.807583449000448594e-01,-3.536789471681531238e-02,-1.629700349474906829e-01,2.405861731534098269e-01,2.271761665808273156e-01,-1.926721572875976507e-01,1.892320811748504639e-01,2.045469224452972357e-01,5.164632214659405918e-01,-1.197202801704406738e-01,-1.373320937156677246e+00,9.447829799606707013e+01,7.522213459014892578e-02
3.971770000000000023e-01,3.661235495404523144e-02,1.436990185442812810e-02,9.795088171958923340e-01,1.561641108454126870e-03,5.792912370886860174e-03,7.001739865341469367e-03,-1.294698834618276083e-02,3.374403092833622164e-02,-6.770162284374237061e-02,6.543059989240465613e-02,5.728952287759443707e-02,-8.274165278801327850e-02,-1.904406833070801108e-01,2.486508711985229159e-01,2.281799114646293203e-01,-2.120193243026733398e-01,1.974011421203613337e-01,2.086460709571838212e-01,5.125531278722330608e-01,-3.528727293014526367e-01,-5.724319219589233398e-01,1.193404119711560867e+02,7.522213459014892578e-02
4.238970000000000238e-01,3.693450273099325304e-02,1.565932460176595181e-02,9.773383736610412598e-01,-1.136991284945566698e-05,5.231932828112739742e-03,4.759940163043152594e-03,-4.499913003658266748e-04,4.540909061598819019e-02,-7.560697942972183228e-02,-1.258317146610452575e-01,-4.373063595394469788e-02,-9.436713496957788161e-02,-2.002747189498726987e-02,-1.000916637613536719e-01,-4.221009235645874907e-02,-6.224559545516967357e-02,-1.601866722106933538e-01,-5.545417070388793807e-02,5.240883936530218445e-01,2.228841781616210938e-01,-1.028403401374816895e+00,8.350603622654845992e+01,7.522213459014892578e-02
4.491450000000000164e-01,3.702655833207570829e-02,1.615745341847881281e-02,9.765911698341369629e-01,-9.799062955548167378e-04,4.060132292515339358e-03,3.898387031935590143e-03,5.867142412933483951e-03,4.367184845590041387e-02,-7.369943708181381226e-02,-1.282087366960025510e-01,-1.123282248631002761e-01,-1.097770311367316232e-01,-2.222414833928563344e-02,-1.061035593031718766e-01,-6.724087070072248817e-02,-6.820156574249267023e-02,-1.619224905967712458e-01,-7.809484004974365234e-02,5.213490069786990144e-01,7.423317432403564453e-02,-1.027433753013610840e+00,1.042908756067875515e+02,7.522213459014892578e-02
4.767210000000000059e-01,3.732474938228067668e-02,1.710289531479421143e-02,9.749806523323059082e-01,-3.444961024914172578e-03,7.698887682860977577e-04,2.088803507160383755e-03,-7.279396271171697554e-03,5.478177805827202235e-02,-8.054055273532867432e-02,-1.500624394656730198e-01,-1.908958732185356277e-01,-8.673178359364552836e-02,7.474888577135599399e-02,-1.338192855051576480e-01,-1.735288893266484778e-01,2.978897094726562413e-03,-1.571862459182739313e-01,-1.793566703796386774e-01,5.167069073909307253e-01,-2.145704030990600586e-01,-1.000195622444152832e+00,1.076086673168779271e+02,7.522213459014892578e-02
5.024659999999999682e-01,3.775120833849587854e-02,1.799882408666314548e-02,9.733637571334838867e-01,-6.264401406541436103e-03,-3.422216985354387120e-03,8.073190195658820362e-04,-5.952420482869110949e-03,5.457994611337347451e-02,-7.761397212743759155e-02,-1.348771190528974817e-01,-1.800177017280186198e-01,-4.675039387081925818e-02,1.510021229746398019e-01,-1.674881695041101626e-01,-2.073658242535578455e-01,6.184558868408202709e-02,-1.668577194213867188e-01,-2.096264719963073786e-01,5.118601889320286702e-01,-4.738562107086181641e-01,-1.150266051292419434e+00,7.593014066333205392e+01,7.522213459014892578e-02
5.302959999999999896e-01,3.818132587003443545e-02,1.902620523778769321e-02,9.716885089874267578e-01,-9.170050151469873873e-03,-6.108724520037522865e-03,6.493294114021914238e-04,-2.619035280029480533e-03,5.217636590238913796e-02,-7.929397374391555786e-02,-9.366284483691966756e-02,-1.658717248888972040e-01,1.729214646074307346e-02,1.588432312011718861e-01,-1.999040067764489836e-01,-2.164923629721565712e-01,5.884323120117187361e-02,-1.845914840698242021e-01,-2.183042764663696289e-01,5.095033216222701888e-01,-6.178757548332214355e-01,-1.169979214668273926e+00,7.436455885272758337e+01,7.522213459014892578e-02
5.497790000000000177e-01,3.841432744781882180e-02,1.955446394453666872e-02,9.708749651908874512e-01,-1.056340287962870793e-02,-6.390440749438175416e-03,6.042513745469252524e-04,-1.245981148556527841e-02,5.574059480030752606e-02,-8.777210861444473267e-02,-1.324124973496023372e-01,-2.034648776579039975e-02,4.384394573832279228e-03,2.863814830780029297e-01,3.148089267115174172e-02,-2.148421005175099041e-01,1.863814830780029241e-01,5.664129853248595775e-02,-2.165192842483520397e-01,5.170048302095127113e-01,-2.598162293434143066e-01,-9.374841451644897461e-01,9.264066292063181152e+01,7.522213459014892578e-02
5.775919999999999943e-01,3.896072788803285614e-02,2.063996951122080634e-02,9.692772626876831055e-01,-1.215691223507434950e-02,-6.322063280400636032e-03,1.098844545154264258e-03,9.530065464915422890e-03,6.873996934343594434e-02,-8.049827069044113159e-02,-2.017784223291977166e-02,4.295012872250515007e-02,2.806219251122646363e-02,2.705136418342590221e-01,1.802815634039487691e-01,2.655522700367498462e-02,1.705136418342590165e-01,1.858103513717651312e-01,2.348170280456542830e-02,5.195231326911126102e-01,-1.079245209693908691e-01,-9.597502946853637695e-01,8.362958751844482208e+01,7.522213459014892578e-02
6.000640000000000418e-01,3.948463567341299607e-02,2.176600911042572695e-02,9.677606821060180664e-01,-1.280170223271496349e-02,-4.763968641377624991e-03,2.184220656829257822e-03,9.672320826801857757e-03,5.806840144473329052e-02,-7.982926815748214722e-02,2.126218135353701369e-02,4.821649165511896623e-02,6.492971090307324278e-02,2.219995975494384877e-01,1.695127236989910913e-01,8.319899632050586913e-02,1.219995975494384682e-01,1.674639165401458629e-01,7.708123326301574707e-02,5.222670592571782011e-01,3.161561489105224609e-02,-1.287321925163269043e+00,9.814048150448782337e+01,7.522213459014892578e-02
6.260489999999999666e-01,3.981089110081487137e-02,2.360649760762714711e-02,9.655222892761230469e-01,-1.188159070609214746e-02,-6.304139457291579873e-04,4.936353800498864339e-03,7.521046565715167401e-03,7.389236279265813667e-02,-8.992497622966766357e-02,-2.411273251200154316e-02,2.509598395727449804e-01,1.407598242006878886e-01,2.037979841232299694e-01,2.371627412742940977e-01,1.501645868058751609e-01,1.037979841232299777e-01,2.095578074455261286e-01,1.363341450691223089e-01,5.183895271774653368e-01,-2.329863905906677246e-01,-1.055141568183898926e+00,6.049736921482327290e+01,7.522213459014892578e-02
6.480679999999999774e-01,4.002684812411948928e-02,2.485119648979865550e-02,9.640767574310302734e-01,-9.400070465576530407e-03,2.039994055825999908e-03,6.945639811374589023e-03,1.315758036753678431e-02,7.190282912136447546e-02,-8.357175439596176147e-02,1.760969597037496948e-01,1.275840654855979472e-01,8.688281006830872455e-02,1.431671500205993763e-01,2.167259902112945169e-01,1.253509133106630591e-01,4.316715002059936385e-02,1.666291594505310003e-01,1.059095621109008706e-01,5.220326420919979560e-01,-2.297317981719970703e-02,-1.347809672355651855e+00,9.738506258228441936e+01,7.522213459014892578e-02
6.751989999999999936e-01,4.041905267901451521e-02,2.678439684306177515e-02,9.619308710098266602e-01,-4.330275516081408260e-03,5.834967556452630433e-03,1.024140814557723475e-02,9.983479988299995625e-03,6.948183598514219572e-02,-6.223627179861068726e-02,1.974167403597987536e-01,1.511557846046087672e-01,5.941898942548941992e-02,1.384949711203121991e-02,2.533060967885602532e-01,1.649829588014716519e-01,-7.924010753631591242e-02,1.810899496078491044e-01,1.363951027393341120e-01,5.189885573748274084e-01,-1.164942979812622070e-01,-1.386578917503356934e+00,9.986955072306572845e+01,7.522213459014892578e-02
7.014329999999999732e-01,4.073827599236115593e-02,2.861156920217473865e-02,9.599673151969909668e-01,3.577321360096170823e-03,5.123949083932544113e-03,1.126583661843031520e-02,3.580974790992026875e-03,5.687009111589250848e-02,-6.636866182088851929e-02,2.860148945629287232e-01,-6.981762108133680866e-02,-8.963682587346888733e-03,1.201257305784098894e-01,2.449558330241190796e-01,-7.025694751939684513e-02,8.665548563003540317e-02,1.815366625785827526e-01,-1.016336917877197210e-01,5.256980461777901459e-01,2.176063060760498047e-01,-1.165629744529724121e+00,1.213195412454373212e+02,7.522213459014892578e-02
7.238590000000000302e-01,4.092494893878323436e-02,3.003322580300773689e-02,9.586257934570312500e-01,8.875406447969250850e-03,2.719151211300729898e-03,1.102517743896373574e-02,-1.963173117479100581e-03,6.863465712777729044e-02,-7.132129371166229248e-02,2.599192935994537601e-01,-1.492396991838551012e-01,-1.013795846330872719e-02,1.675173826866426241e-01,7.753121638180018871e-02,-1.028785170980809904e-01,1.563678145408630427e-01,3.279601335525512279e-02,-1.335627436637878418e-01,5.226418157775482021e-01,2.091550827026367188e-02,-1.346265912055969238e+00,7.302692094529395206e+01,7.522213459014892578e-02
7.529449999999999754e-01,4.109834539191146996e-02,3.141036668529177678e-02,9.572542309761047363e-01,1.380284116460872047e-02,-5.867395851268941698e-04,9.986812553855565003e-03,2.026529676848977390e-02,5.822549818619295048e-02,-7.279422134160995483e-02,2.301884305207533565e-01,-1.714181514006002383e-01,-8.126735949956089000e-02,9.790463906214964818e-02,5.125342207465964639e-02,5.652334124359947864e-03,1.276870250701904186e-01,9.614896774291991147e-03,-2.210497856140136719e-02,5.233605218560510863e-01,4.280829429626464844e-02,-2.268892526626586914e-01,1.110089813725203811e+02,7.522213459014892578e-02
7.744839999999999502e-01,4.126536743470161223e-02,3.287685447540608652e-02,9.558790922164916992e-01,1.819784981141151989e-02,-4.164973884400069437e-03,8.931511960021055324e-03,1.080165543592160639e-02,6.655046149536325562e-02,-7.070910930633544922e-02,2.126756005021402940e-01,-2.279739779753598705e-01,-7.053530746527843232e-02,8.475198296230235240e-02,-9.383186893142508866e-02,4.551878344628720874e-02,1.338154792785644365e-01,-1.019659996032714760e-01,2.055963277816772253e-02,5.216765793753732616e-01,-5.139738321304321289e-02,-1.289414763450622559e+00,1.010959453394873577e+02,7.522213459014892578e-02
7.999600000000000044e-01,4.149685223350674940e-02,3.495737165494991472e-02,9.536629319190979004e-01,2.256122723117018683e-02,-1.020919110983453670e-02,6.787130720182339705e-03,1.642539548464229046e-02,6.165996987357511699e-02,-7.327370345592498779e-02,1.167091653220717062e-01,-2.132400935697735533e-01,-6.694330190327793528e-02,4.419575198713124320e-02,-1.922632776698864621e-01,1.218473103471743174e-01,1.251382827758789062e-01,-1.669949769973754772e-01,1.026644825935363742e-01,5.218844782848204300e-01,-6.501346826553344727e-02,-1.271653771400451660e+00,7.339879059465529565e+01,7.522213459014892578e-02
8.258799999999999475e-01,4.149749755694465830e-02,3.707160454968362606e-02,9.514266848564147949e-01,2.489722327169981500e-02,-1.671755568302435435e-02,6.431111314864143211e-03,9.796581893001853406e-04,5.952473648113444649e-02,-7.919202744960784912e-02,2.140996202883883870e-02,-1.994126824080136029e-01,-2.081000114058664807e-03,-2.712666752628554723e-01,-2.664000756189314201e-01,1.090403327633557296e-01,-1.756785035133361650e-01,-1.860546827316284235e-01,9.042477607727050781e-02,5.189302595490138392e-01,-2.629112005233764648e-01,8.303630352020263672e-02,1.433252086379244759e+02,7.522213459014892578e-02
8.517120000000000246e-01,4.135648924841302948e-02,3.841321918622403464e-02,9.499552845954895020e-01,2.632278029526487900e-02,-2.089192046590881979e-02,7.154554232467000979e-03,1.453675901027167913e-02,6.579734040268873929e-02,-7.739740610122680664e-02,7.188329254290497239e-02,-2.046784202628927352e-01,3.307605894178240052e-02,-2.365895442725888254e-01,-2.861866539950704835e-01,1.651087400917998493e-01,-1.379344940185546764e-01,-1.916748762130737194e-01,1.443118572235107255e-01,5.228807829634647408e-01,-5.497860908508300781e-02,-2.505546808242797852e-01,2.675177118633767748e+01,7.522213459014892578e-02
8.788939999999999531e-01,4.119579689126284111e-02,3.965558622862167676e-02,9.485307335853576660e-01,2.799422757567735995e-02,-2.427608358500599195e-02,7.155326200040970815e-03,-5.299155727744552825e-03,5.251942864609251971e-02,-7.290697842836380005e-02,9.329447847510402569e-02,-1.442975084996540591e-01,-1.241074744674099811e-02,-2.264843940734863337e-01,-2.944247484207153098e-01,1.906788872044030136e-01,-1.264843940734863281e-01,-1.944247484207153320e-01,1.695587217807769664e-01,5.228971264017756582e-01,-4.766434431076049805e-02,-1.207504868507385254e+00,8.659531029757772558e+01,7.522213459014892578e-02
8.996170000000000000e-01,4.106406561609270145e-02,4.082327187737362639e-02,9.469658732414245605e-01,2.956084342524770495e-02,-2.649743533714854493e-02,6.879446904501114630e-03,-4.994046587917776343e-03,5.483934508805828750e-02,-7.575801014900207520e-02,7.957566769463264578e-02,-9.602487137263984729e-02,5.409630586447955643e-03,-2.435467839241027832e-01,-2.972912073135375866e-01,2.005386609688254718e-01,-1.435467839241027777e-01,-1.972912073135375810e-01,1.800276696681976374e-01,5.237088783405002834e-01,-2.770382165908813477e-02,-1.532250285148620605e+00,1.096626008229491305e+02,7.522213459014892578e-02
9.258129999999999971e-01,4.098371495250098528e-02,4.248346591943930745e-02,9.446408748626708984e-01,3.197720380079905472e-02,-2.622482942528692185e-02,5.340249457855062061e-03,6.048233604746644336e-03,4.574841261180220137e-02,-7.601442188024520874e-02,9.089402678205141251e-02,9.462631851649445924e-02,-8.597104350627497726e-02,-3.031887233257293812e-01,-1.063339114189147949e-01,2.151887211169924985e-01,-2.031887233257293757e-01,-6.333911418914794575e-03,1.990329623222351074e-01,5.233594687504795617e-01,-6.336253881454467773e-02,-5.982822179794311523e-01,2.804012244872050275e+01,7.522213459014892578e-02
9.467900000000000205e-01,4.108797835579226787e-02,4.360928037076054059e-02,9.429955482482910156e-01,3.279692305336653901e-02,-2.369082711768499827e-02,4.024333681777909032e-03,9.300750269985117585e-03,4.529466772669162034e-02,-8.378378301858901978e-02,-1.143918222192177696e-02,1.791094165231006397e-01,-2.767819308982031462e-02,-3.082450449466705433e-01,-1.168654084205627552e-01,2.135817450164914089e-01,-2.082450449466705378e-01,-1.686540842056274275e-02,2.012382030487060436e-01,5.253795932259573975e-01,2.034306526184082031e-03,-1.174822926521301270e+00,7.617470241675353293e+01,7.522213459014892578e-02
9.733110000000000372e-01,4.133335789645899150e-02,4.529826558188608521e-02,9.403300285339355469e-01,3.118185028531716280e-02,-1.613811821867727758e-02,1.194497859438194967e-03,4.089959729532056075e-03,3.940596148445531938e-02,-9.232999384403228760e-02,-6.899271977179813331e-02,2.695731043778908376e-01,-1.188776584007080195e-01,-3.073080778121948242e-01,-4.932965879978491036e-02,2.085573089342888653e-01,-2.073080778121948187e-01,2.368260025978088240e-02,2.045779824256896973e-01,5.268181161299474446e-01,2.860939502716064453e-02,-1.007332444190979004e+00,1.460967559691430928e+01,7.522213459014892578e-02
9.992020000000000346e-01,4.163768367256392294e-02,4.693221905029730523e-02,9.375588893890380859e-01,2.592881140250898400e-02,-6.531742112321881066e-03,-2.176527123896390692e-03,1.478745706240256787e-02,4.156203508128462204e-02,-9.758342802524566650e-02,-2.506517203913981584e-01,3.433926581443149662e-01,-1.484029549111977597e-01,-2.790511846542358398e-01,1.207874479169181586e-01,1.653582357860711727e-01,-1.790511846542358343e-01,1.223669886589050237e-01,1.714407205581665039e-01,5.264301802376990524e-01,-3.247189521789550781e-02,-1.432699322700500488e+00,6.909740383275889997e+01,7.522213459014892578e-02
1.026682000000000095e+00,4.200228053453801402e-02,4.843342934993741938e-02,9.347195625305175781e-01,1.898363072211224287e-02,2.853605047241192239e-03,-5.648735409857869212e-03,9.118657097080862944e-03,4.151186242391447651e-02,-9.501907974481582642e-02,-2.593808463862858904e-01,2.999474059686567107e-01,-7.862283484334355033e-02,-1.991404966060775494e-01,2.428837904922937496e-01,1.303782517072260283e-01,-1.400066614151000977e-01,1.892170429229736162e-01,1.465292215347289984e-01,5.245185848072011492e-01,-1.454734802246093750e-01,-6.662091016769409180e-01,-4.057124853779487239e+01,7.522213459014892578e-02
1.051695999999999964e+00,4.231552697049469763e-02,4.945016195515889584e-02,9.329032897949218750e-01,1.409846546251272183e-02,8.072316059026807267e-03,-8.629281581342728227e-03,4.926761925937933086e-03,3.329809034865182510e-02,-8.577660471200942993e-02,-2.390371224141852602e-01,2.070079233088479020e-01,-1.758627181281275098e-01,-1.869067694294339055e-01,2.921114839138599928e-01,4.438348847047868251e-02,-1.541565835475921520e-01,2.067067444324493242e-01,6.897228956222534180e-02,5.210115187236680212e-01,-3.135864734649658203e-01,-9.757710695266723633e-01,3.013899518443581371e+01,7.522213459014892578e-02
1.076494000000000062e+00,4.262789521262673464e-02,5.039509142757313265e-02,9.310549497604370117e-01,8.406097759741137584e-03,1.225030340944743834e-02,-1.123643320576775059e-02,1.061201646589730353e-02,4.266422971227452204e-02,-9.173795580863952637e-02,-2.406814733652422877e-01,1.753971614607418572e-01,-1.183186431065741950e-01,-8.859914181659776788e-02,3.094579398632049672e-01,-3.782132115820423246e-02,-1.019987225532531655e-01,2.094579398632049616e-01,-5.880188941955566233e-03,5.218203161219231445e-01,-3.090821504592895508e-01,-1.034971594810485840e+00,8.204459431021918192e+01,6.376230716705322266e-02
1.100597999999999965e+00,4.299570536425679351e-02,5.133869050985646887e-02,9.293270707130432129e-01,2.589172241364838534e-03,1.513281473402106059e-02,-1.433876702004262781e-02,1.369204905613269352e-02,3.457243068323827273e-02,-8.456081897020339966e-02,-2.954007336454030908e-01,1.356332642610778294e-01,-1.611362398495788106e-01,1.520264506717836639e-01,3.096227526664733776e-01,-1.368331125075823163e-01,1.074627757072448703e-01,2.096227526664733720e-01,-9.632577896118163507e-02,5.237086288799198686e-01,-1.928752660751342773e-01,-1.539555668830871582e+00,1.481048657360726963e+02,5.146229267120361328e-02
1.128095999999999988e+00,4.340360459155136186e-02,5.232244468610014465e-02,9.277350306510925293e-01,-2.981359856870053910e-03,1.699392739717531242e-02,-1.720076927651626592e-02,1.757780098740873917e-02,4.562598543818686264e-02,-8.623125404119491577e-02,-2.571466350733512818e-01,4.189494806053132431e-02,-1.387504160280079168e-01,2.741703178633233540e-01,2.987816572189331277e-01,-2.322152760063071475e-01,1.828768014907836970e-01,1.987816572189330944e-01,-1.837866783142089733e-01,5.260231085313836763e-01,-8.828091621398925781e-02,-1.403281331062316895e+00,6.513196675537874114e+01,5.146229267120361328e-02
1.154943000000000053e+00,4.334695012695904265e-02,5.338583588515517092e-02,9.262390732765197754e-01,-8.115003111400396693e-03,1.744532395960129989e-02,-2.000370775363180878e-02,1.851347831074559580e-02,4.071886365037660771e-02,-7.029695063829421997e-02,-2.288632440981890614e-01,-2.842889845651344269e-02,-1.512036710823216612e-01,2.988992452621460072e-01,2.787402093410492054e-01,-2.564874699153277815e-01,1.988992452621460016e-01,1.787402093410491999e-01,-2.004007816314697099e-01,5.250074106880134872e-01,-9.357535839080810547e-02,-8.748973608016967773e-01,7.639785152712701688e+01,5.146229267120361328e-02
1.175237000000000087e+00,4.309214882243551925e-02,5.399351734042662915e-02,9.255484938621520996e-01,-1.067185398125394813e-02,1.675402525477709403e-02,-2.120217780073981734e-02,1.414628326566153352e-02,4.587393444893229921e-02,-6.499262154102325439e-02,-1.882634219696868449e-01,-1.237873762361991342e-01,-1.110091203834580736e-01,2.230997323989868109e-01,1.876468658447266735e-02,-2.416353410679770997e-01,1.230997323989868053e-01,-8.123531341552733820e-02,-1.822523832321167048e-01,5.238267813202539536e-01,-1.465370059013366699e-01,-5.325490236282348633e-01,9.584928088702871207e+01,5.146229267120361328e-02
1.198256999999999906e+00,4.237014101467120875e-02,5.589234721954492585e-02,9.236857295036315918e-01,-1.699502052012702435e-02,1.293522957437609477e-02,-2.443908998664752821e-02,8.274956419208823882e-03,5.284755842976925078e-02,-6.832613795995712280e-02,-1.870982607875061599e-01,-1.301362488412595442e-01,-1.268627299870180580e-01,2.890465259552001953e-01,1.908851861953736462e-02,-2.686270974421863245e-01,1.890465259552001898e-01,-8.091148138046264093e-02,-2.003242850303649791e-01,5.227823130537850860e-01,-2.310506105422973633e-01,-5.333024263381958008e-01,1.048001550018712038e+02,5.146229267120361328e-02
1.223664000000000085e+00,4.164899709471538147e-02,5.793068680650386576e-02,9.221394658088684082e-01,-2.153586964090252812e-02,5.501778037378057817e-03,-2.571180342200649060e-02,1.325734989166551907e-02,5.164992383397030984e-02,-5.841251835227012634e-02,-1.439316939616389068e-01,-2.566598703975542795e-01,-2.507254818002884952e-02,2.889722824096679910e-01,-9.539192605211731235e-02,-2.880348373351283020e-01,1.889722824096679576e-01,-1.713627576828002930e-01,-2.161985635757446289e-01,5.173665817725302540e-01,-4.970785379409790039e-01,-9.433928728103637695e-01,9.754140561238600071e+01,5.146229267120361328e-02
1.250380999999999965e+00,4.084418071065314820e-02,5.968439542671329784e-02,9.209084510803222656e-01,-2.304499091270987080e-02,-4.351844448075459226e-03,-2.516577743081017948e-02,5.043642438104396601e-03,6.071184402595530827e-02,-4.660404473543167114e-02,-1.852879475464554171e-02,-3.389320738142893585e-01,3.819214873521480785e-02,2.805210351943969727e-01,-1.960600688669676683e-01,-2.840992521134391158e-01,1.805210351943969671e-01,-2.005679368972778376e-01,-2.136482119560241533e-01,5.162017018528810564e-01,-5.243200063705444336e-01,-9.569884538650512695e-01,1.295787289332218108e+02,5.146229267120361328e-02
1.274373999999999896e+00,4.021911533999602412e-02,6.037927107601633037e-02,9.202807545661926270e-01,-2.150704415088365920e-02,-1.196796302673530654e-02,-2.376319436841895297e-02,4.694601101515984490e-03,5.925913568884706023e-02,-3.794803470373153687e-02,1.083910308389929855e-01,-4.245800860418041944e-01,9.059528933856278443e-02,2.831057906150817871e-01,-2.372569340726986553e-01,-2.631458276572004040e-01,1.831057906150817816e-01,-1.930022478103637640e-01,-1.965351819992065263e-01,5.198829238049684776e-01,-3.004313707351684570e-01,-7.099045515060424805e-01,9.755527089640112592e+01,5.146229267120361328e-02
1.299724000000000101e+00,3.922989921070807462e-02,6.148232725195171972e-02,9.196153879165649414e-01,-1.595489717116911274e-02,-2.317948076522347023e-02,-2.096963459824774043e-02,-2.851199219397388719e-03,6.607939889642105991e-02,-3.222997486591339111e-02,2.307106661776681666e-01,-3.901556595064415434e-01,1.452416925919974289e-01,2.847095727920532227e-01,-2.854491829872131126e-01,-2.439645297958525083e-01,1.847095727920532171e-01,-1.854491829872131348e-01,-1.852112531661987138e-01,5.228618412716113939e-01,-1.252418756484985352e-01,-8.263963460922241211e-01,9.268993590530429572e+01,5.146229267120361328e-02
1.325269000000000030e+00,3.826294346179819755e-02,6.275383211355965718e-02,9.192086458206176758e-01,-8.589005844494852770e-03,-3.068872411592082905e-02,-1.804714853725156165e-02,3.312882928306149031e-03,7.967284145586309152e-02,-2.808048203587532043e-02,2.852640606307283999e-01,-1.734327829887137573e-01,1.082201186038838081e-01,2.824679255485534890e-01,-2.631288766860961914e-01,-2.110486886691332609e-01,1.824679255485534557e-01,-1.631288766860961859e-01,-1.607885599136352484e-01,5.239743615693129852e-01,-5.611389875411987305e-02,-9.515351057052612305e-01,9.932862023136821961e+01,5.146229267120361328e-02
1.348282999999999898e+00,3.761684840988450962e-02,6.364608619257108857e-02,9.190567731857299805e-01,-2.810073763658341162e-03,-3.344127518072714800e-02,-1.606850255454009280e-02,-3.657609584261469534e-03,5.734280630226544495e-02,-1.662181504070758820e-02,3.104962719243699598e-01,-1.290545772993841045e-01,8.680310756516360082e-02,2.597290158271789440e-01,-2.338893651962280218e-01,-1.982578705727300883e-01,1.597290158271789384e-01,-1.338893651962280162e-01,-1.536993384361267090e-01,5.237271623815126231e-01,-2.890872955322265625e-02,-8.880912065505981445e-01,8.737127442880452577e+01,5.146229267120361328e-02
1.375544000000000100e+00,3.696366520778781445e-02,6.593202034524936472e-02,9.189866185188293457e-01,6.240326861752492314e-03,-3.321753706613184143e-02,-1.232668454632775308e-02,7.788321171231343300e-03,7.563715207612022040e-02,-2.005855552852153778e-02,2.722571919125056916e-01,1.061708899970713466e-01,1.461725603122593087e-01,8.858459086998987653e-02,-7.777301669120789684e-02,-2.022282912547199857e-02,2.343020439147949080e-02,2.222698330879211218e-02,1.342020034790039097e-02,5.273087424651671240e-01,1.460688114166259766e-01,-5.978118181228637695e-01,4.310037537989679635e+01,5.146229267120361328e-02
1.401373999999999898e+00,3.630797376026104195e-02,6.820210441015599201e-02,9.190202951431274414e-01,1.542372317262271503e-02,-2.925180945947492006e-02,-8.457438881831482250e-03,-2.002568587522259372e-02,6.829890380610929845e-02,-2.773036621510982513e-02,2.343166626072723802e-01,2.037096055180996346e-01,1.662077939056832987e-01,-1.303784046638168659e-01,-7.844501733779907227e-02,9.825982943569136485e-02,-1.287158846855163408e-01,2.155498266220092635e-02,1.207713425159454290e-01,5.278069889975621765e-01,1.381884813308715820e-01,-7.027691602706909180e-01,5.204239073938578741e+01,5.146229267120361328e-02
1.422687999999999953e+00,3.581673505113577849e-02,6.966445477305299727e-02,9.190950393676757812e-01,2.204467213071627935e-02,-2.525775889044235001e-02,-5.915790496741436810e-03,-2.777375698818610079e-03,7.790855450583605846e-02,-1.443084236234426498e-02,3.831553778407259525e-01,1.916126655759915198e-01,1.224452453590689771e-01,-1.501212841006359100e-01,-9.050576686859131137e-02,1.079294376821458845e-01,-1.154991567134857067e-01,9.494233131408690712e-03,1.233729064464569036e-01,5.268179199923462841e-01,1.316986083984375000e-01,-1.287843585014343262e+00,8.649955104541413675e+01,5.146229267120361328e-02
1.448593999999999937e+00,3.504580265533016603e-02,7.215194737968592953e-02,9.191772937774658203e-01,3.113920519999785474e-02,-1.753465361965078628e-02,-2.105885843616128825e-03,-1.314068451585235706e-02,5.899900448391656033e-02,-8.321465924382209778e-03,2.917210291228249930e-01,2.987500201097453845e-01,1.010495285127857162e-01,-2.798655033111572266e-01,-8.294300087874417748e-02,1.533803752638454587e-01,-1.798655033111572210e-01,1.181918978691101109e-02,1.583457291126251221e-01,5.257098677946784315e-01,9.209704399108886719e-02,-3.956221342086791992e-01,1.113826063804984301e+02,5.146229267120361328e-02
1.474375999999999909e+00,3.412033721403743419e-02,7.514310056289408291e-02,9.193602204322814941e-01,4.065667012678132047e-02,-9.669319807328324856e-03,1.863959307981894213e-03,-1.800440139379514554e-02,4.595821645414806256e-02,-5.606526043266057968e-03,3.221902272838735315e-01,2.648197183010899680e-01,1.222923771373893992e-01,-2.752495646476745828e-01,-3.685839487414797888e-02,1.742039797130927326e-01,-1.752495646476745494e-01,9.117150306701659809e-03,1.684458017349243220e-01,5.241426795222720036e-01,1.429259777069091797e-02,-6.927372217178344727e-01,1.113582362655398157e+02,4.645307064056396207e-02
1.500529000000000002e+00,3.321443719355179208e-02,7.778848539547320029e-02,9.196116328239440918e-01,4.889441993655019997e-02,-2.470367311947274658e-03,3.744107503941405957e-03,-1.486986936980952585e-02,4.950922163639219498e-02,-1.115358993411064148e-02,2.201470175728157119e-01,2.517230362713901992e-01,3.178289225315901467e-02,-3.005825996398925892e-01,5.983100850133296622e-02,2.021008504961977204e-01,-2.005825996398925837e-01,5.610337257385254045e-02,1.916664004325866755e-01,5.208564059177754890e-01,-1.894345283508300781e-01,-9.879881143569946289e-01,7.025369338753952775e+01,4.645307064056396207e-02
1.526105000000000045e+00,3.239438184295537204e-02,8.020231063998431442e-02,9.198602437973022461e-01,5.361540043662005317e-02,2.395913445591979496e-03,3.796262921266446710e-03,-5.789718103913688539e-03,3.791112460738579187e-02,-4.601637367159128189e-03,1.118318922294801593e-01,1.031990420857372970e-01,-1.198309870702458403e-02,-3.098438918590545876e-01,1.340776656262777089e-01,2.100806698785197546e-01,-2.098438918590545543e-01,9.247509241104125144e-02,2.000510394573211670e-01,5.145510872038115968e-01,-5.055586099624633789e-01,-1.051643013954162598e+00,9.569904404604510262e+01,4.645307064056396207e-02
1.548340999999999967e+00,3.140291970124071269e-02,8.246305836119077748e-02,9.199903011322021484e-01,5.373140987896972420e-02,5.550443396419746378e-03,3.110392913695223232e-03,-1.503700459520700486e-02,3.879636064176776589e-02,-1.237404346466064453e-02,-3.476661701864263571e-02,1.441839676646652080e-01,-4.890431597002176112e-02,-3.122609198093414529e-01,2.091928029093571284e-01,2.142375830636602252e-01,-2.122609198093414196e-01,1.562466144561767412e-01,2.063009798526763972e-01,5.229013887739570876e-01,-9.081721305847167969e-02,-9.762924909591674805e-01,9.611898456678500224e+01,4.645307064056396207e-02
1.573822999999999972e+00,3.005731998580901676e-02,8.570989097871918594e-02,9.199958443641662598e-01,4.966148708291270863e-02,9.851228829104829998e-03,1.748937088118651586e-03,-9.071935272096657427e-03,3.611853868924978783e-02,-2.591912634670734406e-02,-2.125774155965732548e-01,1.519882685589884763e-01,-3.565902671333803092e-02,-2.986290752887725830e-01,1.854661537335221821e-01,1.887525985176545240e-01,-1.986290752887725775e-01,9.964572787284850519e-02,1.850339770317077637e-01,5.233965915853131534e-01,-1.227974295616149902e-01,-7.125130891799926758e-01,9.002107363806766216e+01,4.645307064056396207e-02
1.602848000000000050e+00,2.886539485088097240e-02,8.865917761471114877e-02,9.198126196861267090e-01,4.236223213488536643e-02,1.265745922265670842e-02,-2.682967490352565162e-04,-1.460502863786771431e-02,2.410482658068367756e-02,-1.439349912106990814e-02,-2.187905899240815688e-01,3.863845343025956725e-02,-7.565753421397795886e-02,-3.068238496780395508e-01,8.995741980883245614e-02,1.575756454577799948e-01,-2.068238496780395452e-01,-8.055210113525390625e-03,1.594983458518981767e-01,5.248109359972007448e-01,-5.651891231536865234e-03,-7.496534585952758789e-01,7.741272201514253481e+01,4.645307064056396207e-02
1.625458999999999987e+00,2.811461217318609110e-02,9.047324457711430901e-02,9.196612834930419922e-01,3.646497502610519803e-02,1.335623049585366040e-02,-1.794663685120490666e-03,1.402175936602211015e-03,2.843819953299737274e-02,-2.897943928837776184e-02,-3.421824818698448456e-01,2.815245307789995474e-02,-6.264322124698232241e-02,-3.055177032947540283e-01,8.460394144058228094e-02,1.497753794792853199e-01,-2.055177032947540228e-01,-1.539605855941772461e-02,1.560546755790710449e-01,5.274144045982009921e-01,7.203304767608642578e-02,-9.174922704696655273e-01,9.116055409730088854e+01,4.645307064056396207e-02
1.647823999999999955e+00,2.737420271537792035e-02,9.217779680457843794e-02,9.194819927215576172e-01,3.068595943231911677e-02,1.227698159277590406e-02,-3.777835550785106980e-03,-2.413185731544947865e-03,2.690423036602224843e-02,-2.272106334567070007e-02,-2.964429497111926715e-01,-5.826196520687507846e-02,-1.257749041739608942e-01,-3.122218132019042858e-01,-3.366566896438596967e-02,1.590884233478894183e-01,-2.122218132019042802e-01,-1.336656689643859752e-01,1.706538498401641846e-01,5.277633100939632671e-01,1.099946498870849609e-01,-1.236886620521545410e+00,8.744647481156637525e+01,4.645307064056396207e-02
1.673491999999999980e+00,2.640886886148161028e-02,9.450851400514088951e-02,9.190396070480346680e-01,2.121010525442598715e-02,8.356745239986640428e-03,-6.863311644658393051e-03,-2.507579163423800332e-03,1.637482680025999227e-02,-2.807292342185974121e-02,-3.675970601794161796e-01,-1.456458731302070209e-01,-1.009953637256440356e-01,-2.628172511092854435e-01,-9.581526015963361120e-02,1.136592386688899392e-01,-2.099837601184844915e-01,-1.723910808563232366e-01,1.334440112113952637e-01,5.263824732419282171e-01,6.615638732910156250e-03,-1.725595116615295410e+00,1.101325588189810389e+02,4.645307064056396207e-02
1.698920999999999903e+00,2.554195724250361843e-02,9.663607091753810552e-02,9.185475111007690430e-01,1.207220840347386463e-02,3.104398376466921405e-03,-9.851857152336969750e-03,-5.785430175818813761e-03,1.665797587282756564e-02,-2.553474344313144684e-02,-2.991660966388973719e-01,-1.582914949626160472e-01,-6.930326417722054710e-02,-1.102752082813992784e-01,-1.200400415949490207e-01,-1.663791955729345962e-01,-1.202793359756469671e-01,-1.593188524246215709e-01,-1.385744333267211748e-01,5.236844938826278328e-01,-1.373945474624633789e-01,-1.038442492485046387e+00,9.323234854805167515e+01,4.645307064056396207e-02
1.724674999999999958e+00,2.486214231959599924e-02,9.867748398785146369e-02,9.178085923194885254e-01,2.559431407896977078e-03,-1.219609880602323670e-03,-1.275736914340252007e-02,8.688526815262911235e-03,1.917019369888535094e-02,-2.299940213561058044e-02,-3.037867948877550628e-01,-1.554386073955704994e-01,-1.180715639083969454e-01,1.275518334859817304e-01,-1.157267801800028056e-01,-2.274281899809206253e-01,5.195871591567993025e-02,-1.381502509117126520e-01,-1.916248798370361328e-01,5.234968330895072297e-01,-1.460019350051879883e-01,-2.806619405746459961e-01,8.275395726684918429e+01,4.645307064056396207e-02
1.750475000000000003e+00,2.393343910877955907e-02,1.007396608901506702e-01,9.169576764106750488e-01,-7.648652225254536086e-03,-4.264266987784814944e-03,-1.545138665954814451e-02,4.145503115135067314e-03,2.217145999278821722e-02,-2.368937432765960693e-02,-3.668693238384299060e-01,-8.242659167991737978e-02,-9.570977753426468393e-02,3.009622573852538951e-01,1.587558288662812428e-02,-2.578599185467772004e-01,2.009622573852538896e-01,1.930418014526366979e-02,-2.146004319190978893e-01,5.209520081915458567e-01,-2.952405214309692383e-01,-9.109047651290893555e-01,5.222061086539893182e+01,4.645307064056396207e-02
1.776567000000000007e+00,2.311327182065015320e-02,1.028732647572526276e-01,9.160187244415283203e-01,-1.764086486284890606e-02,-4.969568967793769332e-03,-1.732167055323806035e-02,-8.494793834160953034e-04,3.839378046961360036e-02,-3.608518466353416443e-02,-3.771367974837417369e-01,4.586632648213875146e-02,-1.014032268513167384e-02,3.216956615447997825e-01,2.050915385562297466e-01,-2.715749070830966172e-01,2.216956615447998047e-01,2.168724417686462291e-01,-2.230727434158325251e-01,5.202839113901391865e-01,-3.905652165412902832e-01,-2.892760038375854492e-01,-7.033176244975277314e+01,1.104333639144897405e-01
1.797838000000000047e+00,2.261852503238244091e-02,1.043519223679645752e-01,9.154829382896423340e-01,-2.311848022197714875e-02,-4.479831719998328410e-03,-1.690750868433561066e-02,1.510407587533878606e-03,4.459153830107455418e-02,-2.359816431999206543e-02,-2.753071280913302887e-01,8.964807553465471701e-02,2.043447480060094079e-02,3.240006804466247781e-01,2.157903681216249148e-01,-2.696707632182937520e-01,2.240006804466247448e-01,2.219280123710632158e-01,-2.223240494728088434e-01,5.164321261456239487e-01,-5.562670826911926270e-01,-1.463901042938232422e+00,7.915380553647048600e+01,1.104333639144897405e-01
1.823490000000000055e+00,2.186765217078728493e-02,1.066295218278965062e-01,9.149886965751647949e-01,-2.779379488949028018e-02,-3.145700571373089005e-03,-1.497245741753396552e-02,-1.529053834905596317e-03,4.037684706830304421e-02,1.119446009397506714e-02,-4.020673521822384910e-02,2.540229214291648413e-02,5.052626111457767660e-02,3.234896659851074219e-01,2.231539336020900710e-01,-2.604146835842103269e-01,2.234896659851074163e-01,2.233068466186523271e-01,-2.184939980506896973e-01,5.125406171518337439e-01,-6.325689554214477539e-01,-2.417205572128295898e-01,4.727738439700726758e+01,1.104333639144897405e-01
1.849433000000000105e+00,2.122863523678335945e-02,1.076786775532065921e-01,9.149651527404785156e-01,-2.602888945190023201e-02,-2.566332918373159799e-03,-1.202320234794482419e-02,4.293667016494638264e-03,3.740239946079697980e-02,2.242645248770713806e-02,1.759739440133844535e-01,-2.996611666178669239e-02,6.239024393723966583e-02,3.049355745315551758e-01,1.813284791494789161e-01,-1.886916689627065880e-01,2.049355745315551702e-01,1.728781700134277288e-01,-1.550446271896362138e-01,5.143108195278672801e-01,-4.968900680541992188e-01,-9.693857431411743164e-01,8.481786284910862150e+01,1.104333639144897405e-01
1.875561999999999951e+00,2.047307371621180302e-02,1.087055588929079913e-01,9.154387712478637695e-01,-1.815905783072432889e-02,-4.673387697093467352e-03,-8.491363017963065099e-03,-1.618365900834379742e-02,3.867422058998149642e-02,3.918907791376113892e-02,3.313784710228697139e-01,-1.223049063192906821e-01,1.095019132293562070e-01,3.146882653236389160e-01,4.621580542414931159e-02,-2.153014770381978527e-01,2.146882653236389105e-01,6.860171556472778598e-02,-1.915230631828307994e-01,5.152419310451931134e-01,-3.812421560287475586e-01,-9.882520437240600586e-01,7.477167227820619644e+01,1.104333639144897405e-01
1.897302000000000044e+00,1.992144283428943716e-02,1.094257286612565910e-01,9.158061146736145020e-01,-1.141415508121250595e-02,-7.059181866955643869e-03,-5.750951271410627286e-03,-1.479944767183768821e-02,4.795815631400578150e-02,1.389934960752725601e-02,3.007076382472884668e-01,-6.956418145615818338e-02,1.453185993232700979e-01,3.058093667030334362e-01,-2.291099144989451608e-02,-1.573167899313304974e-01,2.058093667030334306e-01,1.127192974090576207e-02,-1.412674427032470648e-01,5.205755285072406480e-01,-1.967722773551940918e-01,-1.415233254432678223e+00,7.184156210540574250e+01,1.104333639144897405e-01
1.923313000000000050e+00,1.931711257623134823e-02,1.104009619127040848e-01,9.164562821388244629e-01,-5.575758086588319951e-04,-1.235702222106427328e-02,-1.948955743573182239e-03,-1.140683548999539207e-02,4.605870042332255165e-02,3.032431006431579590e-02,3.635763647075164751e-01,-2.138999613115289133e-01,1.470061211020427250e-01,3.088074684143066184e-01,-1.943206671972228794e-01,-1.900289995514264363e-01,2.088074684143066406e-01,-1.281342744827270452e-01,-1.848277330398559459e-01,5.202234744935922972e-01,-1.509261131286621094e-01,-8.131083250045776367e-01,-1.008860126451578481e+02,1.104333639144897405e-01
1.948930999999999969e+00,1.915831151586829331e-02,1.110888369665006675e-01,9.170922040939331055e-01,9.091902628622685820e-03,-1.745317619636699291e-02,1.870350945340607017e-03,-1.158426348897060101e-02,5.573445977657694866e-02,1.989954710006713867e-02,3.284814292817446191e-01,-1.375411165713773809e-01,1.269442043430667466e-01,2.636437011398636843e-01,-2.437609397376766796e-01,-1.082007021635313787e-01,1.938730716705322210e-01,-1.441286087036132701e-01,-1.140590429306030246e-01,5.246695179004404741e-01,4.752480983734130859e-02,-1.187124609947204590e+00,1.200515576071594808e+02,1.104333639144897405e-01
1.974598000000000075e+00,1.893585871339634880e-02,1.117864401161006299e-01,9.175822734832763672e-01,1.810491564923043598e-02,-2.126896712972836667e-02,4.978393522848016846e-03,-2.756811067993032716e-02,4.130210200854361052e-02,2.274004742503166199e-02,3.054238714409202582e-01,-1.196700158180080964e-01,7.099115338970052314e-02,1.764912631380798902e-01,-2.636524438858032227e-01,-8.900448985393109858e-02,1.769847393035888505e-01,-1.636524438858032171e-01,-1.040096998214721652e-01,5.247630669887654031e-01,6.343841552734375000e-02,-1.172432780265808105e+00,1.194779173395267833e+02,1.104333639144897405e-01
2.000564999999999927e+00,1.882260334010658898e-02,1.123444696378915475e-01,9.179136157035827637e-01,2.700542571614156576e-02,-2.147093946837230760e-02,8.079958110319042028e-03,5.266083667170982051e-03,3.986816812393496195e-02,2.046439610421657562e-02,3.129344471433764263e-01,4.663726790279416889e-02,7.419888899939060256e-02,-1.064052556896371848e-01,-1.607483148574829213e-01,1.581409376113946941e-01,-4.950737357139587541e-02,-6.074831485748290877e-02,1.344442248344421276e-01,5.259803800264519769e-01,1.186052560806274414e-01,-9.559305906295776367e-01,9.883326076181305098e+01,1.104333639144897405e-01
2.021958999999999840e+00,1.864042790750627954e-02,1.133682814228725161e-01,9.180247783660888672e-01,3.300376504564141861e-02,-1.913637963640435480e-02,9.719776715925897842e-03,-1.967667457505064069e-02,2.565144401391915990e-02,2.819904498755931854e-02,3.360485937461616945e-01,1.051104588334701301e-01,8.637101824354287416e-02,-2.156848013401031494e-01,-1.625325918197632058e-01,1.888389459620070931e-01,-1.156848013401031439e-01,-6.253259181976318637e-02,1.603480696678161455e-01,5.238188122672315927e-01,3.009712696075439453e-02,-1.355771422386169434e+00,1.391367727143325794e+02,1.104333639144897405e-01
2.049780999999999853e+00,1.848516154271910572e-02,1.146796822985724634e-01,9.181424975395202637e-01,4.119576722374442695e-02,-1.230910367768700553e-02,1.096293573853455820e-02,8.517766114707161704e-03,3.688565540964482831e-02,1.909794472157955170e-02,2.676115242941288774e-01,2.377425601463817040e-01,-2.441635277511436039e-02,-2.929894804954528698e-01,-3.847522614345851716e-02,2.275133317239603770e-01,-1.929894804954528642e-01,9.717088937759398373e-03,1.961890339851379284e-01,5.202524560501593509e-01,-2.022951841354370117e-01,-1.062770962715148926e+00,7.906751292649654772e+01,1.104333639144897405e-01
2.072531000000000123e+00,1.846174827413625541e-02,1.154291040168230614e-01,9.181129336357116699e-01,4.416404740207262314e-02,-6.881809093326252125e-03,1.061174256421914923e-02,-7.618203269700364946e-03,2.677867586159091151e-02,6.660208106040954590e-03,1.175712701764664303e-01,2.892958366997884223e-01,1.277365978172137310e-02,-3.044473052024841420e-01,4.877381291967021471e-02,2.330979223349259888e-01,-2.044473052024841364e-01,7.836660146713256281e-02,2.029865384101867676e-01,5.216615670528284010e-01,-1.785790324211120605e-01,-9.018777608871459961e-01,8.805032500589803135e+01,1.104333639144897405e-01
2.097665000000000113e+00,1.846818833254026959e-02,1.165944261499243656e-01,9.179651737213134766e-01,4.427720019838196630e-02,6.132983655551260682e-04,8.440542843510114718e-03,-7.210754138732896473e-04,3.181197169018898374e-02,5.797642283141613007e-03,-2.799469894669240691e-02,1.980624001572103277e-01,-9.985966413281008314e-02,-3.148951530456542969e-01,2.046586159471461275e-01,2.334035163359219900e-01,-2.148951530456542913e-01,1.781321346759796032e-01,2.101214826107025146e-01,5.168675625584389088e-01,-4.451088905334472656e-01,-9.126368761062622070e-01,1.031736615642485617e+02,1.104333639144897405e-01
2.127381000000000189e+00,1.813710701488490881e-02,1.175204462804837202e-01,9.175577759742736816e-01,3.879167166724078325e-02,5.919265608760992947e-03,5.492342736145541977e-03,-6.420529011676864677e-03,1.638627050387330211e-02,3.072257852181792259e-03,-2.663351266504395687e-01,1.301765144414109843e-01,-1.353590895500058344e-01,-3.112166106700897106e-01,1.954090456125961439e-01,1.939086239352515173e-01,-2.112166106700897050e-01,1.405241668224334606e-01,1.791804492473602350e-01,5.233962236984988081e-01,-1.085563898086547852e-01,2.330962419509887695e-01,7.011883813256679332e+01,1.104333639144897405e-01
2.147568000000000144e+00,1.803963015887765156e-02,1.178071021283137593e-01,9.173246026039123535e-01,3.636571116444321794e-02,6.931613515958501281e-03,4.452590820373477677e-03,2.518567358938537514e-03,2.332490633623783213e-02,-4.818956367671489716e-03,-2.118565502085276719e-01,5.712761829353856652e-02,-1.415618682317455190e-01,-3.120068788528442272e-01,1.256423368502446458e-01,1.768978451302073984e-01,-2.120068788528442216e-01,5.661073923110961775e-02,1.652320325374603271e-01,5.262335145825692839e-01,8.685827255249023438e-03,-9.622677564620971680e-01,1.158132066611131279e+02,1.104333639144897405e-01
2.174208999999999836e+00,1.764847725862675465e-02,1.185882040884482375e-01,9.166613817214965820e-01,2.753550700960467196e-02,6.611134198887036462e-03,8.348081410301460377e-04,-7.591284048015009729e-03,9.834477950654294323e-03,-2.934194868430495262e-03,-3.185558011031888737e-01,-6.172635290672892627e-02,-1.286097572499554365e-01,-2.912079917929983885e-01,-9.035488813403977360e-02,1.854623240443597776e-01,-2.168757319450378418e-01,-1.474933147430419755e-01,1.836615264415741022e-01,5.229570517457848844e-01,-1.681938171386718750e-01,-6.549106836318969727e-01,7.681405764193820929e+00,1.104333639144897405e-01
2.202615000000000212e+00,1.718237732872180887e-02,1.191519345254624107e-01,9.157894849777221680e-01,1.805189920814229132e-02,2.643635967001900511e-03,-2.682785270797623505e-03,4.321782094677695946e-03,1.793188800190440718e-02,-1.728678122162818909e-02,-3.406932169771860752e-01,-1.294956965866927712e-01,-7.493589862763948284e-02,-1.469672104642556487e-01,-9.680368620632300025e-02,-8.879201155493129938e-02,-1.428879439830779974e-01,-1.381025791168212780e-01,-8.096351623535155695e-02,5.240611271375870128e-01,-1.740348339080810547e-01,-8.574882745742797852e-01,9.181677135199902295e+01,1.104333639144897405e-01
2.229302999999999813e+00,1.655794921590153512e-02,1.194726620398870592e-01,9.152492880821228027e-01,1.192371175313386260e-02,-8.678117296929688251e-04,-5.322790009025072343e-03,-1.273246381021231333e-02,5.976863398975660463e-03,-5.930776707828044891e-03,-2.894990281441691682e-01,-1.424034651327007461e-01,-1.360419797027031530e-01,-2.501203942009695702e-02,-1.639546215990409506e-01,-1.613346948924913038e-01,-5.124017000198364397e-02,-1.670484066009521318e-01,-1.464106321334838756e-01,5.246362323513706905e-01,-1.040512919425964355e-01,-6.479946374893188477e-01,1.138150143288583820e+02,1.104333639144897405e-01
2.252022000000000190e+00,1.567949868952762948e-02,1.197243073237193589e-01,9.147287607192993164e-01,5.304935045614953860e-03,-3.061185436694202622e-03,-7.809329112866299043e-03,-1.013408083405725616e-03,1.330599494681773166e-02,-1.391370221972465515e-02,-3.602672750743791674e-01,-3.961359397677890332e-02,-9.983397621127595989e-02,1.562494442724280952e-01,-4.323605642337666893e-02,-2.165233599427079103e-01,7.917551994323730746e-02,-4.279507398605346402e-02,-1.946572780609130693e-01,5.230552994813734147e-01,-2.288143634796142578e-01,-5.279206037521362305e-01,1.014796790274370153e+02,1.104333639144897405e-01
2.272682999999999787e+00,1.490303382497629864e-02,1.200291900258745048e-01,9.141932129859924316e-01,-6.318851742167215600e-04,-3.704295112890720887e-03,-9.803821601214977866e-03,1.037846287205138399e-03,1.609886052959718164e-02,-8.701626211404800415e-03,-2.914361591216732550e-01,3.314874094121902232e-02,-1.248707497000944855e-01,2.996156454086303933e-01,1.866235122048294226e-01,-2.375329183633399233e-01,1.996156454086303600e-01,1.918318212032318060e-01,-2.100990772247314509e-01,5.200728688241520459e-01,-3.764227628707885742e-01,-9.680134057998657227e-01,9.953608722740736425e+01,1.104333639144897405e-01
2.299344000000000054e+00,1.379050874024907898e-02,1.205585782448791027e-01,9.133965373039245605e-01,-8.688473549470523277e-03,-2.252314452891202023e-03,-1.021225280721167923e-02,-1.417686933944704646e-04,1.281789764046702487e-02,3.735472564585506916e-04,-2.504216746472587851e-01,1.013865142551673565e-01,1.812286487737689231e-02,3.159384250640869252e-01,2.179799018890604401e-01,-2.439079304290150407e-01,2.159384250640869196e-01,2.154481887817382701e-01,-2.153079986572265514e-01,5.167142435516978161e-01,-5.286733508110046387e-01,-1.435821175575256348e+00,1.362826962073727088e+02,1.104333639144897405e-01
2.325339000000000045e+00,1.308584493424705571e-02,1.209074302234568743e-01,9.130493998527526855e-01,-1.179096078215028688e-02,-6.746047982650882346e-04,-9.493475928608828204e-03,-1.610138634514879765e-03,1.878048000636070927e-02,-1.283840974792838097e-04,-8.033361287781773385e-02,8.611534648549508397e-02,5.389156093735304742e-02,3.039253473281860463e-01,2.263409468389487866e-01,-2.093687887112652690e-01,2.039253473281860407e-01,2.148613214492797741e-01,-1.827709436416626032e-01,5.165215248916493751e-01,-5.470001101493835449e-01,-1.119250893592834473e+00,-1.159621457661544213e+02,1.104333639144897405e-01
2.353245999999999949e+00,1.253892118957198112e-02,1.208241029574059905e-01,9.128711223602294922e-01,-1.236948706482156150e-02,4.106091807307699071e-04,-8.324411345088555264e-03,3.507965494995468267e-03,1.188450016238026645e-02,1.931035891175270081e-02,3.406303103465906784e-02,4.491601097489945904e-02,7.772503414541657996e-02,2.688712358474731334e-01,2.031410244373506591e-01,-3.734864327135719447e-02,1.688712358474731279e-01,1.805101096630096491e-01,-1.401636600494384800e-02,5.227007560939815889e-01,-1.409057378768920898e-01,-9.601529836654663086e-01,-1.120020225759485442e+02,1.104333639144897405e-01
2.377170000000000005e+00,1.193405349081331883e-02,1.206886343758473978e-01,9.129127860069274902e-01,-1.029762194811207308e-02,-1.013956808342264537e-04,-6.714720648631058129e-03,-1.730707370712445542e-02,5.038792052797347494e-03,2.863706834614276886e-02,1.514940398120684650e-01,-8.365996710356429777e-02,8.009155858195023125e-02,2.676558375358581432e-01,-3.347754949153389920e-02,-1.660794332479296198e-01,1.676558375358581376e-01,-3.564848899841308733e-02,-1.472747325897216797e-01,5.243221604627534838e-01,-1.861900091171264648e-02,-3.705481290817260742e-01,-1.324358653649298390e+02,1.104333639144897405e-01
2.403319000000000205e+00,1.128524727386732637e-02,1.205119740393009037e-01,9.130970835685729980e-01,-5.820661881026738087e-03,-2.395788993065472994e-03,-4.624424228247124569e-03,-1.157258874125953810e-02,1.616874703458950208e-02,2.846834994852542877e-02,2.344404591738384336e-01,-1.173426337366000882e-01,1.320364569967941992e-01,2.641987562179565208e-01,-5.635654028847725955e-02,-1.590749858635450709e-01,1.641987562179565430e-01,-5.070916414260864119e-02,-1.461408019065856823e-01,5.240731550400051786e-01,-3.550493717193603516e-02,-7.317100763320922852e-01,1.369128357998197600e+02,1.104333639144897405e-01
2.431744999999999823e+00,1.056327380863638157e-02,1.203331154485615673e-01,9.134130477905273438e-01,8.202897273005558328e-05,-6.114659580904069358e-03,-2.793184198828708477e-03,-1.203851550612804189e-02,1.116911557687475312e-02,3.636794909834861755e-02,3.311927742285755705e-01,-2.004087511232716945e-01,6.560330481946163861e-02,2.840336561203002930e-01,-1.410992940832696274e-01,-1.631268126710435085e-01,1.840336561203002874e-01,-1.098196506500244141e-01,-1.554228544235229381e-01,5.240329016978567678e-01,-7.490813732147216797e-03,-6.584414243698120117e-01,1.189829881718893176e+02,1.104333639144897405e-01
