timestamp,x,y,z,roll,pitch,yaw,vx,vy,vz,p,q,r,psp,qsp,rsp,pres,qres,rres,thrust_sp, thrust_res
0.000000000000000000e+00,-2.075966727749622986e-02,5.175840073095980265e-02,1.000899434089660645e+00,2.170493168489704555e-02,-5.293670729317634382e-03,1.837957476928941958e-04,1.794645304575788469e-02,1.831226057712201025e-02,-8.129369467496871948e-03,-2.232338800585401475e-02,3.119191168313921458e-02,-2.373052308511090086e-02,-1.505121982844416229e-01,1.962545209117065870e-01,1.990960086609490920e-01,-5.680989708573247476e-02,2.291841088992226660e-01,1.983757155200881750e-01,5.005006072660940220e-01,-6.344779133796691895e-01
2.698199999999999904e-02,-2.077255702697914860e-02,5.342473391304936731e-02,1.000418066978454590e+00,2.187554880954655639e-02,-5.577174108943649955e-03,4.858585552924843398e-04,1.957357049970124413e-02,2.436654638918571078e-02,-9.918217547237873077e-03,3.881339270404682990e-02,-3.928717154223645286e-02,4.905493619688895690e-02,-3.125889682445187612e-01,1.841686275204594825e-01,-1.553974182809484961e-01,-2.212499064580297770e-01,2.202574634141896970e-01,-1.569887408932837403e-01,5.013508576535039563e-01,-5.994283556938171387e-01
6.046499999999999792e-02,-2.078738180687372816e-02,5.502748191471445310e-02,9.999861717224121094e-01,2.206196622897764470e-02,-5.709090538816852245e-03,1.031883911786213304e-04,6.714711688009661339e-03,1.379031039400236205e-02,-5.576748866587877274e-03,8.403886145576251743e-03,-4.884100150816911984e-02,-6.542167859017249121e-02,-3.256071034308526402e-01,1.734428657096112603e-01,-2.265111159279221964e-01,-2.256071034308526624e-01,2.210764315919608869e-01,-2.270938448385000086e-01,5.055207784938452464e-01,-3.647330999374389648e-01
7.876600000000000268e-02,-2.077412336218538436e-02,5.577167873508671186e-02,9.997538924217224121e-01,2.214341288011611661e-02,-5.844680386444478515e-03,1.906418056722980481e-04,1.158795141413375591e-02,1.498369280731150395e-02,-2.317797392606735229e-03,5.770201403466751477e-02,-9.799059943858606445e-03,-3.482936148566635748e-02,-3.242426667890401237e-01,1.795382287633790486e-01,-2.265089878344966334e-01,-2.263066368997186384e-01,2.222516573227385217e-01,-2.273116226973423415e-01,5.035867793147558169e-01,-4.548770189285278320e-01
1.046710000000000002e-01,-2.075958888877860870e-02,5.722477476660765144e-02,9.993506669998168945e-01,2.210719747786367081e-02,-6.552840230083623041e-03,3.063699159979726971e-04,2.290949476581378985e-02,1.519500110664329454e-02,-1.031830348074436188e-02,-6.114919103899108671e-02,-2.338746236262566336e-02,3.404495632789425463e-02,1.025706675743755930e-01,1.853325999442718697e-01,2.144167519451596060e-01,1.992038048221460578e-01,2.242149291000884170e-01,2.133131008941745732e-01,5.026660694269226015e-01,-5.370591878890991211e-01
1.261309999999999931e-01,-2.077255917294985182e-02,5.792327251087590889e-02,9.991447329521179199e-01,2.192333935390427743e-02,-6.934593516995768425e-03,5.716978055509969181e-04,1.673422595076311942e-02,1.721721562514740012e-02,-7.064758334308862686e-03,-4.843727052653046955e-02,-5.327017429436451540e-02,-8.798447753500361970e-03,5.333925088937709058e-02,1.731373912644404434e-01,1.855839796574391132e-01,1.464460737411955038e-01,2.211376807919416820e-01,1.836779306731418648e-01,4.999754291532646500e-01,-6.665696501731872559e-01
1.518549999999999900e-01,-2.060160542009836088e-02,5.948827514039936593e-02,9.985962510108947754e-01,1.980312441597561340e-02,-7.767309173685843504e-03,2.143186315687772847e-03,3.423313658612859006e-03,2.763287383136689770e-02,-2.593670971691608429e-02,-1.246930639871323965e-01,-3.360976884744812376e-02,1.144202604538851059e-01,1.302878791917313761e-01,1.608997525345794155e-01,2.202692825157308021e-01,2.004896625131381283e-01,2.239022055218895801e-01,2.138771324913431027e-01,5.094344018738277136e-01,-2.462483644485473633e-01
1.775799999999999879e-01,-2.033169642505415486e-02,6.120859002257710707e-02,9.978665709495544434e-01,1.601425780569858820e-02,-9.416703048611418936e-03,3.865805155669255200e-03,1.804725871310297375e-04,2.222139728792558652e-02,-2.687842585146427155e-02,-2.279568622222588326e-01,-8.683577280791730801e-02,5.650776739358799594e-02,1.627554316329517248e-01,1.407034396279163158e-01,2.313834954087544693e-01,2.128620893876871645e-01,2.148811928684797035e-01,2.201702260075654727e-01,5.051935271414200734e-01,-4.786505699157714844e-01
2.009259999999999935e-01,-2.011585863066126662e-02,6.292186240649888518e-02,9.969962239265441895e-01,1.046923930978827834e-02,-1.177590184280163932e-02,6.245465851611342600e-03,1.254603967211327491e-02,3.610909861251360153e-02,-4.704662784934043884e-02,-3.216640322282648401e-01,-6.662914347999683573e-02,1.124759430645523167e-01,2.135540872794260137e-01,1.118192362666609041e-01,2.403362962978761730e-01,2.146815233886194829e-01,1.906519042594763125e-01,2.224955250361306813e-01,5.111638040012209672e-01,-2.481561899185180664e-01
2.234609999999999930e-01,-1.988774298034318155e-02,6.453623542737188523e-02,9.959861040115356445e-01,5.734941522376591980e-03,-1.538042396040850690e-02,6.421396403429424637e-03,6.880430657831444578e-03,2.147656414957697241e-02,-3.586288914084434509e-02,-1.666179578044860721e-01,-2.650605376207003649e-01,-4.428953688578627507e-02,2.163369635252468670e-01,9.712469067385345878e-02,2.093673944411920118e-01,1.989706811918015850e-01,1.971246906738534643e-01,1.910562732785981432e-01,5.061442992066951252e-01,-4.758673906326293945e-01
2.505290000000000017e-01,-1.956232537451954578e-02,6.665891290636308253e-02,9.942916631698608398e-01,1.608138285553024644e-03,-2.106378504350781000e-02,4.572236430249176919e-03,6.354623361910758522e-03,1.902819006885773587e-02,-4.894929751753807068e-02,-1.051500256912546588e-01,-1.672164663755686675e-01,-1.223422198671124950e-01,2.489637412785996040e-01,1.120948679000964288e-01,1.500334148161933945e-01,2.031818943510423081e-01,2.120948679000964343e-01,1.369104283830277768e-01,5.053887074565465154e-01,-5.769187808036804199e-01
2.730850000000000222e-01,-1.940058385032929558e-02,6.836151342620395976e-02,9.929352402687072754e-01,1.229648871800875483e-03,-2.556395037035108508e-02,2.925589660160987648e-03,1.063708866473858650e-02,2.448922625167158224e-02,-6.209994852542877197e-02,1.923745807387895052e-02,-2.304707860751509518e-01,-5.127866634885598629e-02,2.405831319258389112e-01,-2.645573846931925655e-03,1.477271961083720386e-01,1.864560642401194290e-01,9.735442615306807990e-02,1.391386215791995951e-01,5.225176781285028049e-01,2.779080867767333984e-01
2.983210000000000028e-01,-1.926553344818775215e-02,7.001572907982175908e-02,9.914318323135375977e-01,2.260011936133976898e-03,-2.933797131296644878e-02,7.918182576378551829e-04,-8.736423013955982309e-03,1.586882581825915794e-02,-6.928391754627227783e-02,6.623430853966653931e-02,-2.299127410239011349e-01,-1.165355481775733476e-01,-1.303562648061570295e-01,-4.139036814485180793e-02,-4.227873011098588069e-02,-1.714268898416069220e-01,5.860963185514819762e-02,-4.498931759453151519e-02,5.305505359988321734e-01,6.773538589477539062e-01
3.262309999999999932e-01,-1.919514921900965926e-02,7.232491667038304373e-02,9.887978434562683105e-01,5.496938914933494243e-03,-3.475028017980363870e-02,-2.409867526328435261e-03,-4.089802008462864111e-03,2.209989727190407940e-02,-7.967396825551986694e-02,1.290113238120167427e-01,-1.296674019348411921e-01,-8.979346165727847273e-02,-1.895954239811037945e-01,1.036407304885167691e-01,-2.190000445145985075e-01,-2.174801194564238149e-01,2.036407304885167746e-01,-2.130431572931298645e-01,5.323193183678278650e-01,7.182648181915283203e-01
3.490639999999999854e-01,-1.928708908119974169e-02,7.379090117013116512e-02,9.868361353874206543e-01,8.539593083673861079e-03,-3.781875811093549089e-02,-4.802003525072873202e-03,-4.649362753878495853e-03,1.655364105463954377e-02,-9.468322992324829102e-02,1.385959214014448049e-01,-1.734548198494550997e-01,-1.022330206647311529e-01,-2.113386876644994250e-01,-1.357878061623468413e-01,-2.236493809897331098e-01,-2.152573198992340786e-01,-3.578780616234682882e-02,-2.111994830729961581e-01,5.341040972207270476e-01,7.441225051879882812e-01
3.767860000000000098e-01,-1.936003097629210648e-02,7.583841406079115666e-02,9.835343360900878906e-01,1.466010537995993991e-02,-4.175791345804236165e-02,-7.883724264717173469e-03,-2.451130268409393645e-02,1.952401964888331870e-02,-1.070267111063003540e-01,2.458322972503435289e-01,-9.698236032689699915e-02,-7.405768490021436001e-02,-2.468712242012402469e-01,1.147067110818033031e-01,-2.345120859097399590e-01,-2.155835017537274245e-01,2.147067110818033087e-01,-2.140364072846781818e-01,5.342734148024887997e-01,6.851992607116699219e-01
4.041009999999999880e-01,-1.932370732618337791e-02,7.707247212756460075e-02,9.811559319496154785e-01,1.931930507689360449e-02,-4.362897259581410836e-02,-9.982362206183648112e-03,-2.274527003231022887e-02,1.872917589108749961e-02,-1.127231866121292114e-01,1.967061822118481296e-01,-9.202378406968308999e-02,-1.176226885646545900e-01,-2.771906477427767967e-01,6.116760888947697650e-02,-2.379520786867300453e-01,-2.156670671691268137e-01,1.611676088894769820e-01,-2.119558420290408585e-01,5.355641583771105774e-01,7.179608345031738281e-01
4.226989999999999914e-01,-1.936390924756494283e-02,7.767391508909689268e-02,9.799053668975830078e-01,2.158653441639199130e-02,-4.435879348241145159e-02,-1.063304333133352486e-02,-2.075160375038222205e-02,1.757812995911076093e-02,-1.173467338085174561e-01,2.214871578293146626e-01,-7.235112763291735860e-02,-6.050546923304717106e-02,-2.910554307281446595e-01,1.152742069269398761e-01,-2.446545655517036733e-01,-2.146529132848708221e-01,2.152742069269398817e-01,-2.170112988043883528e-01,5.354328756571657966e-01,6.806570291519165039e-01
4.516129999999999867e-01,-1.966484182168666203e-02,7.953261913401682426e-02,9.760181307792663574e-01,2.540805922956176910e-02,-4.462301491098918937e-02,-1.109733214440455917e-02,-4.222717361360123212e-02,2.465160113154398272e-02,-1.293136477470397949e-01,3.946776551127687688e-02,6.990952978600173048e-03,7.530937443929120595e-03,-3.085619804166774838e-01,1.186664481424147544e-01,-2.309650362511188881e-01,-2.141200528823144211e-01,2.186664481424147599e-01,-2.025011500954393140e-01,5.307580228065773564e-01,3.527802228927612305e-01
4.756670000000000065e-01,-2.009104126274508309e-02,8.082066445124271026e-02,9.734060764312744141e-01,2.538310675403923980e-02,-4.406193575964167941e-02,-9.934708295795013910e-03,-4.094613028902371193e-02,3.429807185086618249e-02,-1.313762664794921875e-01,-2.015178304903924439e-02,4.703817870284306840e-02,6.425678107013009510e-02,-1.597274256111021751e-01,7.411888265633628792e-02,1.879097278604406340e-01,-7.298718257388561725e-02,1.741188826563362935e-01,2.130960636816615628e-01,5.336760661479371670e-01,4.865291118621826172e-01
4.992909999999999848e-01,-2.041183359108725628e-02,8.199696459504557389e-02,9.708163738250732422e-01,2.322802525960881298e-02,-4.288174739420425041e-02,-8.510459220240518263e-03,-5.155128698211243476e-02,2.942972100377055922e-02,-1.149406880140304565e-01,-1.476047153451013061e-01,5.918475874468896725e-02,6.533570660040301237e-02,1.214673765755379803e-01,-2.768802555545145649e-01,1.946270514306222554e-01,1.981938357485163449e-01,-1.768802555545145316e-01,2.160111767538413496e-01,5.147008766323146745e-01,-4.960926175117492676e-01
5.243160000000000043e-01,-2.069087182163410407e-02,8.301769764638887439e-02,9.683085083961486816e-01,1.934382437796143897e-02,-4.153593746460360059e-02,-6.484808527599472683e-03,-6.043303655143845293e-02,4.232772370759355779e-02,-1.282041668891906738e-01,-2.222486294755463831e-01,6.731721389503245168e-02,1.162002684020779913e-01,1.583859132816756721e-01,-2.687327230045445381e-01,1.699798228795255384e-01,1.985164361190553672e-01,-1.687327230045445048e-01,1.858656704624243317e-01,5.182429776463074456e-01,-3.768310546875000000e-01
5.530720000000000081e-01,-2.191933416300197515e-02,8.506482479654327300e-02,9.638300538063049316e-01,9.917470659323074714e-03,-4.192167264022828022e-02,-1.836791004464766175e-03,-7.577522559669289115e-02,3.667103826427130925e-02,-1.043972969055175781e-01,-3.196262035799386503e-01,-2.662284144965933186e-02,7.290370401602805361e-02,2.197775602528940775e-01,-2.859719675540677297e-01,2.005125031909436861e-01,2.030222919426486750e-01,-1.859719675540676964e-01,2.040214337871454620e-01,5.136814676155383452e-01,-5.522610545158386230e-01
5.767999999999999794e-01,-2.282632335481227237e-02,8.605426343017186230e-02,9.619020223617553711e-01,4.563906722723783116e-03,-4.331913771269357838e-02,9.748997404910308973e-04,-7.748178884697262681e-02,4.591119929975141789e-02,-1.012779250741004944e-01,-2.594253208681960854e-01,-8.646222404537209916e-02,1.654411317457229191e-01,2.648751302473291158e-01,-2.872861816777069199e-01,1.712112280283246413e-01,2.043285647962846674e-01,-1.872861816777069421e-01,1.671015559950396467e-01,5.152484132522751059e-01,-4.710259437561035156e-01
6.003230000000000510e-01,-2.394645289351458178e-02,8.711616691199090823e-02,9.601247906684875488e-01,-1.500536917858039370e-03,-4.506901984154088048e-02,3.160047745285110565e-03,-1.020918143050275340e-01,3.458715683815693359e-02,-8.287542313337326050e-02,-2.774472465682335520e-01,-1.064290515911470864e-01,4.620900344319011505e-02,2.986202322081392690e-01,-2.941982321274608791e-01,1.857434692520008868e-01,2.074702617899448487e-01,-1.941982321274608736e-01,1.759963709409884947e-01,5.122744046504218440e-01,-5.707737207412719727e-01
6.232659999999999867e-01,-2.507363781558998722e-02,8.857574580811551634e-02,9.585309028625488281e-01,-7.681538401339130240e-03,-4.659972922256594430e-02,3.734084702297968406e-03,-8.556238572373746354e-02,4.228956351426301635e-02,-8.987506479024887085e-02,-3.465018786162188391e-01,-7.081719236095199155e-02,-1.447891168537275564e-02,3.135246812255665372e-01,-2.845746012271347380e-01,1.970046889136750079e-01,2.135246812255665594e-01,-1.845746012271347325e-01,1.860528645810219928e-01,5.194421795641432915e-01,-2.267959117889404297e-01
6.547549999999999759e-01,-2.763156628719173197e-02,9.135961433176942315e-02,9.556217193603515625e-01,-1.558961568600196121e-02,-4.782977586488179611e-02,1.226338882449828915e-03,-1.081014764266462064e-01,4.263054749736903265e-02,-8.318348973989486694e-02,-1.091552595857973040e-01,1.642002460717891660e-02,-6.113243784797801894e-02,3.136889417079776754e-01,-2.955421489336307883e-01,2.256512897841722598e-01,2.136889417079776421e-01,-1.955421489336307828e-01,2.223494430435077884e-01,5.230956621949951479e-01,-2.159285545349121094e-02
6.732190000000000119e-01,-2.834643057408244710e-02,9.203531559172312138e-02,9.549467563629150391e-01,-1.598651859126655819e-02,-4.707448557150417656e-02,1.706294564163268745e-04,-1.051298547390528415e-01,3.542631764624423751e-02,-7.470993697643280029e-02,-4.014233829704717815e-02,4.922237082263402480e-02,-1.332433442206700513e-01,2.960806072015312873e-01,-2.845298843364049146e-01,2.068054853656426106e-01,1.960806072015313095e-01,-1.845298843364049368e-01,2.065512396130656236e-01,5.154614591750527053e-01,-4.078187942504882812e-01
7.012209999999999832e-01,-3.152404242840105980e-02,9.446143307875845552e-02,9.521301388740539551e-01,-1.221592600290224463e-02,-3.944438668424088412e-02,-3.815988716380003254e-03,-1.010680501361784500e-01,4.108850279110044801e-02,-8.134751766920089722e-02,1.577206161942766582e-01,2.174299471342827916e-01,-1.041354041011014891e-01,2.775521757211895091e-01,-2.735357016402524266e-01,2.159511413292115600e-01,1.775521757211895035e-01,-1.735357016402524488e-01,2.264689441883207532e-01,5.330540059677664200e-01,5.032186508178710938e-01
7.245869999999999811e-01,-3.360752191917268372e-02,9.554840762567248791e-02,9.506790041923522949e-01,-7.956136284236138903e-03,-3.381597867223251619e-02,-5.935606539532178871e-03,-1.114498484872507161e-01,4.101517330406333900e-02,-8.948767930269241333e-02,2.628644474412527021e-01,2.841004512697344331e-01,-7.957171118726290293e-02,1.002232391018233193e-01,-2.218991249102926222e-01,2.076091213409238523e-01,2.232391018233123635e-04,-1.218991249102926305e-01,2.237828247182024888e-01,5.339116327563391273e-01,5.051701068878173828e-01
7.476390000000000535e-01,-3.576226465435006219e-02,9.657583260757388044e-02,9.491249322891235352e-01,-2.971728122418001820e-03,-2.766016282411043470e-02,-8.102842388536091178e-03,-1.047245014029273974e-01,4.736527301209505353e-02,-9.384071081876754761e-02,2.267824615458462756e-01,3.319959585856503970e-01,-1.204900086872948833e-01,2.292052835130073685e-01,-1.287778966906541755e-01,2.075879295785481859e-01,1.292052835130073629e-01,-2.877789669065417000e-02,2.295469417752114827e-01,5.353069507022221174e-01,5.514719486236572266e-01
7.751419999999999977e-01,-3.906683201423832158e-02,9.814074612543005616e-02,9.466464519500732422e-01,6.441956945440973324e-03,-1.867410238651046051e-02,-1.148069118740857597e-02,-1.061246374343138982e-01,4.765781279499019946e-02,-1.007001847028732300e-01,3.351022067510200930e-01,2.761646961504422570e-01,-7.252162005475759621e-02,-1.543613645207176088e-01,1.250089687159475771e-01,-2.461012273235666237e-01,-2.123348785372688174e-01,2.250089687159475826e-01,-2.149878132444446310e-01,5.363977437776712431e-01,5.669118165969848633e-01
7.998110000000000497e-01,-4.130806093023312725e-02,9.916274055813853461e-02,9.448924660682678223e-01,1.340280550424220035e-02,-1.214514950385359171e-02,-1.441000240422929402e-02,-1.209397690151476079e-01,3.880918892188570807e-02,-9.813410043716430664e-02,3.645927247051107822e-01,2.915436043342063410e-01,-1.875490195634315349e-01,-2.137457888187983268e-01,1.267841038383936414e-01,-2.644258012145617731e-01,-2.202232596725727798e-01,2.267841038383936469e-01,-2.252215743071221410e-01,5.388441315135897858e-01,6.975576877593994141e-01
8.277520000000000433e-01,-4.461193860370288311e-02,1.003196308806864195e-01,9.422487616539001465e-01,2.338041953751652732e-02,-2.032514618466541023e-03,-1.792107300927359148e-02,-1.085138395720362942e-01,4.387782015222535525e-02,-1.132130026817321777e-01,2.848991149949624546e-01,3.403573482194883759e-01,-9.187676484628670703e-02,-2.694864032963270040e-01,1.261636160486078184e-01,-2.667020458485865886e-01,-2.166648294960409060e-01,2.261636160486078240e-01,-2.174870340231709054e-01,5.399974829191745984e-01,6.832008361816406250e-01
8.506749999999999590e-01,-4.680310525264069071e-02,1.010633726263960724e-01,9.404188394546508789e-01,3.006962766790098954e-02,4.190991175831770832e-03,-2.061212614699869938e-02,-1.042009648838789770e-01,4.237540648712499053e-02,-1.142522096633911133e-01,3.642873320155816663e-01,2.981354905822299339e-01,-1.627427412648439764e-01,-3.203385880925235796e-01,1.495514108580053847e-01,-2.829379119661401543e-01,-2.225961824017072543e-01,2.256497506149919563e-01,-2.259614415108522067e-01,5.399795429090171739e-01,6.622138023376464844e-01
8.728890000000000260e-01,-4.996197472853416977e-02,1.020525502560717113e-01,9.377852678298950195e-01,3.856836994096025928e-02,1.343810597446770672e-02,-2.469469287185432904e-02,-1.053786401169602288e-01,3.491317200207325055e-02,-1.089928671717643738e-01,2.440543168570441512e-01,2.383891922340958813e-01,-1.528491165591010226e-01,-3.238516184683719601e-01,2.047395290632676168e-01,-2.875438652851110000e-01,-2.238516184683719823e-01,2.253789498265640068e-01,-2.186313400491013137e-01,5.404123358208003935e-01,6.880900859832763672e-01
8.999380000000000157e-01,-5.306830213619214559e-02,1.028773428854121291e-01,9.353188872337341309e-01,4.542507230150574782e-02,2.104859811403647640e-02,-2.737251719654487658e-02,-1.116891063608745627e-01,2.866317397497181174e-02,-1.057982444763183594e-01,1.789346743923476424e-01,2.421218940844870604e-01,1.005700140553550566e-03,-3.242200365788527883e-01,2.454577840578311965e-01,-3.014210024960785050e-01,-2.242200365788528105e-01,2.242572463995705923e-01,-2.245068557250611552e-01,5.391780567805073421e-01,6.136682033538818359e-01
9.229749999999999899e-01,-5.583420663841738574e-02,1.032589276366559505e-01,9.338354468345642090e-01,4.807431797098386805e-02,2.375725598332834032e-02,-2.665512781161516465e-02,-9.305491882168995255e-02,3.976750621146876025e-02,-9.789400547742843628e-02,1.082964968303655184e-01,1.006925522027459774e-01,5.046026010432010100e-02,-3.257786190708128471e-01,2.747602713233835980e-01,-3.054167922912989219e-01,-2.257786190708128138e-01,2.232183160064657168e-01,-2.300726422986047737e-01,5.323061578769474611e-01,2.515605688095092773e-01
9.517609999999999681e-01,-5.991637023890896557e-02,1.037719114805178283e-01,9.319229125976562500e-01,4.794020766627399288e-02,2.496126841688361964e-02,-2.414878421150690180e-02,-1.043767422478613510e-01,3.151709350120182607e-02,-7.257461547851562500e-02,-4.274150426981927070e-02,-4.300709906335394017e-02,1.154671383176083393e-01,-3.116604797306758989e-01,2.834055524844398821e-01,7.422601112925680811e-02,-2.116604797306758656e-01,2.384037238308434892e-01,1.424472892284633918e-01,5.150428998855366425e-01,-5.998149514198303223e-01
9.758639999999999537e-01,-6.253806001141648530e-02,1.041005922433415470e-01,9.309111237525939941e-01,4.507271720482951965e-02,2.425727720196113602e-02,-2.234429625517520002e-02,-1.025761647184056935e-01,2.761303207703101267e-02,-7.460558414459228516e-02,-1.885912894819709307e-01,-3.513125716403569382e-02,6.239588639520161212e-02,-2.917327116497424599e-01,2.798814976997859305e-01,1.222740196404462909e-01,-1.917327116497424266e-01,2.381250026579116996e-01,1.853715564872901733e-01,5.144324344642767777e-01,-6.515963077545166016e-01
1.001243000000000105e+00,-6.504755767402899125e-02,1.043340399403420993e-01,9.300250411033630371e-01,4.038885961777249206e-02,2.274483894556666996e-02,-1.952659231373399251e-02,-9.241918472105047078e-02,1.882234528750618627e-02,-7.226944714784622192e-02,-2.797388828695585028e-01,-7.361168166283561798e-02,1.812189306364601349e-01,-1.279800389279392991e-01,2.725495616246825792e-01,1.517182443777556899e-01,-2.798003892793930053e-02,2.344732108780943625e-01,2.068336986930783550e-01,5.169732328293206169e-01,-5.162965059280395508e-01
1.028375000000000039e+00,-6.899255342744080310e-02,1.047106579725636949e-01,9.291360378265380859e-01,3.152655454452968353e-02,1.870874541840916727e-02,-1.539045444668318829e-02,-8.608091617418653363e-02,2.873021158680625839e-02,-5.810710415244102478e-02,-3.438087351670278125e-01,-1.495621460599743380e-01,2.180272562218809607e-01,1.163528303412373344e-01,2.402788366890119542e-01,1.665796716944595857e-01,2.163528303412373399e-01,2.275484262331718688e-01,2.098011780746831811e-01,5.159459284569609672e-01,-5.258185863494873047e-01
1.049125000000000085e+00,-7.030234895204959256e-02,1.048537266613878138e-01,9.290043115615844727e-01,2.836562193075705882e-02,1.671746887474911958e-02,-1.418609269369541792e-02,-8.504607293051943961e-02,1.339604360203106199e-02,-4.422972351312637329e-02,-3.346154711398040549e-01,-2.481942265909770351e-01,1.144763608413605638e-01,1.063603678144800779e-01,2.251538429597811919e-01,1.694739457009259431e-01,2.063603678144800835e-01,2.267234246082981963e-01,2.091802999134672048e-01,5.139195777437784995e-01,-5.853397250175476074e-01
1.083897000000000110e+00,-7.536322885003768346e-02,1.052409391336099204e-01,9.288570880889892578e-01,1.424930843751194207e-02,7.937587766683407153e-03,-8.182741983178587475e-03,-7.264166821477049951e-02,2.621453505896113867e-02,-2.484242431819438934e-02,-3.375706935224934147e-01,-2.024020113959053013e-01,6.005043662806597987e-02,2.239864178548144347e-01,1.642836555410338573e-01,1.925783121046331925e-01,2.182452592638418620e-01,2.166788474885463778e-01,2.151580181985487672e-01,5.119748620301229902e-01,-6.182077527046203613e-01
1.111992000000000091e+00,-7.769073992958795694e-02,1.053680830422917547e-01,9.290607571601867676e-01,6.938586211518517170e-03,2.378866893094411239e-03,-7.184937855808426477e-03,-7.897354454937241530e-02,6.585937196154895319e-03,-2.031340077519416809e-02,-3.635618887328707083e-01,-3.070527324235181044e-01,2.440629864420326006e-02,2.510786407433092671e-01,1.119363382291345133e-01,1.955038707757950356e-01,2.143249695721461123e-01,2.089395670796845295e-01,2.152118171394328539e-01,5.110340936872110884e-01,-6.539363265037536621e-01
1.135024999999999951e+00,-8.041807714801642304e-02,1.057075504173727309e-01,9.293151497840881348e-01,-3.759536301273786255e-03,-6.005895727706711540e-03,-7.566389840509613052e-03,-7.808569260179672178e-02,1.840960308155059275e-02,-2.928771637380123138e-02,-3.851508490647889693e-01,-2.689159252899891994e-01,-1.735341950312843315e-02,3.166370880732271575e-01,-2.864315708244979941e-02,1.852148362770733858e-01,2.166370880732271520e-01,7.135684291755020614e-02,2.060464552234132218e-01,5.123275461476115566e-01,-6.249709725379943848e-01
1.154711999999999961e+00,-8.193283240458155980e-02,1.060024496895133339e-01,9.294623732566833496e-01,-9.685944513097542036e-03,-1.206443188294281654e-02,-8.388787132663555468e-03,-7.090115371511952758e-02,1.684084255690421195e-02,-2.456646040081977844e-02,-2.504391259575561302e-01,-2.898091498150618950e-01,-8.844363081230001422e-02,3.134058073259540222e-01,-2.003650735416385720e-01,1.751937641854069416e-01,2.134058073259540445e-01,-1.003650735416385525e-01,1.984980323666857838e-01,5.110830754373562046e-01,-6.765186786651611328e-01
1.179372000000000087e+00,-8.346859025589266345e-02,1.063054223359420208e-01,9.296221733093261719e-01,-1.416216919219095115e-02,-1.805949179693477902e-02,-9.560874029343136016e-03,-6.496237583918131053e-02,1.463663575902285699e-02,-2.470616437494754791e-02,-2.226379207219675027e-01,-3.223128395662788193e-01,-4.643465628458848249e-02,3.132097368600572640e-01,-2.781088863265229749e-01,1.646119418095823850e-01,2.132097368600572307e-01,-1.781088863265229694e-01,1.913842585288749176e-01,5.113072557524600548e-01,-6.691211462020874023e-01
1.198816000000000104e+00,-8.496091298045001239e-02,1.065844298732654960e-01,9.297036528587341309e-01,-1.584128348061863631e-02,-2.371267365921392312e-02,-1.104110338843433681e-02,-7.577353609046975913e-02,1.867559452139298110e-02,-1.724744215607643127e-02,-9.132340721110807427e-03,-2.543202083448310447e-01,-9.977327421913716188e-02,3.120867021532550689e-01,-3.241734919786098956e-01,6.737362694907461647e-02,2.120867021532550634e-01,-2.241734919786098901e-01,9.835132538348850817e-02,5.100356142742948906e-01,-7.120502591133117676e-01
1.226699999999999902e+00,-8.799242033730107770e-02,1.072055022716790901e-01,9.296678900718688965e-01,-1.535197484364836905e-02,-3.390514842701231046e-02,-1.426636689488991472e-02,-6.165114649206531600e-02,2.623385525202695523e-02,-3.259125724434852600e-02,7.712970904101057457e-02,-2.343499566824083502e-01,-1.116595927990355341e-01,3.029172143576986942e-01,-3.248967233042809322e-01,3.240944533561734842e-02,2.029172143576986886e-01,-2.248967233042809266e-01,7.233220722695482552e-02,5.133147208750656887e-01,-6.029965877532958984e-01
1.249422999999999950e+00,-8.956256869887152527e-02,1.074597735773939328e-01,9.296362400054931641e-01,-1.302099200282401392e-02,-3.785373194377084083e-02,-1.629631424615163304e-02,-7.582758496724521791e-02,3.079117416551213626e-02,-4.142795130610466003e-02,1.118079171306726599e-01,-1.718185190047585298e-01,-8.312256635738554666e-02,2.572715337402659563e-01,-3.206361062820873853e-01,-1.950995535906199785e-02,1.572715337402659508e-01,-2.206361062820874075e-01,2.587451044128316613e-02,5.265523166809794597e-01,6.960749626159667969e-02
1.276432000000000011e+00,-9.185633948137347793e-02,1.079515798609704813e-01,9.292867183685302734e-01,-8.065332517179196747e-03,-4.061008556383649548e-02,-1.952231629646128397e-02,-8.123323899719529784e-02,2.890245403086225129e-02,-4.108900576829910278e-02,1.951375523957621927e-01,-3.686061128335225978e-02,-8.175676011352572825e-02,-1.094298800088997492e-01,-2.062527031746960726e-03,-2.577574064566728884e-01,-2.094298800088997548e-01,9.793747296825304482e-02,-2.037533456840245338e-01,5.269325897476576648e-01,8.453750610351562500e-02
1.300159999999999982e+00,-9.334273893005705369e-02,1.083912092334980010e-01,9.290071129798889160e-01,-3.608520004073248726e-03,-3.980168014637497365e-02,-2.160782878792133488e-02,-6.233782260305586326e-02,2.932585265798990509e-02,-4.474871605634689331e-02,1.924514368485691906e-01,8.477289062185489055e-02,-1.195367716886702042e-01,-8.931291451618955657e-02,2.513673018445741758e-02,-2.277120556167422372e-01,-1.893129145161895621e-01,1.251367301844574231e-01,-1.682069999975600583e-01,5.229455355359545754e-01,-1.528257131576538086e-01
1.323539000000000021e+00,-9.481675446788717654e-02,1.088750128273356377e-01,9.284565448760986328e-01,1.459581660197961563e-03,-3.696214883584403310e-02,-2.326980358467367616e-02,-6.330396034024360352e-02,3.822655494709154000e-02,-5.527504161000251770e-02,3.257741274961422073e-01,1.769418187105966933e-01,-4.861680431742396169e-02,-1.091417013830572325e-01,4.567205872765520147e-02,-2.185120229410706660e-01,-2.091417013830572380e-01,1.456720587276552070e-01,-1.547911238133461154e-01,5.202491462747221851e-01,-3.493137359619140625e-01
1.350498999999999894e+00,-9.662201510304127550e-02,1.099323137324758476e-01,9.275609254837036133e-01,1.033801752197187167e-02,-2.994531461540184125e-02,-2.545991342691644732e-02,-5.933802635530865954e-02,2.818203646158821962e-02,-5.251086503267288208e-02,3.188160168626295032e-01,2.455120889436829545e-01,-9.135171939481084857e-02,-1.747991411135887962e-01,1.029157100974892047e-01,-2.555461568718102039e-01,-2.102950572806830121e-01,2.029157100974892103e-01,-1.860140565038557181e-01,5.232852908066250031e-01,-1.835045218467712402e-01
1.373540999999999901e+00,-9.779983484302232077e-02,1.106896461149747962e-01,9.268211722373962402e-01,1.658271935931724880e-02,-2.353564461732804425e-02,-2.600451575177098462e-02,-6.796891843242035269e-02,4.343357450208700649e-02,-6.510061770677566528e-02,3.445015588660695349e-01,3.505077662645744718e-01,9.203721213326288703e-03,-2.046658386649902184e-01,1.181770888215820103e-01,-2.716148150879666989e-01,-2.129428455332134651e-01,2.181770888215820159e-01,-2.008663530486168858e-01,5.236356214156371314e-01,-2.251759767532348633e-01
1.402754999999999974e+00,-9.995387558569857056e-02,1.122492046979055441e-01,9.250752329826354980e-01,2.752740830740692604e-02,-8.041255647406986284e-03,-2.538113762231697379e-02,-6.364230873024670498e-02,4.802891634234188883e-02,-8.425308018922805786e-02,2.349513186762146599e-01,4.130134651447234795e-01,8.935540747556611207e-02,-2.774374076579873005e-01,1.258883939698069165e-01,-2.937215039322155219e-01,-2.163914341651146933e-01,2.258883939698069221e-01,-2.243657953548935380e-01,5.380560901009939778e-01,4.748847484588623047e-01
1.426660000000000039e+00,-1.009999207238561902e-01,1.132471266202682153e-01,9.241521954536437988e-01,3.197471922439675679e-02,-1.857387292158341197e-03,-2.300692308538776487e-02,-6.725261749809881284e-02,4.633823556042421937e-02,-7.065368443727493286e-02,2.494205922140934617e-01,2.849880672932767478e-01,1.259158083682453688e-01,-3.097498267718282738e-01,1.249529223375275000e-01,-2.878096039670706707e-01,-2.191659877740649853e-01,2.249529223375275055e-01,-2.248820012900846488e-01,5.372452528409676908e-01,4.725210666656494141e-01
1.450866999999999907e+00,-1.019551399092815253e-01,1.143288134084877172e-01,9.232462048530578613e-01,3.463717234284453828e-02,2.309504147901542126e-03,-2.011542142684397128e-02,-6.282426066823226796e-02,4.145681058983920197e-02,-7.106294482946395874e-02,1.159040469751697472e-01,1.527669860858801854e-01,1.469104803536528669e-01,-3.216516605862829170e-01,1.241451321793599627e-01,-2.806174662734756131e-01,-2.216516605862828837e-01,2.241451321793599682e-01,-2.255131770962348348e-01,5.366372866614533832e-01,4.265815019607543945e-01
1.473105000000000109e+00,-1.028606957116307979e-01,1.154652693208657738e-01,9.223802089691162109e-01,3.627366948330491142e-02,5.260929368600120171e-03,-1.687375518252243189e-02,-5.857432508856006553e-02,4.458130598127266198e-02,-7.202582061290740967e-02,1.124633790274646716e-01,1.373404010053957125e-01,1.732853260381312654e-01,-3.233676131099627593e-01,1.360554958960946137e-01,-2.723548539854441231e-01,-2.233676131099627260e-01,2.231775218312629927e-01,-2.261311831973741027e-01,5.339479996290467101e-01,2.633445262908935547e-01
1.500277000000000083e+00,-1.043506646127829035e-01,1.176287134073485119e-01,9.207066297531127930e-01,3.662992798911752362e-02,7.403981243450541427e-03,-1.011737888136776675e-02,-3.683659176667104795e-02,5.104974936781276479e-02,-7.685554772615432739e-02,-8.637358094470100334e-02,4.826534153259631754e-02,2.011973578252907180e-01,-2.231833387318757356e-01,1.739743929707754933e-01,1.310940199459787181e-01,-1.231833387318757439e-01,2.313532913924477019e-01,1.587331093938751658e-01,5.215780278786132929e-01,-4.448320865631103516e-01
1.523751999999999995e+00,-1.049172758137541517e-01,1.187370380000564718e-01,9.197796583175659180e-01,3.462916986394030255e-02,7.400584716171332289e-03,-6.513017494614192771e-03,-3.631899693977896915e-02,4.069881387600036982e-02,-6.996627151966094971e-02,-1.199309027941832390e-01,-5.277585990408376060e-02,1.400591049002869737e-01,9.073673527219233703e-02,1.635271232664131658e-01,1.189076551082116073e-01,1.907367352721923426e-01,2.238761465449092825e-01,1.364571611708039756e-01,5.284167393530518897e-01,-5.685639381408691406e-02
1.551663000000000014e+00,-1.053949765224534985e-01,1.199269825501561165e-01,9.183651208877563477e-01,2.936691740402404618e-02,6.006999695484793733e-03,-6.799340336756110048e-04,-2.049924246779117470e-02,5.189262086235157945e-02,-7.003266364336013794e-02,-2.156940518942775942e-01,-9.018541143616433386e-02,1.803598636777287989e-01,1.523387852743964543e-01,1.655175664351986042e-01,1.766270509959840529e-01,2.122398511527384124e-01,2.226874100867849426e-01,1.779212949595219417e-01,5.298677664491127093e-01,8.946299552917480469e-03
1.574843999999999911e+00,-1.054597522021203521e-01,1.207562843426400606e-01,9.174140691757202148e-01,2.355666454399628698e-02,5.757706058222566980e-03,3.492299613760962984e-03,-1.596729406192162401e-02,5.185319656983575914e-02,-7.429891079664230347e-02,-3.730570406144398943e-01,2.135469116231824595e-03,2.179448061371414835e-01,1.952106684481409171e-01,1.656017887878035999e-01,1.942531664955345072e-01,2.177195438887196133e-01,2.228645920468794173e-01,1.839352378134799515e-01,5.299983713092641935e-01,-1.228302717208862305e-02
1.597874999999999934e+00,-1.053540533214571279e-01,1.216607868151783761e-01,9.165821671485900879e-01,1.756759496172993415e-02,5.482124308111124833e-03,7.891070328098548359e-03,5.305710012063368473e-03,6.708984800326875386e-02,-7.013726234436035156e-02,-2.904742652711446160e-01,-2.202572043253769180e-02,2.375505491691969617e-01,2.465474959487015949e-01,1.837637091593447569e-01,2.051120749678286281e-01,2.169984859772265962e-01,2.268763977856161906e-01,1.826453233327688386e-01,5.312084665645516735e-01,5.932426452636718750e-02
1.627067000000000041e+00,-1.047721614994648887e-01,1.231548345307582615e-01,9.155541062355041504e-01,5.897440560625993866e-03,5.712838960579391667e-03,1.367273215141429077e-02,9.272862424653877805e-03,6.010627802576400808e-02,-5.555710196495056152e-02,-3.679224210974759157e-01,1.572384596935285858e-02,1.339034919629035203e-01,3.193354079712271143e-01,1.850023028185666940e-01,2.474920704478405786e-01,2.193354079712271087e-01,2.262146772263493033e-01,2.089640014213763608e-01,5.230821960387811442e-01,-3.368564844131469727e-01
1.650214000000000070e+00,-1.044931001022744721e-01,1.245975548255841975e-01,9.149780869483947754e-01,-4.547951661760005031e-03,5.520046928054966884e-03,1.556447984302189447e-02,4.568531579734656789e-02,6.210990787552267411e-02,-4.929892718791961670e-02,-5.428772603860164692e-01,-8.828775619133893970e-03,7.096993073282657771e-02,3.191484106750248073e-01,2.122840303048235400e-01,2.271095910195377598e-01,2.191484106750248018e-01,2.274237372712376581e-01,1.834694223974202010e-01,5.189564562574895401e-01,-5.434945225715637207e-01
1.677880999999999956e+00,-1.036153098091675273e-01,1.268270527193480768e-01,9.146207571029663086e-01,-1.738783120952409889e-02,5.849409740831035265e-03,1.776884047130899980e-02,4.419776215872774777e-02,7.704259940127319850e-02,-3.727469965815544128e-02,-3.657183659081568727e-01,1.600644627549362153e-02,4.855907426917727143e-02,3.149097939884769604e-01,2.106957766178794433e-01,-1.490421561987399224e-01,2.149097939884769548e-01,2.296303489787281105e-01,-1.988220589872900235e-01,5.184012195283849156e-01,-5.344542264938354492e-01
1.700450999999999935e+00,-1.025257481741109755e-01,1.283004868003328469e-01,9.147596359252929688e-01,-2.144252367973553675e-02,5.347499035103675524e-03,1.881168710479030892e-02,6.304190234782150459e-02,7.080018784031914814e-02,-2.040313184261322021e-02,-1.364292691804927238e-01,-1.676199436206616752e-02,6.314458085499365103e-02,3.155780171620911623e-01,2.228734437773856603e-01,-1.488003189421643890e-01,2.155780171620911567e-01,2.300676373871193003e-01,-2.014751522663193462e-01,5.177093225492286344e-01,-5.090832114219665527e-01
1.724477000000000038e+00,-1.012160562912451933e-01,1.299467500810783105e-01,9.151062965393066406e-01,-2.301671181632765698e-02,4.881702889156569469e-03,1.933252854429912126e-02,6.625671088408659204e-02,9.438497962239106309e-02,-5.090233404189348221e-03,-5.022327847411144075e-02,-1.680916547713500603e-02,2.687766476867840468e-02,3.165623517102073015e-01,2.179274545220924730e-01,-1.390068719320128043e-01,2.165623517102072682e-01,2.274521428971195969e-01,-1.931452575015010498e-01,5.171265411992435057e-01,-4.845198392868041992e-01
1.748270999999999908e+00,-9.903605724014130640e-02,1.328813523150912113e-01,9.160645604133605957e-01,-2.226104101277648351e-02,4.653198488547616307e-03,2.065212744404920642e-02,9.393314941244257366e-02,8.903628422972394152e-02,2.323415875434875488e-02,4.664418361987666961e-02,-2.764228233993267642e-02,2.448876050761230466e-02,3.007657343700110841e-01,2.420658538766559398e-01,-1.528128608432715030e-01,2.007657343700111063e-01,2.308416629390117603e-01,-2.106310830103295118e-01,5.114733135443224610e-01,-6.736342310905456543e-01
1.775678000000000090e+00,-9.710533252058138609e-02,1.360133929760422855e-01,9.175150394439697266e-01,-1.867982108754018614e-02,4.931374083366524275e-03,2.197327036864771266e-02,1.100308726159891920e-01,1.007894652504994631e-01,-4.846597439609467983e-04,1.381887564402670687e-01,5.036796671622800065e-02,3.812447470720069925e-02,3.133032395931623637e-01,2.536377043388894359e-01,-1.513401638112976122e-01,2.133032395931623582e-01,2.302777425785339782e-01,-2.128240077819172349e-01,5.140776136902598381e-01,-6.276084780693054199e-01
1.798931999999999976e+00,-9.524576699071897468e-02,1.383433982653906602e-01,9.185749292373657227e-01,-1.389088390129778090e-02,3.484695290838946136e-03,2.335741535036395256e-02,1.349349413849113000e-01,1.158752725112012910e-01,3.216669335961341858e-02,2.958718521281244462e-01,-8.650531987268961220e-02,7.690400352092385816e-02,2.985556228903457621e-01,2.631988780913649961e-01,-1.437310648586996031e-01,1.985556228903457843e-01,2.303391333982936218e-01,-2.090279155957451007e-01,5.104762315979499698e-01,-6.899926662445068359e-01
1.825736000000000026e+00,-9.314985548575713259e-02,1.408308266592906977e-01,9.198995232582092285e-01,-8.020990297445004802e-03,9.701236785817357600e-04,2.649573190123355459e-02,1.276573662013306409e-01,1.249780258732026139e-01,5.007701739668846130e-02,2.865038986304880297e-01,-1.293174529971551079e-01,1.818551328600920836e-01,2.772693765662004317e-01,2.377552315336979583e-01,-1.341015372550355134e-01,1.772693765662004539e-01,2.282545690366024893e-01,-2.082565320471619075e-01,5.092542200203458158e-01,-6.810955405235290527e-01
1.851644999999999985e+00,-9.010488987450254728e-02,1.452031420044717080e-01,9.218509793281555176e-01,1.404884303346595634e-04,-5.266815716142625448e-03,3.385536954998080716e-02,1.547068612690858658e-01,1.251602231365460949e-01,2.152283675968647003e-02,2.675776127106484492e-01,-2.422979754875689007e-01,2.761770581387327783e-01,7.991126934480355382e-03,2.139071152023523381e-01,-1.133349329979177200e-01,-9.200887306551965017e-02,2.192566052842010449e-01,-2.081889603963118229e-01,5.114231595854893397e-01,-6.739649176597595215e-01
1.876042999999999905e+00,-8.793824877494124670e-02,1.487853995856622813e-01,9.231951236724853516e-01,6.798649456912503851e-03,-1.046157360076183096e-02,3.927349533751978150e-02,1.368464299296214270e-01,1.329100665975123108e-01,3.232960775494575500e-02,3.877306382204882551e-01,-2.067284340905881090e-01,2.689487799959013326e-01,-1.115608210621359953e-01,1.580348898156036519e-01,-1.117678829985489786e-01,-2.115608210621360008e-01,2.118406044490994677e-01,-2.117678829985489841e-01,5.113550573809300115e-01,-6.325557827949523926e-01
1.898412999999999906e+00,-8.421273963367853499e-02,1.539808587194659850e-01,9.252842068672180176e-01,1.750016581778920943e-02,-1.909918955859035705e-02,4.783146512867308964e-02,1.627429682020503920e-01,1.419507014430585468e-01,3.951649367809295654e-02,3.207557289562477654e-01,-2.700549821512983617e-01,2.959542099017599126e-01,-1.175281736696610069e-01,1.229618942834011103e-01,-1.141554450232583340e-01,-2.175281736696610124e-01,2.049054142356334096e-01,-2.141554450232583395e-01,5.103008742134172993e-01,-6.549563407897949219e-01
1.926871000000000000e+00,-8.140364172326883252e-02,1.574922028330289769e-01,9.266518950462341309e-01,2.440585543239025268e-02,-2.364758502046759858e-02,5.411152244020445146e-02,1.752206403982631555e-01,1.429803405284679474e-01,8.399654179811477661e-03,2.983946455691856015e-01,-1.876448064019148876e-01,3.143632907560608980e-01,-1.633503152171709716e-01,1.055422632228540936e-01,-1.139504741674388366e-01,-2.250690582815260687e-01,2.055422632228540991e-01,-2.139504741674388422e-01,5.125414481300996083e-01,-6.567004323005676270e-01
1.953341999999999912e+00,-7.692164301821376171e-02,1.623374220221520114e-01,9.281831383705139160e-01,3.464722721913717635e-02,-3.070676445937703392e-02,6.331133097508856444e-02,1.868667111713399054e-01,1.235139755793355221e-01,4.410297423601150513e-02,4.311449847560223092e-01,-1.869397962529631974e-01,3.270053383754142895e-01,-2.495935674796085357e-01,1.029893163979668513e-01,-1.156263245665669070e-01,-2.332989984864105859e-01,2.029893163979668569e-01,-2.156263245665669126e-01,5.093561609475197871e-01,-6.797399520874023438e-01
1.974914999999999976e+00,-7.356117950177383513e-02,1.648849464675678222e-01,9.290559887886047363e-01,4.234918969240368536e-02,-3.512500585389788377e-02,6.977350516558766813e-02,1.777609818483828763e-01,1.274671951822864135e-01,1.950399577617645264e-02,4.041652516195714528e-01,-2.534831652315188699e-01,3.583023296968805838e-01,-2.935648654764810850e-01,9.750055635239307517e-02,-1.019545769589371709e-01,-2.338334305192051044e-01,1.975005563523930807e-01,-2.019545769589371764e-01,5.116130860061737229e-01,-6.566074490547180176e-01
2.000628999999999991e+00,-6.829491112729352276e-02,1.684762492883447871e-01,9.297161698341369629e-01,5.313051435543963280e-02,-4.005892288486045949e-02,7.935534159054258296e-02,1.895844616843839758e-01,1.071877989445743223e-01,-9.785790927708148956e-03,3.497650163063012463e-01,-1.443001085823359397e-01,2.998694127206247839e-01,-3.380703571303587118e-01,9.840829450959853730e-02,-6.776582321735044601e-02,-2.380703571303586785e-01,1.984082945095985429e-01,-1.677658232173504516e-01,5.144641515760168815e-01,-6.205083131790161133e-01
2.027400000000000091e+00,-6.298619769849342354e-02,1.718169163326363769e-01,9.298921823501586914e-01,5.823610702958537111e-02,-4.406441302208663480e-02,9.005275272509805085e-02,1.965156686138220254e-01,1.004054749929998436e-01,-1.638445630669593811e-02,5.600988112360613669e-02,-1.207800573198901800e-01,3.572129194692170162e-01,-3.381547672048467179e-01,8.808045446160700509e-02,-4.041978415170943695e-02,-2.381547672048467401e-01,1.880804544616070106e-01,-1.404197841517094425e-01,5.148535627394894565e-01,-6.295948028564453125e-01
2.055111000000000132e+00,-5.936245359283944673e-02,1.739869986008782954e-01,9.296239614486694336e-01,5.874086085686761743e-02,-4.698982407731699951e-02,9.739436057819617076e-02,1.975146315877319148e-01,1.032171549088613249e-01,-1.756004616618156433e-02,2.874217078451020077e-02,-1.740478142601365463e-01,3.381847452834706447e-01,-3.371785916106208592e-01,7.124326707330808084e-02,-3.793080593019382274e-02,-2.371785916106208536e-01,1.712432670733080864e-01,-1.379308059301938283e-01,5.150803186792021204e-01,-6.281120777130126953e-01
2.072471999999999870e+00,-5.476366469875828397e-02,1.760079344832888026e-01,9.294652938842773438e-01,5.767069244563777231e-02,-5.028388054997723344e-02,1.051646262657113251e-01,2.170035341250267091e-01,9.946843264699979648e-02,-4.619580134749412537e-02,-6.897544802396840535e-02,-2.013862725339047588e-01,3.762097797345060335e-01,-3.355763906957108800e-01,5.552882873962022847e-02,-2.843416628489880971e-02,-2.355763906957109022e-01,1.555288287396202340e-01,-1.284341662848988153e-01,5.180602390363452381e-01,-5.881858468055725098e-01
2.103530999999999818e+00,-4.785496923867632590e-02,1.789142829114843680e-01,9.288554191589355469e-01,5.536374312506867068e-02,-5.660162142364155713e-02,1.168912418966121525e-01,2.100975172074383557e-01,9.136912735630738081e-02,-4.462620988488197327e-02,-4.553614628970434342e-02,-2.022587623906929033e-01,3.688975744898145281e-01,-3.346093793684453144e-01,2.330832786057847328e-02,-6.526445785941317745e-03,-2.346093793684453088e-01,1.233083278605784788e-01,-1.065264457859413233e-01,5.181362164003749937e-01,-5.856933593750000000e-01
2.123075000000000045e+00,-4.294500745011931020e-02,1.805927390653991604e-01,9.283539652824401855e-01,5.313292003862053053e-02,-6.036263203729164140e-02,1.247562903455610162e-01,2.206470128903324779e-01,8.624219587672010690e-02,-6.506728380918502808e-02,-1.448939830258936801e-01,-1.291415175130606607e-01,3.885442125567000748e-01,-3.280802700992946352e-01,1.280496979153836201e-02,-3.111613349374345305e-02,-2.280802700992946297e-01,1.128049697915383676e-01,-1.311161334937434586e-01,5.212608578107972290e-01,-5.071168541908264160e-01
2.149741999999999820e+00,-3.808966346419258298e-02,1.822458791439083292e-01,9.275987744331359863e-01,4.894251632877664321e-02,-6.273055871584287679e-02,1.323398471103280905e-01,2.293664527140164833e-01,7.894853547849947639e-02,-6.995037198066711426e-02,-1.956216525955543351e-01,-1.890672467644222698e-01,3.908237757630320663e-01,-3.102293223793175514e-01,-9.271026745893465315e-02,-2.161106725583324117e-02,-2.102293223793175181e-01,7.289732541065349798e-03,-1.216110672558332467e-01,5.219602027550855894e-01,-4.987815618515014648e-01
2.172457000000000082e+00,-3.002244764440193878e-02,1.847842322903808232e-01,9.263819456100463867e-01,4.023162751290675770e-02,-6.465498047150841643e-02,1.431570370159216399e-01,2.123572651548250312e-01,7.398960680196373096e-02,-8.965719491243362427e-02,-3.154034775858551298e-01,-1.424425384661405225e-01,3.220764050783510024e-01,-2.350633745552137555e-01,-1.959441525397060957e-01,-3.788753309556897042e-02,-1.495302665075209925e-01,-9.594415253970607627e-02,-1.378875330955689760e-01,5.220557830166892010e-01,-5.839512348175048828e-01
2.200871999999999939e+00,-2.172613145705862628e-02,1.873347950162785325e-01,9.250288009643554688e-01,2.830097118550032112e-02,-6.744175992721501700e-02,1.547637050127852465e-01,2.244952972536256586e-01,7.172448675023655740e-02,-9.868074953556060791e-02,-3.762731010412462274e-01,-1.846125218606941010e-01,3.915424703716431920e-01,-9.779364979397044133e-02,-1.951515739018977735e-01,-4.302894219676128840e-02,-8.577176094480987167e-02,-9.515157390189776798e-02,-1.430289421967612939e-01,5.235607610381858290e-01,-5.529609322547912598e-01
2.226682999999999968e+00,-1.619932738296529437e-02,1.888458972745535591e-01,9.241002798080444336e-01,2.106897756332602734e-02,-6.865536671580230177e-02,1.620773078042592186e-01,2.193947307025261029e-01,5.826988572141519190e-02,-1.057613193988800049e-01,-3.743834050262804802e-01,-8.740928568301366275e-02,3.641132142412603634e-01,7.203284150142144626e-02,-1.618002018267403752e-01,-4.340314907634063024e-02,4.709578918568520234e-02,-6.180020182674037660e-02,-1.434031490763406358e-01,5.233449539873582523e-01,-6.045647263526916504e-01
2.249083999999999861e+00,-8.198174465810713699e-03,1.909831622336136681e-01,9.224555492401123047e-01,1.054474668501654937e-02,-6.731133708661785064e-02,1.737373151337695543e-01,2.276216683160027510e-01,6.076783733742151250e-02,-1.127824038267135620e-01,-3.552727053993401385e-01,4.747705206407209361e-02,4.082130801773519169e-01,2.726569341656475132e-01,-3.604693857826547776e-02,-3.342687530162052889e-02,1.777425289766515204e-01,6.395306142173452779e-02,-1.334268753016205344e-01,5.236140985684776261e-01,-6.348320841789245605e-01
2.277175999999999867e+00,4.359253046690317952e-04,1.931796447363895164e-01,9.207491874694824219e-01,-1.708959511569327393e-03,-6.305465093473650029e-02,1.854938877129326258e-01,2.310626931677179086e-01,6.575445898492290886e-02,-1.256274878978729248e-01,-4.284933011118909896e-01,7.869376165308827886e-02,3.687919011553114634e-01,2.905343393053476109e-01,4.250165697211666371e-02,1.373781280023841922e-02,1.905343393053476053e-01,1.425016569721166693e-01,-8.626218719976158633e-02,5.243115051563109752e-01,-6.655683517456054688e-01
2.301034000000000024e+00,6.046343902010141089e-03,1.948212646584036034e-01,9.194429516792297363e-01,-9.418558549449174144e-03,-6.017846694722139844e-02,1.938232551856471364e-01,2.261759004709240073e-01,7.399762230666959151e-02,-1.123430505394935608e-01,-3.461940934467448439e-01,5.627530602226386847e-02,3.868515000702331674e-01,3.310648352793318372e-01,-1.440229554280330337e-01,7.449496575348968364e-02,2.310648352793318039e-01,-4.402295542803302125e-02,-2.550503424651032192e-02,5.231709964335726770e-01,-6.904746890068054199e-01
2.323173000000000155e+00,1.158089077092885021e-02,1.965221341372441477e-01,9.182337522506713867e-01,-1.579105931795382958e-02,-5.703240851462454408e-02,2.028650269565575037e-01,2.256472845934090754e-01,8.272130759704632297e-02,-1.290581226348876953e-01,-3.120977030571189803e-01,7.873967105480703110e-02,4.620719587049644250e-01,2.982249142419179933e-01,1.818179469866643139e-02,1.200328774865615650e-01,1.982249142419179877e-01,1.181817946986664369e-01,2.003287748656155595e-02,5.256522763521134234e-01,-6.379708051681518555e-01
2.352427000000000046e+00,2.027041190630653883e-02,1.989520068325279778e-01,9.169194698333740234e-01,-1.983155211560677644e-02,-5.255893358666874349e-02,2.161844265717740576e-01,2.494311415112740737e-01,6.467327802645005119e-02,-1.045924648642539978e-01,-1.504037102909575874e-01,1.532328606999062426e-01,4.131855030273398621e-01,2.595113299150310082e-01,1.554840197219882481e-01,2.327932539104356491e-01,1.595113299150310304e-01,2.554840197219882536e-01,1.327932539104356435e-01,5.243858325616334026e-01,-6.251688599586486816e-01
2.375239999999999796e+00,2.636267989013545143e-02,2.003693209960550892e-01,9.161765575408935547e-01,-2.009469757067389867e-02,-4.873260484826413830e-02,2.253513471244501520e-01,2.426699476121979004e-01,7.315847100082960297e-02,-8.576320111751556396e-02,-2.183985121219399195e-02,1.880728276594409998e-01,4.476214389422629170e-01,2.552153534700913884e-01,1.606775400874260462e-01,2.491206466183188417e-01,1.552153534700914106e-01,2.606775400874260518e-01,1.491206466183188362e-01,5.242637361675211993e-01,-5.696207284927368164e-01
2.397297000000000011e+00,3.584588733041049052e-02,2.021963441809022377e-01,9.156914353370666504e-01,-1.608042472864813430e-02,-4.302888878498967173e-02,2.394564992003065385e-01,2.513401449539834354e-01,6.069841932338263663e-02,-7.011637836694717407e-02,1.207296140714214372e-01,1.782249826317073016e-01,4.853863121015458693e-01,2.481993113006318308e-01,1.805678719494548390e-01,2.411601620522202394e-01,1.481993113006318252e-01,2.616846450906608057e-01,1.411601620522202338e-01,5.266430497267610145e-01,-3.882765769958496094e-01
2.421860999999999819e+00,4.246939192214320424e-02,2.032286917820080585e-01,9.155148863792419434e-01,-9.959007640362244757e-03,-4.008202599587229464e-02,2.485252481613440256e-01,2.723369204791963871e-01,5.395797109145396286e-02,-7.463448494672775269e-02,2.833817050430583739e-01,1.877058741725583235e-01,4.299639879740928539e-01,2.118596727647889533e-01,2.146154836148294331e-01,1.899560980804794463e-01,1.118596727647889616e-01,2.548321851205668787e-01,8.995609808047944078e-02,5.249125274601930125e-01,-5.102893710136413574e-01
2.450285000000000046e+00,5.313133022186958959e-02,2.048554866666301988e-01,9.151887893676757812e-01,1.202847186735020836e-03,-3.838298987456045808e-02,2.611708865507205157e-01,2.967702208124068375e-01,5.886097235859355514e-02,-6.427789479494094849e-02,3.662299024658409174e-01,1.102902405338907904e-01,4.188832632892195429e-01,-1.130161340241765400e-01,1.762142891035981540e-01,2.668922939281358486e-01,-2.130161340241765455e-01,1.755728599340475038e-01,1.668922939281358431e-01,5.222817060038141834e-01,-6.234859824180603027e-01
2.473669999999999813e+00,6.039769614778286999e-02,2.057797727264755461e-01,9.148156046867370605e-01,8.468834674925481559e-03,-3.818758045734593765e-02,2.688532249208090974e-01,2.858894870143253719e-01,7.007494049883444820e-02,-8.064521849155426025e-02,3.638582057540410974e-01,6.950268285927699297e-02,4.181779165438312407e-01,-1.657010512749415299e-01,1.634755265643043076e-01,2.796595277836171345e-01,-2.657010512749415354e-01,1.628461510991573158e-01,1.796595277836171012e-01,5.245351116830111460e-01,-5.759696960449218750e-01
2.500291999999999959e+00,7.164476732840023565e-02,2.070003050999725258e-01,9.144285917282104492e-01,1.891104653502424099e-02,-3.999465904428189944e-02,2.786758594645744047e-01,3.124994885899517461e-01,6.208878881459706928e-02,-7.121863961219787598e-02,3.099991008212531485e-01,1.417587295063588854e-02,2.816618679115460711e-01,-2.605847428237055841e-01,1.812268076417125895e-01,2.772607225418386445e-01,-2.826156130412303402e-01,1.589420382196943538e-01,1.772607225418386667e-01,5.239554358128788447e-01,-5.818924307823181152e-01
2.523944000000000187e+00,7.930625865435780852e-02,2.077100151792561356e-01,9.141724109649658203e-01,2.510056259996741590e-02,-4.268233589851089249e-02,2.842278553192476576e-01,3.050690274407322766e-01,5.433176357084695818e-02,-7.498855143785476685e-02,3.089105827657175896e-01,-6.947221485986784795e-02,2.474686010339162967e-01,-3.101873787016186657e-01,1.618157484923849199e-01,2.798766581929464370e-01,-2.866870041460340413e-01,1.581383945856524309e-01,1.798766581929464314e-01,5.243512232386420280e-01,-5.836337804794311523e-01
2.552932000000000201e+00,9.084316279375284631e-02,2.088626060089420755e-01,9.135543704032897949e-01,3.185877762466666346e-02,-5.045533740896646080e-02,2.931019647874841816e-01,3.283207607487865221e-01,6.040262814782153961e-02,-5.963569507002830505e-02,3.152465807327147762e-01,-1.895067588034971828e-01,2.864598289143446830e-01,-3.604423514086376734e-01,1.414734496145896026e-01,2.741562169588616094e-01,-2.888361900055437803e-01,1.555745113943725888e-01,1.741562169588616038e-01,5.240472193612539797e-01,-5.529002547264099121e-01
2.577040999999999915e+00,1.026909337352404361e-01,2.100839210533557433e-01,9.131812453269958496e-01,3.925066881157428245e-02,-5.850249141886920690e-02,3.016364945581333501e-01,3.357359123022393699e-01,4.939598689994205427e-02,-7.310642302036285400e-02,3.105488322493796249e-01,-1.822340971127981712e-01,3.213933334711652212e-01,-3.926784361556088232e-01,9.824789983448040109e-02,2.796577551187109378e-01,-2.926784361556088454e-01,1.522408875031566189e-01,1.796577551187109323e-01,5.261041485924531358e-01,-5.042217969894409180e-01
2.599403999999999826e+00,1.107206178849590716e-01,2.108411695210405667e-01,9.127426743507385254e-01,4.319278859158665052e-02,-6.429230301179966744e-02,3.068370534534035077e-01,3.539993668614668798e-01,4.733190106541753511e-02,-7.143295556306838989e-02,1.937760307743232324e-01,-2.411055666831529998e-01,2.705446916258627543e-01,-3.910573017744283231e-01,7.144626030091810742e-02,2.779698536051874447e-01,-2.910573017744282898e-01,1.417218942432237894e-01,1.779698536051874669e-01,5.269305000693077501e-01,-4.647266268730163574e-01
2.622456999999999816e+00,1.187799842887253543e-01,2.114018345736153881e-01,9.122302532196044922e-01,4.459484835378858120e-02,-7.051683905806416242e-02,3.111351952586021152e-01,3.402697126646161974e-01,2.771536727715101511e-02,-7.836201041936874390e-02,8.600748822501554092e-02,-3.018604596527970640e-01,2.237696056201104733e-01,-3.799571587334183986e-01,1.145515813792630233e-03,2.799436784589445226e-01,-2.799571587334184208e-01,1.011455158137926358e-01,1.799436784589444893e-01,5.282730884586789299e-01,-4.270584583282470703e-01
2.649293000000000120e+00,1.304661747998052124e-01,2.120746637974142423e-01,9.109377264976501465e-01,4.150788371596874499e-02,-8.021765979401318525e-02,3.170766144413381671e-01,3.418894934349609449e-01,2.928047303318086908e-02,-8.399103581905364990e-02,-1.108029766880586769e-01,-3.622460449357189916e-01,1.897401083430090840e-01,-2.865919233967482715e-01,-2.766727851041584363e-01,3.012596327481967817e-01,-1.865919233967482660e-01,-1.766727851041584307e-01,2.012596327481967762e-01,5.302161987330603621e-01,-3.586490154266357422e-01
2.676375000000000171e+00,1.423162063381418208e-01,2.128151308528699048e-01,9.096471071243286133e-01,3.438624075840791133e-02,-8.864194307469763778e-02,3.220803596419237191e-01,3.534717789306592306e-01,1.452765940893867118e-02,-8.702834695577621460e-02,-1.481689049286694093e-01,-3.430943392622446408e-01,1.306079197874468467e-01,-2.724790696091998754e-01,-3.316234501431775117e-01,3.096143925534597940e-01,-1.724790696091998699e-01,-2.316234501431775061e-01,2.096143925534597885e-01,5.330274940587457211e-01,-2.316563129425048828e-01
2.699508999999999936e+00,1.504917260439750382e-01,2.133351396274069389e-01,9.088152050971984863e-01,2.868366758729128455e-02,-9.395769007856435984e-02,3.247944466958709864e-01,3.600953686465518944e-01,1.517563063836689131e-02,-7.928781956434249878e-02,-1.530410603488028265e-01,-3.371012293204245780e-01,8.833056223164918730e-02,-2.718336174827941099e-01,-3.425306065316762183e-01,3.110507282804627627e-01,-1.718336174827941321e-01,-2.425306065316762405e-01,2.110507282804627571e-01,5.347941826238372665e-01,-1.173229813575744629e-01
2.722131000000000078e+00,1.585660144041295405e-01,2.137769134815275807e-01,9.080216884613037109e-01,2.204255488012230382e-02,-9.932394692754820120e-02,3.271548582208192446e-01,3.506096465935004680e-01,1.444918955494365817e-02,-7.629451155662536621e-02,-2.091305899145938230e-01,-3.247022353614670287e-01,6.050069512372165809e-02,-2.455047299744715361e-01,-3.550361876943101125e-01,3.082070264167192652e-01,-1.684888218533433790e-01,-2.550361876943101347e-01,2.082070264167192597e-01,5.382150304702744137e-01,7.223951816558837891e-02
2.748982999999999954e+00,1.702796104700766699e-01,2.142651341254137864e-01,9.067940711975097656e-01,1.025786914421187267e-02,-1.063346259445103748e-01,3.310344685806558829e-01,3.345007977425440981e-01,1.652845642735261203e-02,-8.580002188682556152e-02,-3.061768156427141507e-01,-3.376388490263550479e-01,1.086048228262009308e-01,-1.629619124578434164e-01,-3.699624166907974354e-01,3.025573854478760816e-01,-1.603559970884674279e-01,-2.699624166907974576e-01,2.025573854478760760e-01,5.414385587771242125e-01,2.001023292541503906e-01
2.776831000000000049e+00,1.822576371641111415e-01,2.148236701255757386e-01,9.056373834609985352e-01,-1.451991895203427578e-03,-1.122738661866191645e-01,3.347596082517523275e-01,3.389002601172373397e-01,4.637631309833980219e-03,-7.925612479448318481e-02,-2.952517503245724040e-01,-2.865484768297250073e-01,7.308408729766847911e-02,-9.542863512686491911e-02,-3.763712094261211227e-01,2.999179795421960115e-01,-1.528509950982743504e-01,-2.763712094261210894e-01,1.999179795421960060e-01,5.422971543677602702e-01,2.591919898986816406e-01
