timestamp,x,y,z,roll,pitch,yaw,vx,vy,vz,p,q,r,psp,qsp,rsp,pres,qres,rres,thrust_sp, thrust_res
0.000000000000000000e+00,-2.895205768219468595e-02,3.896308073491514673e-02,1.034554362297058105e+00,1.384814160627371137e-02,-4.080950161772012308e-03,1.341496020370345210e-01,5.887747234253501612e-03,-2.557809243914035274e-02,-9.529194794595241547e-03,-2.832620634053297295e-02,-1.721150662429931505e-02,2.465385303419358881e-02,-2.763018448703074004e-01,-2.563910318291401924e-01,3.043655371206012150e-01,-1.908010485455578220e-01,-2.194078626025071921e-01,2.043655371206012372e-01,5.203647856379969294e-01,5.512945652008056641e-01
2.277699999999999864e-02,-2.874596806206799332e-02,3.797553144458177404e-02,1.034636139869689941e+00,1.380098471321552188e-02,-3.994296949780817840e-03,1.347748420744170339e-01,9.688450454449545196e-03,-2.661886663754206572e-02,-1.330655813217163086e-02,8.462019711560202564e-03,4.529151744472856983e-02,3.033053502751362207e-02,-3.241097097940172644e-01,1.172995120682274184e-01,3.187347670858061144e-01,-2.410351191270916071e-01,1.511928897038128661e-01,2.187347670858061088e-01,5.224302944111703928e-01,6.494321823120117188e-01
4.655600000000000016e-02,-2.852512146099779947e-02,3.701650811222194359e-02,1.034822583198547363e+00,1.366084767817913291e-02,-4.005523701353874699e-03,1.352709015878326149e-01,1.152756229090739527e-02,-2.557906488174912368e-02,-1.458502002060413361e-02,-4.675035148671050078e-02,1.369014957003740658e-02,3.323083744868243067e-02,-2.924287021438644052e-01,-1.349775653103890138e-01,3.219474212007105152e-01,-2.105821825379591283e-01,-1.020486606122819884e-01,2.219474212007104819e-01,5.187195479754063143e-01,4.457759857177734375e-01
7.369199999999999362e-02,-2.826402279057796396e-02,3.579866346181344305e-02,1.035027623176574707e+00,1.311820086340423352e-02,-3.486966548403191979e-03,1.361691675796450340e-01,8.363169069869960670e-03,-2.846610030003534492e-02,-7.876555435359477997e-03,-2.502139681388019718e-02,1.484614138791284788e-02,3.112523348152875999e-02,-3.151700835246060706e-01,1.661937812710575363e-02,3.201414230108245995e-01,-2.340278599448446240e-01,4.935248958029411770e-02,2.201414230108246217e-01,5.169828103210601933e-01,3.810428380966186523e-01
9.705199999999999938e-02,-2.818447570156812354e-02,3.519155343107277512e-02,1.035094380378723145e+00,1.235885903168495829e-02,-3.539755101099384405e-03,1.364793450719070655e-01,1.679520470935292817e-02,-2.791228113738611349e-02,-4.492623265832662582e-03,-2.927881822997353833e-02,-1.635534196867023671e-02,1.841302755018468448e-02,-2.879446748843014214e-01,-1.184663590942129641e-01,3.100224102853286201e-01,-2.114604310734042592e-01,-9.259108406951177539e-02,2.100224102853286146e-01,5.195449583675402216e-01,5.340945720672607422e-01
1.202649999999999969e-01,-2.809015630692760987e-02,3.429828506364325513e-02,1.035080313682556152e+00,1.111081823887289689e-02,-3.366532469706084996e-03,1.371442892415410952e-01,1.283436951587399455e-02,-2.305954263895705278e-02,-1.136154867708683014e-02,-3.225292175300954745e-02,-2.453040618590406410e-02,3.225497277776844668e-02,-2.511260671702424951e-01,-2.585581564031989577e-01,3.006847619284110928e-01,-1.865649951481846425e-01,-2.295172376425877458e-01,2.006847619284110595e-01,5.203757642802359085e-01,5.528877973556518555e-01
1.462700000000000111e-01,-2.800912577347326737e-02,3.375445722370601365e-02,1.035038948059082031e+00,1.036674718752661484e-02,-3.259336134225021553e-03,1.372624328650304815e-01,1.059412593497465957e-02,-2.785973418482696681e-02,-1.305026933550834656e-02,-1.873368340277511632e-02,-1.264655211900081455e-02,9.504820333715550615e-03,-2.578754275070145319e-01,-2.601653943815990244e-01,3.165562963273962915e-01,-1.933879127458981440e-01,-2.299207109328630094e-01,2.165562963273962860e-01,5.201547454034053386e-01,5.352294445037841797e-01
1.731850000000000056e-01,-2.784795769388362721e-02,3.294472772729605675e-02,1.034947514533996582e+00,9.449173869012695084e-03,-3.282815519955351036e-03,1.377845506441901513e-01,1.886360442228570203e-02,-2.574964159495545662e-02,-1.008617505431175232e-02,-1.134507552067301299e-02,-1.833463737744044433e-02,1.637165299496277579e-02,-2.398502660990283475e-01,-2.601515461076305269e-01,2.889740070163681063e-01,-1.824801144141327269e-01,-2.368657360975782722e-01,1.889740070163680730e-01,5.220103251423530155e-01,6.481059789657592773e-01
1.963759999999999950e-01,-2.745568846913054931e-02,3.243073030220406522e-02,1.034883737564086914e+00,8.911550543527510179e-03,-3.009646570341306671e-03,1.379845942626327648e-01,1.253513587198837494e-02,-1.857084935201325226e-02,-1.240754034370183945e-02,-1.328979653917964666e-02,-3.905882855743284671e-03,-8.772284054953248533e-03,-2.488379122908648544e-01,-2.380986929434775190e-01,3.203762828638407334e-01,-2.008811929272758534e-01,-2.109261483865496611e-01,2.203762828638407278e-01,5.172252520546716248e-01,3.817784786224365234e-01
2.217480000000000007e-01,-2.690684359565104905e-02,3.174002803512696730e-02,1.034796118736267090e+00,8.341518183636639772e-03,-2.249261260666823858e-03,1.387746355315351288e-01,2.128901846751922802e-02,-2.476549443530703595e-02,-1.219103205949068069e-02,5.598396593209488750e-03,2.451851662396624734e-02,5.791721466497704029e-02,-2.697135234610442134e-01,-6.634430416240992556e-02,2.906520070728955685e-01,-2.182329476182505723e-01,-5.163324020595126684e-02,1.906520070728955629e-01,5.168714854910719803e-01,3.644554615020751953e-01
2.469409999999999938e-01,-2.652312429618999823e-02,3.129705639695715136e-02,1.034712195396423340e+00,8.164903265083107639e-03,-1.712993228169423787e-03,1.387781894356370227e-01,2.073937786123680738e-02,-1.642379309617863353e-02,-1.719988882541656494e-02,-5.365144982226776119e-03,3.076159740136054019e-02,-2.137914111514103380e-03,-2.748569784322870690e-01,1.496814809219033926e-01,3.250657053288713572e-01,-2.321959177192973456e-01,1.616388644625554594e-01,2.250657053288713516e-01,5.230864280400586708e-01,6.804634332656860352e-01
2.719940000000000135e-01,-2.587994612278229217e-02,3.065849789575310000e-02,1.034557819366455078e+00,8.137998252280530254e-03,-1.439216209679017311e-03,1.389504508086008006e-01,1.162481328045619766e-02,-2.574085817654166858e-02,-1.774264872074127197e-02,1.978518939642841604e-02,-1.737121832881782096e-02,-1.140620451398428881e-02,-2.262557363908387076e-01,-2.599836928849972861e-01,9.043852761541554264e-02,-1.754549495082023403e-01,-2.418956681888112525e-01,-9.561472384584461179e-03,5.241207910710650175e-01,7.346539497375488281e-01
2.966710000000000180e-01,-2.543287668664130294e-02,2.993298173979000790e-02,1.034341335296630859e+00,7.827532525494682383e-03,-1.470883037619996614e-03,1.393059289127009936e-01,1.601909520118200564e-02,-1.764093063443550671e-02,-1.408500596880912781e-02,1.660796246826734893e-02,3.730442044457343235e-03,2.453192478034165250e-02,-2.173910846862340263e-01,-2.529522868883217201e-01,1.418193294884713684e-01,-1.755320412368963079e-01,-2.405526630282129597e-01,4.181932948847134901e-02,5.236866296300523027e-01,7.257022857666015625e-01
3.207720000000000016e-01,-2.483151664448675355e-02,2.895392955768082838e-02,1.033936142921447754e+00,7.472088205681473583e-03,-2.188838719944685707e-03,1.397365205238076946e-01,1.913313451418807015e-02,-1.459129929678552005e-02,-1.767674274742603302e-02,1.201585332961350831e-02,-3.790261961449043621e-02,1.701438496753556687e-03,-2.074194868265948621e-01,-2.609406915759400758e-01,2.065473232451722208e-01,-1.681777058254204649e-01,-2.461179688041529312e-01,1.065473232451722152e-01,5.241595770229211526e-01,7.363924980163574219e-01
3.458289999999999975e-01,-2.439248034010242649e-02,2.833159819368200050e-02,1.033649206161499023e+00,7.430977924972979355e-03,-2.510929576311493605e-03,1.401026309535333692e-01,1.720126865009751968e-02,-1.830708002687323616e-02,-2.366902865469455719e-02,-2.790905108429224055e-02,-1.631096175559731964e-02,4.807678030611030329e-02,-1.882140475550500569e-01,-2.601849022083783658e-01,2.991584954007171504e-01,-1.455614007473699512e-01,-2.410923521444704176e-01,1.991584954007171449e-01,5.245866181298898256e-01,7.352858781814575195e-01
3.720200000000000173e-01,-2.367224215855234792e-02,2.744928697448413904e-02,1.033136487007141113e+00,7.654222331618025163e-03,-2.411989323931829077e-03,1.407117800208026459e-01,2.168720465405453435e-02,-1.362062627272308916e-02,-2.326798066496849060e-02,-2.511216319824404516e-03,4.705291514913109013e-02,2.861084483133569806e-02,-2.519662021404193708e-01,1.438350210499373671e-01,3.218290204907080509e-01,-2.112127841775617576e-01,1.574686840506719088e-01,2.218290204907080454e-01,5.243523284254235639e-01,7.226073741912841797e-01
3.970339999999999980e-01,-2.310339297144509141e-02,2.670460303784519263e-02,1.032751441001892090e+00,7.686043156129116621e-03,-2.555474851740902054e-03,1.409895495969648582e-01,2.578128611526076322e-02,-1.517285650227491109e-02,-2.548396401107311249e-02,-1.707104911995797197e-02,-4.455796112356519290e-02,-4.216925580987222581e-03,-2.261676715693350659e-01,-2.648083406794794481e-01,2.961426451598054843e-01,-1.824753869184393418e-01,-2.529934192729835218e-01,1.961426451598054510e-01,5.248167508629598688e-01,7.379295825958251953e-01
4.212020000000000208e-01,-2.212056665322204713e-02,2.540622940191961110e-02,1.032248854637145996e+00,8.324496476384994625e-03,-2.201462870279558004e-03,1.416374307785153164e-01,2.107751511453202081e-02,-1.709932465215944705e-02,-2.410067245364189148e-02,2.906721921714583694e-03,3.233211538991946632e-02,7.565211579851509327e-02,-2.234857336136165384e-01,-7.366126494280744730e-02,2.672905771878856807e-01,-1.740278196959292312e-01,-6.027864999731774587e-02,1.672905771878856751e-01,5.245342379772205410e-01,7.264747619628906250e-01
4.467809999999999837e-01,-2.145390072403248125e-02,2.458427949942308677e-02,1.031931757926940918e+00,9.047295205253652953e-03,-2.005170953673918177e-03,1.415028711576034048e-01,2.565617102594287130e-02,-9.952269921531248578e-03,-2.776419930160045624e-02,2.255523942608269813e-02,-4.341283665210978783e-03,-2.921367105676657416e-02,-9.950031787105978465e-02,-2.209504834418847541e-01,8.826606290371839802e-02,-5.040747402711837771e-02,-2.144098323982084053e-01,-1.173393709628161100e-02,5.253581976353743910e-01,7.557182312011718750e-01
4.729979999999999740e-01,-2.042018613218288259e-02,2.343576507332419123e-02,1.031301856040954590e+00,9.278750668990873654e-03,-1.839625596463001500e-03,1.420260480048067819e-01,2.237795325366211466e-02,-1.448233068933368374e-02,-2.402390912175178528e-02,-5.188282214024159296e-03,-2.282338399282844363e-02,1.231085604270965202e-02,-2.111148019956586297e-01,-2.556262377217992099e-01,2.579508530209514983e-01,-1.554712457855594310e-01,-2.469671164097775873e-01,1.579508530209514927e-01,5.249401733961205352e-01,7.456635236740112305e-01
4.991539999999999866e-01,-1.935767440817837484e-02,2.220080557227835372e-02,1.030720114707946777e+00,9.716307287104444801e-03,-1.818520691345693052e-03,1.429037834318429567e-01,2.471966992113686784e-02,-8.410689963681034984e-03,-2.343286387622356415e-02,8.917209674145340839e-03,3.139028240671299513e-02,6.588143372253146834e-02,-2.300939195991251185e-01,-5.449620931722451433e-02,2.536083581450693236e-01,-1.760881533906592245e-01,-4.967059623349591446e-02,1.536083581450693181e-01,5.246123305951676530e-01,7.282338142395019531e-01
5.219920000000000115e-01,-1.865016884162679078e-02,2.137645045105878230e-02,1.030333876609802246e+00,9.962535387128977973e-03,-1.822810648425710056e-03,1.431314698633849858e-01,3.002328134428344092e-02,-1.287573397093283792e-02,-2.643134817481040955e-02,3.530297561362176484e-02,-2.270015862520426142e-02,-4.540692487520188100e-03,-1.950183172407695675e-01,-2.304458005055307068e-01,8.394252988637986024e-02,-1.339415307815784439e-01,-2.294866471585164380e-01,-1.605747011362014531e-02,5.253579779793700055e-01,7.555887699127197266e-01
5.470770000000000355e-01,-1.791886215149194120e-02,2.059823683376138873e-02,1.030023455619812012e+00,1.029960877614512389e-02,-1.857295955936644205e-03,1.436017121896941973e-01,2.149941745607627727e-02,-1.542725727865853352e-02,-1.800287887454032898e-02,1.735154847606456066e-02,-1.626839628141867056e-02,2.135225584871577875e-02,-2.139174706615699084e-01,-2.511401550874414190e-01,2.074779465674518319e-01,-1.495896018026792451e-01,-2.426709209613385487e-01,1.074779465674518264e-01,5.246650396162279018e-01,7.506115436553955078e-01
5.712850000000000428e-01,-1.682064854922049602e-02,1.945553814178095295e-02,1.029606103897094727e+00,1.074192767039284027e-02,-1.809348723845971563e-03,1.441689853768064467e-01,2.634847131977986756e-02,-7.285399220701459407e-03,-1.678956113755702972e-02,1.344796241008960370e-02,3.219215299241211248e-02,2.613012879890359505e-02,-2.833551181869459756e-01,1.177852032521575776e-01,3.155553065346656805e-01,-2.217501688566078100e-01,1.192515294100709861e-01,2.155553065346656472e-01,5.227703067722800911e-01,6.515861749649047852e-01
5.973410000000000108e-01,-1.636533177362708633e-02,1.881888357794687938e-02,1.029303669929504395e+00,1.034335662682846907e-02,-2.060938282087088069e-03,1.444938543627862781e-01,3.306175438583199705e-02,-6.768286623537375472e-03,-2.127874828875064850e-02,-2.760236191338026959e-02,-5.970399876391439126e-02,3.038906086154303382e-02,-2.377461018569702045e-01,-2.475296592244928817e-01,2.949850109061937231e-01,-1.769579318433121273e-01,-2.492521631352907774e-01,1.949850109061937176e-01,5.243256093791558436e-01,7.173937559127807617e-01
6.205119999999999525e-01,-1.608055996364859963e-02,1.805221517467304679e-02,1.028840184211730957e+00,9.781313755861904130e-03,-2.124789986683417453e-03,1.450851124925767177e-01,2.439520965120241941e-02,-1.863658010890247713e-02,-1.632425375282764435e-02,-1.847871116809465114e-02,-8.835992535943901216e-03,3.571293735270781450e-02,-2.456867766742255599e-01,-2.409599583851103344e-01,3.096411334775092117e-01,-1.793090735906321675e-01,-2.332708825500839911e-01,2.096411334775091784e-01,5.217936878338612638e-01,5.985841751098632812e-01
6.459319999999999506e-01,-1.588883103444923423e-02,1.752819583882389565e-02,1.028537273406982422e+00,9.780863715722634688e-03,-2.424073385000502512e-03,1.451330967809700834e-01,3.690593794753158768e-02,-9.029113712524836077e-03,-2.032234519720077515e-02,1.474022833953400266e-02,-1.528450854937554726e-02,-1.553476947983769250e-02,-2.182569107203724545e-01,-2.444029124016114385e-01,1.146997608443511008e-01,-1.596743164499017376e-01,-2.473485784899227269e-01,1.469976084435109867e-02,5.246012077804893536e-01,7.341284751892089844e-01
6.715109999999999690e-01,-1.550862497958250576e-02,1.682521609409062813e-02,1.028113126754760742e+00,8.982095759456302370e-03,-2.234574137729428145e-03,1.452394440218585103e-01,2.608996663062810098e-02,-6.427841602802223178e-03,-1.666761375963687897e-02,-4.152738273339520725e-02,-2.271487451513774271e-03,2.094643481456664319e-02,-2.512884387425025068e-01,-1.647179733605299012e-01,3.226169905966763674e-01,-1.993880595903101405e-01,-1.585144857894762727e-01,2.226169905966763618e-01,5.202719324314529770e-01,5.131033658981323242e-01
6.987090000000000245e-01,-1.524834149378912623e-02,1.642228093303915032e-02,1.027827739715576172e+00,8.498088179417155608e-03,-1.844118944955841499e-03,1.454801536890644176e-01,2.569639931377292949e-02,-7.056733768133960014e-03,-2.554608136415481567e-02,-3.926032383537252091e-02,3.038384646832891986e-02,2.072841954278748303e-02,-2.060181207530040470e-01,1.412768586315006347e-01,3.201485791412775339e-01,-1.560501190624850043e-01,1.437040806259281545e-01,2.201485791412775284e-01,5.245121084097666975e-01,7.065839767456054688e-01
7.221410000000000329e-01,-1.495335310848128554e-02,1.636838377301245984e-02,1.027393817901611328e+00,7.936400531423635704e-03,-1.831845818971444828e-03,1.457428573639267810e-01,3.665618387437487302e-02,-5.471497590028418130e-03,-2.977436035871505737e-02,-1.552060858678037079e-02,-6.580535058842401641e-03,1.292774387573819919e-02,-1.927079808245673598e-01,-2.288848606450301637e-01,3.089890905268729560e-01,-1.467037491215181788e-01,-2.356921332884025222e-01,2.089890905268729226e-01,5.255266071351611945e-01,7.431402206420898438e-01
7.479390000000000205e-01,-1.473950592665813214e-02,1.633944604228806594e-02,1.027058005332946777e+00,7.680988362313128856e-03,-1.740919867388779352e-03,1.458210457720137132e-01,2.072434234255210450e-02,-5.431090795633624485e-03,-2.287932485342025757e-02,-1.216945013890182933e-02,-6.225262760224089913e-03,-1.565837839090150618e-02,-2.305839463075440854e-01,-2.587754817607789137e-01,3.006982119945946774e-01,-1.877216415552153683e-01,-2.518765583653695406e-01,2.006982119945946441e-01,5.238622727325263906e-01,6.788971424102783203e-01
7.714520000000000266e-01,-1.440007717784974953e-02,1.635952867176593620e-02,1.026558279991149902e+00,7.594650167704975439e-03,-2.639345681547888844e-03,1.458016556724854862e-01,3.515303443606756367e-02,-7.104743095197835895e-03,-2.639991231262683868e-02,-2.492243076256578371e-02,-2.267022422179658034e-02,1.792427289647985714e-02,-2.205288706047953962e-01,-2.484673953785313805e-01,3.067025439301918066e-01,-1.750990335113953300e-01,-2.497693525229057188e-01,2.067025439301917733e-01,5.249938931835005373e-01,7.244260311126708984e-01
7.965820000000000123e-01,-1.414896623620119122e-02,1.639984820233791191e-02,1.026227474212646484e+00,7.506307766178624274e-03,-3.087065498006635877e-03,1.456385427643211994e-01,3.217550416504832284e-02,2.526038486351348932e-03,-2.595249190926551819e-02,-1.003413100655973361e-02,-2.395948855066279068e-02,-1.338618028238196429e-02,-2.078788835043853533e-01,-2.584175584592547925e-01,3.046843937541473535e-01,-1.714938391024301845e-01,-2.534363087404937764e-01,2.046843937541473757e-01,5.252234988584252307e-01,7.373716831207275391e-01
8.221150000000000402e-01,-1.386921947518123671e-02,1.663513250483411934e-02,1.025711774826049805e+00,7.436503703275308338e-03,-3.477381290198033881e-03,1.461350941940113835e-01,2.028902093061250508e-02,-1.166783780478486974e-03,-2.269457466900348663e-02,-1.632229946937158909e-03,-1.623146234009935004e-02,-8.884264145798373598e-04,-2.137101575062705372e-01,-2.686259003067417162e-01,2.605186926428388339e-01,-1.745472623687532587e-01,-2.517221032969912398e-01,1.605186926428388283e-01,5.250290475246920385e-01,7.378334999084472656e-01
8.472669999999999924e-01,-1.367485073476457612e-02,1.678858324770265975e-02,1.025413036346435547e+00,7.982625280955486444e-03,-4.140741526106994641e-03,1.468705691259997170e-01,2.721041979066195909e-02,-8.119732462927492023e-05,-1.749641075730323792e-02,1.521990067813113780e-02,1.884220436708422888e-02,6.953681161686468826e-02,-2.191534968241564685e-01,-2.174969535893468420e-01,2.413623010827100623e-01,-1.770144638090075384e-01,-2.040800333835408320e-01,1.413623010827100568e-01,5.236803140875675444e-01,6.843194961547851562e-01
8.731240000000000112e-01,-1.332263718219927999e-02,1.703139264394895255e-02,1.025082945823669434e+00,9.538126341057502622e-03,-4.718874130898109698e-03,1.472967049835096631e-01,2.727852663767977096e-02,-1.449079763792538366e-03,-1.156050246208906174e-02,1.031375255496025656e-01,-3.855267046034481461e-04,3.740073517413821866e-03,-2.246465616303262303e-01,-2.066336275449098536e-01,1.635989902549890296e-01,-1.713153061231824092e-01,-1.889937497526968102e-01,6.359899025498901015e-02,5.237674788607318277e-01,7.118749618530273438e-01
8.990000000000000213e-01,-1.306577916562067301e-02,1.722061830397233692e-02,1.024896621704101562e+00,1.025730484167298139e-02,-5.098678812428980578e-03,1.476628073369783412e-01,2.907755912399434192e-02,-3.594055797145572287e-03,-1.296611316502094269e-02,2.991573392559274819e-02,-3.978487451723149854e-02,1.809461094380136054e-02,-2.168355096596789322e-01,-2.625689166704205935e-01,1.604408309231638019e-01,-1.571918138461909642e-01,-2.441156421189459025e-01,6.044083092316378941e-02,5.239632741879245437e-01,7.168053388595581055e-01
9.228659999999999641e-01,-1.261029453658511768e-02,1.670511382832916281e-02,1.024616479873657227e+00,1.107439525676774672e-02,-5.343844994419200134e-03,1.484814350713179465e-01,3.094097140666143136e-02,4.724361952277243010e-03,-2.060060389339923859e-02,1.289466522507707984e-02,1.978542875916329893e-02,5.402341252172099262e-02,-2.132748882980163851e-01,-2.317197763131771948e-01,2.119063177770829365e-01,-1.548094257993802569e-01,-2.142152480976624307e-01,1.119063177770829309e-01,5.246903510288074557e-01,7.251763343811035156e-01
9.488220000000000542e-01,-1.213662025189236882e-02,1.626608136954296388e-02,1.024335503578186035e+00,1.183794889816127544e-02,-5.275346938718339374e-03,1.491350209679631611e-01,1.812117334991715165e-02,2.317291560802461729e-03,-1.702126115560531616e-02,4.192839561124264008e-02,2.222830411653975782e-02,2.194521130386493241e-02,-2.331269933709254616e-01,-2.155275951779443422e-01,1.863482158894547158e-01,-1.675553732721084266e-01,-1.880017784956489746e-01,8.634821588945469639e-02,5.246327603639560078e-01,7.354967594146728516e-01
9.712319999999999842e-01,-1.178794665862664681e-02,1.600262325567545704e-02,1.024078965187072754e+00,1.210608720286427027e-02,-5.313797262538555444e-03,1.493614539403120833e-01,2.754551973881277926e-02,-2.243139318220322385e-03,-1.585939154028892517e-02,-3.059198356008880140e-02,2.564667916466203956e-02,2.794864898651669774e-02,-3.051431638615265118e-01,8.442615056776342497e-02,3.197033797932166133e-01,-2.332452349623863885e-01,1.028047213357177192e-01,2.197033797932166077e-01,5.216043436057686833e-01,5.753318071365356445e-01
9.967690000000000161e-01,-1.144684959758234671e-02,1.573205358934839579e-02,1.023842811584472656e+00,1.254399395644055157e-02,-5.183821093976526129e-03,1.497896258693425242e-01,2.828499732695379312e-02,8.622029511370655694e-03,-2.060922048985958099e-02,8.121593128487930233e-03,2.654929984334132229e-02,1.356231256043195429e-02,-2.860677442444665708e-01,8.853525950407870049e-02,3.147463094552117036e-01,-2.207088782420936202e-01,1.053950412847505513e-01,2.147463094552116980e-01,5.241902270589205992e-01,6.958522796630859375e-01
1.023395000000000055e+00,-1.071475218451284350e-02,1.511051576988151936e-02,1.023507475852966309e+00,1.274189836669581584e-02,-5.284247488859472597e-03,1.501950637905262731e-01,2.508705874340049977e-02,-2.559846572138574968e-03,-1.421802863478660583e-02,2.003647889823450753e-02,-3.914012657055153388e-02,1.609909026862165621e-04,-2.380395328764268736e-01,-2.674664610819548205e-01,1.254997076179158455e-01,-1.607143312666885759e-01,-2.465651739869125503e-01,2.549970761791582607e-02,5.239458657411977249e-01,7.070453166961669922e-01
1.049449000000000076e+00,-1.018268599146606238e-02,1.464265971910755880e-02,1.023270845413208008e+00,1.251265381371337651e-02,-5.531663784048568289e-03,1.505897738430670429e-01,2.471348939199622188e-02,-1.558291748807661336e-04,-1.128512062132358551e-02,-2.608194321026403514e-02,1.248853769742545340e-02,2.582039846437809982e-02,-3.012606835232951585e-01,6.995131392798378811e-03,3.208299530984087822e-01,-2.286407613896514757e-01,2.858285154237732301e-02,2.208299530984087766e-01,5.203207547674717492e-01,5.220901966094970703e-01
1.077498999999999985e+00,-9.386998485662266176e-03,1.392921442472199248e-02,1.022921800613403320e+00,1.260019074967220175e-02,-5.996572645355469078e-03,1.508902359356107947e-01,2.251838942292242948e-02,7.939279457147258023e-03,-1.732164062559604645e-02,2.298908831698200789e-02,-1.972936767867102328e-02,1.606222142968756830e-02,-1.818683570402734873e-01,-2.684255551465631329e-01,1.278554132280915190e-01,-1.144853280373234056e-01,-2.433525695959809776e-01,2.785541322809150649e-02,5.248314312218104183e-01,7.413942813873291016e-01
1.100869000000000097e+00,-8.843656601399295034e-03,1.348736018960714281e-02,1.022722959518432617e+00,1.231559024601591550e-02,-6.157364041642576780e-03,1.510195539745016191e-01,1.885078027767582085e-02,-1.502701979193593780e-03,-1.148798223584890366e-02,-6.319873452648975751e-03,-3.098651839847123973e-02,2.170758778901822617e-02,-2.470088943518681801e-01,-2.530997380412010056e-01,2.738512998575880486e-01,-1.727065605355611044e-01,-2.236160330117603068e-01,1.738512998575880431e-01,5.231956394634067475e-01,6.754922866821289062e-01
1.121968000000000076e+00,-8.320234939333316995e-03,1.292826363601809123e-02,1.022499203681945801e+00,1.208537385987312751e-02,-6.213614740419037830e-03,1.513530753954326347e-01,2.345815757435713161e-02,2.280153073618030549e-03,-1.654976792633533478e-02,-2.531776628054820122e-02,4.581300407558737409e-02,2.295745177613713744e-02,-3.068377421414071327e-01,1.365501017198336164e-01,3.200923592363573711e-01,-2.375844329422502899e-01,1.613323171341605744e-01,2.200923592363573655e-01,5.229925443820032660e-01,6.438694000244140625e-01
1.146641999999999939e+00,-7.476235008678005708e-03,1.193381556613316331e-02,1.022045850753784180e+00,1.144043948000693887e-02,-6.300935489368386655e-03,1.516491443178995535e-01,3.262999293647703136e-02,3.088872031254227390e-03,-1.802227459847927094e-02,1.271823563513637192e-02,-1.586319107937060602e-02,3.867237723020221316e-03,-1.847344940387398160e-01,-2.613737240190293631e-01,1.056047929162875626e-01,-1.182956000754046277e-01,-2.431439825804862231e-01,5.604792916287552711e-03,5.248603393721196220e-01,7.377724647521972656e-01
1.173615000000000075e+00,-6.641529524625701571e-03,1.097126006692200617e-02,1.021589994430541992e+00,1.096787326280775424e-02,-5.786459553469791572e-03,1.521098831876528390e-01,2.290657468097629171e-02,-2.838296870718433687e-03,-1.156994979828596115e-02,-7.409156153370636579e-03,2.015661733020993399e-02,2.342380789437402064e-02,-3.117133163067301593e-01,1.155967187258328255e-01,3.150120129059339469e-01,-2.440259379782775406e-01,1.397863855486668194e-01,2.150120129059339413e-01,5.204390819839368465e-01,5.225726366043090820e-01
1.196263000000000076e+00,-6.117685602362373833e-03,1.036425480349767621e-02,1.021310806274414062e+00,1.095158570824400664e-02,-5.781677010448627030e-03,1.524590773869796134e-01,3.179355595012386265e-02,2.512215111771030598e-05,-1.951288990676403046e-02,-2.660818014304925858e-02,-9.434152640780485433e-03,2.912030610618754692e-02,-2.313802410642411267e-01,-2.357547275413328924e-01,3.037994351671842730e-01,-1.655310203231818156e-01,-2.209006062327514008e-01,2.037994351671842674e-01,5.231117292953414433e-01,6.346852779388427734e-01
1.222069000000000072e+00,-5.260882027555941615e-03,9.657509840585458763e-03,1.020897507667541504e+00,1.079888080228092427e-02,-6.117956498907339835e-03,1.529070059723098840e-01,1.836845383051702654e-02,-1.670055031588215050e-03,-1.892444863915443420e-02,1.988572741202894933e-04,-2.320789245601815459e-02,3.615818116255817283e-02,-1.968033678983146517e-01,-2.732995551760138420e-01,2.527559740113548559e-01,-1.310565320387749311e-01,-2.444762761507886517e-01,1.527559740113548226e-01,5.248080841501974181e-01,7.276041507720947266e-01
1.247665000000000024e+00,-4.681672561335508895e-03,9.252750316240154413e-03,1.020592093467712402e+00,1.070276673257130121e-02,-6.296901700068913144e-03,1.532408477829714233e-01,1.656771721780201517e-02,-6.721931692831477681e-05,-1.828158088028430939e-02,-2.358911212658265991e-02,2.284236361725885608e-03,1.138356288987217059e-02,-2.583440744851440707e-01,-1.599530252224105054e-01,3.150049447823197735e-01,-1.943816336124527533e-01,-1.310412886245747588e-01,2.150049447823197679e-01,5.219961946851561230e-01,5.765800476074218750e-01
1.271006999999999998e+00,-3.838457578181444542e-03,8.705173002816772934e-03,1.020139455795288086e+00,1.084016977803570897e-02,-7.018971327110268277e-03,1.539546941395570911e-01,3.608373223709629429e-02,1.006624763036586406e-03,-1.853671297430992126e-02,-4.627867217527403885e-05,-5.684074873212239393e-02,3.562966599812388002e-02,-1.860039794646063394e-01,-2.565946259993061584e-01,2.529378237240289540e-01,-1.192885313580594325e-01,-2.396466880190045445e-01,1.529378237240289484e-01,5.248114326816151198e-01,7.263913154602050781e-01
1.296291000000000082e+00,-3.282535265792249374e-03,8.382142687485740623e-03,1.019867062568664551e+00,1.114356393591637955e-02,-7.143948637946762048e-03,1.542646282200259567e-01,2.040337225528291235e-02,-1.581722312387275585e-03,-9.045337326824665070e-03,6.659085862188976468e-02,-3.002851401337505288e-03,6.435568807828162020e-03,-2.502566846616385288e-01,-2.021063083131401650e-01,1.520168730799651979e-01,-1.809603050915998268e-01,-1.691109392652378196e-01,5.201687307996517851e-02,5.230501390425025265e-01,6.678924560546875000e-01
1.322441999999999895e+00,-2.448980579831875129e-03,8.003863137819287182e-03,1.019460678100585938e+00,1.127570358827219288e-02,-7.677722363080397017e-03,1.549478599681237689e-01,2.274955193194819550e-02,1.288939657084495769e-03,-1.031323336064815521e-02,1.243472334546667259e-02,-1.595423156300588424e-02,4.765245637159023009e-03,-2.209247087749881544e-01,-2.679511847402532565e-01,1.441286070905869465e-01,-1.525401111564131107e-01,-2.366142388332056201e-01,4.412860709058694791e-02,5.233538367948865622e-01,6.781654357910156250e-01
1.348317999999999905e+00,-1.904532929452030761e-03,7.895670955508877348e-03,1.019192337989807129e+00,1.118085015959071477e-02,-8.133017847905099629e-03,1.556702080971235080e-01,2.684657779329511010e-02,5.273225966394256593e-03,-1.834870316088199615e-02,5.428353431231464077e-04,-3.952853063488738668e-03,5.297745115612231132e-02,-2.081293358870706656e-01,-2.779383943876972407e-01,2.465661853615545851e-01,-1.425745646311996351e-01,-2.473214449801314774e-01,1.465661853615545795e-01,5.242673925274523583e-01,6.949369907379150391e-01
1.374297000000000102e+00,-1.106532213729231494e-03,7.793998241599877155e-03,1.018824577331542969e+00,1.161690665479866470e-02,-8.385745382135878501e-03,1.561852840116262353e-01,1.493300016782845956e-02,-3.165655975809522453e-03,-1.084156334400177002e-02,3.529594028111138898e-02,8.249638125766237812e-03,8.294728250939714664e-03,-2.495157718227255517e-01,-2.262603586432051228e-01,1.459098149247498033e-01,-1.748450114958726709e-01,-1.836001718831558327e-01,4.590981492474979775e-02,5.236149737485825684e-01,6.882116794586181641e-01
1.396023999999999932e+00,-5.630451445837714695e-04,7.729404362071629238e-03,1.018525600433349609e+00,1.180574565807416751e-02,-8.620291109313393818e-03,1.564695415920382970e-01,2.182922829041978111e-02,-5.734228353845925285e-04,-1.109437365084886551e-02,-4.250510585536592528e-02,2.147733283456574813e-03,2.563523909193256983e-02,-2.879938880389754097e-01,-3.894097566345192107e-03,3.117749982256028396e-01,-2.143944531793219310e-01,3.212838383470435766e-02,2.117749982256028340e-01,5.224850212486579215e-01,6.251190900802612305e-01
1.422786000000000106e+00,2.786078013113690356e-04,7.644217804337422213e-03,1.018074870109558105e+00,1.153577351356473504e-02,-8.435173433350318106e-03,1.571732577380335893e-01,2.238418654536659599e-02,6.569596781203356807e-03,-1.599492505192756653e-02,-2.116609291182010300e-02,1.391040757723996033e-02,4.455727133796733713e-02,-2.562998288697118099e-01,-1.584992774228014822e-01,3.072875835599997996e-01,-1.898163646744254196e-01,-1.243191325761269367e-01,2.072875835599997940e-01,5.220790730962406867e-01,5.820888280868530273e-01
1.445300000000000029e+00,9.125966256475887516e-04,7.572255244388532806e-03,1.017786979675292969e+00,1.132932502640677207e-02,-8.055197977128614184e-03,1.571070235870672960e-01,2.173161083888000902e-02,-3.123492472074699926e-03,-1.305132359266281128e-02,-8.422606861923849150e-03,-2.595110224804924454e-02,-1.060032288946864860e-02,-2.569835725305559815e-01,-2.746339956839036200e-01,2.823109967485794014e-01,-1.830866194067304886e-01,-2.416608759038883780e-01,1.823109967485794236e-01,5.227127143079581817e-01,6.271519660949707031e-01
1.471408999999999967e+00,1.886653097339093888e-03,7.453404350332358888e-03,1.017302155494689941e+00,1.103385200322272788e-02,-7.377240876301538464e-03,1.571959962783013864e-01,2.260991095771390860e-02,4.105756902792780105e-03,-1.790487207472324371e-02,-6.610781410418399562e-02,4.580239881109207656e-02,1.955861573415223695e-02,-2.882835492490695151e-01,8.181302965658707183e-02,3.173387467088270575e-01,-2.234511857692887682e-01,1.080786239383304814e-01,2.173387467088270519e-01,5.235652590385915239e-01,6.522111892700195312e-01
1.496864999999999890e+00,2.520996805950118016e-03,7.404579552145636179e-03,1.016914367675781250e+00,1.089429664133333142e-02,-6.929099934916749248e-03,1.571648452006504382e-01,1.945495469911280931e-02,1.010926393132621608e-02,-2.412355132400989532e-02,-3.857861664465445095e-03,2.023546899574018426e-02,1.786356742762122436e-03,-2.815762315101122404e-01,1.154952152220631995e-01,3.196260396620012045e-01,-2.217903942483722690e-01,1.406217596539549863e-01,2.196260396620011712e-01,5.252228646337910867e-01,7.157611846923828125e-01
1.520667999999999909e+00,3.108157828599416792e-03,7.388928809998081965e-03,1.016550302505493164e+00,1.042342098446710254e-02,-6.711822865239414071e-03,1.571829884020532475e-01,1.062983390179107583e-02,9.523356058283229553e-04,-1.470831874758005142e-02,-2.031479611199711946e-02,-3.395430821105607181e-03,1.124624726750450034e-02,-2.365833741347062036e-01,-1.774330769131285956e-01,3.026836968006557660e-01,-1.724892964078624247e-01,-1.464284547612275111e-01,2.026836968006557882e-01,5.230013154549312260e-01,6.310913562774658203e-01
1.547415999999999903e+00,3.741568305918725051e-03,7.517772334819320529e-03,1.016061663627624512e+00,1.020585562683143203e-02,-6.748828372255211150e-03,1.573631165074618199e-01,1.804250555832780448e-02,3.879031335746216218e-03,-8.401003666222095490e-03,-3.852539797752563971e-03,2.175129400289574702e-02,3.275438633966472942e-03,-3.045265989739635026e-01,1.493455529456652608e-01,3.223016720634773180e-01,-2.446990092842801223e-01,1.724212068808295972e-01,2.223016720634773125e-01,5.236905479631493998e-01,6.917693614959716797e-01
1.574372000000000105e+00,4.392652257358822983e-03,7.639557279785643383e-03,1.015635848045349121e+00,1.021465861679572880e-02,-7.035302553922262447e-03,1.577742293332280443e-01,1.937750973229918072e-02,6.152977086099873337e-03,-1.077959593385457993e-02,2.148734384034296438e-02,-5.598852827945292876e-02,2.623225368359789755e-02,-1.946027316657759354e-01,-2.548114694573007100e-01,2.169334836868121175e-01,-1.361027224415975456e-01,-2.305404728395243075e-01,1.169334836868121119e-01,5.238633351188891618e-01,6.902983188629150391e-01
1.599212999999999996e+00,4.785544687183627792e-03,7.738169818867296490e-03,1.015391349792480469e+00,1.025887365627746635e-02,-7.180860103543240669e-03,1.581144597198600454e-01,1.443271883236712377e-02,8.627518571247616086e-04,-3.448598552495241165e-03,2.255083526453676573e-02,-3.632804692039452981e-03,1.327720801709368105e-02,-2.477446976629844588e-01,-1.869362763066186872e-01,1.595835882701212294e-01,-1.849161051273461864e-01,-1.573489949504735530e-01,5.958358827012121689e-02,5.227644612410489167e-01,6.593556404113769531e-01
1.621253000000000055e+00,5.356121637987949075e-03,7.878426816090442625e-03,1.015135049819946289e+00,1.076863989377618153e-02,-7.876007475497992516e-03,1.582961447056192572e-01,2.149826847418138259e-02,7.045487528153791985e-03,-1.265949569642543793e-02,-2.114855804606798409e-02,-4.034520492490116170e-03,-1.193132929076615341e-02,-2.529426227562839857e-01,-1.849074061795074053e-01,3.087753261671844496e-01,-1.916566325778876756e-01,-1.584722156551585104e-01,2.087753261671844440e-01,5.222797819563751442e-01,5.957632064819335938e-01
1.646940000000000071e+00,5.799402404985073631e-03,8.098652187017172169e-03,1.014911651611328125e+00,1.103425518432598826e-02,-7.942575721564981706e-03,1.585379546241745263e-01,1.301685274106217580e-02,1.210595446994258348e-02,-1.520278677344322205e-02,4.963636783332763674e-03,2.032536018063453229e-02,1.659287757841766686e-02,-2.835807893738324648e-01,8.948711262639538755e-02,3.067490051706697196e-01,-2.248414819793648489e-01,1.233775151390355956e-01,2.067490051706696863e-01,5.236740181920408466e-01,6.604032516479492188e-01
1.673521999999999954e+00,6.367911553310006724e-03,8.462989290825720032e-03,1.014573574066162109e+00,1.112208189733097062e-02,-7.740198256323216341e-03,1.588620478036784078e-01,1.462159253541058315e-02,5.169613438583530590e-03,-6.202532444149255753e-03,2.687355767682822472e-02,4.924123971324668309e-02,3.781909457368092149e-03,-3.090211368199166087e-01,1.048809042113737766e-01,3.153517023107373918e-01,-2.433649358074906899e-01,1.351900152654869347e-01,2.153517023107374140e-01,5.233413425455315515e-01,6.770118474960327148e-01
1.699281999999999959e+00,6.732876910048164916e-03,8.705519548663376989e-03,1.014282345771789551e+00,1.130250232010496930e-02,-8.175865295318551773e-03,1.588748814385412267e-01,2.314328494162896585e-02,6.014506610251471944e-03,-9.505698457360267639e-03,-2.027814354417596318e-02,-3.315575773746012866e-02,2.963833770100162204e-02,-2.228213174701603183e-01,-2.032900082002437880e-01,2.937128629670630042e-01,-1.569184914572005762e-01,-1.773588266292607241e-01,1.937128629670629987e-01,5.235207053170717328e-01,6.727118492126464844e-01
1.724952999999999959e+00,7.299564306831014295e-03,9.067087018302473836e-03,1.013683438301086426e+00,1.166998544543437245e-02,-8.298075315847919242e-03,1.589832946527747204e-01,7.075261868630320673e-03,4.879828967598870935e-03,-9.167098440229892731e-03,2.831474657672383710e-02,1.200296928975377875e-02,1.647541783129703036e-02,-2.368380949455369255e-01,-2.230261717795802290e-01,1.521721319931795269e-01,-1.694813951348527747e-01,-1.825417523955119026e-01,5.217213199317950745e-02,5.237553147153815036e-01,6.847331523895263672e-01
1.750855000000000050e+00,7.940991452320335375e-03,9.478244255950344505e-03,1.013286232948303223e+00,1.150783476575389583e-02,-8.639041420245074931e-03,1.586313386593767305e-01,1.725657535540549639e-02,2.050108454299222945e-03,-8.622054941952228546e-03,-1.743342919366678775e-02,-4.029623868859261160e-02,-1.754750307700687906e-02,-2.583849798086664817e-01,-2.258821165640871320e-01,3.025784644067273099e-01,-1.888247336939635479e-01,-1.939357055259628149e-01,2.025784644067273321e-01,5.229968051473657953e-01,6.443629264831542969e-01
1.773500000000000076e+00,8.544911480432444348e-03,9.933828932460831221e-03,1.012877583503723145e+00,1.124485974903557776e-02,-8.398412123709064758e-03,1.585956041941716244e-01,1.643472219221739014e-02,1.160746234977432650e-02,-1.150009781122207642e-02,-2.951471002837043750e-02,6.885588506751126603e-02,7.691803730531653061e-03,-2.994922924327137470e-01,1.364196724413851980e-01,3.199337320422892539e-01,-2.403453220077003960e-01,1.675069089103923548e-01,2.199337320422892206e-01,5.240289459375175873e-01,6.873873472213745117e-01
1.801114000000000104e+00,9.432222998106544118e-03,1.061066701541239429e-02,1.012274026870727539e+00,1.079192957935044828e-02,-8.428322515248387603e-03,1.583500622425109139e-01,1.035067686228005081e-02,1.261155275882406071e-02,-8.319640532135963440e-03,3.859909977043288198e-02,-1.580581063684117354e-02,-3.595839132910950281e-02,-1.924421779616006245e-01,-2.578733786843543374e-01,7.758371814770018138e-02,-1.366739917523212555e-01,-2.223449859575894749e-01,-2.241628185229982764e-02,5.227845261430215107e-01,6.303186416625976562e-01
1.824937000000000031e+00,9.997089465315408402e-03,1.105851159820533426e-02,1.011869668960571289e+00,1.031569266543649367e-02,-8.323971720548994924e-03,1.584767500692356723e-01,9.590305372297970588e-03,3.598530977752169551e-03,-8.340614847838878632e-03,-1.209683787692491852e-04,-2.316624625895028280e-03,1.943414078836783535e-02,-2.274272370654864539e-01,-2.269859136990907689e-01,2.360335813422800577e-01,-1.676308603545128006e-01,-1.918540769887029651e-01,1.360335813422800522e-01,5.231698653113570074e-01,6.497343778610229492e-01
1.851628999999999969e+00,1.045306201029686834e-02,1.148401950235714876e-02,1.011472702026367188e+00,1.030955467664464685e-02,-8.462248284052842351e-03,1.583178119126609218e-01,1.721188898896525502e-02,8.325210396692980103e-03,-9.276840835809707642e-03,2.249287839032294498e-02,-1.330265966833102734e-02,-3.784349396254169107e-02,-1.806604745768504716e-01,-2.571937267891393208e-01,3.215499013191631950e-02,-1.254994726920858061e-01,-2.284470791178248861e-01,-6.784500986808368606e-02,5.229842487046217903e-01,6.344349384307861328e-01
1.876414000000000026e+00,1.086274728352271818e-02,1.179753607128315382e-02,1.011015415191650391e+00,1.038626912336220245e-02,-8.602544804039435888e-03,1.584021401220545577e-01,1.666965700173967529e-02,1.256210293837472028e-02,-8.857556618750095367e-03,2.053148379010705585e-02,-1.792103718431277068e-02,6.367391969104188414e-03,-1.665451298356361298e-01,-2.587579854314645544e-01,9.589767226069002837e-02,-1.139920807218572502e-01,-2.282944003767589380e-01,-4.102327739309978918e-03,5.238587555815982233e-01,6.817994117736816406e-01
1.902342999999999895e+00,1.123627292054792635e-02,1.215873292686269445e-02,1.010598063468933105e+00,1.075234230566698285e-02,-8.514016803255364252e-03,1.580443247830891629e-01,1.210557464357506219e-02,4.410421701031411179e-03,-9.052989073097705841e-03,3.405533960728403947e-02,-3.215814609070413721e-02,-2.509417759811198231e-02,-2.202622073264478009e-01,-2.442438892966967701e-01,3.302758440477550350e-02,-1.588868149543081199e-01,-2.102984329332647784e-01,-6.697241559522450205e-02,5.232651227053198850e-01,6.473336219787597656e-01
1.925189999999999957e+00,1.162836984513913180e-02,1.250761422677586741e-02,1.010123252868652344e+00,1.055129685099426284e-02,-8.085513559209944745e-03,1.581891409534710302e-01,8.726787078652003052e-03,1.102231720296958407e-02,-6.618499290198087692e-03,-1.729031135078428968e-02,4.171954153971858120e-02,7.709702372078500524e-03,-2.778310095154395420e-01,1.504270260750113775e-01,3.208522725613733306e-01,-2.248783105822204920e-01,1.824987710906736116e-01,2.208522725613733251e-01,5.242145845379415636e-01,7.067229747772216797e-01
1.946986000000000105e+00,1.195162243758221901e-02,1.288707746457275552e-02,1.009706616401672363e+00,1.063729063871374225e-02,-7.891496572791423247e-03,1.581963041569991457e-01,2.361892712977407480e-02,1.258241817707547033e-02,-1.632951200008392334e-02,-1.799236732241550618e-02,1.614612756378815822e-02,1.048061017211623057e-03,-2.719793813471134136e-01,1.115078633911915917e-01,3.151636895728459620e-01,-2.174886942144570179e-01,1.295126344310510713e-01,2.151636895728459564e-01,5.241376203004465273e-01,6.620857715606689453e-01
1.975154999999999994e+00,1.245307223311551380e-02,1.358046424027686654e-02,1.009092926979064941e+00,1.121088557585764311e-02,-7.495714842467915418e-03,1.582109304892298507e-01,6.077280779580344731e-03,1.217776352395657374e-02,-1.179158315062522888e-02,3.120389275669617143e-02,1.195363184560237386e-02,-2.243067248827118696e-03,-2.246229029808883282e-01,-1.714441739193573733e-01,1.268630967959445965e-01,-1.684583633082782084e-01,-1.402940372858334228e-01,2.686309679594458405e-02,5.246618187213030193e-01,7.060544490814208984e-01
1.997702000000000089e+00,1.274111252858667158e-02,1.420883634911731044e-02,1.008660912513732910e+00,1.166141091583596315e-02,-7.433133697943627993e-03,1.580816284259387583e-01,9.077817106591975008e-03,9.672585736138529511e-03,-1.200986653566360474e-02,1.025069593260671472e-02,4.592287196902249298e-03,-6.208606268392747457e-03,-2.278567121757247294e-01,-1.797600884171485225e-01,1.670103837291161408e-01,-1.666539501536206946e-01,-1.541568491625871229e-01,6.701038372911612140e-02,5.245862775808272094e-01,6.991932392120361328e-01
2.021583000000000130e+00,1.310001425685709299e-02,1.519459709510704616e-02,1.008040308952331543e+00,1.185135591375205064e-02,-7.745213586675125939e-03,1.580022190056160625e-01,1.626541192627539018e-02,1.800446698341283402e-02,-1.513772550970315933e-02,-6.205551582548663944e-03,-4.048255019519655246e-02,2.806425438189741675e-02,-1.682795059429116058e-01,-2.355744541728554686e-01,2.678931857765908253e-01,-1.128298523359433925e-01,-2.145810627024447304e-01,1.678931857765908475e-01,5.250812896597499835e-01,7.108067274093627930e-01
2.049637000000000153e+00,1.356817582308398815e-02,1.648384928150508147e-02,1.007332682609558105e+00,1.212444040368899391e-02,-8.079347362274669209e-03,1.577603061293164632e-01,6.083076327478519757e-03,1.295019787456890351e-02,-6.069573108106851578e-03,-1.312804621336555178e-02,3.215365064070250817e-03,3.157105353670131009e-02,-2.461822046948902998e-01,2.490854356821975424e-02,2.717437280016793966e-01,-1.856702445130228307e-01,5.737760423046634611e-02,1.717437280016793910e-01,5.236019322305437429e-01,6.636842489242553711e-01
2.073983000000000132e+00,1.413514879086042418e-02,1.676367186446543062e-02,1.006844997406005859e+00,1.229968406334975249e-02,-7.879130525318078782e-03,1.571580948993367421e-01,1.593886685919014209e-02,1.586704543915952101e-02,-8.628024719655513763e-03,1.456507690031096612e-02,1.415143644223076057e-02,-2.500983717244742791e-02,-2.406344379403963785e-01,-1.038400733639541773e-01,1.806965115417253354e-01,-1.811772248051913836e-01,-8.295234944065529858e-02,8.069651154172534369e-02,5.234087773548041778e-01,6.409730911254882812e-01
2.098075999999999830e+00,1.465563165153186374e-02,1.707370527074649619e-02,1.006324172019958496e+00,1.205053442634342054e-02,-7.412022710481025456e-03,1.564764952959134536e-01,2.207291369619461454e-03,1.349330806196135865e-02,-1.147767249494791031e-02,1.552507410241260773e-02,-1.703834707008411442e-02,-4.119767089570212232e-02,-1.701001591998876905e-01,-2.578229966047421717e-01,5.067601323932365009e-02,-1.118300024917059515e-01,-2.275554507591895370e-01,-4.932398676067635546e-02,5.235010407108747765e-01,6.325201988220214844e-01
2.121573000000000153e+00,1.501618297796929527e-02,1.723483953594888776e-02,1.005994915962219238e+00,1.193185847571240008e-02,-7.280815018779751568e-03,1.563541707963025384e-01,5.551770242295421716e-03,1.681484605734122686e-02,-9.978273883461952209e-03,-1.466417629184769457e-02,5.089726340575461555e-02,2.268264327311352718e-02,-2.848837157792438179e-01,1.507910410770024467e-01,3.185605342715479571e-01,-2.300379640626956101e-01,1.748455110442469207e-01,2.185605342715479238e-01,5.246763767255834265e-01,7.006713151931762695e-01
2.149270000000000014e+00,1.552776437028101190e-02,1.732387209717604210e-02,1.005569338798522949e+00,1.245117107849891616e-02,-7.518982909033633533e-03,1.560013930546968464e-01,9.961069126773587634e-03,2.042893950678142945e-02,-1.295385044068098068e-02,3.162707575752506800e-02,1.399926859503934987e-02,-8.560439545925429411e-03,-2.164409461575285687e-01,-1.747607746398998907e-01,1.147999154820775886e-01,-1.603343523790244918e-01,-1.530146493469151658e-01,1.479991548207758474e-02,5.251622579653393297e-01,7.132139205932617188e-01
2.173639999999999795e+00,1.595459364477232883e-02,1.714450053335972446e-02,1.005367875099182129e+00,1.279647157051238583e-02,-7.870195592693862707e-03,1.559939718445642054e-01,1.021799019492763408e-03,1.110854378535789180e-02,-8.181086741387844086e-03,-3.837007676141381517e-03,-5.321821405453201065e-02,1.259184452624070687e-02,-1.800642031664339560e-01,-1.513288742398530839e-01,2.846148532581268542e-01,-1.145723547101765855e-01,-1.189264781302183105e-01,1.846148532581268764e-01,5.245815458245027818e-01,6.997127532958984375e-01
2.197544999999999860e+00,1.659593880339189573e-02,1.683942753439294712e-02,1.005254149436950684e+00,1.362620266735548036e-02,-8.340166675611770941e-03,1.560599775760860286e-01,6.600079058304453294e-03,1.388736510554067390e-02,2.231312217190861702e-03,-2.626543037645516325e-03,2.096543314768829769e-02,1.374399006398480463e-02,-3.189055068527270609e-01,1.567746565570389272e-01,3.160976088243127591e-01,-2.507126461182647703e-01,1.852982029612453285e-01,2.160976088243127535e-01,5.208816371474068729e-01,5.402734279632568359e-01
1.833958099999999902e+01,-1.977575996306239065e-02,-5.033707987972733900e-04,1.007145762443542480e+00,1.091205368216339143e-02,8.081087869797887180e-04,7.156835472073908022e-03,-4.076485450260214881e-03,-2.947392542177978931e-05,-1.995446719229221344e-02,-2.845296052477037929e-02,-3.383947590426159002e-02,2.454113402108970901e-02,-2.599233428160875881e-01,-7.186984254006713313e-02,6.299420643149733490e-02,-1.887517758570980697e-01,-6.151050061520301621e-02,4.293091398485954918e-02,5.265802467169691248e-01,7.369961738586425781e-01
1.836201200000000000e+01,-2.105498056237773905e-02,-8.464355542344523687e-04,1.006683945655822754e+00,1.019929399292457926e-02,6.450212819140155318e-04,7.597324723029208471e-03,-2.004334982040388569e-02,-1.446775063738642590e-03,-1.269449386745691299e-02,3.425907735032131794e-04,-3.448251525716448246e-02,4.222494792906766187e-02,-2.557045976063392345e-01,-1.037881993832254351e-01,-2.648178208244882786e-02,-1.878880328660605670e-01,-7.912186631715077689e-02,-4.780695814664264603e-02,5.259484061229374730e-01,7.290191650390625000e-01
1.838753600000000077e+01,-2.186373603802825236e-02,-1.064018110612410849e-03,1.006359696388244629e+00,1.013438076751778383e-02,6.334414030639834436e-04,7.458863347857613846e-03,-1.284133418144611967e-02,8.112471562224912898e-04,-9.759319946169853210e-03,5.118813913962360056e-04,9.160531856525979885e-03,-2.549966602776281357e-02,-2.575815703729356088e-01,1.833215625170759866e-01,-1.833659297257507759e-01,-1.920308260159847846e-01,2.005430443364511484e-01,-2.042883627286918302e-01,5.244639686167631432e-01,6.585378646850585938e-01
1.841374000000000066e+01,-2.298197875902800030e-02,-1.400731483635306827e-03,1.005963921546936035e+00,9.700480954638379671e-03,1.078858405898053263e-03,7.613856077067771011e-03,-6.449839187857832334e-03,-2.457489801713238099e-03,-2.011307142674922943e-02,-2.855037677845326943e-02,-1.371282760447067699e-02,4.467500242734825412e-03,-2.513935203247827932e-01,2.369470489170399236e-02,-1.628644634166818289e-02,-1.854651191288699263e-01,3.470958185563493420e-02,-3.762705901723992913e-02,5.258780983205196824e-01,6.922731399536132812e-01
1.843884299999999854e+01,-2.365407854335215693e-02,-1.553482838211881975e-03,1.005304336547851562e+00,6.243098972852918760e-03,3.127925459418756660e-03,9.326374997663311461e-03,-1.251975979353257135e-02,8.052646269232939871e-03,-2.418363653123378754e-02,-1.740306861609300648e-01,5.114043050478692121e-02,1.172147236035247508e-01,-6.690992114113913924e-02,7.389624912248247968e-02,9.519114749339463444e-02,-3.241024917635984548e-02,7.789532536397847373e-02,6.907129080606139171e-02,5.269050164163402439e-01,7.285114526748657227e-01
1.847696200000000033e+01,-2.400689948886758004e-02,-1.566837510329119419e-03,1.004728674888610840e+00,2.829149118644984449e-03,3.460841576184314761e-03,1.069181413602904307e-02,-5.241954611554616901e-03,1.348285637541926131e-02,-3.419742360711097717e-02,-1.783452180900491346e-01,-1.623531061997440100e-02,4.146335632780027980e-02,-1.163716978379301520e-01,-1.258809522455158203e-01,1.664865341709684254e-01,-1.068804311492449338e-01,-1.304956837839047756e-01,1.365537267768215934e-01,5.281772275153410190e-01,7.546637058258056641e-01
1.849513500000000121e+01,-2.400689948886758004e-02,-1.566837510329119419e-03,1.004728674888610840e+00,2.829149118644984449e-03,3.460841576184314761e-03,1.069181413602904307e-02,-5.241954611554616901e-03,1.348285637541926131e-02,-3.419742360711097717e-02,-1.783452180900491346e-01,-1.623531061997440100e-02,4.146335632780027980e-02,-1.171135841085309409e-01,-1.270536732801081925e-01,1.664876591327085764e-01,-1.068804311492449338e-01,-1.304956837839047756e-01,1.365537267768215934e-01,5.282043288055243702e-01,7.546637058258056641e-01
1.851518499999999889e+01,-2.430727453762074330e-02,-1.514686363781424369e-03,1.003996610641479492e+00,-1.564200551315038943e-03,2.903674092184393984e-03,1.144972433351432173e-02,-1.667066710391458192e-02,6.174781940494014978e-03,-4.330681264400482178e-02,-2.163258440465158638e-01,-6.755895102205528024e-02,5.302042913906174909e-02,-8.806041536189122831e-02,-2.095867363945586592e-01,6.510611792205248105e-02,-1.006629792471287754e-01,-1.998669069647823482e-01,3.304972612854199104e-02,5.290327341961914565e-01,7.590072154998779297e-01
1.853851699999999880e+01,-2.472733104702699858e-02,-1.461172083165724906e-03,1.002623796463012695e+00,-6.836638782791021156e-03,8.250854321292244720e-04,1.102275199198410327e-02,-5.730001381062940942e-03,1.395194934503000278e-02,-4.856948554515838623e-02,-1.014091030885657940e-01,-6.440820544753084187e-02,-3.804908788876326664e-02,1.729891448382724073e-03,-1.903757610038022408e-01,-2.374495948042968513e-02,-5.236210367803487836e-02,-1.772061895993257419e-01,-5.459324301974325527e-02,5.295557777744149819e-01,7.591900825500488281e-01
1.856287999999999982e+01,-2.501565536803883327e-02,-1.395269641303868496e-03,1.000860452651977539e+00,-1.125769417269988602e-02,-6.945771842272741026e-04,9.590944732928985417e-03,-9.322163111345200051e-03,1.832600821194481713e-02,-7.501238584518432617e-02,-1.346197325332472439e-01,9.913111704452758771e-03,-6.727226296297257602e-02,-1.155062273384530186e-01,-1.564064553953742054e-01,-1.224939729223976093e-01,-2.007102122557353208e-01,-1.287076583783887951e-01,-1.492921270581831217e-01,5.316309529316671778e-01,7.577366828918457031e-01
1.858655600000000163e+01,-2.512961745384751158e-02,-1.310538163972128174e-03,9.985333085060119629e-01,-1.545101879940691952e-02,5.841938240636057600e-04,8.563674868928394801e-03,4.592442130142787571e-03,2.168051932842983767e-02,-8.487984538078308105e-02,-1.319672748219476166e-01,5.352190529324939161e-02,6.272947732387665343e-03,-1.153137581072532780e-01,-8.033117956744609961e-03,-9.240832024455468419e-02,-2.153137581072532836e-01,-6.787315808241119414e-05,-1.163634917488757109e-01,5.325051068871478055e-01,7.533315420150756836e-01
1.861488299999999896e+01,-2.512770779850354713e-02,-7.749793498569147818e-04,9.946907758712768555e-01,-1.965017036279840049e-02,6.231432042532070170e-03,9.029680623817037954e-03,1.866086954566625487e-03,3.443873225537071731e-02,-1.072149276733398438e-01,-9.027960448780045222e-02,1.832956220609253950e-01,6.828777622045713314e-02,-1.072174277090124639e-01,9.974838440158975694e-02,-4.024162603508230074e-02,-2.072174277090124694e-01,7.514238986346453986e-02,-6.560860505282306576e-02,5.336761845373894086e-01,7.086098194122314453e-01
1.864001800000000131e+01,-2.473734180420774850e-02,-6.514798742598402505e-04,9.913852810859680176e-01,-2.176797235920145679e-02,1.087537911548830394e-02,1.049926248121835215e-02,-5.207538460420245170e-04,3.458540213382943485e-02,-1.025552749633789062e-01,-4.004000363603619356e-02,1.080141117315061156e-01,4.617061485801614990e-02,-9.662890313566116496e-02,1.600810120966175698e-01,8.413328735702828298e-02,-1.966289031356611705e-01,1.066777910839957766e-01,5.452596077707887179e-02,5.343566895524269889e-01,7.458856105804443359e-01
1.866175700000000148e+01,-2.407365283654665927e-02,-1.115598200461445817e-03,9.891037940979003906e-01,-2.315667874501455351e-02,1.358928295507189077e-02,1.143596542531111204e-02,1.251273585784339580e-02,4.133787962834560570e-02,-1.121825128793716431e-01,-7.768726766487678292e-02,8.074422833792227472e-02,4.402672785624130863e-02,-9.968796639259233650e-02,1.863166732927849512e-01,1.197333849270900419e-01,-1.996879663925923420e-01,1.042872166288953406e-01,8.737994959644831972e-02,5.350059054046446549e-01,7.284836769104003906e-01
1.868704899999999824e+01,-2.343067479804936473e-02,-1.423093309692233721e-03,9.867565631866455078e-01,-2.437796848069906722e-02,1.499704848945948576e-02,1.207265525438816489e-02,1.025722733097588976e-02,4.491257252176687059e-02,-1.139922514557838440e-01,-8.552926758069063010e-03,3.070916770650510691e-02,2.139007779346641450e-02,-8.362529268184742959e-02,2.025168405739699029e-01,1.665323159550505527e-01,-1.836252926818474351e-01,1.146208066104753565e-01,1.323547227110658253e-01,5.354095357281850598e-01,7.279382944107055664e-01
1.871346300000000085e+01,-2.246955660120203771e-02,-1.554173919678025415e-03,9.830422997474670410e-01,-2.732589345102647699e-02,1.382922339312275817e-02,1.193357985405341104e-02,5.888861692996611059e-03,6.100778366363684285e-02,-1.259813904762268066e-01,-1.088666108831602558e-01,-1.221775982480269446e-01,-4.006636105175895302e-02,-1.274585541292220237e-01,3.097820372604685735e-02,-1.525596737388047741e-01,-2.274585541292220292e-01,-4.687066916325301202e-02,-1.863228172546561867e-01,5.327350230258527386e-01,5.112524032592773438e-01
1.873891499999999866e+01,-2.182661815385460516e-02,-1.252440090080046784e-03,9.790938496589660645e-01,-3.030444978416203458e-02,9.047101645487831689e-03,1.133908182727916270e-02,8.422744900913060537e-03,6.009194454121016132e-02,-1.329437047243118286e-01,-1.107315935120770506e-01,-2.449794848259138902e-01,-1.600451660842089341e-02,-1.263268158925379692e-01,2.882253868728326673e-02,-1.573421947870556614e-01,-2.263268158925379747e-01,-2.084265760031774051e-02,-1.893502364400204974e-01,5.249012786044607859e-01,3.234696388244628906e-02
1.876183599999999885e+01,-2.177115263588012134e-02,-6.938410089766173551e-04,9.762699604034423828e-01,-3.205611820914140014e-02,5.340302655280737554e-03,1.117841951490561314e-02,1.328599782870074509e-03,7.673786175653550534e-02,-1.418760120868682861e-01,-7.752506816489806996e-02,-1.881382880643894806e-01,-2.597713586456305151e-03,-1.255837807237394355e-01,3.697408607359643773e-02,-1.591699819614039446e-01,-2.255837807237394410e-01,1.717846351909720071e-02,-1.905697764338734890e-01,5.221634540056917517e-01,-1.711461544036865234e-01
1.878895800000000094e+01,-2.167457084014100949e-02,5.069662614993343096e-04,9.718011617660522461e-01,-3.535753050345143145e-02,8.096308374507810157e-04,1.300706028004250392e-02,1.343755897082962725e-02,8.234641586858433560e-02,-1.606413573026657104e-01,-1.460957284130629252e-01,-1.291904740404125340e-01,5.892260226361539788e-02,-1.235131015437828939e-01,5.416906626922179946e-02,-1.219707911216763030e-01,-2.235131015437828994e-01,5.341333201719638407e-02,-1.583920765906579042e-01,5.271361156859973862e-01,-2.260208129882812500e-03
1.881144300000000058e+01,-2.151388831080409264e-02,1.569290358633234966e-03,9.686314463615417480e-01,-3.764232213440568686e-02,-8.321635835371044010e-04,1.488167561115139037e-02,4.553104756067662129e-03,9.787827297382942215e-02,-1.640116274356842041e-01,-1.327354308907754687e-01,-1.018407785114417222e-02,1.068827267042345291e-01,-9.268081348118548113e-02,1.167170251863929586e-01,6.780463173490684781e-02,-1.926808134811854867e-01,1.350444182679701177e-01,2.624789472642301280e-02,5.334724788801726847e-01,3.088734149932861328e-01
1.883972699999999989e+01,-2.127254664263469180e-02,3.580167315247571955e-03,9.636232852935791016e-01,-4.144117818625142613e-02,-2.370195421161458427e-03,1.758661944423511869e-02,1.063022907516526089e-02,1.052760489961109408e-01,-1.724201887845993042e-01,-9.883087119374633911e-02,-5.645033374714788360e-02,6.504616217869588213e-02,-1.098147835932343497e-01,9.052129525778698782e-02,-2.411240977512593697e-03,-2.098147835932343552e-01,1.128139700756343178e-01,-5.150214337167473289e-02,5.286045875232546765e-01,-2.162545919418334961e-02
1.886128700000000080e+01,-2.106807995402851241e-02,4.871351321254962195e-03,9.600057005882263184e-01,-4.390960656211884833e-02,-3.129144965563712688e-03,1.892019749238627035e-02,1.467471657828773798e-02,1.148857471693196658e-01,-1.821739077568054199e-01,-1.497009073112904876e-01,-4.657210035423827582e-02,6.971155837061902838e-02,-7.439721171560112478e-02,1.228390160667360981e-01,1.326831920675501930e-01,-1.743972117156011303e-01,1.476564121352569314e-01,7.988334832275999220e-02,5.388939479347899519e-01,4.806897640228271484e-01
1.888595799999999869e+01,-2.088546112949005509e-02,6.375438424644095693e-03,9.562446475028991699e-01,-4.598573753475185960e-02,-4.839237712656707657e-03,1.924151370579818554e-02,1.576609294904660064e-02,1.263562718478622726e-01,-1.908004283905029297e-01,-7.452819104261476646e-02,-1.032769267466090990e-01,-1.052841177786523891e-03,-8.601960394288912792e-02,8.231278635505147323e-02,3.487315033600973946e-02,-1.860196039428891335e-01,1.177979552060230972e-01,-1.874647875113477982e-02,5.307727664395566203e-01,-2.810430526733398438e-02
