timestamp,x,y,z,roll,pitch,yaw,vx,vy,vz,p,q,r,psp,qsp,rsp,pres,qres,rres,thrust_sp, thrust_res
0.000000000000000000e+00,-1.672961750046019977e-02,-2.923109485621953885e-02,9.914534091949462891e-01,1.298906012491131065e-02,1.046429578717145148e-03,6.822339004965274900e-03,1.092526190700687967e-02,2.387039111698446500e-02,1.638406142592430115e-02,6.006921224110479442e-03,1.632974717566665693e-02,3.988854277798755364e-03,-2.714660984650925091e-01,1.788380543565067093e-01,2.078713845052380660e-01,-1.879907011985778864e-01,1.735948920249938965e-01,1.887837231159210094e-01,5.106302491878785821e-01,-3.904229402542114258e-02,-1.039323449134826660e+00,5.744625541068687369e+01,7.817983627319335721e-04
2.612300000000000039e-02,-1.679678800022465709e-02,-2.900764369351378075e-02,9.914959073066711426e-01,1.299711303647939180e-02,1.019554872848216220e-03,6.817781963405357415e-03,9.605222651922974003e-03,2.058847751643995416e-02,1.166860014200210571e-02,3.219411486095481723e-02,-5.149094410670899957e-02,4.525278780689519914e-02,-2.666141163198854636e-01,-1.231676061176708165e-01,-1.178699514775125579e-01,-1.770431399345397949e-01,-1.254624009132385143e-01,-1.369535923004150391e-01,5.141831426505181213e-01,1.321469545364379883e-01,-8.140708208084106445e-01,8.730222121629570609e+01,7.817983627319335721e-04
4.458600000000000063e-02,-1.684493985556086149e-02,-2.879950507504878618e-02,9.914826154708862305e-01,1.271696147909096540e-02,1.168567010937593409e-03,6.667261169929521690e-03,-3.815321888787432856e-04,2.241186493917637912e-02,2.727249404415488243e-03,-5.829552809367717636e-02,-8.839929373466365314e-03,1.649067178639193609e-02,-2.962344458023989935e-01,-1.334205857794635297e-01,1.510280239206667485e-01,-2.106015443801879938e-01,-1.287542581558227539e-01,1.323474884033203069e-01,5.101326319680902222e-01,-1.194956302642822266e-01,-7.922457456588745117e-01,8.914292304666828670e+01,7.817983627319335721e-04
6.935099999999999598e-02,-1.696642022991624518e-02,-2.828437152956771519e-02,9.913268685340881348e-01,1.237818394003070178e-02,1.239346854014611310e-03,6.489681520633940222e-03,6.457649183375998615e-03,2.304499221784701152e-02,6.139042321592569351e-03,-5.358054038083258364e-02,3.165605120799953182e-02,-4.602419670832470777e-02,-2.805620141711821502e-01,1.211700228924994793e-01,1.244871043384284670e-01,-1.976430952548980657e-01,1.185128688812255859e-01,1.063229441642761230e-01,5.098429648675796289e-01,-1.221280097961425781e-01,-8.447886705398559570e-01,8.439693195093907718e+01,7.817983627319335721e-04
1.005360000000000004e-01,-1.720645549679877470e-02,-2.737132955040072826e-02,9.911339282989501953e-01,1.168777115995132086e-02,5.700569619593309767e-04,6.370528877817512557e-03,3.659736732397400128e-04,2.222075408370517355e-02,1.324320863932371140e-02,-1.492143001365557088e-02,-9.980811799974767876e-03,3.772176186116192684e-03,-2.863568615352444224e-01,-1.678294187448983732e-01,-3.652801195078991814e-02,-2.077452242374420166e-01,-1.599793553352355790e-01,-5.438446998596191406e-02,5.041483098945122032e-01,-3.958823084831237793e-01,-1.791480004787445068e+00,1.226915213440177865e+02,7.817983627319335721e-04
1.210320000000000007e-01,-1.730478804965474363e-02,-2.698438599644661581e-02,9.911030530929565430e-01,1.127794309534374366e-02,3.905328485929171478e-04,6.543168325599003736e-03,6.444726980714291040e-04,3.079359675270833610e-02,3.589833853766322136e-03,-5.099358962185950028e-02,9.524421949438177312e-03,4.900497381634810051e-02,-2.426336100183885403e-01,1.769173980518199546e-02,9.245126825784749647e-02,-1.739786624908447321e-01,2.564551234245300224e-02,7.410988211631774902e-02,5.141519662814819647e-01,9.653568267822265625e-02,-1.294004321098327637e+00,1.088325552538741618e+02,7.817983627319335721e-04
1.464459999999999928e-01,-1.760408720226110807e-02,-2.623371586002191252e-02,9.907342195510864258e-01,9.680087698007846381e-03,6.261024943261528364e-04,6.667262283283767292e-03,-5.004269878828172119e-03,2.356248224864152668e-02,-1.108735986053943634e-02,-1.362455575827610788e-01,-1.597288958073711865e-02,1.553378346771149866e-02,-2.675196212781025817e-01,-1.441024278744289511e-01,8.584931400560801007e-02,-2.026605069637298639e-01,-1.328243136405944658e-01,6.715829372406005582e-02,5.127654124972830241e-01,-3.800761699676513672e-02,-8.471418619155883789e-01,1.146436323883968242e+02,7.817983627319335721e-04
1.709340000000000026e-01,-1.782769401392517161e-02,-2.541440582892803488e-02,9.903022646903991699e-01,7.108901900490150264e-03,1.947888810849507379e-03,5.802652864986071642e-03,7.881300578505789217e-03,3.663162623007381463e-02,-1.721607893705368042e-02,-1.926290003241983573e-01,8.629668457720603147e-02,-9.385471436755032926e-02,-2.045505183759886991e-01,1.584814355309395462e-01,2.049941465448188588e-02,-1.684533476829528642e-01,1.501308202743530107e-01,4.267537593841552387e-03,5.124555924970978227e-01,-8.177232742309570312e-02,-7.650233507156372070e-01,8.633077707102312104e+01,7.817983627319335721e-04
1.977760000000000074e-01,-1.803095726643289334e-02,-2.452672485997129531e-02,9.897279739379882812e-01,3.635202542835880984e-03,3.455814761166964288e-03,4.710935778551559455e-03,-6.420861118446507740e-03,3.326521583534181037e-02,-1.769111305475234985e-02,-1.443939282000615554e-01,3.691128490321026606e-02,-9.081277875821190670e-02,-1.934435708144301158e-01,1.058638407846551194e-01,1.030483509095880476e-03,-1.759516775608062633e-01,1.013345360755920355e-01,-1.215562820434570347e-02,5.124620066893763592e-01,-8.702337741851806641e-02,-8.199497461318969727e-01,1.049904099212019162e+02,7.817983627319335721e-04
2.221750000000000114e-01,-1.816894716169712917e-02,-2.356090178975416352e-02,9.890446662902832031e-01,-7.441630475035977861e-04,4.620325825307913803e-03,3.789951819582353977e-03,1.546029536313141880e-03,5.202363392811919923e-02,-2.706415019929409027e-02,-2.336482636541040714e-01,9.236691906254564099e-02,-2.663433804371411265e-02,5.667193893008568017e-02,2.089510576887337046e-01,-6.857194530088081552e-02,2.954338788986205985e-02,1.884754300117492676e-01,-7.917197942733764093e-02,5.119407929354333753e-01,-1.564859151840209961e-01,-9.499837160110473633e-01,1.867826970434808231e+02,7.817983627319335721e-04
2.472139999999999893e-01,-1.844931479019391168e-02,-2.200316344847285874e-02,9.877950549125671387e-01,-8.422545161429441027e-03,5.843372151893344579e-03,2.822833475278915035e-03,1.120882601945147718e-03,4.591630759998959616e-02,-3.990372642874717712e-02,-3.756918302891861794e-01,5.814866851983273299e-02,-3.010595926730230687e-02,1.982434059532070525e-01,1.982377316592157102e-01,-1.695814858418080162e-01,1.278289675712585283e-01,1.715740799903869573e-01,-1.775198936462402399e-01,5.128783152423679326e-01,-1.646944880485534668e-01,-7.193592786788940430e-01,-3.274790546623266074e+00,-4.136736392974853238e-02
2.725210000000000132e-01,-1.863558311661223099e-02,-2.029752863097258192e-02,9.863632917404174805e-01,-1.596692743194028444e-02,6.607162042844949568e-03,1.678708247188098008e-03,-3.579126828511958007e-03,5.529816517395770570e-02,-4.098628833889961243e-02,-2.500131960358167316e-01,-2.943350071501022250e-02,-7.301263489763747117e-02,2.690037369728088268e-01,1.916352250790728795e-01,-1.934619135631452935e-01,1.690037369728088212e-01,1.638797521591186523e-01,-1.982344865798950084e-01,5.115884980210126942e-01,-2.462372183799743652e-01,-9.518250226974487305e-01,2.086267963111513168e+01,-4.136736392974853238e-02
2.979379999999999806e-01,-1.871844668872967715e-02,-1.902239570787156095e-02,9.853655099868774414e-01,-2.110374475097007499e-02,7.382779530031191584e-03,9.789415823167847350e-04,9.554111834386319266e-03,6.549993668657738688e-02,-4.658661410212516785e-02,-2.604275654366367543e-01,4.663162937060275071e-02,-2.544778971316434546e-02,3.093321084976196067e-01,2.522059616216849598e-01,-2.084342628297747302e-01,2.093321084976196289e-01,2.083344519138336237e-01,-2.113268852233886608e-01,5.102626157120035977e-01,-3.459694981575012207e-01,-1.582392096519470215e+00,1.017776050488438102e+02,-4.136736392974853238e-02
3.236600000000000033e-01,-1.879983890331012736e-02,-1.688636884972211788e-02,9.837567806243896484e-01,-2.857984870245462716e-02,7.468558560122184886e-03,1.980519161869267585e-04,-5.792614777539025969e-03,6.670596344525814292e-02,-3.938285633921623230e-02,-3.121375714937401624e-01,5.716379882727407394e-03,-3.069669879660845424e-02,3.116580486297607644e-01,2.352065412200272654e-01,-2.160760285405233516e-01,2.116580486297607311e-01,2.050476729869842585e-01,-2.167823553085327093e-01,5.097362199104240599e-01,-3.547064065933227539e-01,-8.606840372085571289e-01,9.217127183030103765e+01,-4.136736392974853238e-02
3.477190000000000003e-01,-1.904059824707150447e-02,-1.429891437556260990e-02,9.820519685745239258e-01,-3.425031088621324771e-02,5.320651286270905445e-03,1.377017926535627700e-04,-7.157303310242077096e-03,7.945155913895807220e-02,-3.922413662075996399e-02,-1.582336568488991180e-01,-1.486728045978507884e-01,1.782490551196544079e-02,3.123378276824951283e-01,-8.271944015144522266e-02,-2.218383453427006657e-01,2.123378276824951227e-01,-9.983121156692505160e-02,-2.223242282867431696e-01,5.075678287778488951e-01,-4.788619279861450195e-01,-1.162397742271423340e+00,1.140939319338050240e+02,-4.136736392974853238e-02
3.718420000000000059e-01,-1.926882926702364052e-02,-1.135023243638034682e-02,9.804450273513793945e-01,-3.701398730408533844e-02,1.006201496562608710e-03,8.726043663991963793e-04,5.852270685555078546e-03,8.930891487441254550e-02,-4.602709040045738220e-02,-3.757825154606326407e-02,-2.258652443647750918e-01,5.791067151509229211e-02,3.034192323684692383e-01,-2.016767137537315013e-01,-2.216707746904953147e-01,2.034192323684692327e-01,-2.011173605918884222e-01,-2.241104006767273005e-01,5.040999493937096121e-01,-6.986035704612731934e-01,-4.859067201614379883e-01,9.801055764609584742e+01,-4.136736392974853238e-02
3.983140000000000014e-01,-1.964487712103386505e-02,-8.338900691861751702e-03,9.790899157524108887e-01,-3.595211875454475126e-02,-5.049985465704676102e-03,2.786576914366565346e-03,9.147806616559921145e-05,1.066482997208985650e-01,-4.851285740733146667e-02,1.497953553229188217e-01,-2.106697537577279788e-01,7.849757030227953736e-02,2.762779951095580833e-01,-2.088142083062137500e-01,-1.702535870048082489e-01,1.762779951095581055e-01,-1.621550559997558538e-01,-1.777993440628051758e-01,5.137979342603670174e-01,-2.030972838401794434e-01,-8.351277112960815430e-01,1.021457795658641743e+02,-4.136736392974853238e-02
4.246059999999999834e-01,-1.993704969204448951e-02,-6.169073419553737850e-03,9.782043099403381348e-01,-3.379438158656525998e-02,-9.522875395613139560e-03,4.609285124174469610e-03,-2.131766884340565230e-02,9.499521515872956512e-02,-2.781135961413383484e-02,1.210887982300334342e-01,-2.215978659622435398e-01,1.225554458719555206e-01,2.923644542694091575e-01,-2.870592727314241199e-01,-1.825605357543208795e-01,1.923644542694091797e-01,-1.947018384933471569e-01,-1.949716329574584794e-01,5.101725126571214908e-01,-3.204361200332641602e-01,-8.445192575454711914e-01,1.040559785710416350e+02,-4.136736392974853238e-02
4.444379999999999997e-01,-2.012310167426498153e-02,-3.878610771654443685e-03,9.773609042167663574e-01,-2.974713841248504548e-02,-1.440165345360311377e-02,6.538159828668100269e-03,-4.887416046507514315e-03,1.110058883511504391e-01,-3.231083974242210388e-02,2.595446124237735797e-01,-3.009018450440734682e-01,1.024269296336049184e-01,3.095585942268371804e-01,-2.861943721771240123e-01,-1.531503573901313309e-01,2.095585942268371471e-01,-1.861943721771240068e-01,-1.710303425788879395e-01,5.133203198016098590e-01,-1.768661141395568848e-01,-8.663922548294067383e-01,8.918688897435565366e+01,-4.136736392974853238e-02
4.740240000000000009e-01,-2.048082826801811418e-02,2.270391380442825756e-03,9.752962589263916016e-01,-1.780556201692245696e-02,-2.549299409769623104e-02,1.197881683722883117e-02,-2.100743813871887300e-02,1.199016835132724473e-01,-3.032493591308593750e-02,2.495654876512301557e-01,-1.718268040234158522e-01,9.473142654155977671e-02,2.874142408370971569e-01,-2.790187120437622181e-01,-9.218347996663875388e-02,1.874142408370971513e-01,-1.790187120437622126e-01,-1.255125045776367132e-01,5.116083841618096484e-01,-2.716915607452392578e-01,-6.950260400772094727e-01,9.730973925611750985e+01,-4.136736392974853238e-02
5.005239999999999689e-01,-2.065442174067096126e-02,4.859269704636642699e-03,9.743993282318115234e-01,-1.298615840289488697e-02,-2.824546509232472857e-02,1.447258494668892011e-02,-1.944957960566802424e-02,1.267778338876011102e-01,-3.612590208649635315e-02,3.180693250434680763e-01,-1.078336612648127801e-01,1.411347727370553529e-01,2.225613594055175781e-01,-2.349795579910278209e-01,-3.028515808815271382e-02,1.225613594055175726e-01,-1.349795579910278154e-01,-7.084085941314696711e-02,5.172477803872497226e-01,2.814531326293945312e-04,-1.287713646888732910e+00,3.936874592308993925e+01,-4.136736392974853238e-02
5.204940000000000122e-01,-2.079542133667000234e-02,7.375389551683370418e-03,9.734604358673095703e-01,-8.158917306648612658e-03,-2.905464138478297542e-02,1.682110242183463070e-02,-1.246798812173860287e-02,1.373627866569286649e-01,-5.195752158761024475e-02,3.012589076640447283e-01,-1.876271591244830367e-02,1.753743037268444271e-01,1.001674771308899009e-01,-1.525459408760070912e-01,2.407904333588029022e-02,1.674771308898925619e-04,-5.254594087600707869e-02,-2.333325147628784180e-02,5.218443408769870562e-01,1.776003837585449219e-01,-8.384643793106079102e-01,8.154194019863042797e+01,-4.136736392974853238e-02
5.437779999999999836e-01,-2.102021203152898768e-02,1.208184146236788298e-02,9.718839526176452637e-01,-9.159373570729967360e-04,-2.698354845910189148e-02,1.968624380750595357e-02,-1.668169042989911879e-02,1.358156998095122192e-01,-4.585174843668937683e-02,2.661018231791897337e-01,1.459144419992447761e-01,7.842675729822209951e-02,2.914215326309205212e-02,-4.368644952774048545e-02,8.262960321840372158e-02,-7.085784673690795343e-02,5.631355047225952010e-02,2.688993215560913155e-02,5.221674662587071358e-01,2.092001438140869141e-01,-4.193614721298217773e-01,9.030541441321528850e+01,-4.136736392974853238e-02
5.734869999999999690e-01,-2.119537322395970147e-02,1.831298669731146883e-02,9.698566198348999023e-01,1.032718363272251694e-02,-1.986752238168509876e-02,2.363002713070919136e-02,-1.812547027491572330e-02,1.382401385029493335e-01,-5.660158768296241760e-02,3.504685437230135592e-01,2.360145105086178252e-01,1.475332435436063072e-01,-7.913953215963115406e-02,-2.203387022018434005e-02,1.059648971078425705e-01,-1.174094974994659424e-01,7.796612977981566550e-02,3.891697525978088379e-02,5.231278301780272200e-01,2.061207294464111328e-01,-1.067840218544006348e+00,8.459594317278573783e+01,-4.136736392974853238e-02
5.974620000000000486e-01,-2.128362614681365492e-02,2.147242699045921049e-02,9.689126014709472656e-01,1.640447019799748038e-02,-1.483049881456022234e-02,2.497227682255755143e-02,-7.933427787878597273e-03,1.338411356187903800e-01,-5.801952630281448364e-02,3.180627445766112116e-01,2.718134898977258573e-01,8.243188927332174842e-02,-1.375964146658502918e-01,-4.945743680000305731e-02,1.545517571793157685e-01,-1.349605321884155273e-01,5.054256319999694824e-02,8.383669853210448664e-02,5.218107607302877593e-01,1.211607456207275391e-01,-1.174640536308288574e+00,1.303023874757846556e+02,-4.136736392974853238e-02
6.237009999999999499e-01,-2.136752528185917668e-02,2.459414859008849860e-02,9.678441882133483887e-01,2.285398918684610967e-02,-9.501154386039045718e-03,2.617280041767239274e-02,-1.849012128686976925e-02,1.360363395351963378e-01,-6.032555177807807922e-02,3.461977025817258857e-01,3.080147309207439399e-01,2.940950189132632286e-02,-1.838047889801385781e-01,-5.400416168592683808e-02,1.904657233049050213e-01,-1.443772315979003906e-01,3.325885534286499023e-02,1.164261102676391602e-01,5.212801343053503622e-01,7.419657707214355469e-02,-1.256090760231018066e+00,1.042606383593319066e+02,-4.136736392974853238e-02
6.474370000000000402e-01,-2.144182789023721392e-02,2.936217211356060078e-02,9.660483598709106445e-01,3.126739586979807028e-02,-1.402896795439367850e-03,2.768730724334962645e-02,-2.010750198507974332e-02,1.329191033795242283e-01,-6.271205097436904907e-02,2.910199694974184847e-01,2.919630017260933519e-01,8.241263248625517457e-02,-2.425150236231558565e-01,-5.885632916180903729e-03,2.144155988488692377e-01,-1.493134617805480790e-01,2.814263105392456055e-02,1.365241885185241588e-01,5.202882780993470790e-01,-7.576942443847656250e-04,-1.351734995841979980e+00,9.676038031098421754e+01,-4.136736392974853238e-02
6.718190000000000550e-01,-2.125069882827324008e-02,3.448998349672442038e-02,9.643139243125915527e-01,3.733739823799635260e-02,5.820539995716300652e-03,2.799749404069766176e-02,-1.183678995506260573e-02,1.310512152674149500e-01,-6.820717453956604004e-02,1.560134334289788871e-01,2.137449310660229362e-01,-1.795247825482088402e-02,-2.853146970272064098e-01,1.184391112992890932e-01,2.727436820975173704e-01,-1.853146970272064042e-01,9.841067790985107144e-02,1.945704102516174205e-01,5.179796383727651721e-01,-1.589442491531372070e-01,-1.380119919776916504e+00,1.087988687608876575e+02,-4.136736392974853238e-02
6.965630000000000432e-01,-2.114492107775850505e-02,3.952231934591841217e-02,9.623444676399230957e-01,4.124963954968469126e-02,1.036371173660843858e-02,2.770818991878186768e-02,-1.080012156462933047e-02,1.362625074976515638e-01,-7.271274179220199585e-02,1.460414955577261642e-01,1.189429063401819253e-01,-2.938988485280394358e-02,-2.888524591922759788e-01,1.573834388520650163e-01,2.713473941345748708e-01,-1.888524591922760010e-01,1.079319477081298745e-01,1.943829596042633001e-01,5.178500517997254304e-01,-1.974073648452758789e-01,-1.602866053581237793e+00,8.678521004707158681e+01,-4.136736392974853238e-02
7.230710000000000193e-01,-2.107610509515650196e-02,4.282330650694254198e-02,9.610499143600463867e-01,4.212490960033194592e-02,1.226532171765049029e-02,2.719572228643409723e-02,-2.330755273626001350e-02,1.243664876031114336e-01,-6.928469985723495483e-02,4.204698751699865317e-02,9.354291938495148950e-02,-2.842382655787733733e-02,-3.020258784294128640e-01,2.266609161361313185e-01,2.862245547734200146e-01,-2.020258784294128307e-01,1.751266837120055986e-01,2.107216179370880182e-01,5.137017610713129345e-01,-4.165166616439819336e-01,-9.450548887252807617e-01,6.968617296940315953e+01,-4.136736392974853238e-02
7.472180000000000488e-01,-2.100270341731566223e-02,4.768655914670771184e-02,9.590145349502563477e-01,4.135480768406488844e-02,1.388479634003658703e-02,2.557057098941505416e-02,-7.665255889060071381e-03,1.219783245061300536e-01,-6.516423076391220093e-02,-6.869290867060244554e-02,3.863940099651215487e-02,-4.864141973629060312e-02,-2.948411345481872781e-01,1.495156326329590557e-01,2.075736476461423063e-01,-1.948411345481872448e-01,7.365832328796385886e-02,1.369285225868225042e-01,5.155807429512071494e-01,-3.130472898483276367e-01,-4.322091341018676758e-01,-6.906491774551902552e+00,-4.136736392974853238e-02
7.710420000000000051e-01,-2.109427420852892643e-02,5.214319312576314036e-02,9.571481347084045410e-01,3.880962173882161748e-02,1.548210230483126892e-02,2.315615105303535023e-02,9.154725161218560045e-03,1.230072713882273128e-01,-6.918090581893920898e-02,-1.101205232465406747e-01,3.291886195253215103e-02,-1.109937962050680654e-01,-2.952612936496734619e-01,1.448138497419392823e-01,1.887735227552854445e-01,-1.952612936496734564e-01,4.807448387145996094e-02,1.251166284084319902e-01,5.181075581119877205e-01,-2.063761353492736816e-01,-1.216509699821472168e+00,9.042772944087187170e+01,-4.136736392974853238e-02
7.965769999999999795e-01,-2.100072198013439723e-02,5.646140550827049437e-02,9.552465081214904785e-01,3.408340999092106249e-02,1.702288405185714559e-02,2.009119140610705206e-02,-4.529503910934353926e-04,1.238412257019741447e-01,-7.879308611154556274e-02,-2.125242648383087740e-01,5.553492727720272387e-02,-1.027967026149073926e-01,-2.814414412742194949e-01,1.616013127635176905e-01,1.788361594121224418e-01,-1.841420352458953691e-01,6.527888774871826172e-02,1.236716866493225014e-01,5.190957155218552943e-01,-2.050760984420776367e-01,-1.763589203357696533e+00,1.458667493488429159e+02,-4.136736392974853238e-02
8.203390000000000404e-01,-2.082579885788817323e-02,6.078546970372823016e-02,9.532423019409179688e-01,2.789739091072047580e-02,1.702408462878990392e-02,1.617673927322781785e-02,5.867572136902701567e-03,1.165850167313963737e-01,-6.516507267951965332e-02,-2.752047725355090124e-01,-2.088201735676350340e-02,-1.542041337484397756e-01,-2.612552438722521853e-01,1.115084111690521351e-01,1.654435226325483010e-01,-2.016681969165801946e-01,1.150841116905212437e-02,1.211632847785949624e-01,5.203877095561124655e-01,-9.491950273513793945e-02,-1.313918709754943848e+00,1.048439228540726447e+02,-4.136736392974853238e-02
8.452990000000000226e-01,-2.085088183242293780e-02,6.348429002848271496e-02,9.520311355590820312e-01,2.324775927096869518e-02,1.569953642095622826e-02,1.345773252038720037e-02,-2.194458073304202377e-03,1.152055537975056609e-01,-7.516448199748992920e-02,-2.688532170961747680e-01,-9.413526275050687619e-02,-1.664667786813623374e-01,-2.344147388370352303e-01,7.795327167999271945e-03,1.882775662894002333e-01,-2.068942487239837646e-01,-7.784507274627684714e-02,1.513684093952178955e-01,5.217826342956511931e-01,-7.013666629791259766e-02,-1.101431965827941895e+00,9.967407070901995780e+01,-4.136736392974853238e-02
8.705310000000000548e-01,-2.103511694041852731e-02,6.787738104596850730e-02,9.499835371971130371e-01,1.517953195697134376e-02,1.191060277214250895e-02,9.577588517981456065e-03,9.676189992971767281e-03,1.241094408719998765e-01,-7.850585877895355225e-02,-2.976286113213233997e-01,-2.067191137575684901e-01,-9.651171415419891597e-02,-1.605328661915936816e-01,-4.920600651310690077e-02,1.357439688501316244e-01,-1.954624235630035289e-01,-1.199695944786071666e-01,1.094664931297302246e-01,5.183106417638959629e-01,-2.856854200363159180e-01,-6.009773015975952148e-01,1.065960644516668481e+02,-4.136736392974853238e-02
8.936319999999999819e-01,-2.118364028196360188e-02,7.241681374807693028e-02,9.477629065513610840e-01,6.282685500597381782e-03,6.714008905579049724e-03,5.833053360020266573e-03,1.505686351043386724e-02,1.224053211882566994e-01,-8.839301019906997681e-02,-3.794938162779900037e-01,-1.910006870137315738e-01,-1.241342377003690489e-01,1.133565977200512165e-01,-1.141583125665105586e-02,-9.078364070195374391e-02,2.030807733535766602e-02,-5.027965307235717635e-02,-1.068935036659240667e-01,5.192284548690625501e-01,-2.911492586135864258e-01,-8.952332735061645508e-01,-9.205986461474894611e+01,-4.136736392974853238e-02
9.230789999999999829e-01,-2.134428392840865760e-02,7.683957666156131239e-02,9.455977678298950195e-01,-2.654874670257283045e-03,9.413787698511200119e-04,2.513289922528367647e-03,-1.067891619854667226e-03,1.317841773493391433e-01,-8.368759602308273315e-02,-3.091546818067485436e-01,-2.213526327298552254e-01,-1.665053321294615585e-01,2.559065818786621094e-01,-7.867036578667016555e-02,-1.833836523277715125e-01,1.559065818786621038e-01,-6.616086959838866910e-02,-1.904745340347289984e-01,5.192940346359076198e-01,-2.852171659469604492e-01,-1.182354807853698730e+00,9.802856202474799829e+01,-4.136736392974853238e-02
9.479210000000000136e-01,-2.155698409491551074e-02,8.100105804720021674e-02,9.433948397636413574e-01,-1.125852510900562931e-02,-4.705865056419122894e-03,-2.849966329570697665e-04,5.408281830137414564e-03,1.340745010817812610e-01,-7.427034527063369751e-02,-2.632889983625249508e-01,-2.031238494034173225e-01,-6.963063105671461750e-02,3.059037446975708119e-01,-8.957280620830163076e-02,-2.170624811659142839e-01,2.059037446975708063e-01,-4.717991352081298689e-02,-2.163704395294189509e-01,5.165743132503122226e-01,-4.097286462783813477e-01,-9.549056291580200195e-01,1.029670893229906881e+02,-4.136736392974853238e-02
9.739579999999999904e-01,-2.187373954134926718e-02,8.362864518149827620e-02,9.419133663177490234e-01,-1.682505841488345782e-02,-7.887893053725392178e-03,-2.409960557762785231e-03,6.203242240526255467e-03,1.372121449216208156e-01,-7.614772766828536987e-02,-3.275090258801000576e-01,-1.520514957372911813e-01,-9.004262150604959436e-02,3.155789375305175781e-01,-6.872150713333176342e-02,-2.274906399678780222e-01,2.155789375305175726e-01,-4.910016059875487934e-03,-2.208346366882324163e-01,5.168072057897366012e-01,-4.174953699111938477e-01,-1.028526186943054199e+00,9.267435624380749459e+01,-4.136736392974853238e-02
9.983049999999999979e-01,-2.223124263575071771e-02,8.750387931932269991e-02,9.398894906044006348e-01,-2.388181617649197397e-02,-1.181105902369039562e-02,-5.867183432975945669e-03,1.060452257221028600e-02,1.373492170506596388e-01,-7.762265950441360474e-02,-2.499268550441618997e-01,-1.571984317723483793e-01,-1.661651009618358155e-01,3.195896625518798717e-01,-1.992785711199325238e-01,-2.363516008894406828e-01,2.195896625518798662e-01,-1.127425074577331487e-01,-2.199246168136596569e-01,5.163149111733057461e-01,-4.647900462150573730e-01,-6.532710790634155273e-01,9.433953587288908693e+01,-4.136736392974853238e-02
1.028747999999999996e+00,-2.255350385347766953e-02,9.182111927781505534e-02,9.377131462097167969e-01,-2.950569349441681949e-02,-1.341689479412466746e-02,-8.122597137750143387e-03,1.025946357476256558e-02,1.550329139289127744e-01,-8.040600270032882690e-02,-1.044807107430532483e-01,-3.691660906986819063e-02,-2.036250267232287900e-02,3.228671789169311745e-01,-2.857005761428214885e-02,-2.480293391799937575e-01,2.228671789169311412e-01,6.976041197776794434e-02,-2.252240180969238281e-01,5.180379599564037818e-01,-4.001709818840026855e-01,-9.233282804489135742e-01,9.477683190430998650e+01,-4.136736392974853238e-02
1.051006000000000107e+00,-2.281605599713779423e-02,9.471914243812129541e-02,9.363881945610046387e-01,-3.168135892491392297e-02,-1.369159761441696155e-02,-8.727560857739380049e-03,-2.755921597730998096e-03,1.570599338848169824e-01,-6.586753576993942261e-02,-1.174276579844487634e-01,1.458069171207111193e-02,-5.926253804673739349e-03,3.244978904724121205e-01,1.113703370094299150e-01,-2.465088535983468998e-01,2.244978904724121149e-01,2.113703370094299205e-01,-2.219581604003906250e-01,5.165187123328578434e-01,-4.362914562225341797e-01,-8.228322267532348633e-01,9.416850793607197545e+01,-4.136736392974853238e-02
1.073023999999999978e+00,-2.315003874490549965e-02,9.913185701679415318e-02,9.347458481788635254e-01,-3.105459519877625321e-02,-1.430758761734840512e-02,-7.998086366811620745e-03,-2.646386964004223373e-03,1.587063005597503795e-01,-6.128581613302230835e-02,1.126198864465559196e-01,-2.866798581789137615e-02,5.658436894743750639e-02,2.645014882087707297e-01,-1.469654798507690485e-01,-1.527567510024392117e-01,1.645014882087707520e-01,-4.696547985076904297e-02,-1.302783250808715876e-01,5.209098234530318283e-01,-1.949090957641601562e-01,-7.303849458694458008e-01,1.069549908925510238e+02,-4.136736392974853238e-02
1.099823999999999913e+00,-2.356647716952394236e-02,1.036166640712407189e-01,9.335284829139709473e-01,-2.686573734096042027e-02,-1.435617674434963575e-02,-6.330060369200664165e-03,-1.133918139916657852e-02,1.616555577736264460e-01,-4.133484512567520142e-02,1.664593468551636701e-01,6.756146988289677725e-03,4.322736899412624872e-02,2.578241467475891335e-01,3.147011995315543431e-03,-1.058537747247780963e-01,1.578241467475891002e-01,1.031470119953155490e-01,-8.817318677902220847e-02,5.199533957898170300e-01,-1.784791946411132812e-01,-1.761254727840423584e+00,9.894506412833698050e+01,-4.136736392974853238e-02
1.124665999999999944e+00,-2.383730247664624449e-02,1.067605878548794907e-01,9.329448938369750977e-01,-2.183872031926003404e-02,-1.406928840396393099e-02,-4.665763458774302257e-03,-5.222793293510849186e-03,1.815012844532591374e-01,-3.946600481867790222e-02,3.568140928458948813e-01,1.534249713386550557e-02,1.059919468286605604e-01,2.564562201499939187e-01,8.036267757415768709e-03,-1.011634353061521552e-01,1.564562201499938854e-01,1.080362677574157743e-01,-8.832814693450927179e-02,5.213401653538897174e-01,-1.052950024604797363e-01,-1.228547692298889160e+00,3.332474226239691717e+01,-4.136736392974853238e-02
1.150458999999999898e+00,-2.431913375137787631e-02,1.114939792860413642e-01,9.322664141654968262e-01,-1.370892433693390346e-02,-1.257713928095816058e-02,-2.002698007908967556e-03,2.004558672530662271e-03,1.776293545329616363e-01,-3.745092451572418213e-02,2.762509725689649698e-01,4.037607741231591385e-02,1.241666534739052224e-01,2.548396348953246848e-01,8.228542184870513143e-03,-8.992838607036254817e-02,1.548396348953247070e-01,1.063922524452209500e-01,-8.468588590621947687e-02,5.240349749858679296e-01,4.089450836181640625e-02,-9.639276266098022461e-01,9.878807906045341269e+01,-4.136736392974853238e-02
1.176368999999999998e+00,-2.455361708095797971e-02,1.158838253893432202e-01,9.317684173583984375e-01,-3.842613587066037208e-03,-9.378751385259453954e-03,9.350790680330637846e-04,-6.353920944002468957e-03,1.874834632628264997e-01,-2.341385185718536377e-02,4.372985252250375932e-01,1.046048087715512748e-01,1.057763208663316523e-01,2.548762559890747070e-01,2.868893363342264746e-02,-4.381177361009623572e-02,1.548762559890747015e-01,1.134911477565765381e-01,-4.696215391159057340e-02,5.233754299304430591e-01,5.284798145294189453e-02,-1.047758936882019043e+00,9.729147533027689576e+01,-4.136736392974853238e-02
1.195446000000000009e+00,-2.464829622646462839e-02,1.187729315786314327e-01,9.314966201782226562e-01,3.007440046507389199e-03,-7.380576264752747306e-03,3.042874857359505539e-03,-1.717072683291033866e-02,1.820484989923981112e-01,-2.820708416402339935e-02,3.372644184936432477e-01,1.342499350046274520e-01,1.624471261861432370e-01,2.432990193367004506e-01,1.377641794374920292e-02,-4.184311863584828234e-02,1.432990193367004450e-01,9.265297651290893555e-02,-5.096833705902099193e-02,5.252547334780421906e-01,1.302279233932495117e-01,-6.110783815383911133e-01,1.281585140387227000e+02,-4.136736392974853238e-02
1.221313000000000093e+00,-2.500058583829282283e-02,1.245124896305276618e-01,9.313208460807800293e-01,1.733786445958374403e-02,-4.914114910731015584e-03,6.409252287262907737e-03,-9.800990009984394263e-03,1.872274840523252826e-01,-2.684796229004859924e-02,3.591576573758561430e-01,1.048146271321719614e-01,6.188960718891903245e-02,2.185119748115539606e-01,3.363822085256536198e-02,2.493252506995916745e-02,1.185119748115539551e-01,8.876534700393676203e-02,6.370031833648681294e-03,5.252032995847703001e-01,1.265400648117065430e-01,-8.766850233078002930e-01,1.208946215167924976e+02,-4.136736392974853238e-02
1.247184999999999988e+00,-2.515391867967337741e-02,1.287048517219425980e-01,9.313294887542724609e-01,2.625563862507389670e-02,-2.748616454200547565e-03,8.645524110824828398e-03,-8.332065488272387410e-03,1.829192249063458231e-01,-1.686175167560577393e-02,2.571683463136993364e-01,1.022335143730919438e-01,9.433432796966464973e-02,1.227345250317639080e-01,1.948876692549390832e-02,3.169058933589369298e-02,7.298798561096191129e-02,6.015461683273315430e-02,6.943613290786743164e-03,5.246787734559635874e-01,1.332607269287109375e-01,-7.066465616226196289e-01,1.244667284904391238e+02,-4.136736392974853238e-02
1.273570000000000091e+00,-2.576653421050367765e-02,1.343293048793337829e-01,9.313119649887084961e-01,3.420426348838627451e-02,-1.794724584709639359e-03,1.050833423740667009e-02,-2.398193390249082901e-02,1.614171428516518181e-01,-2.006907016038894653e-02,3.169498699143487030e-01,3.728199278158424862e-03,5.245538945663366648e-02,5.407600935279842369e-02,-7.464627769587345307e-02,6.801423150897487058e-02,6.779812574386596957e-02,-2.762110233306884835e-02,3.790411949157714705e-02,5.254980949070856555e-01,1.615412235260009766e-01,-1.074805617332458496e+00,9.501261003445883091e+01,-4.136736392974853238e-02
1.299844999999999917e+00,-2.647840465334100335e-02,1.394530940170417843e-01,9.316219687461853027e-01,4.126339607796016690e-02,-1.601308480171814708e-03,1.251094771135826886e-02,-2.552503457079700541e-02,1.480009698204876045e-01,-3.164297435432672501e-03,2.488048126004762939e-01,1.111016955313160002e-03,6.549311328323903503e-02,-2.864445181024499049e-02,-9.098182320079994945e-02,1.056074655876766549e-01,3.348637819290160855e-02,-4.602009057998657227e-02,6.985073089599609653e-02,5.247763478034949136e-01,1.869952678680419922e-01,-9.274574518203735352e-01,9.758078165295113138e+01,-4.136736392974853238e-02
1.326162999999999981e+00,-2.689286080076611074e-02,1.425750555297246314e-01,9.318791031837463379e-01,4.633267480917393349e-02,-2.125969906532132470e-03,1.348505520031999944e-02,-1.811416741378452794e-02,1.453460389584400880e-01,3.344242228195071220e-03,3.051669354374041410e-01,-1.412323343896471073e-02,4.311011877880639026e-02,-1.038305958155034125e-01,-9.412400764537529052e-02,1.516577178133587389e-01,-1.172305941581726005e-02,-5.168223381042480469e-02,1.131591618061065646e-01,5.242998034433495880e-01,1.844248771667480469e-01,-9.588481187820434570e-01,9.338131497384965485e+01,-4.136736392974853238e-02
1.345250000000000057e+00,-2.736253320574812478e-02,1.458105669519999537e-01,9.322284460067749023e-01,5.103878548608518917e-02,-2.346745395646943066e-03,1.428035696728094731e-02,-2.053324236030045977e-02,1.410759881655439529e-01,7.189429365098476410e-03,2.754287057055253007e-01,-1.213505353142771241e-02,3.814306389181679885e-02,-1.949956178665161188e-01,-1.000679683389364694e-01,1.906554682230995335e-01,-9.499561786651611328e-02,-5.302855968475341658e-02,1.498018383979797252e-01,5.230558109769227748e-01,1.304287910461425781e-01,-1.344497561454772949e+00,8.780510755431622272e+01,-4.136736392974853238e-02
1.370041999999999982e+00,-2.813074933140876505e-02,1.526406481315817631e-01,9.331011772155761719e-01,6.036350898530760262e-02,-2.588515509390099112e-03,1.481576946640666970e-02,-2.586542772384876204e-02,1.235733530081027515e-01,9.865958243608474731e-03,2.421771669968367513e-01,8.447181959002944551e-03,-3.932859237421355153e-02,-2.972765088081359974e-01,2.384842734990250818e-02,2.549396621226085458e-01,-1.972765088081359919e-01,7.675538063049315574e-02,2.123875916004180908e-01,5.090487528451644872e-01,-6.089732050895690918e-01,-1.158591628074645996e+00,5.030417589750924634e+01,-4.136736392974853238e-02
1.395159999999999956e+00,-2.850248829430172132e-02,1.559483592293733623e-01,9.336593747138977051e-01,6.454589579443012481e-02,-2.569770052740505406e-03,1.501847447276016996e-02,-1.387557758743860822e-02,1.278641630189737421e-01,1.299613341689109802e-02,2.493263704447967744e-01,3.197748417067174109e-02,-8.368643742621102027e-03,-3.082740306854248047e-01,7.412509709261461133e-02,2.599951484954640124e-01,-2.082740306854247991e-01,1.168614864349365179e-01,2.170208930969238226e-01,5.079007898675232946e-01,-6.585792899131774902e-01,-5.848850011825561523e-01,-9.977165362169192520e+01,-4.136736392974853238e-02
1.419529000000000041e+00,-2.895371783806070798e-02,1.605502497651798421e-01,9.347083568572998047e-01,6.869289225220059913e-02,-1.296419399599013644e-03,1.493631900758054729e-02,-8.704215419309975152e-03,1.112671149002398691e-01,6.472465582191944122e-03,9.477719933118779194e-02,1.111886692952676892e-01,3.779099073595160174e-02,-2.556380748748779408e-01,-3.369990811048487883e-02,2.229231911434607916e-01,-1.556380748748779352e-01,-1.157855987548828038e-03,1.803751051425933893e-01,5.107616953379081615e-01,-5.303570628166198730e-01,-9.559937715530395508e-01,1.192292574726033081e+02,-4.136736392974853238e-02
1.447667999999999955e+00,-2.931881669204327440e-02,1.663599116968293434e-01,9.358127117156982422e-01,7.066424938681273304e-02,2.420200767746738535e-03,1.375805926038364303e-02,-1.376092528913499917e-02,9.892704162451373961e-02,8.570520207285881042e-03,1.295002509109772527e-02,1.580661335227570297e-01,-8.115591340332893588e-02,-3.061131536960601807e-01,1.062726564381857863e-01,2.467409705800108766e-01,-2.061131536960601751e-01,1.200704455375671276e-01,2.078916728496551514e-01,5.118286106005813796e-01,-4.635074138641357422e-01,-1.043736577033996582e+00,7.788724257754000746e+01,-4.136736392974853238e-02
1.474237000000000020e+00,-2.938459670843162827e-02,1.696268342550762975e-01,9.363437891006469727e-01,6.963976376249027267e-02,4.688764192874339543e-03,1.308949262972551424e-02,2.018898131309325265e-03,1.070584886568158312e-01,7.982680108398199081e-04,-2.587148256152838749e-02,1.235301482424109171e-01,-5.096487930719664078e-02,-3.022086083889007346e-01,1.725162764026322848e-01,2.350251940019671693e-01,-2.022086083889007568e-01,1.586203873157501221e-01,1.986518025398254228e-01,5.140411653546117510e-01,-3.779513835906982422e-01,-1.390956759452819824e+00,2.531178972438056718e+01,-4.136736392974853238e-02
1.497654999999999959e+00,-2.935394769467598863e-02,1.741717561710428852e-01,9.371212124824523926e-01,6.560247967905340205e-02,8.015901778127609845e-03,1.097072187692357814e-02,6.211227919515643035e-03,9.414688681870428399e-02,-1.237258780747652054e-02,-2.170985778949030554e-01,1.358558491089622844e-01,-5.435973538847400227e-02,-2.965829074382781982e-01,7.100318974430178121e-02,2.079560935038841374e-01,-1.965829074382781927e-01,3.515514135360717912e-02,1.779615819454193060e-01,5.168298463018510258e-01,-2.805510759353637695e-01,-8.482366800308227539e-01,9.729458989653842593e+01,-4.136736392974853238e-02
1.522958999999999952e+00,-2.932292011654720476e-02,1.770424096026428362e-01,9.375344514846801758e-01,6.142095801303080332e-02,9.451205976311882750e-03,9.135168199949616694e-03,3.650842556687124412e-03,8.075232461781109428e-02,-8.571127429604530334e-03,-2.722958650486741461e-01,3.166181592685843316e-02,-8.008896071373239334e-02,-3.101475000381469505e-01,6.583136487164695239e-02,2.033722969296122285e-01,-2.101475000381469727e-01,2.389671206474304130e-02,1.786025941371917614e-01,5.145634263015521626e-01,-3.884584903717041016e-01,-5.358072519302368164e-01,7.333574111842690968e+01,-4.136736392974853238e-02
1.544788999999999968e+00,-2.924192249829950241e-02,1.810602981842635295e-01,9.380529522895812988e-01,5.381874236324248745e-02,1.009365299569831009e-02,5.871145242521279457e-03,1.219289577257758441e-03,8.160825772444414705e-02,-1.690553314983844757e-02,-3.037058568462999708e-01,9.569741900183880226e-03,-1.557885085327878061e-01,-3.123958170413970725e-01,3.345395488809838752e-02,1.801657158255027535e-01,-2.123958170413970947e-01,-1.030075550079345703e-02,1.645133614540099931e-01,5.193647595174983866e-01,-1.659281253814697266e-01,-1.156774401664733887e+00,1.064364975722770055e+02,-4.136736392974853238e-02
1.571307999999999927e+00,-2.946265110221312628e-02,1.859479756137462081e-01,9.384486675262451172e-01,4.301077561230227941e-02,9.550827844322817839e-03,1.506735769836098230e-03,2.336437613296146526e-04,7.019330516115780683e-02,-2.172013185918331146e-02,-2.813372541556994344e-01,-2.032451659463116109e-02,-1.150599743695217558e-01,-2.974102753163068158e-01,-1.863909139511862184e-02,1.694034165561182081e-01,-2.118811726570129228e-01,-5.720186233520507812e-02,1.657877326011657770e-01,5.218058480085843165e-01,-5.529618263244628906e-02,-1.271223187446594238e+00,1.047176736374541264e+02,-8.387229442596436102e-02
1.594011999999999984e+00,-2.957661225830123669e-02,1.880977867920277935e-01,9.385778307914733887e-01,3.716352010361503172e-02,8.781953757117433312e-03,-7.775438073614172017e-04,1.027107912803333981e-02,7.544040547063994573e-02,-3.172199800610542297e-02,-3.527735038239077636e-01,-4.757031405707193294e-02,-8.946781175946755260e-02,-2.506366657873572157e-01,-6.130925746167578683e-02,1.716882731035385967e-01,-2.104984223842620850e-01,-1.022794961929321261e-01,1.744681119918823076e-01,5.233117660219854805e-01,-1.798868179321289062e-02,-1.292248606681823730e+00,1.225986171109272789e+02,-8.387229442596436102e-02
1.617952000000000057e+00,-2.965864421932837974e-02,1.902462001542004344e-01,9.385852217674255371e-01,3.144430146197790821e-02,7.459142683595265666e-03,-3.376014086914297038e-03,-4.308092252942130260e-03,5.854624574243534607e-02,-2.481152117252349854e-02,-3.660134154207008161e-01,-8.802195426314218807e-02,-1.313173606016127537e-01,-2.221637192435248764e-01,-1.063111137163160885e-01,1.077162067607556062e-01,-2.075883507728576716e-01,-1.252113103866576982e-01,1.174200654029846080e-01,5.217579839355749316e-01,-7.825577259063720703e-02,-8.267475366592407227e-01,9.075580391727510232e+01,-8.387229442596436102e-02
1.645586999999999911e+00,-2.977394164369649016e-02,1.943134582245806818e-01,9.384149312973022461e-01,2.002201641181649769e-02,4.358073259090877727e-03,-8.009007788334262731e-03,6.167687489264326792e-03,5.938884523806595150e-02,-2.829563058912754059e-02,-3.075300353979537604e-01,-1.210119356583166800e-01,-1.123549109547858221e-01,1.092171248008396572e-02,-8.665314029969363452e-02,-1.239342649346496517e-01,-5.488189458847046037e-02,-9.472267627716064731e-02,-1.014132499694824219e-01,5.198022569304081575e-01,-2.032352089881896973e-01,-8.977123498916625977e-01,8.368427684312911197e+01,-8.387229442596436102e-02
1.669839999999999991e+00,-2.971958062171986548e-02,1.962303613488325937e-01,9.383937120437622070e-01,1.393380290679074526e-02,3.016993883470986404e-03,-1.018987095210942447e-02,1.438131906109374296e-02,7.409955277640833948e-02,-4.765307530760765076e-02,-3.845857003543328712e-01,-2.936303621420865637e-02,-1.075099540790461078e-01,2.383837819099426381e-01,1.478792732788903053e-01,-2.163580467025537912e-01,1.383837819099426325e-01,1.439765095710754395e-01,-1.877768754959106279e-01,5.199705895418479384e-01,-2.772647142410278320e-01,-8.114231824874877930e-01,9.891355646569572002e+01,-8.387229442596436102e-02
1.695880999999999972e+00,-2.959760145538658377e-02,1.990202006988157080e-01,9.381576776504516602e-01,4.172613500810306783e-03,1.836620421060031205e-03,-1.335144985302250467e-02,7.727457440837752663e-03,6.518068870172678830e-02,-3.159891813993453979e-02,-3.871035759972742407e-01,-1.700315367733378890e-03,-1.472947242917267974e-01,3.032723188400268666e-01,1.745412259221973406e-01,-2.425494809887950576e-01,2.032723188400268610e-01,1.850339949131011852e-01,-2.052346229553222712e-01,5.189384148927611573e-01,-2.745954990386962891e-01,-1.276294350624084473e+00,8.566642506102350296e+01,-7.853810787200928012e-02
1.717926999999999982e+00,-2.941856981752050126e-02,2.008613827917066497e-01,9.380767941474914551e-01,-2.092734092285009669e-03,1.194219246046568372e-03,-1.528933595141847464e-02,1.541355084323525054e-02,7.575683015281058086e-02,-3.448357060551643372e-02,-3.479144213060730295e-01,-2.584082090895028008e-02,-1.130370571541448044e-01,3.115122079849242942e-01,1.843007062365407678e-01,-2.538298518128335735e-01,2.115122079849243164e-01,1.922847747802734208e-01,-2.110612392425537109e-01,5.180866613169393675e-01,-3.379618525505065918e-01,-7.551344633102416992e-01,9.211988831717502535e+01,-7.853810787200928012e-02
1.745600000000000041e+00,-2.898293762715308322e-02,2.046018397358709551e-01,9.377583265304565430e-01,-1.470491052445352387e-02,1.276161532266284482e-03,-1.882303316851349426e-02,2.237730659989718360e-02,7.809593435248174398e-02,-4.114066809415817261e-02,-3.785812893009716795e-01,2.020940791380852405e-02,-2.640957898344071034e-02,3.195390939712524636e-01,2.053292868484249134e-01,-2.716945339904761614e-01,2.195390939712524303e-01,2.084941506385803167e-01,-2.189939260482788030e-01,5.180184042902193919e-01,-3.746474981307983398e-01,-7.234243154525756836e-01,9.674759419685796047e+01,-7.853810787200928012e-02
1.769946000000000019e+00,-2.873587324157602166e-02,2.063853894077601614e-01,9.375895857810974121e-01,-2.005126105804637404e-02,1.909364648470912584e-03,-2.009730176798818491e-02,1.680435759491942169e-02,8.069331777837859820e-02,-3.384180366992950439e-02,-3.193734900469542559e-01,3.047885015878880333e-02,-6.955952204188856069e-02,3.218171477317809948e-01,2.058512210624380279e-01,-2.760241876228495261e-01,2.218171477317809892e-01,2.102253913879394420e-01,-2.197577834129333385e-01,5.178827345365958346e-01,-3.589875698089599609e-01,-9.720062017440795898e-01,9.582683688541604283e+01,-7.853810787200928012e-02
1.799355999999999955e+00,-2.842401262730824205e-02,2.095725893029485587e-01,9.377872347831726074e-01,-2.581413252038843378e-02,2.895801818353138657e-03,-1.926085336288452590e-02,3.748795612716775832e-03,8.976313580652151014e-02,-1.360410731285810471e-02,-8.472758730432103369e-02,6.751082243890638157e-02,8.167595439236936816e-02,3.205353021621704102e-01,2.134156296987156087e-01,-2.610287038721990638e-01,2.205353021621704046e-01,2.206124782562255693e-01,-2.071087360382080078e-01,5.150638302186136830e-01,-4.343988895416259766e-01,-6.280585527420043945e-01,5.004615184123367300e+01,-7.853810787200928012e-02
1.820111000000000034e+00,-2.840749120500404498e-02,2.103269365009823033e-01,9.380089044570922852e-01,-2.549265576497196373e-02,2.429936508798302697e-03,-1.876192035071609643e-02,1.730497092152994895e-02,9.164375503463892403e-02,-2.095178933814167976e-03,-9.337669103009073324e-03,-5.182534265159551359e-03,8.879863119441436248e-02,3.133371114730835183e-01,2.004327879411920144e-01,-2.532999971791243254e-01,2.133371114730834850e-01,1.982305884361267034e-01,-2.007562994956970104e-01,5.159868825576811036e-01,-3.419081568717956543e-01,-9.078370332717895508e-01,8.067883651397259825e+01,-7.853810787200928012e-02
1.846168999999999949e+00,-2.828658389582293375e-02,2.127015742054290948e-01,9.389084577560424805e-01,-2.123725245683164009e-02,-1.116192713008778981e-04,-1.637942962722636897e-02,1.888408314974444543e-02,9.663137886749659233e-02,1.262807287275791168e-02,2.153500858444064303e-01,-1.188405769843190879e-01,1.190469152359145549e-01,2.647770762443542591e-01,-1.586777738145227906e-02,-1.764626428719932305e-01,1.647770762443542536e-01,-1.023995876312255816e-03,-1.306435704231262152e-01,5.181099566368273512e-01,-1.692622900009155273e-01,-1.181828141212463379e+00,9.949470994141542235e+01,-7.853810787200928012e-02
1.870635999999999965e+00,-2.832280931056208387e-02,2.153391447612937881e-01,9.401945471763610840e-01,-1.340148459137696473e-02,-4.126884255744700525e-03,-1.360541398079654664e-02,1.735703146458576719e-03,9.939151292643236268e-02,3.945736587047576904e-02,3.449450449517170725e-01,-1.616187310397744215e-01,6.025026379583008768e-02,2.810641288757323997e-01,-1.611359201500403571e-02,-1.411160828719073002e-01,1.810641288757324219e-01,3.854448795318603238e-02,-1.033004522323608398e-01,5.176974161028807808e-01,-8.203142881393432617e-02,-1.027836441993713379e+00,9.855217798689950826e+01,-7.853810787200928012e-02
1.896330000000000071e+00,-2.849413961128171788e-02,2.181297514672749793e-01,9.417224526405334473e-01,-4.132415909976624828e-03,-8.387523177266320573e-03,-1.002104967421224221e-02,-6.178523238656053254e-03,1.023246673173584531e-01,3.781354799866676331e-02,3.062959364006906382e-01,-1.186890505533221563e-01,1.800917492361861771e-01,2.552522301673889049e-01,-7.962945980724790707e-02,-1.420378864267507202e-01,1.552522301673888994e-01,6.247222423553466797e-03,-1.146082520484924261e-01,5.201684801883375009e-01,4.903340339660644531e-02,-1.041141152381896973e+00,9.644953157166776236e+01,-7.853810787200928012e-02
1.920101999999999975e+00,-2.865195702569971539e-02,2.200624779986004587e-01,9.427686333656311035e-01,2.173054548415731015e-03,-1.162005243928154741e-02,-7.732898637432128117e-03,-8.344909318538107097e-04,9.447594919998821006e-02,5.645774677395820618e-02,3.261546933498148393e-01,-2.416239253504744999e-01,1.069684687169803750e-01,2.805712819099426270e-01,-1.888472795486450251e-01,-1.225452320680357060e-01,1.805712819099426214e-01,-8.884727954864501953e-02,-1.017663359642028836e-01,5.165503094841602527e-01,-6.747835874557495117e-02,-1.134143710136413574e+00,8.473702073009235392e+01,-7.853810787200928012e-02
1.944509999999999961e+00,-2.899349454727968844e-02,2.229708304560590049e-01,9.442878365516662598e-01,1.177166185036187217e-02,-1.614098125996354938e-02,-3.763018621383861385e-03,-4.717565986750002840e-03,1.027853612475861378e-01,5.252249911427497864e-02,4.113115752593611840e-01,-1.817278310189701096e-01,1.558616377466232328e-01,2.399104595184326227e-01,-1.738600254058838002e-01,-6.359940885451920156e-02,1.399104595184326172e-01,-7.386002540588378074e-02,-5.454926490783690990e-02,5.195925911624598159e-01,8.528363704681396484e-02,-9.542688131332397461e-01,9.580774650668585934e+01,-7.853810787200928012e-02
1.975170000000000092e+00,-2.935243691496888449e-02,2.270536187555024510e-01,9.463987946510314941e-01,2.365049408659300467e-02,-2.285420646808633549e-02,1.002442085981922410e-03,-9.792727966619434871e-03,9.707498749133836036e-02,5.613048374652862549e-02,3.476527016891467481e-01,-1.821580582976971840e-01,1.136509880872522554e-01,2.320487260818481501e-01,-2.162675380706787220e-01,-1.483464859118308402e-02,1.320487260818481445e-01,-1.162675380706787026e-01,-2.010240554809570104e-02,5.163617666089526104e-01,-6.560856103897094727e-02,-8.465925455093383789e-01,1.247915859477432718e+02,-7.853810787200928012e-02
2.000131000000000103e+00,-2.926643548656724172e-02,2.292173640305849858e-01,9.474177360534667969e-01,2.903566200486425858e-02,-2.510684260599727047e-02,3.185539332988722352e-03,-1.111543555630816089e-02,1.058062157662873065e-01,4.280079901218414307e-02,3.257975765752839648e-01,-1.167815604567460502e-01,1.370058006387217253e-01,1.617923915988132011e-01,-2.185990571975708063e-01,1.515612221449136321e-03,8.404140472412109653e-02,-1.185990571975708008e-01,-1.035279035568237305e-02,5.195041881789312921e-01,5.317318439483642578e-02,-9.453474283218383789e-01,8.919903305069993849e+01,-7.853810787200928012e-02
2.024268999999999874e+00,-2.920599919372531342e-02,2.323028102891225855e-01,9.487457275390625000e-01,3.689729774762386810e-02,-2.673863468121351339e-02,5.796342500826376365e-03,-1.489163008771498750e-02,9.806678185383048418e-02,5.549740791320800781e-02,2.926585278802207313e-01,6.687603657606636977e-03,1.076814205539930874e-01,8.448549048570855313e-02,-1.877633094787597712e-01,4.517509747654013808e-02,6.136250495910644531e-02,-8.776330947875976562e-02,2.546784281730651855e-02,5.203806845482651378e-01,1.564629077911376953e-01,-1.041308045387268066e+00,9.413125608433871605e+01,-7.853810787200928012e-02
2.049939999999999873e+00,-2.918167153136261641e-02,2.352207563618964326e-01,9.499087929725646973e-01,4.460105913979853925e-02,-2.615088881600002857e-02,8.538617820718005791e-03,-8.475384110035353094e-03,9.295575470869672785e-02,4.544269666075706482e-02,2.910383994545816533e-01,6.445815491717420131e-02,1.235025366171795397e-01,-2.467990429113064293e-03,-1.554719448089599554e-01,5.662364024623799119e-02,2.504228353500366142e-02,-5.547194480895995677e-02,2.907611131668090543e-02,5.222345260101289854e-01,2.214195728302001953e-01,-9.676779508590698242e-01,5.808023356944745785e+01,-7.853810787200928012e-02
2.071302999999999894e+00,-2.922758158007313437e-02,2.370360770669295847e-01,9.507560133934020996e-01,4.960808960770992510e-02,-2.435939431965872259e-02,9.944264737480215319e-03,-1.828667726777980992e-02,8.144963452903268564e-02,4.657922312617301941e-02,2.521501093308379793e-01,1.232094169248849624e-01,8.529913082801481028e-02,-6.566489119146121101e-02,-8.468952178955078958e-02,6.649112533434656247e-02,3.470063209533691515e-04,1.531047821044921771e-02,3.489021062850952010e-02,5.199459200616308729e-01,1.059973239898681641e-01,-8.678132295608520508e-01,8.442923874571323495e+01,-7.853810787200928012e-02
2.099612000000000034e+00,-2.898043030848174509e-02,2.408637863353617903e-01,9.521154761314392090e-01,5.766106191484569876e-02,-1.994720412267225740e-02,1.162360184250380013e-02,-1.638791135095156448e-02,7.483697208987762084e-02,5.042350664734840393e-02,3.027082747978317445e-01,2.058975792105758040e-01,3.502813470499176185e-02,-1.723790526390075739e-01,-8.784111738204956887e-02,1.227068630802608667e-01,-7.237905263900756836e-02,1.215888261795043841e-02,8.673094511032104770e-02,5.183615265766395863e-01,4.135608673095703125e-02,-5.147637128829956055e-01,9.207285563455032218e+01,-7.853810787200928012e-02
2.120512999999999870e+00,-2.886957047403221691e-02,2.432870147119658710e-01,9.529039263725280762e-01,6.270005446783410985e-02,-1.589959931771556256e-02,1.269627248939190177e-02,-1.113879587848633571e-02,6.848042534809646587e-02,4.496673122048377991e-02,2.944267168748639363e-01,2.558014564591109541e-01,6.718294838743951725e-02,-1.934805631637573353e-01,-8.218437433242797852e-02,1.365960839674241201e-01,-9.348056316375731589e-02,1.781562566757202010e-02,9.811574220657348633e-02,5.181143608310340154e-01,9.744524955749511719e-03,-8.185223340988159180e-01,9.877323705938697174e+01,-7.853810787200928012e-02
2.152616999999999781e+00,-2.868416195519734799e-02,2.475375919094628119e-01,9.544473290443420410e-01,7.246181524487932402e-02,-6.522068355532928408e-03,1.382410734649369005e-02,-1.419878174075685229e-02,4.975833363652211461e-02,5.144323781132698059e-02,2.096782308831035835e-01,3.228086216258833629e-01,-5.786212663604578619e-04,-2.488862395286560170e-01,-4.852357787555397484e-03,2.183516749469615603e-01,-1.488862395286560114e-01,6.906647086143492820e-02,1.778520226478576549e-01,5.127556889224004211e-01,-2.443802356719970703e-01,-6.617919206619262695e-01,8.138023547003037095e+01,-7.853810787200928012e-02
2.175600000000000200e+00,-2.857054305561083918e-02,2.492737037863066996e-01,9.551869034767150879e-01,7.636352534501764100e-02,-1.836381508293793985e-03,1.409835979210089310e-02,-1.820924634947801435e-02,4.182183893471565217e-02,4.774110391736030579e-02,2.147490865292933648e-01,2.686435311394809178e-01,-2.109917643324106876e-02,-2.631356000900268444e-01,9.328570788656245782e-03,2.323594119522505719e-01,-1.631356000900268388e-01,5.548979043960571012e-02,1.917131245136260986e-01,5.073575923185962289e-01,-5.427089333534240723e-01,-1.037629961967468262e+00,9.255023121602084757e+01,-7.853810787200928012e-02
2.201322999999999919e+00,-2.829915707490395990e-02,2.522402628618203857e-01,9.562121033668518066e-01,7.954312739843021063e-02,4.860105162038719229e-03,1.470523043410334324e-02,-5.059250414229391672e-05,3.947218180727696951e-02,3.450578078627586365e-02,9.337960512588339146e-02,2.282243740318114777e-01,7.140755136788580482e-02,-2.475822925567627009e-01,1.760896526176301824e-01,2.244626375784055661e-01,-1.475822925567626953e-01,1.633858680725097656e-01,1.835672557353973389e-01,5.068829826336598288e-01,-6.165027022361755371e-01,-1.390871405601501465e+00,1.746009453757363517e+01,-7.853810787200928012e-02
2.224623999999999935e+00,-2.799488674596068566e-02,2.550170854308940749e-01,9.570037722587585449e-01,7.985823278509214529e-02,1.058953905613013724e-02,1.459177773466981999e-02,-2.508959982381099487e-03,2.415565274705386636e-02,3.204353153705596924e-02,-9.700376702999899403e-02,1.988374871790161702e-01,-3.500134159653047611e-02,-2.622693717479706033e-01,2.425749729641859531e-01,2.264995769246271051e-01,-1.622693717479705700e-01,1.972748816013336071e-01,1.867375731468200739e-01,5.109984125537579969e-01,-4.044084548950195312e-01,-1.064842581748962402e+00,9.985258453316741623e+01,-7.853810787200928012e-02
2.249074999999999935e+00,-2.769530260601476418e-02,2.573598114013909699e-01,9.577509164810180664e-01,7.800608352813497015e-02,1.470903761193187442e-02,1.401827930520519079e-02,-1.402777958174476758e-02,1.454643340136865109e-02,3.557824343442916870e-02,-7.213518953168811254e-02,9.715962039629480462e-02,-6.231795015162063661e-02,-2.843743860721588135e-01,2.554877375723254018e-01,2.226199939913470205e-01,-1.843743860721588079e-01,1.924222111701965332e-01,1.848807334899902344e-01,5.096915081902017031e-01,-4.571470022201538086e-01,-1.330841422080993652e+00,7.353206807592975736e+01,-7.853810787200928012e-02
2.273252999999999968e+00,-2.725658711670614701e-02,2.592564344064827164e-01,9.584711790084838867e-01,7.364883384054490834e-02,1.786095496670370153e-02,1.321288929646210683e-02,-2.599405425913512303e-03,3.735932845919379217e-03,3.343766182661056519e-02,-1.781201044125494959e-01,1.103842681899555589e-01,-1.467196862308581132e-03,-2.769274652004242165e-01,2.948836638775867436e-01,2.183885025718224071e-01,-1.769274652004241832e-01,2.008276104927062822e-01,1.835643231868743785e-01,5.091585833759728619e-01,-4.908107519149780273e-01,-9.164403676986694336e-01,1.017914020309672338e+02,-7.853810787200928012e-02
2.297981000000000051e+00,-2.722846101113915104e-02,2.611102599574316452e-01,9.590014815330505371e-01,6.773417200954151562e-02,1.994407725138103160e-02,1.107247926298879359e-02,6.449432633093119330e-03,-1.742922792224239209e-02,2.360577881336212158e-02,-2.748863787147911020e-01,7.833050198832988698e-02,-6.727734553000627726e-02,-3.041696429252624401e-01,2.560358643531799316e-01,2.195191720422346449e-01,-2.041696429252624345e-01,1.560358643531799261e-01,1.909294009208679088e-01,5.096795518304135797e-01,-4.994434714317321777e-01,-7.608784437179565430e-01,6.705987644107405288e+01,-7.853810787200928012e-02
2.322956000000000021e+00,-2.719214300016064081e-02,2.621091670450362288e-01,9.592153429985046387e-01,6.362452734315028613e-02,2.060934768269717665e-02,9.423304232924544638e-03,1.279526270975048403e-02,-1.529953593482617086e-02,2.065529488027095795e-02,-2.442294270709653714e-01,1.305010240279034194e-02,-9.267169808857091129e-02,-3.149491369724273793e-01,1.864323616027832031e-01,2.165283354304091135e-01,-2.149491369724273737e-01,8.643236160278319757e-02,1.926414549350738414e-01,5.099304948007059579e-01,-4.984652996063232422e-01,-1.193473696708679199e+00,9.988986370565733353e+01,-7.853810787200928012e-02
2.351392000000000149e+00,-2.696477206285200282e-02,2.633269401113241259e-01,9.593814611434936523e-01,5.669643684250752491e-02,1.993902500833710789e-02,6.658608861467160515e-03,1.006227236450971639e-02,-2.224790654601959544e-02,1.112270634621381760e-02,-2.361109413042190297e-01,-6.816404328333350304e-02,-1.098180356749558911e-01,-3.176207244396209717e-01,9.422638416290284036e-02,2.154370173991319304e-01,-2.176207244396209661e-01,-5.773615837097167795e-03,1.989435911178588923e-01,5.110460961829048632e-01,-4.772168397903442383e-01,-7.688788175582885742e-01,9.789299643010157581e+01,-7.853810787200928012e-02
2.376205000000000123e+00,-2.687670644040408841e-02,2.639301891191837557e-01,9.594126939773559570e-01,5.214745762139691432e-02,1.803920449890994426e-02,4.570836262220628020e-03,1.605214966555693415e-02,-2.607803222302354854e-02,1.683302409946918488e-02,-2.702891330181149687e-01,-1.316006616797562867e-01,-7.060322024018957088e-02,-3.142958939075469749e-01,-1.776471138000487726e-02,2.145978656469810786e-01,-2.142958939075469971e-01,-1.177647113800048828e-01,2.036998450756072887e-01,5.132708613555825305e-01,-3.370068073272705078e-01,-1.061334013938903809e+00,9.249041241926987311e+01,-7.853810787200928012e-02
2.400555999999999912e+00,-2.642017174137535618e-02,2.645344067885808115e-01,9.597138762474060059e-01,4.508337362648160568e-02,1.349354762357357629e-02,1.223514825769320309e-03,2.027925812976209829e-02,-3.348591625575992464e-02,2.389159612357616425e-02,-2.597724021458721055e-01,-1.805214510950018392e-01,-1.557220484592785059e-01,-2.961647154313431507e-01,-5.269085924558028489e-02,2.004202169940650369e-01,-2.140919029712677057e-01,-1.290341377258300837e-01,1.982677280902862549e-01,5.126732189561450381e-01,-3.402827978134155273e-01,-6.222785711288452148e-01,6.053523578358181823e+01,-7.853810787200928012e-02
2.422921000000000102e+00,-2.605815094742148716e-02,2.648827663700608070e-01,9.597734212875366211e-01,4.009543329710326537e-02,9.456117478687353639e-03,-8.803307073901645886e-04,1.348329990622799089e-02,-3.315436117762214641e-02,1.735698245465755463e-02,-2.375092834539109521e-01,-2.366500339053897450e-01,-1.433314228568384474e-01,-2.610926329138262836e-01,-1.071781134802205493e-01,1.923934268852711682e-01,-2.133904874324798473e-01,-1.510483503341674694e-01,1.955484151840209961e-01,5.125807644667303986e-01,-3.721679449081420898e-01,-8.895682096481323242e-01,8.766833301618672181e+01,-7.853810787200928012e-02
