timestamp,x,y,z,roll,pitch,yaw,vx,vy,vz,p,q,r,psp,qsp,rsp,pres,qres,rres,thrust_sp, thrust_res
0.000000000000000000e+00,-6.507612356664535871e-03,3.733772136216172155e-02,1.003783822059631348e+00,1.619989833201402121e-02,-9.463664259043991223e-03,1.320251006533323945e-03,6.938450348063279240e-03,-4.743281386504598525e-03,1.905822544358670712e-03,1.756121063849355388e-02,1.323085368078777760e-02,4.646013878061141383e-02,-2.996984134284368939e-01,1.566448754717132130e-01,-2.174583200174802777e-01,-2.140898004931107990e-01,2.165812937034457264e-01,-2.214032851203060481e-01,5.208323856623711112e-01,4.991606473922729492e-01
2.129599999999999896e-02,-6.319902046561871184e-03,3.713478205108047131e-02,1.004310488700866699e+00,1.605364431392243899e-02,-9.655955048877951086e-03,1.155835819968586975e-03,1.888308906844982571e-03,-1.218968893514672455e-02,9.306858293712139130e-03,1.049603292540562775e-02,-6.597621924689350825e-02,-4.072278598439834502e-02,-2.571755654660434209e-01,2.180492576659603943e-02,2.514074149363526925e-02,-1.671920273317318018e-01,8.801105714463725027e-02,2.164396329817703038e-02,5.246642876116414111e-01,7.387621402740478516e-01
5.022499999999999881e-02,-6.087840970093676141e-03,3.673203673706339212e-02,1.005065917968750000e+00,1.572506430652718251e-02,-9.705340612074841999e-03,1.359286619251331985e-03,5.388496811676646465e-03,-1.417191643048284697e-02,7.015950046479701996e-03,-4.475764461670693473e-02,2.353487480065684367e-02,8.008848811192252962e-03,-3.118689844522096744e-01,1.595685598691305995e-01,1.955154171009375885e-01,-2.233301503009844369e-01,2.223659391459341939e-01,1.914682649754855526e-01,5.243386944551954310e-01,7.156245708465576172e-01
7.323699999999999655e-02,-5.949140018863771986e-03,3.647213492386636863e-02,1.005501747131347656e+00,1.569834322956310813e-02,-9.648074580506982301e-03,1.595695493154414280e-03,1.478722671942809229e-02,-8.681627510677365767e-03,-5.898759234696626663e-03,-1.279149374677904412e-02,2.405650310721286871e-03,2.686546089602763129e-02,-3.074636408122787268e-01,1.657825663364001501e-01,1.874064453507771899e-01,-2.237028708208822769e-01,2.210056624183432683e-01,1.827183059963495004e-01,5.255175343696643075e-01,7.303341627120971680e-01
9.532899999999999707e-02,-5.781766980651661253e-03,3.623538107671402803e-02,1.005877733230590820e+00,1.414260522033649117e-02,-9.643444899756437039e-03,1.465361577228208034e-03,3.375158216345133279e-03,-4.643130052928663709e-03,-4.845206160098314285e-03,-1.156069325824532618e-01,1.035106717089632686e-02,-2.745190494902902817e-02,-2.360825609382716794e-01,1.516187927037300764e-01,-2.216864895022931381e-01,-1.648668137596283056e-01,2.173150567161964974e-01,-2.260347346066550189e-01,5.257307041177632367e-01,7.476189136505126953e-01
1.231750000000000067e-01,-5.323290193902259319e-03,3.584091673605949852e-02,1.006308913230895996e+00,9.050531932383977865e-03,-1.017449364480516039e-02,-2.159735028304243798e-04,1.728842139623705358e-03,-7.504423341750497342e-03,-1.296324562281370163e-02,-2.559095287705551724e-01,-4.915305004546335205e-02,-5.001549061357331988e-02,1.305460138925360336e-01,1.511117701794405244e-01,-2.258020525733997752e-01,1.717306562914656110e-01,2.196856413428552313e-01,-2.253710855238651167e-01,5.264066747535968149e-01,7.537457942962646484e-01
1.450750000000000095e-01,-5.033142831776326633e-03,3.560828093754214718e-02,1.006586074829101562e+00,4.083866614846686817e-03,-1.175701757053948526e-02,-1.857316781952444984e-03,3.823159528329831292e-03,1.932777248759942168e-04,-4.300061147660017014e-03,-2.585999791234464551e-01,-8.427912381433470823e-02,-1.005555790818065676e-01,2.085022795927465034e-01,1.445135734694595331e-01,-2.293226467191100404e-01,2.107245478762737878e-01,2.213065689429493110e-01,-2.242515720977480698e-01,5.257687833147061118e-01,7.543921470642089844e-01
1.728750000000000009e-01,-4.787480136543085206e-03,3.548512454788626397e-02,1.007085680961608887e+00,-4.301891768387567511e-03,-1.584432182291539704e-02,-9.655051297861039217e-04,-2.267685842239207383e-03,-1.631742599027551565e-03,1.548253931105136871e-03,-3.036513961649177640e-01,-2.184009551254681714e-01,2.871543784707372704e-02,1.816812088983992685e-02,1.133815320818906958e-01,-2.026490921502626386e-01,-3.156481318122399821e-02,2.133815320818907013e-01,-1.999234554185369273e-01,5.251701825717705052e-01,7.473597526550292969e-01
2.002269999999999883e-01,-4.784190965857464985e-03,3.539975156915704108e-02,1.007847666740417480e+00,-9.546131519891537173e-03,-2.109501146937486915e-02,2.071152808860610151e-03,-1.722967334727148678e-02,9.144369948456125986e-04,1.067279186099767685e-02,-1.476818283634511730e-01,-2.233830618026141079e-01,1.025243654808081772e-01,4.766120612996111588e-02,-2.297695655348154509e-01,2.213052612156030940e-01,-3.855767319828067724e-02,-1.297695655348154453e-01,2.156992156350129031e-01,5.236170805460079736e-01,7.029263973236083984e-01
2.217159999999999964e-01,-4.934911001466499823e-03,3.534757369812667471e-02,1.008624911308288574e+00,-1.007766126322717087e-02,-2.510706370540760624e-02,4.590123268876089568e-03,-1.664960454989919750e-02,5.261503075226865375e-03,1.155292708426713943e-02,1.390685423351746379e-02,-1.582542941475422460e-01,1.255028288793091640e-01,1.717473528707395003e-01,-1.832190028777132829e-01,2.147679187556023883e-01,7.888466517084073704e-02,-8.321900287771327731e-02,2.021400293263914405e-01,5.238449201037753689e-01,7.228229045867919922e-01
2.477459999999999940e-01,-5.336844841870555349e-03,3.535413337209533657e-02,1.009953141212463379e+00,-8.438763660033972089e-03,-3.087285477847445669e-02,7.608894789596254427e-03,-1.907149981771248323e-02,-1.848099473583561438e-03,2.764873206615447998e-02,1.149193827596543122e-01,-1.547964772806861566e-01,8.842515387648972047e-02,1.104289363983995131e-01,-2.973456291242705385e-01,1.747353786998819547e-01,3.454223001105741903e-02,-1.973456291242705607e-01,1.536744883624849567e-01,5.225513371261334417e-01,7.234566211700439453e-01
2.698800000000000088e-01,-5.523511931077865027e-03,3.537674497527313472e-02,1.010885357856750488e+00,-6.749862552531729273e-03,-3.240948070714222418e-02,6.659668013382136209e-03,-1.102376774739940481e-02,-5.188507366011129579e-04,3.036642260849475861e-02,1.053815681425287476e-01,-2.533792335776220359e-02,-1.217767889201313708e-01,5.823052765378206042e-02,-3.400356563224872508e-02,1.523233352791749096e-01,-8.959398637599204698e-03,6.599643436775128047e-02,1.338268854468037117e-01,5.215015732014316452e-01,6.831486225128173828e-01
2.957879999999999954e-01,-5.679961788279649752e-03,3.554833101837159143e-02,1.012192606925964355e+00,-3.737747773072243405e-03,-3.070371292174378652e-02,4.165288917989729001e-03,-1.832941843812447040e-03,1.056245099023150891e-02,1.388355437666177750e-02,7.443761552204086751e-02,9.867171993249053419e-02,-6.928317971842368195e-02,2.587122863819639185e-01,1.005573189036285953e-01,-1.208638157756932452e-01,2.020143316957044299e-01,2.005573189036286008e-01,-1.325810954453539303e-01,5.226161574676261301e-01,6.847351789474487305e-01
3.246569999999999734e-01,-5.683181559369375295e-03,3.555403480526223708e-02,1.012932181358337402e+00,-1.197157414575796778e-03,-2.722233565811382761e-02,2.275869041258760106e-03,-1.447735426269663138e-02,1.523224574258440212e-02,1.686672493815422058e-02,1.319629446891138758e-01,1.909858507115925197e-01,-1.227513611299845125e-01,2.541222664752190719e-01,1.073060571100157568e-01,-1.531265854069109866e-01,2.114595997091433810e-01,2.073060571100157623e-01,-1.596717243423253496e-01,5.221495003628807696e-01,6.755855083465576172e-01
3.464519999999999822e-01,-5.669551720540868395e-03,3.544049562647093310e-02,1.013557314872741699e+00,7.575782034623420973e-04,-2.389527538881108804e-02,9.633417164023327928e-04,-2.407183193319808318e-02,1.203707245086918683e-02,9.209221228957176208e-03,7.823479099962243888e-02,1.797887328246020044e-01,-1.203199058956210335e-02,2.429619147961622483e-01,1.183148649604032765e-01,-1.126894224329768185e-01,2.162000577127199674e-01,2.183148649604032820e-01,-1.156012237513121127e-01,5.231036505152959482e-01,7.006202936172485352e-01
3.725899999999999768e-01,-5.961751473334182122e-03,3.537107078631807761e-02,1.014561057090759277e+00,6.045983602137470526e-03,-2.113658337425361466e-02,8.725487649654528610e-04,-2.338826659369422356e-02,1.733524943174129251e-02,2.165726572275161743e-02,2.099874070003975024e-01,5.393954998330512812e-02,3.816555669015441604e-02,-2.198556369580564329e-01,8.927113495909783092e-02,-6.257295335818538473e-02,-2.172856713714452215e-01,1.892711349590978365e-01,-6.541219041522963740e-02,5.226902191140064824e-01,7.331092357635498047e-01
3.985650000000000026e-01,-6.584993098839844218e-03,3.525869964009127611e-02,1.015650629997253418e+00,1.333998164546133271e-02,-2.147414160036742459e-02,2.334440018884054169e-03,-3.264548815544304067e-02,1.239555282517653713e-02,2.284361980855464935e-02,2.890998984447707976e-01,-6.220099246061869952e-02,1.016717837568930222e-01,-2.725749078334138709e-01,2.041549100322141708e-02,8.595816802452611871e-02,-2.179065971753355035e-01,1.204154910032214226e-01,7.876249875285991353e-02,5.227889566592046622e-01,7.493579387664794922e-01
4.197359999999999980e-01,-7.095933045234683635e-03,3.516175970605834450e-02,1.016438245773315430e+00,1.814648472072815516e-02,-2.285618216413154435e-02,3.248744543518977679e-03,-4.965441860119897827e-02,1.022766638814025589e-03,3.800234198570251465e-02,2.413925574960048559e-01,-8.508382303446854200e-02,9.304443561487499639e-03,-2.939438139657915006e-01,-1.973055507941688935e-01,9.011078238777391058e-02,-1.996905984908261822e-01,-9.730555079416887410e-02,8.012442195096085296e-02,5.212488434427258177e-01,7.316415309906005859e-01
4.486129999999999840e-01,-7.860138515167621256e-03,3.506705149306976049e-02,1.017471194267272949e+00,2.183324675935835110e-02,-2.527118992855026391e-02,4.355985515863247670e-03,-2.934816334267009025e-02,1.629378480018598557e-02,1.832198910415172577e-02,-2.309365121209788416e-02,-8.919540378761418864e-02,-2.529510914407936614e-02,-2.507764814488206984e-01,-3.176851738395569669e-01,1.282233816867386356e-01,-1.507764814488207206e-01,-2.176851738395569613e-01,1.149154327311720653e-01,5.217121323566930036e-01,6.848865747451782227e-01
4.732310000000000128e-01,-8.117637004223920288e-03,3.509231780120944388e-02,1.017757296562194824e+00,2.182029182506066076e-02,-2.582893060403645968e-02,4.176499881749951015e-03,-4.086711740884080984e-02,1.365190371288535834e-02,2.330184727907180786e-02,-2.596085376385260518e-02,-7.512279784552537698e-02,-7.372947963878526134e-02,-2.983275065873792764e-01,-3.172171874288521876e-01,1.928170420589228051e-01,-1.983275065873792709e-01,-2.172171874288521820e-01,1.799424551618388213e-01,5.217911924324476480e-01,7.119252681732177734e-01
4.953879999999999950e-01,-8.600595480393945919e-03,3.520532185134689351e-02,1.018199443817138672e+00,1.927049481034686512e-02,-2.577908631075143120e-02,3.922816549036145517e-03,-4.034417855855702145e-02,2.583285371752402568e-02,1.547333598136901855e-02,-1.613914049718481458e-01,3.245445720506202197e-02,2.200116490096218347e-02,-2.953241741661906672e-01,1.123174592688542528e-01,-1.735703970650669115e-01,-2.142474146456198880e-01,2.123174592688542583e-01,-1.856828337953631836e-01,5.228777291608418532e-01,7.431069612503051758e-01
5.221569999999999823e-01,-9.310205012504344999e-03,3.556012825885064566e-02,1.018552660942077637e+00,1.187878731300997040e-02,-2.255444505399784028e-02,2.446824035007955089e-03,-3.872067524358521057e-02,2.527943577763756139e-02,-5.099602043628692627e-03,-2.466452949343063417e-01,1.659633127245369322e-01,-7.892741792308446969e-02,-2.461231353720814696e-01,1.107239540015672874e-01,-1.707883166735615355e-01,-2.110903087718831173e-01,2.107239540015672929e-01,-1.783491728389758335e-01,5.235286002181099851e-01,6.992363929748535156e-01
5.460469999999999491e-01,-9.556512222579754620e-03,3.605503395400622840e-02,1.018606901168823242e+00,5.390713884291186385e-03,-1.816148922620186568e-02,1.267108713851383683e-03,-3.232491478334868079e-02,2.794583974191446052e-02,-1.348961703479290009e-02,-3.654485230797169248e-01,2.558258037151227571e-01,-5.659279114559173651e-02,-1.965747588562904435e-01,1.180574705663482993e-01,2.940332299432513868e-02,-2.064144557934643742e-01,2.180574705663483048e-01,2.546812177197144839e-02,5.241666219590147557e-01,7.011930942535400391e-01
5.723439999999999639e-01,-9.846261195090058940e-03,3.727130457804695568e-02,1.018630266189575195e+00,-3.698548896500829155e-03,-1.169291813277517633e-02,1.458007344163902985e-03,-3.832912267536514594e-02,3.382565877516920116e-02,-4.468595143407583237e-03,-2.665349162675517136e-01,2.103524901794984470e-01,8.078331223288125196e-02,-1.471423336555285344e-01,1.196422171818224134e-01,1.924251772056421173e-01,-2.215612328944228382e-01,2.196422171818224189e-01,1.882464014040394762e-01,5.239046399001787702e-01,7.232193946838378906e-01
5.990320000000000089e-01,-1.044539855552731322e-02,3.857939807468058896e-02,1.018771886825561523e+00,-1.151419772344090646e-02,-8.793965504681588996e-03,3.137610449821748304e-03,-5.007510475850823761e-02,3.784915926247748447e-02,-2.159397816285490990e-03,-1.899617774582736396e-01,1.973173752926531827e-02,2.971951777031055578e-02,2.374042310911943510e-01,1.184901423018730748e-01,1.721327139894717750e-01,1.374042310911943454e-01,2.184901423018730804e-01,1.634174938142282096e-01,5.196231870018566124e-01,5.019218921661376953e-01
6.216709999999999736e-01,-1.089218311461988623e-02,3.948558072289708176e-02,1.018923640251159668e+00,-1.667683748726973836e-02,-8.841654759126349461e-03,3.671997401765159097e-03,-4.923301693653265448e-02,3.193024433627027897e-02,5.824407096952199936e-03,-2.808956412237914591e-01,-6.443526051177961755e-05,-4.123456126218135072e-03,2.836829752841208419e-01,1.174919778897465239e-01,1.317487866684263209e-01,1.836829752841208363e-01,2.168185731369659253e-01,1.216615593103916870e-01,5.208073492132463400e-01,5.993285179138183594e-01
6.479639999999999844e-01,-1.182180087782602924e-02,4.039896717385128150e-02,1.019006609916687012e+00,-2.330944700298012012e-02,-1.141542921128291255e-02,2.351887209858904981e-03,-4.233222015661644577e-02,4.868873006421004651e-02,-7.896164432168006897e-03,-2.388144199033647441e-01,-1.230427293118837861e-01,-6.034940356797883348e-02,3.155610485315564206e-01,1.116096860582573569e-01,1.380444745890690161e-01,2.155610485315564429e-01,2.116096860582573624e-01,1.317798488522660405e-01,5.242921449065752748e-01,7.344436645507812500e-01
6.711850000000000316e-01,-1.252324392541544033e-02,4.095167341476069894e-02,1.019101262092590332e+00,-2.604524820639444321e-02,-1.385146902243583611e-02,9.603561978357433304e-04,-5.452184886778411316e-02,5.192767814285037531e-02,9.015670977532863617e-03,-4.168760268684498782e-02,-1.403957696892966789e-01,-9.075435584733056171e-02,2.856903382868780650e-01,-2.345995930458873724e-01,1.917751375076972575e-01,1.856903382868780317e-01,-1.345995930458873668e-01,1.895630835178511164e-01,5.224126442803241899e-01,7.008886337280273438e-01
6.994510000000000449e-01,-1.363770610003375329e-02,4.182023177676286174e-02,1.019503593444824219e+00,-2.547430418308314209e-02,-1.897389715022246293e-02,-1.401563613310452538e-03,-4.802409957486079156e-02,3.998995105707311981e-02,2.126963809132575989e-02,1.167130467863489868e-01,-1.859570107535674366e-01,-1.177400870590137871e-01,2.199349492990916033e-01,-1.348179537985959020e-01,9.775269388344733079e-02,1.199349492990915977e-01,-3.481795379859588258e-02,1.022773635732565772e-01,5.217173291371152155e-01,7.156435251235961914e-01
7.223990000000000133e-01,-1.444094450482009094e-02,4.242321450926864190e-02,1.019877672195434570e+00,-2.187446350175013127e-02,-2.178403549239238401e-02,-2.820328890388301701e-03,-5.252008946731523409e-02,4.975978672159016986e-02,1.037990953773260117e-02,2.020284969066491187e-01,-9.109647807553235277e-02,-6.560867632800329585e-02,1.675628271730943974e-01,-8.695914195165760363e-02,1.000990884262233233e-01,6.756282717309440577e-02,1.304085804834240712e-02,1.084693563561893032e-01,5.221621367103613798e-01,6.993203163146972656e-01
7.492410000000000458e-01,-1.548059093878882513e-02,4.296104836443161157e-02,1.020259976387023926e+00,-1.363788252646901990e-02,-2.426734154318799241e-02,-5.732252016556138585e-03,-4.221480546947338486e-02,5.728102250353513114e-02,9.420341812074184418e-03,3.303006694808444665e-01,-3.215142860490876470e-02,-6.784020174721318297e-02,1.540221024449819898e-02,1.368903516339860238e-02,1.876034890563576391e-02,-8.459778975550180657e-02,1.136890351633986079e-01,3.491768558245943871e-02,5.224908178895203426e-01,7.163119316101074219e-01
7.727760000000000185e-01,-1.611107365091200491e-02,4.337714619152222006e-02,1.020453333854675293e+00,-8.227525755972671037e-03,-2.318744873038380838e-02,-7.667944777590918193e-03,-5.464324249380893977e-02,5.801834394125401223e-02,4.810162819921970367e-03,2.318326415820628761e-01,8.341450828955387919e-02,-9.052551755393201116e-02,9.729079782216108752e-02,8.064270754679869757e-02,-7.073771079862746503e-02,-2.709202177838919336e-03,1.806427075467987031e-01,-4.939429894866616266e-02,5.216311500751952268e-01,6.533722877502441406e-01
7.979540000000000521e-01,-1.670983536601268471e-02,4.386953697920026318e-02,1.020486474037170410e+00,-2.693731215099463838e-03,-2.082415276066318377e-02,-9.179907683573684807e-03,-4.551150615251772086e-02,6.435960558848421997e-02,9.619203396141529083e-03,2.782236885131992854e-01,1.337394646051288938e-01,-8.016214539760549429e-02,9.286768522157795580e-02,9.865031178647071242e-02,-1.260604466171124649e-01,-2.681138455316810307e-03,1.986503117864707180e-01,-1.007168191024333526e-01,5.216590147055411020e-01,6.755019426345825195e-01
8.202909999999999924e-01,-1.736266850314220275e-02,4.447066228902295248e-02,1.020456194877624512e+00,2.108842921541805634e-03,-1.809338200635224325e-02,-1.077631000163514763e-02,-4.504209413926268252e-02,6.142656912852884760e-02,-1.089485245756804943e-03,2.008740761947029885e-01,1.279636694017349530e-01,-5.805115094954919203e-02,1.150876375814978425e-01,1.105592853054397362e-01,-1.574912525714933231e-01,5.355570723983010817e-02,2.105592853054397418e-01,-1.277988604764346836e-01,5.226998079747954273e-01,6.904380321502685547e-01
8.464329999999999909e-01,-1.825931065600914713e-02,4.557112985563054053e-02,1.020351052284240723e+00,8.021683334762106862e-03,-1.434771815684077190e-02,-1.178966273726578251e-02,-5.868265382999339475e-02,7.351676380360537555e-02,-6.881600245833396912e-03,1.574043655510425910e-01,9.566529494567937997e-02,3.542185323123776125e-02,-1.644357009738205422e-01,1.219792708974671291e-01,-2.265384055680553510e-01,-1.986239844619179518e-01,2.219792708974671347e-01,-1.942202572174850095e-01,5.241022111294173502e-01,7.432239055633544922e-01
8.783140000000000391e-01,-1.901672326313164421e-02,4.698679212372406516e-02,1.020291447639465332e+00,1.272424263841708154e-02,-1.309532497344401136e-02,-1.128836753944462146e-02,-6.347268642360751056e-02,7.120655160489562652e-02,1.505946042016148567e-03,1.770594192219697438e-01,3.970119080296203445e-02,6.646969296015897699e-02,-2.136384850944343661e-01,9.515292121913038192e-02,-1.010400046017708303e-01,-2.150513571888140185e-01,1.951529212191303875e-01,-7.023766980697167261e-02,5.234753329207152417e-01,7.432141304016113281e-01
9.014699999999999935e-01,-1.964131946901620171e-02,4.798770730433329912e-02,1.020247340202331543e+00,1.534874367866357996e-02,-1.411344000737857485e-02,-1.057955472563465449e-02,-5.110792465633583193e-02,7.038752751601695667e-02,9.318651631474494934e-03,1.124779692884083637e-01,-8.211676379669780035e-02,1.120347195208447680e-02,-9.156518290359851042e-02,-1.622458024257231179e-01,7.388817201644286292e-02,-7.693630697515947692e-02,-6.224580242572312627e-02,1.026399944052876906e-01,5.225371080892960984e-01,7.247357368469238281e-01
9.235619999999999941e-01,-2.039095071840050372e-02,4.895258600171981112e-02,1.020213842391967773e+00,1.746121884292285362e-02,-1.559693857468280598e-02,-8.945221193539243387e-03,-7.586532539948194487e-02,7.135041652872686768e-02,-5.177008453756570816e-03,7.645654091965536914e-02,-9.006807398583929758e-02,1.106198640224936164e-01,-6.347011502020781515e-02,-2.846580089885311637e-01,-4.731002508664135936e-02,-3.668091968838905342e-02,-1.846580089885311582e-01,-2.342052194590368147e-02,5.230954272731445087e-01,6.977052688598632812e-01
9.506000000000000005e-01,-2.120509889899763536e-02,5.000682341452239443e-02,1.020155906677246094e+00,1.850906767076096471e-02,-1.746495770963618632e-02,-7.230017027371360427e-03,-7.216520921731582605e-02,7.056380276530549445e-02,8.772305212914943695e-03,3.825438804793080544e-02,-1.139290140290056957e-01,7.971038983946301948e-02,-3.320360587321816853e-02,-3.157067225518500608e-01,-4.103797947690640546e-02,-3.205922136672160506e-04,-2.157067225518500553e-01,-2.203843241112568574e-02,5.221161983188261635e-01,7.011380195617675781e-01
9.744549999999999601e-01,-2.222618095607138342e-02,5.115457878243143131e-02,1.020034909248352051e+00,1.763312755408871432e-02,-1.904062979149068191e-02,-5.828121103535810477e-03,-6.222181325789578193e-02,7.817625752472195932e-02,1.314200635533779860e-04,-1.131560592602048193e-01,-4.860758375415343696e-02,3.577696636866477958e-02,-1.140062842082599642e-01,-2.387114846234795751e-01,-6.173599492584670029e-02,-9.422888357852704511e-02,-1.387114846234795695e-01,-4.669566991013080620e-02,5.226843006498653743e-01,6.981885433197021484e-01
9.971759999999999513e-01,-2.339782188779442398e-02,5.241858312738173487e-02,1.019827842712402344e+00,1.557561132765390190e-02,-2.032013638074348094e-02,-5.145812558312590212e-03,-6.513413290734514083e-02,7.337234155181211748e-02,-6.436205469071865082e-03,-8.258536366120555750e-02,-4.592670605126748795e-02,3.469164431247395708e-02,-8.645144594432380147e-02,-2.659506663541646998e-01,-4.333191558560094830e-02,-7.613767963040807274e-02,-1.659506663541646942e-01,-3.017983984388116631e-02,5.225553954150788938e-01,6.651393175125122070e-01
1.024451999999999918e+00,-2.508375665775023841e-02,5.435567008361912728e-02,1.019427776336669922e+00,1.082635662120525095e-02,-1.926865710105607477e-02,-5.227523746618611966e-03,-6.315972145927645220e-02,7.283488836254753407e-02,-1.019026618450880051e-02,-1.613044142282884230e-01,1.075795649910350621e-01,-2.691008793936484900e-02,-1.813474972184524470e-01,1.174610834534892401e-01,-1.406624371018302122e-01,-2.037610627788485340e-01,2.174610834534892456e-01,-1.270511351063421113e-01,5.233521783926442517e-01,6.923115253448486328e-01
1.049087000000000103e+00,-2.618501666271993988e-02,5.565419482009475310e-02,1.019118309020996094e+00,7.370354897813965502e-03,-1.647854318179686750e-02,-4.618928503439700961e-03,-5.865172145359299344e-02,7.591493264595591817e-02,-1.783152669668197632e-02,-1.989434017358568119e-01,1.842730557721020956e-01,2.761697587471918097e-02,-1.589986079465722513e-01,1.206542507907063522e-01,1.950261837247126151e-02,-2.075716397322749651e-01,2.206542507907063577e-01,3.162668986342966060e-02,5.244086967564246526e-01,7.182114124298095703e-01
1.074035999999999991e+00,-2.726019642090450265e-02,5.695595691674842226e-02,1.018759131431579590e+00,5.507531653811864429e-03,-1.239075452552151901e-02,-4.189743849274618626e-03,-6.041811300788131611e-02,7.563244792194676047e-02,-7.844817824661731720e-03,-5.651161035227169477e-02,2.361855995909935835e-01,1.461931667826668266e-02,-1.665717678890016318e-01,1.197419870531986341e-01,1.853867495264445997e-01,-2.280518178400868234e-01,2.197419870531986397e-01,1.964754558791116101e-01,5.242868546813479469e-01,7.500578165054321289e-01
1.111513999999999891e+00,-2.835021796586086398e-02,5.819044283451681177e-02,1.018420815467834473e+00,3.804381583074822274e-03,-7.248473915095088316e-03,-3.725143554707877058e-03,-5.972371052796170143e-02,7.012981481460137112e-02,-1.405254844576120377e-02,-8.842772023350940758e-02,2.573197205860769388e-01,5.198221062447742902e-02,-1.582215832048433080e-01,1.208685243077644023e-01,1.769317460741476611e-01,-2.274415462212588113e-01,2.208685243077644078e-01,1.869203314544825856e-01,5.247577308060198398e-01,7.501190900802612305e-01
1.129245000000000054e+00,-2.888363888428270229e-02,5.878852947315142685e-02,1.018219470977783203e+00,3.290517302467164777e-03,-4.538064074039782625e-03,-3.797241923117811169e-03,-5.780604512465630646e-02,6.695083685367100856e-02,-7.947273552417755127e-03,-6.091626753118023485e-02,2.390753478072973059e-01,-5.078947430057683537e-02,-1.551736010282170064e-01,1.298194040078708977e-01,1.672199060335786414e-01,-2.269139046541907012e-01,2.238751657399021822e-01,1.774954061689605067e-01,5.243303525764797524e-01,7.507948875427246094e-01
1.151675000000000004e+00,-2.942223387408714891e-02,5.941017534043267073e-02,1.018026590347290039e+00,2.610997652050041883e-03,-1.628952905139202656e-03,-3.249525295787591972e-03,-5.440347552673709119e-02,8.117366668864194057e-02,-8.876139763742685318e-04,-2.470165654904136338e-02,2.903650751611078773e-01,9.087701617948860597e-03,-1.376280349508916534e-01,1.493496343457479947e-01,1.942051024979990770e-01,-2.268723287903436359e-01,2.227531422228904157e-01,2.030044276815563264e-01,5.238810415212385996e-01,7.538961172103881836e-01
1.172593999999999914e+00,-3.052414912785271495e-02,6.072427332317546778e-02,1.017625451087951660e+00,7.705172464172904039e-04,2.772555579356517086e-03,-2.250526325539459194e-03,-5.137520148539031356e-02,7.382494864709175653e-02,-1.205620449036359787e-02,-1.467417001030318080e-01,1.770345539424597603e-01,6.421241413147198152e-02,-1.314386673013212270e-01,1.815987074369899978e-01,1.502695117876317876e-01,-2.256622000076434487e-01,2.251697815399833214e-01,1.564206012027030968e-01,5.246268627133923168e-01,7.492859363555908203e-01
1.197081000000000062e+00,-3.224617718425774188e-02,6.276106904248936191e-02,1.017134189605712891e+00,-2.244125793362391433e-03,5.407621636376980234e-03,-1.431577804042127866e-03,-6.147824124119952854e-02,8.517743440433128699e-02,-9.277686476707458496e-03,-1.420474681297959063e-01,3.559267572677198704e-02,2.043423198628272625e-02,8.959868206332367857e-02,1.878561179801038761e-01,2.109255750875416446e-01,-1.040131793667633218e-02,2.243375182003546353e-01,2.148169661403563635e-01,5.240231870230069866e-01,7.251260280609130859e-01
1.221044999999999936e+00,-3.421270943210617116e-02,6.471442053063079791e-02,1.016646742820739746e+00,-5.954257898977200099e-03,3.678602603231162504e-03,-3.213520818615478447e-03,-6.097141002897493028e-02,7.717519923893834122e-02,-9.266433306038379669e-03,-1.124115699917809519e-01,-1.176478145193965152e-01,-4.971743911948147548e-02,2.904613367297168569e-01,1.478833982518866774e-01,-1.945316211179506372e-01,1.904613367297168514e-01,1.953919666546101719e-01,-1.856380879254495575e-01,5.244808468845492122e-01,7.487595081329345703e-01
1.243962999999999930e+00,-3.622996509304229895e-02,6.672602482177845962e-02,1.016159653663635254e+00,-1.076209327348013299e-02,2.228153174612668153e-04,-5.699081485092793997e-03,-5.249801529923394522e-02,9.016614607596240560e-02,-4.012953490018844604e-03,-1.222363057595228092e-01,-1.080260703707177500e-01,-1.007426534117478317e-01,3.168995875852002042e-01,1.513546913500580515e-01,-2.302734830027952095e-01,2.168995875852002264e-01,2.164038198877516472e-01,-2.144208525040765534e-01,5.242303477009868651e-01,7.541065216064453125e-01
1.270987000000000089e+00,-3.815332425100376873e-02,6.903582392793421174e-02,1.015517830848693848e+00,-1.605624045274047992e-02,-3.964077344650096535e-03,-8.398690418687682069e-03,-5.203756554972051307e-02,9.487459284677800253e-02,-9.017628617584705353e-03,-1.706306573845914054e-01,-1.818604048513538518e-01,-1.557776112458190143e-01,3.143279072927882556e-01,1.077789116782293666e-01,-2.026425971942502069e-01,2.143279072927882223e-01,2.025513600893370236e-01,-1.791831317399911749e-01,5.245117761500358577e-01,7.471491098403930664e-01
1.301697000000000104e+00,-4.015520180115808579e-02,7.176799632671360119e-02,1.014855384826660156e+00,-2.098053898422526722e-02,-8.682138103681680263e-03,-1.089747711737731883e-02,-5.723657436780679036e-02,1.053960587572910779e-01,-1.107943803071975708e-02,-1.652338381141339740e-01,-1.636069368163769744e-01,-5.277837137120277439e-02,3.061448009998971598e-01,2.990758244688518364e-02,1.403802675285834856e-01,2.061448009998971542e-01,1.299075824468851892e-01,1.709092834265360794e-01,5.243817869102884721e-01,7.288053035736083984e-01
1.325820999999999916e+00,-4.162994826323970776e-02,7.404024144862052237e-02,1.014452099800109863e+00,-2.266814349810233192e-02,-1.228972857207333291e-02,-1.303370401101910936e-02,-5.602936082255174921e-02,1.071575332004383457e-01,-7.303319871425628662e-03,-5.458234777573484076e-03,-2.238236306019158739e-01,-1.012022830226823600e-01,2.875667255436729075e-01,-1.588997491428377762e-01,1.164160783398068000e-01,1.875667255436729297e-01,-5.889974914283776369e-02,1.529747425327784016e-01,5.236769188652441454e-01,7.041325569152832031e-01
1.346861000000000086e+00,-4.318414397872882837e-02,7.634464622243433696e-02,1.014138817787170410e+00,-2.302577477241238985e-02,-1.634553798397408997e-02,-1.339624317661280983e-02,-5.847241695409753637e-02,1.104004490035176839e-01,-5.659449379891157150e-03,-6.741157896302188077e-03,-1.723371992738383929e-01,3.684450460345124138e-03,2.976303285136978616e-01,-2.519174188406235193e-01,1.586283227649850913e-01,1.976303285136978838e-01,-1.519174188406235138e-01,1.962010620717761500e-01,5.234039359610478392e-01,6.946400403976440430e-01
1.373423999999999978e+00,-4.564523299023629660e-02,7.993089577541065416e-02,1.013912558555603027e+00,-1.877598456521883258e-02,-2.258709502919131751e-02,-1.150188730207668542e-02,-6.568078502540175556e-02,1.100527357508103155e-01,1.413625897839665413e-03,1.748390036934800995e-01,-2.376655159686918428e-01,1.036691806445347447e-01,2.568135206597149667e-01,-2.751792486126954929e-01,9.254808613811661699e-02,1.568135206597149611e-01,-1.751792486126954596e-01,1.246023920345252362e-01,5.231685490942319383e-01,7.093036174774169922e-01
1.405302999999999969e+00,-4.824545343670510328e-02,8.359896705890493274e-02,1.013895392417907715e+00,-1.124267784357342072e-02,-2.794116428618265147e-02,-8.751515190807523936e-03,-6.826725216985354838e-02,1.173792715099576389e-01,5.821066442877054214e-03,2.253534196523102606e-01,-1.372509250553091142e-01,1.004281938663611762e-01,2.307278986643180041e-01,-2.949738705636437697e-01,5.743069682934337505e-02,1.307278986643179985e-01,-1.949738705636437919e-01,8.123882363865514433e-02,5.227195083294320366e-01,7.026338577270507812e-01
1.423267000000000060e+00,-4.904803853861323254e-02,8.441177872204654042e-02,1.013902306556701660e+00,-8.002248863745290569e-03,-2.961405963571350775e-02,-8.612804399668938515e-03,-5.629550682711694648e-02,1.190901361044307272e-01,1.987581513822078705e-02,2.752595052893676009e-01,-1.921004515195894602e-01,-3.500397811896587691e-02,2.005399877411686571e-01,-3.138872004452818998e-01,6.804426514356885780e-02,1.005399877411686654e-01,-2.138872004452818942e-01,9.125043515335277966e-02,5.216453555838073131e-01,7.019309997558593750e-01
1.445259000000000071e+00,-5.068315043555221555e-02,8.604658265769407621e-02,1.013931870460510254e+00,-1.683371879131641746e-03,-3.200576371046626178e-02,-8.949151421934420370e-03,-7.149469819282330829e-02,1.179052953457589425e-01,9.686974808573722839e-03,3.455048481082394485e-01,-1.164619898921324115e-01,-2.313232071243578013e-03,1.685742050375832191e-01,-3.043483156483360874e-01,1.770679509637181070e-02,6.857420503758321351e-02,-2.043483156483360819e-01,4.133639876658430634e-02,5.221569489985262713e-01,6.900775432586669922e-01
1.472514000000000101e+00,-5.307467890233671243e-02,8.861230949336129648e-02,1.013849854469299316e+00,8.156095011886969198e-03,-3.253080565014765391e-02,-1.100013432818469639e-02,-6.791831131668409072e-02,1.178526161445784121e-01,1.032447908073663712e-02,3.603649149937181440e-01,7.328382716157513799e-02,-8.813392911405674990e-02,1.404545039725876854e-01,-3.491208666100398261e-02,-4.196474827361695165e-02,4.045450397258768677e-02,6.508791333899602294e-02,-1.326336309800457171e-02,5.221878562253462475e-01,6.951156854629516602e-01
1.496104000000000100e+00,-5.462823779952184072e-02,9.033680926080793483e-02,1.013648152351379395e+00,1.416356428456003874e-02,-3.045914737175170472e-02,-1.258205988640881401e-02,-6.365203933298511918e-02,1.197831944420213041e-01,-2.560122520662844181e-04,2.595365244090936385e-01,1.424854911967514404e-01,-6.149505216258299017e-02,-3.879420230472817310e-02,7.198094527176168711e-02,-5.605249727147807587e-02,-1.051289583188311505e-01,1.719809452717616927e-01,-2.322025891224747257e-02,5.233929460758026675e-01,7.183284759521484375e-01
1.525368999999999975e+00,-5.689921609487712251e-02,9.275886121598260481e-02,1.013197422027587891e+00,2.379455114641411059e-02,-2.422839223504702488e-02,-1.449386674796593333e-02,-6.916456591768535556e-02,1.209721295998608115e-01,-3.161677625030279160e-03,3.640628280555011087e-01,2.131269439557538226e-01,-3.915618662760748936e-02,-1.997351066036761325e-01,1.135370082031308958e-01,9.911555898832585809e-02,-2.060821755267368827e-01,2.135370082031309014e-01,1.370241344728038158e-01,5.236250003336780923e-01,7.176936864852905273e-01
1.548030000000000017e+00,-5.838197317719984181e-02,9.409836611493090086e-02,1.012787461280822754e+00,2.993123912630469771e-02,-1.864827392570056475e-02,-1.576652386548360596e-02,-7.607388726700770043e-02,1.025916818943537479e-01,1.133124605985358357e-04,3.098683831204999684e-01,2.808396452273954069e-01,-7.773610951422373072e-02,-2.559738597671786797e-01,1.255801119868069360e-01,9.460359138392654410e-02,-2.087476547755080514e-01,2.255801119868069415e-01,1.361904378500264357e-01,5.235116938993549240e-01,7.241187095642089844e-01
1.570205999999999991e+00,-5.985496479628528432e-02,9.538548552919144663e-02,1.012342453002929688e+00,3.565083065648230048e-02,-1.216280700591543251e-02,-1.646754649696058337e-02,-6.228961631598754767e-02,1.071316675062113505e-01,-8.333185687661170959e-03,2.964186176763018432e-01,3.225379861797956771e-01,-2.457723545265953075e-02,-2.870170961811571719e-01,1.226473323739804833e-01,-1.583703690346849602e-01,-2.101928386552719685e-01,2.226473323739804888e-01,-1.144757375499451946e-01,5.244028777040717904e-01,7.375087738037109375e-01
1.597323000000000048e+00,-6.205427044535728048e-02,9.723783670481481178e-02,1.011446475982666016e+00,4.341180625943016902e-02,-2.154192460316783908e-03,-1.718003757022090738e-02,-6.591809912477274158e-02,1.039012556274327148e-01,-3.994227852672338486e-03,2.994979199291833982e-01,2.816081193173203268e-01,9.546098569678695966e-03,-3.103285437500692412e-01,1.202290095342100906e-01,-2.469546853375214623e-01,-2.103285437500692634e-01,2.202290095342100962e-01,-2.005097866998528100e-01,5.242145866591013670e-01,7.410722970962524414e-01
1.619915999999999912e+00,-6.354738861890160684e-02,9.839849943714960856e-02,1.010887980461120605e+00,4.791142116071449991e-02,3.318097107882556074e-03,-1.721631134213730263e-02,-7.838525194838848187e-02,8.838271566087586850e-02,-9.676129557192325592e-03,2.044928596650824604e-01,2.006343226708641736e-01,5.216866037591324709e-03,-3.072085334768405174e-01,1.298965839134712530e-01,-2.178915080232280699e-01,-2.072085334768404841e-01,2.209878415826457831e-01,-1.710450547385025943e-01,5.247299664120715912e-01,7.446676492691040039e-01
1.645979000000000081e+00,-6.616125836250626169e-02,1.005221232949576465e-01,1.009881496429443359e+00,5.283621570434333253e-02,8.333629559971189593e-03,-1.687935752371294562e-02,-6.843067454422412099e-02,8.681048732589531636e-02,-2.303337492048740387e-02,6.111105714851043647e-02,1.436534864459306504e-01,3.906635822205960229e-02,-3.230652454055765732e-01,1.665066514986571211e-01,-2.835045805623791493e-01,-2.230652454055765954e-01,2.169948993416221938e-01,-2.370470579960931856e-01,5.259195905381068847e-01,7.521413564682006836e-01
1.673613999999999935e+00,-6.865625847655477954e-02,1.025333064440899639e-01,1.008766889572143555e+00,5.380424624187250815e-02,9.758935282729641614e-03,-1.794243733941347507e-02,-7.486474135215524794e-02,7.684033085541673580e-02,-1.187956519424915314e-02,-4.937387289278989113e-04,1.970419560162717937e-02,-2.757637736641448470e-02,-3.209031107596183596e-01,1.880112680948684833e-01,1.344928134950733600e-01,-2.209031107596183541e-01,2.383672757982301105e-01,1.839270370112860431e-01,5.251406401171871963e-01,7.492234706878662109e-01
1.695408000000000026e+00,-7.034949314957077149e-02,1.037932704799512801e-01,1.007908582687377930e+00,5.146522446332222472e-02,8.563768564738616362e-03,-1.866058820051619271e-02,-6.049751544032110767e-02,7.644602592846964917e-02,-1.647603139281272888e-02,-1.735307901329681546e-01,-9.073955305171810259e-02,-3.026142632868011884e-02,9.200494982098625374e-02,1.454030039108338557e-01,-2.889888659016872086e-01,1.920049498209862593e-01,1.924746525094832017e-01,-2.374689613451242964e-01,5.256743998175641419e-01,7.566134929656982422e-01
1.722021999999999942e+00,-7.301203697085552335e-02,1.060322374612403806e-01,1.006559371948242188e+00,4.468336992408490638e-02,5.875289276604078736e-03,-1.716337542101564750e-02,-8.198538389157554451e-02,6.674165327304308615e-02,-2.125881426036357880e-02,-2.789053074778117258e-01,-9.552814526857940358e-02,9.285959071208277349e-02,-8.153262690180336503e-02,7.444579990520418245e-02,-2.547653273196945900e-01,1.846737309819663705e-02,1.599981936075217104e-01,-2.079083069573138542e-01,5.258984458872424383e-01,7.431974411010742188e-01
1.747111999999999998e+00,-7.598598495697553301e-02,1.088565504316547083e-01,1.005304455757141113e+00,3.546724308261697822e-02,2.301145726687048310e-03,-1.445434947450729979e-02,-7.097327152381865956e-02,6.841856227076169306e-02,-2.361531369388103485e-02,-3.516547876523173910e-01,-8.008117296124360462e-02,1.017528645670934956e-01,-1.806544882998235846e-02,6.123276247126535621e-02,-2.174802249300800683e-01,7.169241982205337704e-02,1.596737889931757470e-01,-1.782136117073754300e-01,5.259783404787530259e-01,7.325366735458374023e-01
1.772885000000000044e+00,-7.886586320745345158e-02,1.115100727047140527e-01,1.004120945930480957e+00,2.543505627190041987e-02,-2.078017645680718672e-03,-1.065560227092943180e-02,-7.286410193337858332e-02,6.723734305033202130e-02,-2.626102603971958160e-02,-3.524585728333526902e-01,-1.413190038426231643e-01,1.648978345807030621e-01,8.117556223356799106e-02,-7.235458345789437529e-02,-1.831071644148834221e-01,1.043881102760737950e-01,2.764541654210563373e-02,-1.546090308836849114e-01,5.261807766296637823e-01,7.270040512084960938e-01
1.795495000000000063e+00,-8.073015506489807092e-02,1.132084856095796066e-01,1.003360867500305176e+00,1.882922687977312340e-02,-5.235734839748484859e-03,-9.192076801597170999e-03,-7.065139599691197536e-02,6.025533411376289561e-02,-8.467505685985088348e-03,-2.824013704418446569e-01,-1.808155648899496537e-01,1.835198057448390180e-02,7.359051464936151865e-02,-1.953733802588304980e-01,-1.517679450636565397e-01,5.693272679981346146e-02,-9.537338025883050630e-02,-1.273443188919641811e-01,5.244395715204773767e-01,6.995658874511718750e-01
1.822680000000000078e+00,-8.354983391376466506e-02,1.155891724221785738e-01,1.002373337745666504e+00,1.019783901286460195e-02,-1.102374114776405456e-02,-6.505338676606742254e-03,-7.361417599661308764e-02,6.122195383088583492e-02,-6.701861275359988213e-04,-2.102554105399563611e-01,-1.855827583295999450e-01,6.141626455515868110e-02,1.307013430099161488e-01,-2.474294475141220195e-01,-1.861468403274117375e-02,5.353272489392357086e-02,-1.474294475141220140e-01,-1.750053431106605387e-03,5.233005882040341339e-01,6.642543077468872070e-01
1.844492000000000020e+00,-8.547408461792889434e-02,1.169365873220287455e-01,1.001841783523559570e+00,6.603843218539380035e-03,-1.493162604960329709e-02,-3.670941694875695660e-03,-6.980843874156023032e-02,5.734713951397522880e-02,-1.774109317921102047e-03,-1.876155498043559910e-01,-1.886826909135989050e-01,1.645595328725759088e-01,2.183487660899979255e-01,-2.783478139062154355e-01,-3.118396585367799734e-02,1.194294324950945785e-01,-1.783478139062154300e-01,-2.223721113313548159e-02,5.235904287741777186e-01,6.737127304077148438e-01
1.869893000000000027e+00,-8.832175861648895732e-02,1.189149377107766303e-01,1.001183390617370605e+00,3.099433929474071890e-03,-1.905435974458424830e-02,4.819341053869941049e-04,-7.970005950035617681e-02,5.132632823151660889e-02,4.891748540103435516e-04,-1.331838892029082733e-01,-7.062174881202852583e-02,1.604343568055674185e-01,2.419583241217247438e-01,-2.845608077323185103e-01,-5.152521721970722973e-02,1.419583241217247382e-01,-1.845608077323184770e-01,-5.422445336291622370e-02,5.232908797198869699e-01,6.634609699249267578e-01
1.898098999999999981e+00,-9.113982425649912178e-02,1.208905690397856919e-01,1.000527620315551758e+00,1.911059496911638247e-03,-2.173525817334165389e-02,4.402060086488912560e-03,-7.283806314569800378e-02,6.173316623632514599e-02,-3.763291053473949432e-03,-1.251733226828219067e-02,-3.659494098422552688e-02,1.386575293805130116e-01,2.452833362563015818e-01,-2.916039033477519915e-01,-4.463930538483609073e-02,1.452833362563015762e-01,-1.916039033477519582e-01,-5.841027656573762744e-02,5.239659227348777426e-01,6.801064014434814453e-01
1.920131999999999950e+00,-9.280354514700930868e-02,1.223022433670874626e-01,1.000171780586242676e+00,2.408114024638544071e-03,-2.157798882052386347e-02,6.576597810316053838e-03,-8.022722212496630201e-02,5.275595528384884741e-02,8.602038957178592682e-03,4.222213758378540877e-02,2.093625836673600193e-02,8.499739031188421889e-02,2.359458044838206314e-01,-5.862156681744983694e-02,-1.516574184870691233e-01,1.359458044838206259e-01,4.137843318255016861e-02,-1.715264640388633188e-01,5.235379568205200673e-01,7.047193050384521484e-01
1.947084000000000037e+00,-9.492380205541764426e-02,1.244607555125698262e-01,9.996477961540222168e-01,3.805396252761170887e-03,-1.812025850536702620e-02,8.529630638503205020e-03,-5.832671581187567900e-02,5.063919288617700631e-02,1.319524087011814117e-02,7.500892086392418889e-02,1.537677079291908666e-01,2.503138606929778201e-02,6.582453936023988095e-02,1.180095369504757519e-01,-1.647441090109976469e-01,-3.417546063976012460e-02,2.180095369504757574e-01,-1.899578790105198312e-01,5.235258775332850556e-01,7.215703725814819336e-01
1.970693999999999946e+00,-9.624847229093590195e-02,1.259030233306370483e-01,9.992877840995788574e-01,5.739000699106779589e-03,-1.424703725208420479e-02,9.792124323139139719e-03,-6.770233788626599247e-02,5.316690772507837864e-02,2.864694455638527870e-03,1.461165898915876837e-01,1.779787595180271076e-01,8.937726201820991867e-02,5.287721326958137041e-02,1.156121721863428153e-01,-1.427043969660646006e-01,-4.712278673041863514e-02,2.156121721863428209e-01,-1.714967985585331978e-01,5.241199693636827694e-01,7.108281850814819336e-01
2.001878000000000046e+00,-9.819616629564138777e-02,1.279890115150772723e-01,9.987730979919433594e-01,1.103192817170555416e-02,-6.786525991179015449e-03,1.147588355788387027e-02,-5.705596977794278463e-02,5.640870726942494306e-02,7.577879354357719421e-03,2.297317200637833678e-01,2.930279643577203275e-01,4.499219945899302769e-02,2.671532042142709118e-01,1.243208008526132113e-01,9.026436610311806830e-02,1.843581138179910262e-01,2.243208008526132169e-01,5.689580507046672342e-02,5.241242279878417509e-01,7.281197309494018555e-01
2.021370000000000111e+00,-9.882399663044251492e-02,1.286379264914088716e-01,9.986109733581542969e-01,1.296027628165419450e-02,-4.212261397118943762e-03,1.202677529167117676e-02,-5.932384916298919647e-02,5.052128836322292149e-02,3.930667880922555923e-04,1.714463396096212455e-01,3.075204757133677136e-01,1.068224370996139622e-01,2.113521542908618489e-01,1.230115640684579792e-01,-4.127015541926654096e-02,1.454120267469145300e-01,2.230115640684579847e-01,-7.612763706370190286e-02,5.246122017065694143e-01,7.255976200103759766e-01
2.047813000000000105e+00,-9.957412151662245470e-02,1.296568954959096964e-01,9.983096718788146973e-01,1.816744673904285845e-02,1.620536459262078566e-03,1.317320492505080765e-02,-6.367270751099690651e-02,4.887286907956748389e-02,4.782878793776035309e-03,2.955158534388089842e-01,2.850877424186264442e-01,3.394394303743918095e-02,2.294430600541945975e-01,1.271168143145546547e-01,1.910879078168055412e-01,1.961444879494274873e-01,2.271168143145546603e-01,1.531447746758161921e-01,5.244070976906958226e-01,7.304774522781372070e-01
2.073755999999999933e+00,-1.003369980564954439e-01,1.306134736981028055e-01,9.980565905570983887e-01,2.325168346014722109e-02,6.517065753459228006e-03,1.506269218904177087e-02,-6.382089049213660048e-02,4.376319021623484989e-02,5.837183911353349686e-03,2.270312655777816935e-01,2.418322331207753140e-01,1.217829800261164552e-01,-6.596705686463893992e-03,1.314826424934193716e-01,-1.457401766635007534e-01,-4.507214697631474996e-03,2.182206661597352326e-01,-1.887809895860694254e-01,5.237989885212589458e-01,7.009639739990234375e-01
2.098231999999999875e+00,-1.011444356197451488e-01,1.315767774221139053e-01,9.978392720222473145e-01,2.873067518307126714e-02,9.632602686338698206e-03,1.742651705746456336e-02,-5.199308844863174961e-02,4.706891909766534182e-02,9.772906079888343811e-03,2.631143855120869346e-01,1.104146450574757243e-01,1.087552778947470378e-01,-2.441787106043949995e-01,1.560807357621452063e-01,-8.042455847952070802e-02,-2.115030294749546957e-01,2.135805154474455236e-01,-1.298743652147519023e-01,5.238814540369716166e-01,7.206603288650512695e-01
2.121786999999999868e+00,-1.023557903746963177e-01,1.329400764833773285e-01,9.974474906921386719e-01,3.444011947891715414e-02,1.089699450427339400e-02,2.070061859577654317e-02,-5.426144643303129622e-02,4.862962066200589989e-02,1.372949406504631042e-02,1.958122230053737367e-01,-7.746093054705294016e-03,7.839095929525517759e-02,-2.930925036953412333e-01,1.616306979398076382e-01,1.418624527385542455e-01,-2.261858124988797292e-01,2.151991084155995271e-01,8.321617920491923559e-02,5.239985302437186743e-01,7.412450313568115234e-01
2.149038000000000004e+00,-1.036027813120789370e-01,1.343263630334438352e-01,9.971490502357482910e-01,3.930623959362457981e-02,8.940997762440616725e-03,2.166348553055708059e-02,-6.227089619418500060e-02,2.902462991224899480e-02,2.210301347076892853e-02,2.097249855660440199e-01,-1.279511884619900786e-01,-2.533839787038490859e-02,-3.168719907821412329e-01,7.644625016031186826e-02,1.958240900989173805e-01,-2.168719907821412274e-01,1.504520933860956644e-01,1.341839070267319967e-01,5.234302925297039666e-01,7.437496185302734375e-01
2.176111000000000129e+00,-1.045595264997370016e-01,1.352912265587154772e-01,9.970009326934814453e-01,4.263723987480409761e-02,6.843541871293545853e-03,2.240506744892178936e-02,-5.095568964299157511e-02,2.619619061345117642e-02,3.372904611751437187e-03,1.300129133559781713e-01,-5.626400563091811524e-02,4.391321871661104520e-02,-3.250316044551500028e-01,1.153581403903664454e-01,1.680477751990850366e-01,-2.250316044551499972e-01,1.929855633418517402e-01,1.042218245048599640e-01,5.246493042644880811e-01,7.357867956161499023e-01
2.197814000000000156e+00,-1.058219129023573180e-01,1.365141629617071806e-01,9.967705011367797852e-01,4.840636629501281901e-02,2.636724292835568306e-03,2.213988430343172276e-02,-4.233603313718162925e-02,2.478032528050483352e-02,6.428767461329698563e-03,2.149291803856026029e-01,-1.309426622042192956e-01,1.532295522210847145e-02,-3.228369644754086609e-01,5.690699032493262699e-02,2.213873941551300906e-01,-2.228369644754086554e-01,1.569069903249326325e-01,1.578501135973955916e-01,5.244194155521872958e-01,7.347860336303710938e-01
2.220435000000000159e+00,-1.066355936813677685e-01,1.371337302789901735e-01,9.965661764144897461e-01,5.154064756102225142e-02,3.841049366815063593e-05,2.298174249483553311e-02,-4.396396894817591189e-02,8.989714274179482281e-03,8.658351376652717590e-03,1.253183799653983799e-01,-1.310262981034450713e-01,5.238407753751043311e-02,-3.171346182736508035e-01,-2.197160616597829130e-02,2.101382043388619614e-01,-2.171346182736507979e-01,7.802839383402171425e-02,1.438982646651185970e-01,5.242537637997138900e-01,7.345232963562011719e-01
2.247292999999999985e+00,-1.078452513189662593e-01,1.380631187079455480e-01,9.961939454078674316e-01,5.261284494432089121e-02,-2.868363733120382619e-03,2.443414032812829539e-02,-3.935748810297233502e-02,1.342707704699357303e-02,-6.936385296285152435e-03,-7.631324261955553523e-02,-6.114681800143433738e-02,2.778658522842905251e-02,-2.441817758450668119e-01,1.940543897081951907e-02,-1.324773810529728812e-01,-1.441817758450668063e-01,1.194054389708195246e-01,-2.030859313933329469e-01,5.255709213282034886e-01,7.422670125961303711e-01
2.273645999999999834e+00,-1.090247761172120772e-01,1.389626403852340375e-01,9.956359863281250000e-01,4.824152409744572600e-02,-6.033612402880805803e-03,2.381623020645262656e-02,-2.756911453289324562e-02,6.591157061963046938e-03,-8.653013966977596283e-03,-1.988864545953881457e-01,-1.353015476346711432e-01,-3.656047774708238995e-02,-6.710932751095563531e-02,2.986012785542668801e-02,-1.493696801938857732e-01,3.289067248904436330e-02,1.298601278554266936e-01,-2.182896251377663688e-01,5.256954903696680059e-01,7.400753498077392578e-01
2.294951000000000185e+00,-1.097354597446705271e-01,1.395284158946783759e-01,9.951425790786743164e-01,4.251788691518352398e-02,-7.769412804857100951e-03,2.253072415357793012e-02,-2.802801068756313740e-02,6.563239689225230933e-03,-1.371250022202730179e-02,-3.453471859380241593e-01,-5.313694594409212879e-02,-9.109801945150129698e-02,-1.590739412306806655e-01,6.178964526543501146e-02,-1.593546121486428269e-01,-5.907394123068065994e-02,1.617896452654350170e-01,-2.246942627107896828e-01,5.257276310561607158e-01,7.187197208404541016e-01
2.322991000000000028e+00,-1.107554725066866586e-01,1.402238160528856692e-01,9.942182302474975586e-01,3.220445937800622827e-02,-1.106066001419425682e-02,2.056283089055432889e-02,-2.273098715938022540e-02,5.035495009175797350e-03,-2.068771980702877045e-02,-3.655617709831130435e-01,-1.274156415024743638e-01,-5.232395281716670926e-02,-8.776721879449005115e-02,-1.666761631838028501e-01,-1.335425402762568658e-01,-1.298015515228984930e-02,-6.667616318380284457e-02,-1.932109617704365345e-01,5.260651935924396394e-01,7.047483921051025391e-01
2.345206000000000124e+00,-1.114885674647982938e-01,1.407392662938765915e-01,9.935776591300964355e-01,2.510857828886495571e-02,-1.278387789255885920e-02,1.862725582918867140e-02,-3.055057752786967395e-02,1.140895681272438426e-04,-1.673326455056667328e-02,-3.544347453822309646e-01,-9.845134478818841350e-02,-1.346448357959734721e-01,-1.233423495450942653e-01,-2.218391530938327305e-01,-1.192256524895169423e-01,-9.177340147355564359e-02,-1.218391530938327388e-01,-1.733667983923554701e-01,5.252675556970336501e-01,6.730440855026245117e-01
2.378376999999999963e+00,-1.126125053770801604e-01,1.417089483844060915e-01,9.927878975868225098e-01,1.407910862791584422e-02,-1.396615170906301273e-02,1.683679147299188550e-02,-2.866409798425314723e-02,1.930204370978108185e-04,-2.451934479176998138e-02,-3.953063112784261368e-01,-1.040573180417124662e-02,1.306021761471307628e-02,-7.329983358695896234e-02,5.383036511156358284e-02,-7.534258060993538619e-02,-1.148411483394036620e-01,1.538303651115635884e-01,-1.240438204829668184e-01,5.262019500866407240e-01,6.884074211120605469e-01
2.395989999999999842e+00,-1.129642278247787596e-01,1.420212104375109807e-01,9.925203919410705566e-01,1.081269817441493988e-02,-1.392883901315800088e-02,1.670531024807297982e-02,-1.990991362017283800e-02,-8.580832283505160363e-03,-1.629267819225788116e-02,-3.458105732590858739e-01,-3.471559712679447157e-02,-4.421977470002699112e-02,-4.870488030487615805e-02,-3.213563719504307359e-02,-1.070791531037036115e-01,-1.052008210326735166e-01,6.786436280495693196e-02,-1.551820547048426147e-01,5.256389931971507945e-01,6.886534690856933594e-01
2.423922000000000132e+00,-1.140490704689253176e-01,1.429708034112136539e-01,9.918279051780700684e-01,1.412423511831400720e-03,-1.302533735986766139e-02,1.852440200199301223e-02,-2.011041708420243865e-02,3.098920110581726735e-03,-1.610458083450794220e-02,-3.265458080908353877e-01,3.520562580214400827e-02,6.714180921047270545e-02,3.018696238111796826e-02,1.022946251718495070e-01,1.195452388106465480e-01,-6.981303761888203729e-02,2.022946251718495125e-01,6.669886904318694798e-02,5.251223720211896095e-01,6.565786600112915039e-01
2.446944999999999926e+00,-1.147745715803301925e-01,1.435744483058173371e-01,9.915109872817993164e-01,-3.173419950155893440e-03,-1.260605271776160663e-02,2.054617540231418182e-02,-2.879131097143017640e-02,3.539480676884039501e-03,-1.313036959618330002e-02,-1.606582429128500245e-01,2.979246936682045446e-02,1.118102235806353456e-01,2.082420992307703611e-01,1.109274986112787353e-01,2.468690649817770477e-01,1.082420992307703556e-01,2.109274986112787409e-01,1.885430557957412934e-01,5.257232026421083670e-01,6.982904672622680664e-01
2.474038000000000181e+00,-1.155653790821383892e-01,1.455061829917763949e-01,9.912025332450866699e-01,-1.033162443760487353e-02,-1.083911871673914895e-02,2.391420342504568808e-02,-6.247696899966895777e-03,9.481273736801069940e-03,-1.146066281944513321e-02,-2.170927135221847326e-01,1.096646637595205254e-01,6.440777732841754255e-02,2.151223266982766891e-01,1.241734668302558187e-01,1.714766306724000433e-01,1.151223266982766696e-01,2.241734668302558242e-01,1.040698523420490185e-01,5.251100778850511519e-01,6.698292493820190430e-01
2.494833999999999996e+00,-1.156991218496388751e-01,1.465710782857476968e-01,9.911031126976013184e-01,-1.282197423394673859e-02,-7.734393657030658176e-03,2.554127691890140106e-02,-4.234248799072552402e-03,1.842165951809757868e-02,1.249520946294069290e-02,-8.353707979119148752e-02,1.879288518233772631e-01,7.818428173572231077e-02,-1.261056016157205695e-01,1.148365902122379933e-01,1.431696768005678300e-01,-2.261056016157205750e-01,2.148365902122379989e-01,7.129287854216301290e-02,5.244690721806453126e-01,7.288093566894531250e-01
2.523147999999999946e+00,-1.157167423182989818e-01,1.483521814120476179e-01,9.911432862281799316e-01,-1.650984857226777194e-02,-2.744716500288735261e-03,2.717847972839937398e-02,-2.230321085571583192e-03,3.527909478064698845e-02,7.710076402872800827e-03,-8.127118134420800721e-02,1.131381031808220416e-01,2.029683881856461300e-02,-9.462527744112639305e-02,1.164924397814004753e-01,1.641363564776007755e-01,-1.946252774411263986e-01,2.164924397814004808e-01,8.779447051792133028e-02,5.248902769786636391e-01,7.320088148117065430e-01
2.548874000000000084e+00,-1.155320993765296816e-01,1.503398843288700770e-01,9.914419054985046387e-01,-1.898101834161472490e-02,2.960643262994722136e-05,2.858006166568727302e-02,7.199121139984450413e-03,3.823769063516779115e-02,2.981341630220413208e-02,-5.600137081827548380e-02,-5.657455225402064670e-03,-1.534210286355073248e-02,3.118453731901266179e-01,1.292514135370143036e-01,1.593744968265068673e-01,2.118453731901266401e-01,2.282539375617325672e-01,7.920143158047968091e-02,5.233501695298765632e-01,7.381056547164916992e-01
2.573100000000000165e+00,-1.150324162483395141e-01,1.523956467723073249e-01,9.919844865798950195e-01,-1.874071431350595590e-02,-5.117895618416135051e-04,2.682886683978247255e-02,1.827811267349300009e-02,4.696696806223630422e-02,2.550607174634933472e-02,-1.324858393296591413e-02,-7.173356741436918982e-02,-9.527604522372255802e-02,2.819080309197239398e-01,8.248932976363322622e-02,-5.771938835926723743e-02,1.819080309197239620e-01,1.773513262928446688e-01,-1.330161711218539045e-01,5.237366216938904584e-01,7.447633743286132812e-01
2.596518999999999799e+00,-1.142256221913107578e-01,1.546177689039352765e-01,9.928429722785949707e-01,-1.507659453995379567e-02,-3.705596115361364795e-03,2.449656584474002585e-02,1.487789422413529801e-02,6.020544419623582999e-02,2.773629501461982727e-02,8.491718044681728639e-02,-1.181708608937880045e-01,-5.627961856706607119e-02,2.205862766348871962e-01,5.781519834916357126e-03,8.046914068999144742e-02,1.205862766348871906e-01,1.057815198349163627e-01,1.151218330035036659e-02,5.232051346477948339e-01,7.281130552291870117e-01
2.621572000000000013e+00,-1.131382350086987953e-01,1.571976404087594426e-01,9.935967922210693359e-01,-1.388292495009290847e-02,-5.886807569584373567e-03,2.214506127217052978e-02,3.204346718457878190e-02,7.263679111920694209e-02,3.020998463034629822e-02,2.123459807495840790e-02,-3.324570466571379404e-03,-5.866886155816698062e-02,1.992553136750622456e-01,8.056744419025255177e-02,7.465081421427721686e-02,9.925531367506224001e-02,1.805674441902525573e-01,1.220457647665424555e-02,5.228625696244005860e-01,7.231917381286621094e-01
2.644362999999999797e+00,-1.123947280536107263e-01,1.594741654066848813e-01,9.943458437919616699e-01,-1.654460960598415006e-02,-7.883959750822233659e-03,1.945466843393939271e-02,6.527786027223425602e-02,9.256076586178299537e-02,2.967988885939121246e-02,-7.347889312876461354e-02,-1.089464878945276549e-01,-1.022727544195300570e-01,3.083338886659754419e-01,1.295466726555992432e-01,-1.570878474376446454e-01,2.083338886659754363e-01,2.295466726555992487e-01,-2.119568585259177240e-01,5.233989972195743912e-01,7.536294460296630859e-01
2.668480000000000185e+00,-1.115271954788007308e-01,1.620893629888282561e-01,9.953513145446777344e-01,-1.576366865267907202e-02,-1.119780371828471566e-02,1.790253158385435306e-02,5.557836210400513011e-02,9.616182537088893700e-02,4.815923050045967102e-02,1.010093102888735550e-01,-1.354338839346544698e-01,-4.390544064731486534e-02,2.618531822883836124e-01,3.302384724137000238e-02,2.933800317824352896e-02,1.618531822883835791e-01,1.330238472413700079e-01,-2.134990371616824270e-02,5.214066490046586066e-01,7.242841720581054688e-01
2.696989999999999998e+00,-1.098211312660851563e-01,1.657460296996627058e-01,9.971023797988891602e-01,-1.055282548981593786e-02,-1.371060321430195295e-02,1.638443904270392437e-02,6.031661734161011812e-02,1.116518896288381940e-01,4.761730134487152100e-02,2.042446953337354598e-01,-3.820090443616613179e-02,-6.552408326477358880e-02,1.369581006664931655e-01,9.038166645050624282e-02,1.354703106891919778e-02,3.695810066649314607e-02,1.903816664505062484e-01,-3.318147378420526622e-02,5.211943446311929629e-01,7.185449600219726562e-01
2.721887999999999863e+00,-1.082622269587910080e-01,1.684005793907246418e-01,9.987044334411621094e-01,-4.155865277561923005e-03,-1.533492340189601677e-02,1.682639417753084565e-02,6.155675478361859188e-02,1.243941648590892179e-01,5.774275958538055420e-02,2.505164961453622552e-01,-7.404212635547866017e-02,5.778568694754578072e-02,5.961541071337159159e-02,9.041087206956241462e-02,9.547929622681664008e-02,-4.038458928662841396e-02,1.904108720695624202e-01,4.717369901059211695e-02,5.206560330389106150e-01,7.375271320343017578e-01
2.745765000000000011e+00,-1.065134534672715211e-01,1.713405657586160036e-01,1.000556230545043945e+00,2.802738515459940721e-03,-1.585478719400090775e-02,1.872904673679820498e-02,6.286963208934109870e-02,1.120432912844550460e-01,7.384944707155227661e-02,2.547604186683364302e-01,-4.308420222039679483e-03,1.880797823940004790e-02,3.459508329435108387e-02,9.904833880704796978e-02,6.832008093018840378e-02,-6.540491670564892168e-02,1.990483388070479753e-01,1.447293482216547092e-02,5.191419035626427814e-01,7.314162254333496094e-01
2.771730999999999945e+00,-1.045065187915005106e-01,1.743458686486274167e-01,1.002641797065734863e+00,8.877566319982384269e-03,-1.599524648707939534e-02,2.134762813704194073e-02,9.550850055085505219e-02,1.270695170953221043e-01,6.079610064625740051e-02,2.050926429186396283e-01,-1.254712874448529226e-02,7.577817653951837706e-02,-1.352370403873454086e-02,1.100213449209796468e-01,1.141570817697530327e-01,-1.135237040387345464e-01,2.100213449209796523e-01,5.295753969922911003e-02,5.193828607408742526e-01,7.031004428863525391e-01
