timestamp,x,y,z,roll,pitch,yaw,vx,vy,vz,p,q,r,psp,qsp,rsp,pres,qres,rres,thrust_sp, thrust_res
0.000000000000000000e+00,-2.929894977922851626e-02,4.188562324524670866e-02,9.687752127647399902e-01,1.682433240655277495e-02,-4.763940018340129257e-03,2.927188361974542951e-04,9.837361323665473958e-03,-1.664262029751956834e-02,1.030307542532682419e-02,3.692151939804816374e-02,1.242455195089968087e-02,-3.517553605391577232e-03,-9.027261823454396650e-02,-1.428055137457620583e-01,1.377588430930880466e-02,6.243216991424560720e-03,-1.014129281044006264e-01,1.278866529464721576e-02,5.235843122405990924e-01,5.416886806488037109e-01,-5.893465280532836914e-01,8.341621240877363164e+01,5.520431995391845981e-02
2.551499999999999949e-02,-2.922441880406294323e-02,4.255786078227075109e-02,9.682145714759826660e-01,1.707706434892569680e-02,-4.243734057667092330e-03,4.097132710777360220e-04,9.166673730467264983e-03,-1.037160021701236806e-02,1.400639885105192661e-03,4.142852699241825198e-02,1.300898939979637688e-02,2.529748872863636470e-03,-8.930315213614559156e-02,-1.245274307062742974e-01,1.993726299202592742e-02,8.927464485168456598e-04,-8.454684019088744285e-02,1.861544251441955497e-02,5.248829616175966217e-01,5.732262134552001953e-01,-1.004908680915832520e+00,7.717079671474068903e+01,5.520431995391845981e-02
5.090299999999999686e-02,-2.943920533320073737e-02,4.398483314245397319e-02,9.673941731452941895e-01,1.711367601907665126e-02,-3.502182986056201486e-03,5.691828067191156623e-04,1.125776551484349887e-02,-7.694491013818215153e-03,3.586596343666315079e-03,2.443171210890282075e-04,1.493707422655602551e-02,2.303691317177133935e-02,-8.621946134515268145e-02,-1.063498017583950211e-01,1.958334944343689127e-02,1.968955993652343663e-03,-7.277348041534423273e-02,1.784021258354186873e-02,5.248355676598382979e-01,5.745809078216552734e-01,-5.819734334945678711e-01,4.325262029649638151e+01,5.520431995391845981e-02
7.501399999999999735e-02,-2.961612205150925339e-02,4.504339973249492368e-02,9.669793844223022461e-01,1.688918003552374036e-02,-3.214386251265244354e-03,7.712877108292762489e-04,5.850426865274583471e-03,-1.771219831155454102e-02,1.387249026447534561e-02,-2.425334448296793607e-02,2.271880953147379159e-03,-5.624191244396956404e-03,-1.517906461779824911e-02,1.041994382246976547e-01,-1.296740884169870177e-02,7.918410301208496371e-02,1.407675147056579590e-01,-1.527872085571289028e-02,5.247865681000053462e-01,6.099867820739746094e-01,-5.264390707015991211e-01,7.598285606334621889e+01,-5.440418720245361606e-02
9.695700000000000152e-02,-2.975976391517897238e-02,4.606530898335680496e-02,9.663810729980468750e-01,1.663023828228938489e-02,-2.899746738025177351e-03,1.023507123992156492e-03,1.922525530696893303e-02,-5.440292141967461442e-03,9.505471680313348770e-04,-1.198656695289863731e-02,6.914366670817014265e-04,-1.347204058684960766e-04,-6.539330597007532442e-02,1.075244178157590547e-01,-3.760026944355016748e-02,1.527382135391235247e-02,1.306010484695434570e-01,-4.056977033615111888e-02,5.252051809892820389e-01,5.776393413543701172e-01,-8.871480226516723633e-01,9.703817776490697611e+01,-5.858027935028076172e-02
1.235699999999999993e-01,-2.985376318697611706e-02,4.753706061334706662e-02,9.652354717254638672e-01,1.492204603941571679e-02,-1.692158735516535728e-03,1.308972009585328018e-03,1.296409105206584172e-02,-4.788439827269423341e-03,-1.173903420567512512e-02,-9.973607812997896394e-02,7.669665559120183995e-02,3.312632673499080888e-02,-2.768070382963117720e-02,1.294299030699652964e-01,-2.468183823305477448e-02,4.217133522033691267e-02,1.516966760158538763e-01,-2.843860387802123885e-02,5.270208392440733913e-01,6.194891929626464844e-01,-8.463906049728393555e-01,7.234841678333405923e+01,-5.858027935028076172e-02
1.503680000000000017e-01,-2.992275143852887731e-02,4.893462717378820742e-02,9.637244939804077148e-01,1.314136774194192905e-02,-4.706483017109519551e-04,1.567746158045808065e-03,4.058627065085608325e-03,-1.284893350544547876e-02,-2.199428528547286987e-02,-5.164341487559962612e-02,1.982524179908842429e-02,-4.085636437497770779e-03,-1.503159727491344411e-01,9.403770596281947614e-02,-5.765977619920074904e-02,-8.645017147064208707e-02,1.146434426307678112e-01,-6.212253570556640347e-02,5.275300701711322926e-01,5.978879928588867188e-01,-8.935099840164184570e-01,1.000836771535456222e+02,-5.858027935028076172e-02
1.733220000000000038e-01,-3.007981210909422762e-02,4.971646959073715288e-02,9.625476598739624023e-01,1.229220187851964505e-02,-5.489991731941756825e-04,1.921801983512071372e-03,1.255149920449856460e-02,3.892756642141367678e-03,-3.086017444729804993e-02,-2.456026300965381479e-02,2.368802100899346577e-02,-2.752871535409555023e-02,-1.274446274872770568e-01,1.025960395988590595e-01,-5.443414691860432725e-02,-8.417040109634399414e-02,1.157544851303100586e-01,-5.986611843109130443e-02,5.284516441175405310e-01,6.049728393554687500e-01,-9.968324899673461914e-01,9.711975071416443939e+01,-5.858027935028076172e-02
1.964259999999999895e-01,-3.022583591679155884e-02,5.048380084667091622e-02,9.612521529197692871e-01,1.166079009381796802e-02,-1.454728307514807639e-03,2.563491371809676136e-03,2.388777356539440247e-03,-2.871451037131291222e-03,-2.950301207602024078e-02,-2.369722328117782745e-02,-9.027921513821753063e-02,3.561502632873844720e-02,-1.269817689717152309e-01,8.633231399241678150e-02,-5.174392193598756351e-02,-8.066373467445372980e-02,1.148495435714721596e-01,-5.902125835418700617e-02,5.284835122493648507e-01,6.035871505737304688e-01,-1.216097950935363770e+00,1.085401275347492458e+02,-5.858027935028076172e-02
2.245219999999999994e-01,-3.047540531398438765e-02,5.156516222390677279e-02,9.589396119117736816e-01,1.064364185932000113e-02,-3.573668163156629163e-03,3.355302117902522491e-03,9.829748740172478128e-03,-1.677059950976749446e-03,-5.001215264201164246e-02,-5.193527763138615361e-02,-6.192174611373484766e-02,8.002189547913864109e-02,-1.186519259504816015e-01,8.068891313711087920e-02,-4.693957199727483154e-02,-8.152502775192260742e-02,1.157240152359008678e-01,-5.645209550857543945e-02,5.304169720158995460e-01,6.146773099899291992e-01,-9.887176752090454102e-01,9.670994619415284888e+01,-5.858027935028076172e-02
2.458799999999999875e-01,-3.065552871620573147e-02,5.228699888919766808e-02,9.572428464889526367e-01,9.576273972322472267e-03,-5.267030794287697049e-03,3.860986488911816259e-03,1.635616608480612577e-03,-3.209668206033008085e-04,-5.234532803297042847e-02,-8.265653807383269158e-02,-1.011341176719802032e-01,2.822689301098535442e-02,-1.443521793823103749e-01,7.001516887171718717e-02,-5.936207920428604456e-02,-1.156610727310180553e-01,1.237700164318084606e-01,-7.034361362457275391e-02,5.303452426511389151e-01,5.900011062622070312e-01,-2.863925695419311523e-01,1.029593848696069216e+02,-5.727851390838623047e-02
2.719099999999999850e-01,-3.095853708329677698e-02,5.360947274087800307e-02,9.544691443443298340e-01,6.855536168048371841e-03,-8.153847993089602397e-03,5.132008168783960302e-03,7.453798288403261536e-03,8.726749947077346026e-03,-6.854715198278427124e-02,-4.828693555930047704e-02,-1.447436561275785571e-01,3.159565202904466436e-02,-8.578292659368146056e-02,3.835007675657715887e-02,-3.378707512067734287e-02,-8.252636790275573453e-02,1.052372395992278997e-01,-4.834724664688110074e-02,5.323782662416155498e-01,6.207947731018066406e-01,-1.237323403358459473e+00,1.951745133445685951e+02,-5.727851390838623047e-02
2.969019999999999992e-01,-3.121541804812218504e-02,5.484158973981990287e-02,9.524598121643066406e-01,4.138282688083895489e-03,-9.940849371503190923e-03,6.135618752743494074e-03,-5.235988121758385072e-03,6.060162393137172136e-03,-7.647682726383209229e-02,-1.369982717000754469e-01,-1.042624804473561290e-01,6.623397071416937953e-02,-9.347471160342619989e-02,2.470186713189498340e-02,-4.077746840590374539e-02,-1.053880333900451688e-01,1.142172932624816867e-01,-5.815218687057494701e-02,5.329369038547643322e-01,6.059910058975219727e-01,-8.429692983627319336e-01,8.689062035653239491e+01,-5.727851390838623047e-02
3.235129999999999950e-01,-3.159469427191496232e-02,5.665704241564109567e-02,9.490908384323120117e-01,-1.761191468396603631e-07,-1.300013282996026476e-02,7.716342168076911930e-03,7.539725173761677298e-04,1.017430058766669379e-02,-8.841482549905776978e-02,-1.395251821598491870e-01,-1.128944880629839526e-01,8.315194846136829410e-02,-4.978311021882218801e-02,3.123784065246576480e-03,-2.651946220330628906e-02,-9.330938458442687711e-02,1.031237840652465820e-01,-4.827400445938110490e-02,5.343263131660357379e-01,6.150155067443847656e-01,-8.207501173019409180e-01,9.606070256259728524e+01,-5.727851390838623047e-02
3.520579999999999821e-01,-3.208271419150102860e-02,5.845850751310072840e-02,9.457237720489501953e-01,-4.287539181032039987e-03,-1.639160778615678105e-02,9.333135716503371607e-03,2.982452301408875742e-03,1.658054967055957313e-02,-9.863623231649398804e-02,-1.517626433988571721e-01,-1.241030516955607815e-01,5.621096639479041673e-02,1.951905104957089160e-02,-3.884541988372805510e-03,-4.149938852570700387e-03,-5.741484761238097728e-02,9.611545801162720004e-02,-3.037011623382568359e-02,5.357377016176991802e-01,6.314353942871093750e-01,-1.024030089378356934e+00,1.001953507464753272e+02,-5.727851390838623047e-02
3.736550000000000149e-01,-3.234320566651417705e-02,5.968797259255548965e-02,9.432656168937683105e-01,-6.834920836254518295e-03,-1.824592516962852962e-02,1.039717435826714373e-02,-9.681758282965961804e-04,2.127526746672005545e-02,-1.067314669489860535e-01,-1.292157966314045059e-01,-1.312967253650323129e-01,5.400275453217036337e-02,1.620105302941237113e-01,-9.789382219314575473e-02,4.244779981708503985e-02,6.491153240203857699e-02,2.106177806854247787e-03,1.329771280288696324e-02,5.370490324444305852e-01,6.539373397827148438e-01,-8.920534849166870117e-01,8.426387986590722790e+01,-5.727851390838623047e-02
4.013269999999999893e-01,-3.284115062515925720e-02,6.258951844987215019e-02,9.394673109054565430e-01,-1.020993180244371239e-02,-2.041080161515762548e-02,1.180287945965856691e-02,-3.056589812907054785e-03,2.933897326844334130e-02,-1.131951957941055298e-01,-1.067957076632157359e-01,-8.293350388090940661e-02,7.230514328611614694e-02,2.508195400238036887e-01,-1.956507205963134988e-01,6.290330136145354245e-02,1.508195400238037109e-01,-9.565072059631347934e-02,2.988801598548888883e-02,5.380945341659434389e-01,6.623973846435546875e-01,-9.580293893814086914e-01,7.955509281058708382e+01,-5.727851390838623047e-02
4.246119999999999894e-01,-3.314716660191979747e-02,6.458973710082537012e-02,9.368011951446533203e-01,-1.198065084667639286e-02,-2.117272866206754145e-02,1.257842054021650335e-02,-4.179184702841949421e-03,3.930447109898493191e-02,-1.352044343948364258e-01,-1.241753530858765442e-01,3.893264333180990189e-04,2.289564579625960605e-02,1.984032750129699763e-01,-1.031260609626770131e-01,5.407744853564087906e-02,9.840327501296997070e-02,-3.126060962677001866e-03,1.891223788261413644e-02,5.403212439241470433e-01,6.783492565155029297e-01,-1.199194312095642090e+00,9.345214403554268756e+01,-5.727851390838623047e-02
4.473219999999999974e-01,-3.350306417774381873e-02,6.664786638978892341e-02,9.339677691459655762e-01,-1.335851810386654709e-02,-2.191309859445755848e-02,1.335462507300979110e-02,-3.565527581214840772e-03,4.498283007841626796e-02,-1.396664083003997803e-01,-7.323756879260934216e-02,-4.682747687818149263e-02,1.885313445878038577e-02,2.848669290542602539e-01,-2.327483892440795898e-01,8.833367722457022286e-02,1.848669290542602484e-01,-1.327483892440795843e-01,5.102174878120422502e-02,5.412008874565749084e-01,6.880376338958740234e-01,-1.188296198844909668e+00,9.899523186779073569e+01,-5.727851390838623047e-02
4.758890000000000065e-01,-3.405365907210002041e-02,6.973362875909128178e-02,9.297406077384948730e-01,-1.442030371206179558e-02,-2.185900776590155026e-02,1.415305184830152954e-02,-5.456979477240270562e-03,5.240492675441107279e-02,-1.401667296886444092e-01,-2.493802852311157586e-02,2.364312561115585257e-02,4.327492441318718519e-02,2.550406932830810436e-01,-1.714815497398376465e-01,8.812404116107813712e-02,1.550406932830810380e-01,-7.148154973983764093e-02,4.857661128044128002e-02,5.417008800858137407e-01,6.864218711853027344e-01,-1.208556771278381348e+00,9.887711740647370107e+01,-5.727851390838623047e-02
4.998380000000000045e-01,-3.441798705255282032e-02,7.181143062668779442e-02,9.268729090690612793e-01,-1.422866096850389055e-02,-2.136454586410829748e-02,1.444432255950102093e-02,-9.861909124300502483e-03,5.630191241388413093e-02,-1.504639089107513428e-01,2.951029763871530417e-02,2.863227593661902409e-02,4.408103965497032345e-02,2.562476515769958607e-01,-1.612085461616516169e-01,8.918660701223861398e-02,1.562476515769958552e-01,-6.120854616165161133e-02,4.879803657531738004e-02,5.428820417726871739e-01,6.889166831970214844e-01,-1.050505042076110840e+00,8.712199301466657175e+01,-5.727851390838623047e-02
5.225499999999999590e-01,-3.448767656511629587e-02,7.346665871155769190e-02,9.239584803581237793e-01,-1.289567612389145440e-02,-2.023494783329193858e-02,1.447265203725837251e-02,-9.368114861726371118e-03,5.488247509924453621e-02,-1.459786742925643921e-01,8.659775692250872015e-02,1.423656144781148547e-01,-2.016559131849882114e-02,2.852938294410705677e-01,-2.322031497955322210e-01,9.761788423930262137e-02,1.852938294410705622e-01,-1.322031497955322155e-01,5.710254907608031810e-02,5.429580922648018504e-01,6.882817745208740234e-01,-2.655535936355590820e-01,1.083136931033849777e+02,-5.311071872711181641e-02
5.505320000000000213e-01,-3.471373900952878094e-02,7.591285510494726052e-02,9.196952581405639648e-01,-9.368427594899803382e-03,-1.792305983269271152e-02,1.434540385272131333e-02,-1.962483885283410057e-02,5.282290715413896776e-02,-1.541685163974761963e-01,1.714856790529660779e-01,8.082500476318089933e-02,-4.196627811398328384e-02,1.793107748031616266e-01,-8.065823316574097235e-02,5.655573940780517228e-02,7.931077480316162109e-02,1.934176683425903320e-02,1.627859473228454590e-02,5.439837166948072733e-01,6.845067739486694336e-01,-7.373942136764526367e-01,1.196743535800563620e+02,-5.311071872711181641e-02
5.738370000000000415e-01,-3.484157585379716454e-02,7.757272591020730745e-02,9.168602228164672852e-01,-5.784177348622414512e-03,-1.563025959678676635e-02,1.439513846080202157e-02,-2.774725860094699910e-03,6.623519207655702290e-02,-1.552497446537017822e-01,1.953700465635412886e-01,1.360996751223654821e-01,-4.264942153234398126e-03,8.584001064300537942e-02,-2.696319818496704934e-02,4.959239540607274233e-02,-1.415998935699462787e-02,7.303680181503295621e-02,9.053170680999755859e-03,5.443519702939162430e-01,6.774166822433471680e-01,-1.000232338905334473e+00,1.017434131218587225e+02,-5.311071872711181641e-02
6.029170000000000362e-01,-3.499932312905539716e-02,7.997318875368335245e-02,9.126676321029663086e-01,8.696333306891009668e-04,-1.127960498786895194e-02,1.381944876402671669e-02,-1.231998664504166743e-02,5.883934961026481697e-02,-1.576841622591018677e-01,2.172761576903464165e-01,2.312222624039987073e-01,1.105875903291090971e-02,-2.008195540299849424e-02,2.795224189758299671e-02,3.047545078956087616e-02,-1.033837795257568359e-01,1.279522418975830023e-01,-8.547663688659667969e-03,5.451218775361760249e-01,6.821706295013427734e-01,-9.619776010513305664e-01,6.285788942216884578e+01,-5.311071872711181641e-02
6.245159999999999600e-01,-3.505511480540524083e-02,8.073324897490984087e-02,9.113621115684509277e-01,3.556624759239580477e-03,-9.624363426499193963e-03,1.344555015709264674e-02,-1.441435283466779588e-03,6.416864759601378920e-02,-1.605672836303710938e-01,2.453215845507771276e-01,2.290230253894222079e-01,-2.759313759868552846e-02,-4.630111160051664232e-02,4.877704425850859504e-02,2.794118331332482580e-02,-1.179213166236877386e-01,1.328741312026977539e-01,-1.003704071044921910e-02,5.456384593264673732e-01,6.819622516632080078e-01,-9.487355947494506836e-01,9.602765127720358862e+01,-5.311071872711181641e-02
6.459859999999999491e-01,-3.551027081993825274e-02,8.420910105997654604e-02,9.069855809211730957e-01,1.142474990487584753e-02,-4.510509001971696463e-03,1.256930860209810180e-02,-1.452896470416526614e-02,5.836146637989499120e-02,-1.551940739154815674e-01,2.964945595987601989e-01,1.908017674996904667e-01,-6.435754170271001939e-02,-1.281135789644902157e-01,8.359919994601561211e-02,2.495674503621449908e-02,-1.461417317390441839e-01,1.462482333183288408e-01,-1.058574914932250942e-02,5.458382344529164598e-01,6.846392154693603516e-01,-1.224155306816101074e+00,1.080713306708762502e+02,-5.311071872711181641e-02
6.731279999999999486e-01,-3.603121050590479824e-02,8.848368003074583155e-02,9.017068147659301758e-01,2.217178381404891208e-02,3.112872946600120372e-03,1.153837949985244554e-02,-1.459191094928148462e-02,6.520005427513500540e-02,-1.521642953157424927e-01,2.774344639569868987e-01,2.234316325228820066e-01,1.088903370344114973e-04,-1.775903812545378269e-01,1.453190468184229756e-01,3.382837136866119476e-02,-1.347422361373901423e-01,1.569332063198089489e-01,1.422303915023803668e-03,5.465271008749325032e-01,7.014831304550170898e-01,-1.360026955604553223e+00,9.897795148919060182e+01,-5.311071872711181641e-02
7.021920000000000384e-01,-3.632901371153648279e-02,9.169198057546112945e-02,8.975780606269836426e-01,2.888455857794124809e-02,8.235121638130227240e-03,1.094824407392614753e-02,-3.068427088255876005e-03,6.753821314589032732e-02,-1.499938368797302246e-01,1.966315831468427866e-01,1.699110242437470164e-01,-3.562526488263281776e-02,-2.209842092554222814e-01,1.988547533241225018e-01,2.965571472864280203e-02,-1.376211762428283525e-01,1.686734139919280895e-01,-7.121443748474120660e-04,5.470219857788195528e-01,7.088550329208374023e-01,-9.832555055618286133e-01,7.066728183235130700e+01,-5.311071872711181641e-02
7.235549999999999482e-01,-3.653157614396088798e-02,9.375551377001246911e-02,8.950874805450439453e-01,3.219167598687956017e-02,1.067569585348926431e-02,1.080455333747725767e-02,-8.723646246514137059e-03,6.455244188598073529e-02,-1.469052881002426147e-01,1.776241168524109182e-01,1.120143195060890745e-01,-2.268641813007143265e-02,-2.421246409416198675e-01,2.153558351276837479e-01,3.133224861940518691e-02,-1.421246409416198619e-01,1.754003942012786754e-01,1.488697528839111371e-03,5.472515472212835519e-01,7.114763259887695312e-01,-1.006122708320617676e+00,8.086475426318034465e+01,-5.311071872711181641e-02
7.498059999999999725e-01,-3.726336247568531879e-02,9.792661170889642441e-02,8.913438320159912109e-01,3.505769890348328643e-02,1.254449841560845158e-02,1.084919763699041667e-02,-2.375282505835408543e-03,6.928239986207365697e-02,-1.615797430276870728e-01,8.453541455840835050e-02,2.675987641279486615e-02,3.531289127793096200e-02,-3.188403427600860485e-01,2.828095973512785855e-01,-2.888773158672763852e-02,-2.188403427600860429e-01,2.254773795604705644e-01,-5.862933397293090820e-02,5.494045889889698220e-01,7.460196018218994141e-01,-9.521797895431518555e-01,6.829989045470070153e+01,5.604798793792724332e-02
7.721160000000000245e-01,-3.774955434999750087e-02,1.006803361037454103e-01,8.887327313423156738e-01,3.553522738062399322e-02,1.281107958830718374e-02,1.086951360779067621e-02,-2.914140593746044911e-03,7.346580605635051608e-02,-1.601176410913467407e-01,4.622724532983047557e-02,-4.384697060225757224e-04,1.755125187693176367e-02,-3.190193533897399680e-01,2.829995690797152408e-01,-2.545126230018276287e-02,-2.190193533897399902e-01,2.255531430244445690e-01,-5.523422956466674666e-02,5.497289931810434016e-01,7.459328174591064453e-01,-1.217651009559631348e+00,7.254686792966877817e+01,5.604798793792724332e-02
8.004750000000000476e-01,-3.859136367622198471e-02,1.058810429560989863e-01,8.838937282562255859e-01,3.342229881995984614e-02,1.124526850414198087e-02,1.088608805650194411e-02,1.139590213380001172e-03,7.376884404336669920e-02,-1.556819826364517212e-01,-6.030707123240557771e-02,-8.934715495343512059e-02,-1.030824643432087621e-02,-3.184874889504203388e-01,2.749338916931097221e-01,-3.673788674847142111e-02,-2.190251827239990123e-01,2.251418888568877952e-01,-6.667252779006957453e-02,5.499923698638483627e-01,7.454532384872436523e-01,-9.920939207077026367e-01,7.541020617314318031e+01,5.604798793792724332e-02
8.212429999999999453e-01,-3.893925212581612894e-02,1.084051592524615387e-01,8.814406394958496094e-01,3.108681506867324099e-02,9.533410745849124623e-03,1.084002781006445162e-02,-7.254970002699044455e-03,6.954330241661513257e-02,-1.500502526760101318e-01,-1.465194080657712117e-01,-1.365441685573502151e-01,2.733221621859256364e-02,-3.039206017147840777e-01,2.556510049320358524e-01,-4.783381075430812035e-02,-2.185145080089569147e-01,2.242378592491149902e-01,-7.786002159118651789e-02,5.499886548281609500e-01,7.443375587463378906e-01,-8.979130983352661133e-01,7.783139895088598337e+01,5.604798793792724332e-02
8.467519999999999492e-01,-3.966879197159361992e-02,1.121229147734503218e-01,8.780986666679382324e-01,2.639375808135937043e-02,6.121258687711961244e-03,1.077196074927573750e-02,6.159867412173428494e-03,6.500027694990961891e-02,-1.485674530267715454e-01,-2.013915703463465268e-01,-1.251690303512169589e-01,-3.441453621077870256e-03,-2.736021247676053703e-01,2.430945017918325624e-01,-4.208441605316910750e-02,-2.183523237705230768e-01,2.232369482517242432e-01,-7.206205129623412253e-02,5.503491002036784430e-01,7.439265251159667969e-01,-6.788669824600219727e-01,-3.387913164185393100e+01,5.604798793792724332e-02
8.741459999999999786e-01,-4.037975492251074522e-02,1.157580034891065174e-01,8.747335076332092285e-01,2.048022039165124999e-02,1.546547471803494389e-03,1.082859473247656766e-02,-5.853437943618399961e-03,6.929159426834603785e-02,-1.537042409181594849e-01,-1.976790711076354123e-01,-2.294195407783357066e-01,-2.326659944810403197e-02,-2.269149317420423029e-01,1.995916793646818066e-01,1.306931044764361380e-02,-2.163869440555572510e-01,2.208107292652130016e-01,-1.743575334548949987e-02,5.511821265035861117e-01,7.429171800613403320e-01,-1.547492027282714844e+00,1.659342549416905683e+02,5.604798793792724332e-02
9.020270000000000232e-01,-4.106539068694359945e-02,1.194667964178441621e-01,8.711633682250976562e-01,1.266127448950733411e-02,-4.255086722664502830e-03,1.181373005032779547e-02,-6.198324814773447126e-04,8.478222920034646226e-02,-1.569537520408630371e-01,-3.377095310510600523e-01,-2.008037507597195681e-01,7.230750443223860069e-02,-1.327500882451829178e-01,1.144381114863080723e-01,8.822735372031520473e-02,-1.864507913589477373e-01,1.681650996208190751e-01,5.475461483001708984e-02,5.517681343099752889e-01,7.340615987777709961e-01,-6.281658411026000977e-01,2.386667537526219718e+01,5.604798793792724332e-02
9.251099999999999879e-01,-4.158111854150078196e-02,1.218810090809134550e-01,8.689529895782470703e-01,6.704154930247748119e-03,-8.738267549766476350e-03,1.220062667403759744e-02,-1.282828536410283125e-02,7.299345185883750198e-02,-1.365217417478561401e-01,-3.829534206910255034e-01,-2.531127193563584288e-01,2.371608245653290120e-02,-5.458560815641622099e-02,-6.675208014389505395e-02,1.079163480026114202e-01,-1.385699987411498912e-01,2.665684819221496651e-02,7.322094440460204245e-02,5.505145511866385011e-01,7.222489118576049805e-01,-1.183047175407409668e+00,7.030061678713751405e+01,5.604798793792724332e-02
9.466360000000000330e-01,-4.211133470901246706e-02,1.262195171315617370e-01,8.659399151802062988e-01,-2.387668258326765269e-03,-1.654419224141534528e-02,1.346050409418697753e-02,-8.232773113686647423e-03,8.333477511784849467e-02,-1.353545188903808594e-01,-2.748655219382037940e-01,-3.301150418563731925e-01,2.860823248771275987e-02,2.206093192100525013e-01,-2.469309806823730413e-01,1.254488315869221049e-01,1.206093192100524819e-01,-1.469309806823730358e-01,8.718209266662597934e-02,5.507345761177212529e-01,7.132229804992675781e-01,-1.141566872596740723e+00,1.346483087786168298e+01,5.604798793792724332e-02
9.721109999999999474e-01,-4.274983670975678746e-02,1.306178970630946512e-01,8.629313111305236816e-01,-1.254588990411548491e-02,-2.419677199274894441e-02,1.517027821995691264e-02,-1.392546151341360165e-02,9.224835988343733917e-02,-1.428710669279098511e-01,-4.202367462282676769e-01,-2.725616261739480795e-01,6.910033473178479879e-02,3.157537817955017312e-01,-3.128363609313964955e-01,1.472831679574354014e-01,2.157537817955016979e-01,-2.128363609313964899e-01,1.043783783912658608e-01,5.518210139200293574e-01,7.183713912963867188e-01,-8.428362607955932617e-01,1.205548196055843562e+02,5.604798793792724332e-02
9.983070000000000555e-01,-4.351084186288209366e-02,1.350019313489670414e-01,8.602672219276428223e-01,-2.145706939351287382e-02,-3.183741201554424194e-02,1.651376935714157085e-02,-2.342758455995568034e-02,1.022258380517346438e-01,-1.190534830093383789e-01,-2.892378478240460460e-01,-2.703725341155388540e-01,2.765570634458584115e-02,3.227156162261962669e-01,-3.201606512069702370e-01,1.220372448989560238e-01,2.227156162261962891e-01,-2.201606512069702037e-01,7.564744949340819480e-02,5.507223111759010914e-01,7.261357307434082031e-01,-1.261292099952697754e+00,5.354259397925490305e+01,5.604798793792724332e-02
1.026415000000000077e+00,-4.438138366892690340e-02,1.395999521714760272e-01,8.577028512954711914e-01,-2.933966289603249719e-02,-3.873124715430287246e-02,1.735746628288206694e-02,-1.719266391459295037e-02,1.116840674660275340e-01,-1.193864122033119202e-01,-2.588403566149370949e-01,-2.647619335590634670e-01,1.124119167860029161e-02,3.250440597534179910e-01,-3.222679376602172741e-01,7.693675507964289895e-02,2.250440597534179576e-01,-2.222679376602172685e-01,2.857226729393005232e-02,5.511780144280066240e-01,7.267627716064453125e-01,-1.400876641273498535e+00,7.647541515534169321e+01,5.604798793792724332e-02
1.051290000000000058e+00,-4.493711829173605704e-02,1.424771059737847401e-01,8.563396930694580078e-01,-3.306191948670703790e-02,-4.226535509431639248e-02,1.726475187261595004e-02,-2.819540902781160485e-02,1.150014730439427174e-01,-1.216827109456062317e-01,-1.717173576678613367e-01,-1.854300102635113301e-01,-2.549195298463927378e-03,3.262821674346924050e-01,-3.236185908317565918e-01,4.404574445476705513e-02,2.262821674346923717e-01,-2.236185908317565862e-01,-3.809452056884765625e-03,5.514607306400909348e-01,7.145369052886962891e-01,-1.013395428657531738e+00,7.414747495033707025e+01,5.604798793792724332e-02
1.078740000000000032e+00,-4.587766783975075896e-02,1.471778108969992727e-01,8.541170954704284668e-01,-3.646089647090171304e-02,-4.485426900579225773e-02,1.630085404116470363e-02,-2.258745577381481018e-02,1.252590067029297483e-01,-1.025689467787742615e-01,-6.300427505408257023e-02,-2.424083151086695725e-02,-8.154387490433248620e-02,3.266304254531859907e-01,-3.244009733200073353e-01,1.748257525887022754e-02,2.266304254531860130e-01,-2.244009733200073298e-01,-2.753480672836303503e-02,5.504553742074865808e-01,7.113149166107177734e-01,-1.035292506217956543e+00,9.495658882288637415e+01,5.604798793792724332e-02
1.098781000000000008e+00,-4.644791856783630352e-02,1.501504813316179021e-01,8.530499339103698730e-01,-3.658122589182114665e-02,-4.393042820100956369e-02,1.547073095719856545e-02,-3.945917946332436199e-02,1.272159597876881820e-01,-1.006798222661018372e-01,5.483592795258044467e-02,5.804847398120038110e-02,-7.020938773370259678e-02,3.264759302139281782e-01,-3.240013599395751842e-01,2.420626993753898296e-02,2.264759302139282005e-01,-2.240013599395751787e-01,-1.849483251571655204e-02,5.506155885541013095e-01,7.106685638427734375e-01,-1.155907988548278809e+00,8.881988241968336695e+01,5.604798793792724332e-02
1.124292999999999987e+00,-4.750605055850223857e-02,1.549798194309392196e-01,8.513469696044921875e-01,-3.273013909097271384e-02,-3.934970948988403272e-02,1.372344664295850614e-02,-2.491101435772049427e-02,1.353917838449863464e-01,-9.608376771211624146e-02,1.840024686009110177e-01,2.383294788851430535e-01,-1.537644835393647651e-02,3.263846635818481445e-01,-3.235790014266967662e-01,7.418135689048779152e-03,2.263846635818481390e-01,-2.235790014266967607e-01,-3.081425428390502722e-02,5.505888154446247906e-01,7.078244686126708984e-01,-9.724360704421997070e-01,7.078023950084497073e+01,5.604798793792724332e-02
1.150692999999999966e+00,-4.828735026294971727e-02,1.595630553866053403e-01,8.499160408973693848e-01,-2.550134889584536324e-02,-3.173251677128852144e-02,1.177757917418892873e-02,-3.504768336852803756e-02,1.400641536956853395e-01,-8.123285323381423950e-02,2.674888902821447312e-01,3.282838211918077120e-01,-6.542365197252292264e-02,3.257875680923462136e-01,-3.217065334320068359e-01,-1.889034949622026005e-02,2.257875680923461803e-01,-2.217065334320068304e-01,-5.216807126998901367e-02,5.497734093599341287e-01,7.024986743927001953e-01,-1.487885713577270508e+00,4.509549412702503446e+01,5.604798793792724332e-02
1.176115000000000022e+00,-4.911590385648128415e-02,1.642048798338861804e-01,8.487073779106140137e-01,-1.655919982567697832e-02,-2.300135807571535018e-02,1.053818060312214193e-02,-4.997177110674367456e-02,1.535259966530344022e-01,-6.810873746871948242e-02,4.016800542440985833e-01,2.939272043509504884e-01,-4.710156941108015888e-02,3.231655836105346569e-01,-3.161612629890441784e-01,-1.892648065138222840e-02,2.231655836105346513e-01,-2.161612629890441728e-01,-4.919865131378173967e-02,5.489296771023269850e-01,6.895339488983154297e-01,-7.665966749191284180e-01,5.698979045336033522e+01,5.604798793792724332e-02
1.201059000000000099e+00,-4.973720799932059705e-02,1.674184558431089376e-01,8.480874300003051758e-01,-1.051437547780787948e-02,-1.688142962427274796e-02,1.028065020428123484e-02,-4.473244893389519139e-02,1.567077102504396136e-01,-6.489741057157516479e-02,3.427240507178266338e-01,3.380107340702238061e-01,3.365770703644840184e-02,3.213765501976013073e-01,-3.133783102035522239e-01,-1.825307662693937544e-02,2.213765501976013017e-01,-2.133783102035522461e-01,-4.788916110992431224e-02,5.483018281262795890e-01,6.534287929534912109e-01,-1.495837092399597168e+00,9.008199209527499818e+01,5.604798793792724332e-02
1.224574999999999969e+00,-5.065798636331388799e-02,1.721863720660001540e-01,8.472825288772583008e-01,-7.736218444518204798e-04,-7.631263716089797811e-03,9.956039161498678874e-03,-4.997308200433360492e-02,1.578105600633445682e-01,-6.124851852655410767e-02,3.413980736790789283e-01,3.467414778371915030e-01,-8.480583342336072555e-03,3.059550285339355247e-01,-2.966866016387939564e-01,3.196373694472968291e-02,2.059550285339355469e-01,-1.966866016387939509e-01,3.244364261627197352e-03,5.470960949649595895e-01,5.856447219848632812e-01,-7.960427999496459961e-01,1.001462485165321112e+02,5.604798793792724332e-02
1.246790000000000065e+00,-5.178464664298652181e-02,1.770369484288775719e-01,8.464382886886596680e-01,9.254663283639026974e-03,1.511026600786058438e-03,9.952711012989168271e-03,-3.880521664073991600e-02,1.616967685833690382e-01,-6.018403172492980957e-02,4.086637057588742294e-01,2.920599472058548196e-01,-8.744683522383053104e-03,2.514717817306518777e-01,-2.105316068632223092e-01,8.032100628637772743e-02,1.514717817306518444e-01,-1.622190356254577526e-01,5.198031663894653320e-02,5.466126931513438647e-01,5.482652187347412109e-01,-9.277206659317016602e-01,7.329441164375916173e+01,5.604798793792724332e-02
1.273252999999999968e+00,-5.332343372988510716e-02,1.821158701248065670e-01,8.457183241844177246e-01,1.907597251470689523e-02,1.140305705562361105e-02,1.025479489336302875e-02,-5.106593148394424769e-02,1.566216058706467185e-01,-5.011379718780517578e-02,3.225394651541254043e-01,4.308618237533769491e-01,3.920016426492626410e-02,1.384463548660278265e-01,-1.361996562850581113e-02,9.728536216837435635e-02,3.844635486602782787e-02,-1.771019697189330985e-02,6.860741972923278809e-02,5.473756363329321806e-01,6.174491643905639648e-01,-9.286605119705200195e-01,9.384306991268837805e+01,5.604798793792724332e-02
1.300272000000000094e+00,-5.460228928498037093e-02,1.868046072313429562e-01,8.454403877258300781e-01,2.930622590963543467e-02,2.119105293879663954e-02,1.067119494729349902e-02,-3.576383527124216838e-02,1.559854136300697636e-01,-3.705436363816261292e-02,3.811518743781410756e-01,3.501002144033422692e-01,9.869984506598193999e-03,-4.244900503240277984e-02,2.243868079739186894e-01,5.744735170963001514e-02,-8.583349585533141257e-02,1.444432139396667480e-01,2.867622971534728935e-02,5.476218537788387630e-01,6.720912456512451172e-01,-1.032423615455627441e+00,9.447184346730141158e+01,5.604798793792724332e-02
1.321442999999999923e+00,-5.535740906206285811e-02,1.899742053717845547e-01,8.451685905456542969e-01,3.569538921514438939e-02,2.799634837268660803e-02,1.104925581168294396e-02,-2.598557456130514212e-02,1.540298332808699433e-01,-4.657376930117607117e-02,3.520132335307652460e-01,3.491318639946445201e-01,1.010940315325548934e-02,-1.492092501047447839e-01,2.885051131248473899e-01,5.510256905330775112e-02,-1.521896481513977106e-01,1.885051131248474121e-01,2.614333033561706474e-02,5.487743801966988855e-01,6.881206035614013672e-01,-6.018936634063720703e-02,-7.694699873639605059e+00,5.604798793792724332e-02
1.347507999999999928e+00,-5.707079575397169813e-02,1.964077094087368636e-01,8.448188900947570801e-01,4.840978496565748190e-02,4.116869588693305992e-02,1.194230267732294438e-02,-2.460550580989054673e-02,1.430119347063421864e-01,-2.951771020889282227e-02,3.175586837081038061e-01,3.760961845339058640e-01,-2.414950945625043283e-02,-2.711820742535102080e-01,3.140401363372802845e-01,5.483218523096279606e-02,-1.894699215888976940e-01,2.140401363372802790e-01,2.524112462997436454e-02,5.477329054739906722e-01,6.865692138671875000e-01,-1.388879895210266113e+00,-9.192285101999850383e+01,5.604798793792724332e-02
1.373780000000000001e+00,-5.831588410852142634e-02,2.010434548404657906e-01,8.448354601860046387e-01,5.735649718610826703e-02,4.991475701293790479e-02,1.226365890543858021e-02,-7.526413600733956530e-03,1.348242837307697395e-01,-2.046004123985767365e-02,3.213271225078223603e-01,3.071378412705116356e-01,-1.184932800118623786e-02,-2.958645403385162242e-01,3.193543434143066295e-01,5.296865848108435471e-02,-1.958645403385162187e-01,2.193543434143066240e-01,2.426086664199829032e-02,5.473760943523288125e-01,6.939265727996826172e-01,-3.425842523574829102e-01,-7.742284947813437235e+00,5.604798793792724332e-02
1.400025999999999993e+00,-5.918726005456897282e-02,2.053611076463383589e-01,8.448068499565124512e-01,6.462765460107805504e-02,5.662475590410265269e-02,1.225570570041336661e-02,4.377809852558897478e-03,1.235714761139601742e-01,-2.924605086445808411e-02,2.118405605832423544e-01,2.053488044463928353e-01,2.060053383993537546e-02,-2.937065243721008190e-01,3.210149347782135232e-01,6.414843147042267879e-02,-1.937065243721008134e-01,2.210149347782134899e-01,3.693181872367858748e-02,5.483102003916737743e-01,7.028968334197998047e-01,-6.460310220718383789e-01,7.000182333170613447e+01,5.604798793792724332e-02
1.421932999999999891e+00,-5.959887179239584110e-02,2.081661140536364418e-01,8.446531295776367188e-01,6.815647434199230414e-02,5.933797052189526688e-02,1.204935641065480248e-02,2.179799703546829795e-02,1.213387053705312774e-01,-2.904470078647136688e-02,1.403452103766757164e-01,1.096494331794347216e-01,-4.579918129539409678e-04,-2.962666392326355203e-01,3.215788424015045277e-01,7.479572945500367886e-02,-1.962666392326354869e-01,2.215788424015045222e-01,4.907655715942382812e-02,5.484139473251919972e-01,6.996079683303833008e-01,-6.963669061660766602e-01,1.095852147796528868e+02,5.604798793792724332e-02
1.447380000000000111e+00,-6.031453329449563971e-02,2.119851227000467409e-01,8.443485498428344727e-01,7.073140714207268309e-02,5.928048187259649104e-02,1.192355507591966179e-02,1.367523594195677560e-02,1.167129100542020209e-01,-2.855203114449977875e-02,6.433158247710939193e-02,-8.186319386557625033e-02,-5.032646631004451809e-02,-2.981253206729889138e-01,3.217529535293578991e-01,7.805370413150812536e-02,-1.981253206729888805e-01,2.217529535293578935e-01,5.267239809036254605e-02,5.485127249155722362e-01,6.965522766113281250e-01,-1.003843426704406738e+00,7.013893254910496466e+01,5.604798793792724332e-02
1.472974000000000006e+00,-6.138360178262662614e-02,2.153827074871553227e-01,8.441514968872070312e-01,6.955575788211136590e-02,5.492908347656144663e-02,1.169577169524392904e-02,2.320718862844258282e-02,1.067143204261035427e-01,-1.741832867264747620e-02,-1.095036306593276249e-01,-1.935969674254432449e-01,4.892645404399314536e-03,-3.007534205913543479e-01,3.208013951778411754e-01,6.611936628237599645e-02,-2.007534205913543701e-01,2.208013951778411699e-01,4.077606797218322893e-02,5.477395064217600584e-01,6.881070137023925781e-01,-1.159008145332336426e+00,3.227478509261504769e+01,5.604798793792724332e-02
1.500685999999999964e+00,-6.199582952357492183e-02,2.184704144000020609e-01,8.439291715621948242e-01,6.490291223242267149e-02,4.794511441797078000e-02,1.126945423213948985e-02,3.374937640322532573e-02,9.046164251457758376e-02,-1.779861003160476685e-02,-2.210501662985061011e-01,-2.765743977992039526e-01,1.073289405349461129e-02,-3.003989040851592907e-01,3.184249579906463512e-01,5.500870681081426739e-02,-2.003989040851592851e-01,2.184249579906463457e-01,2.960282564163208008e-02,5.477952179928118337e-01,6.810417175292968750e-01,-9.613267183303833008e-01,2.345755045907301550e+01,5.604798793792724332e-02
1.523031000000000024e+00,-6.224294800868578059e-02,2.204720687605168650e-01,8.437200784683227539e-01,6.037987815439038730e-02,4.258561801511495659e-02,1.068900428327974016e-02,4.277258228738294032e-02,9.225214791019674399e-02,-2.023823000490665436e-02,-2.855019687547689089e-01,-2.790506844359315619e-01,-3.859132641028432259e-02,-2.964001417160034291e-01,3.143118977546691672e-01,4.083140798500774910e-02,-1.964001417160034235e-01,2.143118977546691895e-01,1.621094942092895369e-02,5.477379022043618040e-01,6.580214500427246094e-01,-8.103047609329223633e-01,-4.182890151495307407e+01,5.604798793792724332e-02
1.549260000000000081e+00,-6.227494147107542205e-02,2.234570733625770855e-01,8.430578708648681641e-01,5.216364572506838881e-02,3.405346782654183890e-02,1.001657317516235594e-02,5.882522031034914667e-02,9.970463268990847894e-02,-4.018706455826759338e-02,-2.933458038677583812e-01,-3.652583621553310289e-01,-5.316728600609038798e-03,-2.878553748130798229e-01,3.045638561248779075e-01,3.703158001468397076e-02,-1.878553748130798173e-01,2.045638561248779297e-01,1.304624676704406634e-02,5.493292896225909772e-01,6.555480957031250000e-01,-1.065574765205383301e+00,1.066675082303851809e+02,5.604798793792724332e-02
1.574748000000000037e+00,-6.222769203817324346e-02,2.266787859751092926e-01,8.419089317321777344e-01,4.303650370140875425e-02,2.525298081992399801e-02,9.181709494483120820e-03,5.652793892482689542e-02,8.814745912312028919e-02,-4.108230024576187134e-02,-3.565610543458139214e-01,-2.922092320875029348e-01,-1.734858574776661916e-02,-2.127205784650364473e-01,2.756043851375579723e-01,2.975471824962979545e-02,-1.569507479667663630e-01,1.756043851375579667e-01,6.610250473022460417e-03,5.494176265441316209e-01,6.431740522384643555e-01,-1.106837868690490723e+00,4.676931736050128308e+01,5.604798793792724332e-02
1.596557999999999922e+00,-6.201457389380526236e-02,2.287480197139082627e-01,8.412083983421325684e-01,3.693865446284422954e-02,1.920208347656715553e-02,8.726200263454320788e-03,6.666049994459700978e-02,8.882668898484363806e-02,-3.479310497641563416e-02,-3.202335116983537344e-01,-3.261281861591054376e-01,-4.053239374101166859e-02,-1.144553470845545151e-01,1.929422974586486872e-01,1.130203145225823318e-02,-1.026285588741302490e-01,9.294229745864868164e-02,-1.123441457748412982e-02,5.479508029044236617e-01,5.726296901702880859e-01,-9.963973760604858398e-01,1.829084703122770250e+01,5.604798793792724332e-02
1.622754000000000030e+00,-6.137975252651992064e-02,2.317255900752367148e-01,8.401912450790405273e-01,2.683946318200115116e-02,9.983471444654723470e-03,8.122802978243234828e-03,6.199186117798129864e-02,8.546384518492032567e-02,-3.698274865746498108e-02,-3.874498988311726455e-01,-3.559119024915933793e-01,-2.116092173274109617e-02,7.648953777072151072e-02,5.126315752677008258e-02,-3.406161022951510048e-02,2.289032936096191406e-02,-7.280123233795165842e-03,-5.603681802749633373e-02,5.436750681891404646e-01,3.105551004409790039e-01,-1.149553656578063965e+00,7.938672181735709898e+01,5.604798793792724332e-02
1.649609000000000103e+00,-6.071470837013220184e-02,2.344838358016387847e-01,8.391553759574890137e-01,1.668043491829512143e-02,4.732756632837009647e-04,8.160752355750944612e-03,7.353710946147762328e-02,7.727688515043948381e-02,-3.709191456437110901e-02,-3.654092999464703673e-01,-3.544842430141070810e-01,4.345094281491448940e-02,2.147102117538452204e-01,-9.402174330369024446e-02,-5.363093805385028834e-02,1.147102117538452148e-01,-1.003533124923706027e-01,-7.642160654067993442e-02,5.384245788179136127e-01,4.316449165344238281e-03,-1.235041022300720215e+00,6.795032137297944530e+01,5.604798793792724332e-02
1.671140999999999988e+00,-6.002418771200510039e-02,2.362186281289349044e-01,8.383869528770446777e-01,1.047891206992755675e-02,-5.906552538133436059e-03,7.878559714759515720e-03,6.859509806268532239e-02,7.999007142220462829e-02,-3.495126962661743164e-02,-3.051307438397943272e-01,-3.648157986002699138e-01,-3.820231796732598273e-02,2.386555433273315485e-01,-1.769398711208830521e-01,-5.796431645888795725e-02,1.386555433273315430e-01,-1.369052767753601019e-01,-8.042893409729003074e-02,5.385917923943978058e-01,8.647799491882324219e-03,-1.532347559928894043e+00,7.081712252236305005e+01,5.604798793792724332e-02
1.696978000000000097e+00,-5.910117119612420811e-02,2.388022620811745822e-01,8.373293876647949219e-01,1.474295783880926348e-03,-1.535383297764125743e-02,7.955077617351395333e-03,6.609591529938452226e-02,9.067731539391785112e-02,-3.226555138826370239e-02,-2.961151206021473414e-01,-3.717057342388170871e-01,-7.643776836642750434e-03,3.042748928070068137e-01,-2.965902566909789928e-01,-9.186889063118509891e-02,2.042748928070068359e-01,-1.965902566909789873e-01,-1.149950981140136635e-01,5.396767319148567665e-01,6.445515155792236328e-02,-1.109782576560974121e+00,9.696398825014229317e+01,5.604798793792724332e-02
1.725692000000000004e+00,-5.814679199308141200e-02,2.413929473338481679e-01,8.362601995468139648e-01,-6.773502177313359129e-03,-2.391475895187711309e-02,7.972443472366719588e-03,6.316750733465517631e-02,8.349278230068127304e-02,-2.513883449137210846e-02,-3.151384118328237061e-01,-2.675231759219997008e-01,1.145098302302127551e-02,3.221068978309631348e-01,-2.899524688720703236e-01,-1.240717953937150175e-01,2.221068978309631292e-01,-1.899524688720703181e-01,-1.474112033843994196e-01,5.406181808688572676e-01,1.316990852355957031e-01,-1.330528378486633301e+00,9.322955500068114532e+01,-1.203787326812744141e-02
1.747150999999999899e+00,-5.722262316250271291e-02,2.439945612591703228e-01,8.354064822196960449e-01,-1.248366831694534135e-02,-3.133476757721265216e-02,8.061043290452906893e-03,5.322276777032608486e-02,8.883443506548893698e-02,-1.571475900709629059e-02,-1.492835720064643323e-01,-2.461598853530885811e-01,-1.499057003898232945e-02,3.257820606231689453e-01,-3.224604845046997181e-01,-1.415656179319042252e-01,2.257820606231689398e-01,-2.224604845046997126e-01,-1.652922391891479548e-01,5.445144394675238697e-01,3.729503154754638672e-01,-1.071075201034545898e-01,-2.686747544465133863e+00,8.335669040679931363e-02
1.772917000000000076e+00,-5.532708823687266381e-02,2.459923528497009459e-01,8.346511125564575195e-01,-1.466963449719236451e-02,-3.626697435841386152e-02,8.680285246048628778e-03,6.686252859060526355e-02,9.295034814658832689e-02,-2.388996258378028870e-02,-3.334193737249820100e-02,-1.656357237412061645e-01,6.097931691869480642e-02,3.262757658958435059e-01,-3.237319946289062278e-01,-1.460835803926351928e-01,2.262757658958435003e-01,-2.237319946289062500e-01,-1.715677857398986705e-01,5.459816255022356124e-01,4.098968505859375000e-01,-9.159158468246459961e-01,-2.358402421816049532e+00,8.335669040679931363e-02
1.799077999999999955e+00,-5.356930183967593961e-02,2.478846042886664325e-01,8.339045047760009766e-01,-1.334492343128044697e-02,-3.725351202631599357e-02,9.274333435410462081e-03,5.201298191825336897e-02,9.069081051132736604e-02,-9.672148153185844421e-03,7.138568348864672564e-02,6.111322699826410298e-02,-3.493496869342716644e-04,3.259873747825622337e-01,-3.238961458206176536e-01,-1.561514865004019759e-01,2.259873747825622559e-01,-2.238961458206176758e-01,-1.834679961204528642e-01,5.415349367843537154e-01,2.058701515197753906e-01,-1.381282448768615723e+00,-5.548795479827959554e+01,8.335669040679931363e-02
1.821126000000000023e+00,-5.241287164331091819e-02,2.492109614222724756e-01,8.335015177726745605e-01,-1.077858526031423916e-02,-3.620647737238336106e-02,9.991286898953410239e-03,5.186103901373521202e-02,9.368312584684761191e-02,-1.012742705643177032e-02,1.958607363766831366e-01,7.992994592999171088e-02,2.904117440938523351e-02,3.256623983383178933e-01,-3.230987787246704102e-01,-1.532811728393068951e-01,2.256623983383178600e-01,-2.230987787246704046e-01,-1.827230215072631891e-01,5.414864479173377987e-01,1.904675960540771484e-01,-6.084381341934204102e-01,9.894690144922371644e+01,8.335669040679931363e-02
1.847896999999999901e+00,-5.073616875412853555e-02,2.511809077528545653e-01,8.329496383666992188e-01,-5.208763764809304364e-03,-3.143890143556005157e-02,1.162682244660585493e-02,5.761977463233639019e-02,9.711838019825798363e-02,-1.007656380534172058e-02,2.392324255698790869e-01,2.171817936929243686e-01,1.237861300320424879e-01,3.243436098098754772e-01,-3.207211971282958873e-01,-1.408359201160055973e-01,2.243436098098754716e-01,-2.207211971282958818e-01,-1.749140024185180664e-01,5.403797799917429145e-01,1.175756454467773438e-01,-1.463393807411193848e+00,8.568512611897099873e+01,8.335669040679931363e-02
1.873532999999999893e+00,-4.841861698923725921e-02,2.525146464360173426e-01,8.324644565582275391e-01,1.885603789949853379e-03,-2.440080592273896620e-02,1.328765443011757294e-02,5.285170885879212493e-02,9.709081988395239227e-02,-1.249173562973737717e-02,2.635317701204060725e-01,3.086395652751522944e-01,5.947658372697278012e-02,3.098647594451904297e-01,-3.105111002922057994e-01,-9.563983817018956168e-02,2.098647594451904241e-01,-2.105111002922057939e-01,-1.343077898025512584e-01,5.398714167000613351e-01,6.871271133422851562e-02,-5.441881418228149414e-01,1.024844340052917460e+02,8.335669040679931363e-02
1.899448000000000025e+00,-4.628655032561988791e-02,2.538849823126995697e-01,8.320066928863525391e-01,1.026445533851338271e-02,-1.618939250478623748e-02,1.566919764067634807e-02,4.419424012501518145e-02,9.472774641169313947e-02,6.898068240843713284e-04,3.213236575941322282e-01,3.054854512563441871e-01,7.414865467226915141e-02,2.997658491134643777e-01,-2.731671333312988281e-01,-8.750405097086355610e-02,1.997658491134643444e-01,-1.731671333312988226e-01,-1.326107382774353027e-01,5.322315849270581323e-01,-3.114902973175048828e-01,-1.134243130683898926e+00,9.613556143590062675e+01,8.335669040679931363e-02
1.925402000000000058e+00,-4.406445507097357661e-02,2.553828340121488405e-01,8.318479061126708984e-01,1.948222109927296233e-02,-7.145965517870278561e-03,1.825264258019429139e-02,4.484378419027557072e-02,8.875288407036817373e-02,-1.794720184989273548e-03,3.370415370952863920e-01,3.297332588904557382e-01,1.225185743126327165e-01,2.672736048698425293e-01,-1.730122645900264988e-01,-6.037832998314929256e-02,1.672736048698425237e-01,-1.232687830924987793e-01,-1.121478080749511719e-01,5.334598204325609050e-01,-2.626221179962158203e-01,-9.690696001052856445e-01,6.254213660702832556e+01,8.335669040679931363e-02
1.947753999999999985e+00,-4.270247657280881043e-02,2.561962083704389381e-01,8.317161798477172852e-01,2.589193084937800246e-02,-9.567210942951209773e-04,2.004877947722015150e-02,5.019096403906561643e-02,8.769339086494411240e-02,6.292670965194702148e-03,3.599502436735287914e-01,3.819111023599909838e-01,6.971104987853311841e-02,2.353365976919297997e-01,-8.807216226158171013e-02,-3.826097125893551665e-02,1.452935814857482799e-01,-8.387793302536010465e-02,-9.449422359466552734e-02,5.324469996443200737e-01,-2.951884865760803223e-01,-9.910293817520141602e-01,-1.066632666829106029e+02,8.335669040679931363e-02
1.973734000000000099e+00,-4.042432317945441472e-02,2.574254611928011860e-01,8.316434025764465332e-01,3.535815918634424571e-02,8.580077360367699413e-03,2.278528450415292020e-02,4.615110337095839482e-02,7.904242178477173530e-02,2.450556028634309769e-03,3.637045950112070547e-01,3.308927585733597021e-01,1.107141085474742243e-01,9.588080497350107145e-02,4.753903297381767423e-02,-2.412773481392377350e-04,7.183721065521239679e-02,-8.685457706451415322e-03,-6.318472623825073520e-02,5.370391441186069814e-01,-6.522685289382934570e-02,-8.428639173507690430e-01,5.650570079593568096e+01,8.335669040679931363e-02
1.999479999999999924e+00,-3.805796252942729441e-02,2.583623573322120781e-01,8.315340280532836914e-01,4.505129279694716077e-02,1.807344917743836099e-02,2.535764683871319369e-02,5.368283411859611082e-02,7.746615141587290254e-02,5.925989244133234024e-03,3.589729723062765054e-01,3.730479427418615379e-01,6.734455568454628116e-02,-1.718784926845958738e-01,2.313468635082244762e-01,4.484184722068522422e-02,-1.348762214183807373e-01,1.313468635082244707e-01,-2.391611337661743095e-02,5.455679733449820823e-01,4.144949913024902344e-01,-1.371408343315124512e+00,8.471388004918435399e+01,8.335669040679931363e-02
2.021279999999999966e+00,-3.637630969248431545e-02,2.589309089192252111e-01,8.313902020454406738e-01,5.148283370433456158e-02,2.445248224147711369e-02,2.686310308904337960e-02,5.724379220082402575e-02,6.917140376505187538e-02,2.168742008507251740e-03,3.147573624114542445e-01,4.112716385408477504e-01,3.791516380665180264e-02,-2.776785446719416961e-01,2.975552976131439209e-01,9.547645926858956689e-02,-1.942368507385253962e-01,1.975552976131439153e-01,2.352075576782226493e-02,5.500659902530040668e-01,6.440315246582031250e-01,-1.621621131896972656e+00,1.346472347313698492e+02,8.335669040679931363e-02
2.048217000000000176e+00,-3.373065885237436917e-02,2.594982711537245912e-01,8.313096761703491211e-01,6.089178224270081624e-02,3.373689961395065495e-02,2.926269035956975337e-02,6.373137559294113352e-02,4.863573461803868958e-02,8.260576985776424408e-03,3.265729781786265717e-01,3.120049320979181307e-01,1.112044500669555208e-01,-2.913051962852478138e-01,3.057789683341979869e-01,7.664726490315522389e-02,-1.913051962852478083e-01,2.057789683341979814e-01,-3.451824188232421767e-04,5.486938010890501927e-01,5.838655233383178711e-01,-7.775450944900512695e-01,-4.225881752697576843e+01,8.335669040679931363e-02
2.074784000000000184e+00,-3.072819179730561581e-02,2.601511351380078607e-01,8.313218355178833008e-01,6.944410739089439122e-02,4.134062974850882810e-02,3.125287975638861571e-02,8.886423577374379101e-02,4.220999179367734139e-02,3.526279469951987267e-03,2.800670130556746074e-01,2.278271533473079646e-01,6.502916481699880236e-02,-3.064009726047515758e-01,3.180474638938903809e-01,1.091377480088678159e-01,-2.064009726047515703e-01,2.180474638938903753e-01,2.859590649604797086e-02,5.502722733046054859e-01,6.457555294036865234e-01,-9.955917596817016602e-01,1.026439257526007083e+02,8.335669040679931363e-02
2.099886000000000141e+00,-2.778562926260061752e-02,2.605327896836681645e-01,8.311144113540649414e-01,7.700526229964368974e-02,4.682799677560223195e-02,3.288409540844181717e-02,9.710365587311499402e-02,3.721969969616109597e-02,-1.352454815059900284e-02,2.652621776545919796e-01,1.652329473827981177e-01,8.649093847959176892e-03,-3.108431577682495006e-01,3.211752772331237793e-01,1.404831873109128326e-01,-2.108431577682494951e-01,2.211752772331237737e-01,5.684248208999633650e-02,5.520044145843312489e-01,6.664109230041503906e-01,-1.031543850898742676e+00,9.768106249034525490e+01,8.335669040679931363e-02
2.121525000000000105e+00,-2.559363602466919671e-02,2.606919012114527479e-01,8.308421373367309570e-01,8.051235506772634609e-02,4.840336195533545549e-02,3.367831676771909644e-02,9.125697257566199594e-02,2.648402757831529869e-02,-1.234948262572288513e-02,1.571164678369135204e-01,2.183214448331849064e-02,3.700939530237095515e-02,-3.125290870666503906e-01,3.218698978424072155e-01,1.497187312812318094e-01,-2.125290870666503851e-01,2.218698978424072099e-01,6.420800685882567527e-02,5.520861038760452866e-01,6.662404537200927734e-01,-8.868786096572875977e-01,9.857772972458452898e+01,8.335669040679931363e-02
2.147930999999999813e+00,-2.221294159254186620e-02,2.607071663195040800e-01,8.302823305130004883e-01,8.199167708007881750e-02,4.775741439282499279e-02,3.408168463975681794e-02,1.020661130542531436e-01,1.231073444209716296e-02,-2.150807715952396393e-02,-7.060405968730137927e-02,-7.498054267795259409e-02,1.158024342734006139e-02,-3.123013317584991677e-01,3.218262851238250510e-01,1.504155653709747242e-01,-2.123013317584991344e-01,2.218262851238250732e-01,6.395367980003356656e-02,5.530486994968399905e-01,6.734187602996826172e-01,-1.183554291725158691e+00,9.643445734416954451e+01,8.335669040679931363e-02
2.173433999999999866e+00,-1.889428641105832946e-02,2.609157520448825429e-01,8.295509815216064453e-01,7.839384573532688638e-02,4.312401894035700067e-02,3.376508408430201058e-02,1.146258875060240240e-01,2.137695211737615942e-03,-2.041124738752841949e-02,-1.671759972212155110e-01,-2.271051925413786199e-01,-1.576267204853628798e-02,-3.118479132652282604e-01,3.203426122665405384e-01,1.515594779653856305e-01,-2.118479132652282548e-01,2.203426122665405329e-01,6.515618562698363703e-02,5.534978542053420325e-01,6.909996271133422852e-01,-1.057435631752014160e+00,9.339670339004969435e+01,8.335669040679931363e-02
2.199027000000000065e+00,-1.570156072730205174e-02,2.610098849547572430e-01,8.288398385047912598e-01,7.132875252707104874e-02,3.565255800359423688e-02,3.326562580684130216e-02,1.222703236393096332e-01,-6.199906929348219728e-03,-2.227786928415298462e-02,-2.544868570351320192e-01,-3.554576786642894559e-01,3.519929292781952745e-04,-3.065044164657592662e-01,3.172215580940246360e-01,1.186109297947481045e-01,-2.065044164657592607e-01,2.172215580940246582e-01,3.207980990409851213e-02,5.532888717009962765e-01,6.595444679260253906e-01,-1.196129202842712402e+00,1.097536199238287224e+02,8.335669040679931363e-02
2.226065000000000182e+00,-1.228960175325748139e-02,2.607598589828092894e-01,8.281171321868896484e-01,6.324658143212398553e-02,2.694409853179924319e-02,3.197792519200993999e-02,1.339660569465315199e-01,-1.277587231983678441e-02,-2.141149342060089111e-02,-2.925569729004524611e-01,-3.403438073840275302e-01,-3.963180075976870109e-02,-2.934243559837341198e-01,3.039852499961853138e-01,9.109042856385492215e-02,-1.934243559837341142e-01,2.039852499961853083e-01,6.645548343658447439e-03,5.524383124414316004e-01,6.023201942443847656e-01,-4.135361909866333008e-01,8.391961101098191023e+01,8.335669040679931363e-02
2.250751000000000168e+00,-9.819934732681749254e-03,2.604095483301867020e-01,8.276413083076477051e-01,5.753409951804724920e-02,2.069874264018545240e-02,3.068155660972361060e-02,1.261928774505275686e-01,-2.722493491610425420e-02,-1.132430694997310638e-02,-2.727900224841334764e-01,-3.260069907819277968e-01,-7.757962429983343566e-02,-2.753984272480011208e-01,2.859308004379272350e-01,6.831375398281766542e-02,-1.753984272480010875e-01,1.859308004379272294e-01,-1.376452445983886684e-02,5.507407352742076379e-01,5.362062454223632812e-01,-1.389406919479370117e-01,-4.392162537286808721e+00,8.335669040679931363e-02
2.277699000000000140e+00,-6.044431110836837387e-03,2.597898120932646271e-01,8.269979357719421387e-01,4.864742321850794998e-02,1.163404037245996392e-02,2.877354043753094573e-02,1.451770403071852567e-01,-3.338924315753136196e-02,-1.163426134735345840e-02,-3.262844852040573396e-01,-3.668291102371848966e-01,-1.020235358345505522e-01,-2.177457213401794434e-01,2.178984642028808649e-01,4.823512572403537702e-02,-1.177457213401794378e-01,1.178984642028808594e-01,-2.961534261703491211e-02,5.482895867211817764e-01,3.847764730453491211e-01,-8.330322504043579102e-01,9.791292009191050738e+01,8.335669040679931363e-02
2.297826999999999842e+00,-3.446927131688028775e-03,2.593988922434060096e-01,8.265250325202941895e-01,4.256936102236465180e-02,5.622782136503579054e-03,2.740088640172974252e-02,1.433808117520331826e-01,-3.382323297617455954e-02,-9.929688647389411926e-03,-3.304397902986802027e-01,-3.421799257048680487e-01,-4.969718333828634926e-02,-7.211321327612402188e-02,1.397417366504669078e-01,2.360182160105994686e-02,9.417557716369628559e-03,3.974173665046691617e-02,-5.125933885574340820e-02,5.438261694844214178e-01,1.302974224090576172e-01,-8.466292619705200195e-01,5.304645586813434477e+01,8.335669040679931363e-02
2.322382999999999864e+00,4.371010803351262075e-04,2.586701416061759073e-01,8.259525299072265625e-01,3.270472754397746318e-02,-3.382462426673171763e-03,2.524718556755483831e-02,1.506534284341883023e-01,-4.474844989418647057e-02,-8.307687006890773773e-03,-4.053685103912237353e-01,-3.376323114714183671e-01,-7.815786920235551216e-02,9.750258783631021720e-02,5.266390558603634836e-02,3.753202073594377741e-03,1.231029152870178195e-01,-1.739201545715331892e-02,-6.603516340255737027e-02,5.399181941388578876e-01,-9.201592206954956055e-02,3.406285047531127930e-01,7.128088553681773476e+01,8.335669040679931363e-02
2.353251000000000204e+00,5.775963495549032642e-03,2.575055378167250830e-01,8.257123231887817383e-01,1.984569175961976503e-02,-1.566439880462855427e-02,2.284458574106168482e-02,1.392970024384600491e-01,-4.347403085516583082e-02,-1.393716200254857540e-03,-3.127469114662808081e-01,-3.971116290302368346e-01,-8.039623332484235885e-02,2.220016763677439553e-01,-1.258799032149179320e-01,-4.588710535949086511e-02,1.615305304527282770e-01,-1.095621585845947266e-01,-1.100422739982604980e-01,5.348565830715863445e-01,-3.545832037925720215e-01,-1.298627972602844238e+00,8.540486296675786093e+01,8.335669040679931363e-02
2.377437000000000022e+00,8.672777171677066230e-03,2.566708876324207411e-01,8.256464600563049316e-01,1.317506341862000226e-02,-2.188010116613825495e-02,2.206823011393553233e-02,1.429162570011575928e-01,-4.196052475363541007e-02,-1.984784845262765884e-03,-3.804706053527864840e-01,-3.454315205709169723e-01,-4.482806815526062250e-02,2.875072956085205078e-01,-2.066859469943957694e-01,-7.905445415827519473e-02,1.875072956085205023e-01,-1.559889435768127275e-01,-1.413231611251830888e-01,5.360429241610692452e-01,-3.008593320846557617e-01,-6.558758020401000977e-01,3.859762439598466699e+01,8.335669040679931363e-02
2.403328999999999827e+00,1.323240324092646476e-02,2.550620369209715688e-01,8.256304860115051270e-01,4.172641934162737987e-03,-3.121112239319434600e-02,2.083060557661233977e-02,1.301266933745943710e-01,-4.889376933531566077e-02,1.411180943250656128e-02,-3.188276534191513134e-01,-3.342427671117173538e-01,-5.628860841415267435e-02,3.132572174072265625e-01,-3.044337868690490945e-01,-1.155770418957855483e-01,2.132572174072265569e-01,-2.044337868690490612e-01,-1.747459173202514648e-01,5.339747267800468711e-01,-3.587079644203186035e-01,-1.082300782203674316e+00,9.519169759449655999e+01,8.335669040679931363e-02
2.422604000000000202e+00,1.619557783041138468e-02,2.540154121235590479e-01,8.257371783256530762e-01,-1.212584639105621347e-03,-3.694279012449364075e-02,2.004248819929625378e-02,1.340585201614103716e-01,-4.223359892125033710e-02,1.224010251462459564e-02,-2.858178850504723978e-01,-3.170422502764583816e-01,-6.941915126765600685e-02,3.191261768341064342e-01,-3.153954386711120828e-01,-1.260996918894515817e-01,2.191261768341064287e-01,-2.153954386711120494e-01,-1.831294298171997070e-01,5.356607029542336251e-01,-2.815848588943481445e-01,-1.229052662849426270e+00,9.058549998050999363e+01,8.335669040679931363e-02
