timestamp,x,y,z,roll,pitch,yaw,vx,vy,vz,p,q,r,psp,qsp,rsp,pres,qres,rres,thrust_sp, thrust_res
0.000000000000000000e+00,-1.547717835505531096e-02,1.011244590007781899e-02,1.004523158073425293e+00,1.130668920120187979e-02,-4.773595536261110439e-03,2.595343077139267152e-03,-4.579305579222778776e-03,-6.199492716454376752e-03,-9.660921990871429443e-03,-1.895252922736206588e-02,4.867224522055566688e-02,3.532633004848358821e-02,-2.994431801321938980e-01,1.789945225939698625e-01,1.361642366141041505e-01,-2.273056762226514926e-01,2.234277900353694168e-01,1.287871077107548001e-01,5.256216731370213502e-01,7.155097723007202148e-01
2.851199999999999915e-02,-1.570021945031153943e-02,1.029389939423932566e-02,1.004510998725891113e+00,1.151574872597782573e-02,-4.060161644457993546e-03,2.416770885776298172e-03,2.251988118218671304e-03,-3.277693277085264381e-03,-1.625677198171615601e-02,1.052363973109885116e-02,1.241019291210806313e-02,2.649585963171705461e-03,5.912496595886318485e-02,1.881513971986021883e-01,-2.136168467845322438e-01,1.292333408742806500e-01,2.219377481489562542e-01,-2.204729072083232433e-01,5.260014611488887937e-01,7.095091342926025391e-01
5.128100000000000019e-02,-1.581618838027596188e-02,1.044488189924301126e-02,1.004471063613891602e+00,1.129013558250881004e-02,-3.664963790340314276e-03,2.260947831405957231e-03,-4.393144829339225635e-03,-9.432465475350534229e-03,-7.776303682476282120e-03,-2.750906359155792791e-02,-7.605470911868401776e-04,-2.836068038321119464e-02,1.452448639872300218e-01,1.822585584224890309e-01,-2.212417654824867519e-01,2.191616070372063296e-01,2.200117004414527122e-01,-2.276635246417969549e-01,5.262635431549951281e-01,7.569276094436645508e-01
7.803100000000000314e-02,-1.601938771549533611e-02,1.061117248390703975e-02,1.004424095153808594e+00,1.104886650451411198e-02,-4.053476380028397941e-03,2.784609463405418595e-03,-6.788928814734597993e-03,-4.766065955071762880e-03,-3.912497777491807938e-03,-8.167489435175312451e-03,-1.174098488423417665e-02,4.973206351535322534e-02,-2.510725702479843502e-01,1.711100634951969179e-01,1.526999850721361407e-01,-1.835246070417132780e-01,2.125451556145332155e-01,1.447986414309064551e-01,5.256842928942537796e-01,7.404910326004028320e-01
1.076479999999999937e-01,-1.624878832981555693e-02,1.052872067641805014e-02,1.004428386688232422e+00,1.170810329288157411e-02,-5.260562968420146035e-03,4.414095402540896274e-03,-5.461158280317121756e-03,-1.870579195942095483e-03,-9.409868158400058746e-03,6.413958269861784467e-02,-8.708598348998500271e-02,1.097900775122064021e-01,-2.660758436315546760e-01,1.450734408713058587e-01,1.264968057782507871e-01,-1.958615066110643566e-01,1.930929092527141899e-01,1.140069153420326525e-01,5.262248050191647986e-01,7.479667663574218750e-01
1.258720000000000117e-01,-1.639358450567600031e-02,1.040422460499360220e-02,1.004439353942871094e+00,1.227233457834872414e-02,-6.253364700691266265e-03,5.392179677505826163e-03,-6.358723198518261011e-03,-7.526367968609848531e-03,-1.011135987937450409e-02,3.254602209936004881e-02,-1.041937596020693219e-01,1.297834804764785299e-01,-2.742829784351672462e-01,1.562937282891504742e-01,1.809513343665065943e-01,-1.953480552329171505e-01,2.118507272089111548e-01,1.657049414133462129e-01,5.263042430382938175e-01,7.492816448211669922e-01
1.520620000000000027e-01,-1.683368594280721872e-02,9.937984885132557927e-03,1.004429101943969727e+00,1.402063442842351598e-02,-1.036359699431299575e-02,6.856867258661525355e-03,-9.853401867456028362e-03,-6.201641813106012133e-03,-6.497146561741828918e-03,4.876168589394768577e-02,-1.264937328269522543e-01,3.910647688076788336e-02,-2.234339874768773715e-01,-1.874929226439801810e-02,1.098856518285137029e-01,-1.347416423569550714e-01,6.654115403561147724e-02,9.042215388128346798e-02,5.258426428469776814e-01,7.382636070251464844e-01
1.755410000000000026e-01,-1.725653124424569515e-02,9.570598224486880079e-03,1.004029631614685059e+00,1.190219705111239014e-02,-1.545407930292697074e-02,5.644371707151263351e-03,-1.245438611321586682e-02,-3.321534605891486840e-03,-2.376192249357700348e-02,-9.203099712379271546e-02,-1.680653632502458472e-01,-9.584563841500882975e-02,-2.716033051658633402e-01,-1.846626059865328073e-01,-3.139936839174829741e-03,-1.985533201986081908e-01,-8.466260598653280178e-02,-1.926952303673815786e-02,5.268533963800411390e-01,7.225297689437866211e-01
1.994869999999999977e-01,-1.773090778209716542e-02,9.411991170400372392e-03,1.003166675567626953e+00,5.644685223075753162e-03,-2.034317887936798463e-02,3.863403106354024175e-03,-1.017748069656893191e-02,-4.302747493259525858e-05,-3.590372577309608459e-02,-2.981339993524779741e-01,-1.494431876590508468e-01,-5.149117783550751642e-02,-1.855215159757394872e-01,1.986912375851268564e-02,-2.023290199162967318e-01,-1.552471269274660060e-01,1.198691237585126912e-01,-2.133610144376360818e-01,5.279844544452432231e-01,7.312276363372802734e-01
2.237969999999999959e-01,-1.840048560039069317e-02,9.376735414680774719e-03,1.001874566078186035e+00,-1.916337672476451422e-03,-2.344068569708679384e-02,2.451186423499063238e-03,-8.968162663087532807e-03,1.166869273051094821e-02,-5.108259618282318115e-02,-2.455341871699598111e-01,-6.156036165038096530e-02,-2.840244296550204633e-02,-1.464215711136253040e-01,9.857618089835504249e-02,-1.929931762843422605e-01,-1.741908909264833216e-01,1.985761808983550480e-01,-1.998725194337324651e-01,5.289159064642825481e-01,7.145504951477050781e-01
2.479240000000000055e-01,-1.884882436715997617e-02,9.469012487470561054e-03,1.000829339027404785e+00,-7.812259691262314967e-03,-2.374540082564391419e-02,2.491502143427970495e-03,-1.542723191616733949e-02,6.885441631569399167e-03,-5.474592745304107666e-02,-3.185591652161506304e-01,-1.480683071352907262e-02,2.905884738778939311e-02,-1.892177755041072468e-02,1.129485082657002704e-01,1.387150676159550899e-01,-7.959574520837543743e-02,2.129485082657002759e-01,1.319800278592284104e-01,5.288128729301636577e-01,6.876027584075927734e-01
2.734070000000000111e-01,-1.964648884654289149e-02,9.751262815588022589e-03,9.992153644561767578e-01,-1.570406888962361941e-02,-2.302771468324937842e-02,4.870527450652195611e-03,-2.146731292247422082e-02,1.579690350491090925e-02,-5.848295241594314575e-02,-2.733739823125481694e-01,4.140043876279338869e-02,1.294732455278650718e-01,2.769824516109633539e-01,1.166161989472143112e-01,2.058001390348774273e-01,1.769824516109633761e-01,2.166161989472143168e-01,1.926588329505122266e-01,5.290439849408964390e-01,6.760404109954833984e-01
2.985479999999999801e-01,-2.064110756171157190e-02,1.022249301410566025e-02,9.976651072502136230e-01,-2.079354793410654809e-02,-2.390606637519776534e-02,5.782291726359023443e-03,-3.052875403708824736e-02,1.413556817854574876e-02,-5.580317601561546326e-02,-1.033359017219802611e-01,-8.017155876624140753e-02,4.633287757383071012e-03,2.959762092994724370e-01,-3.101799139686337581e-01,2.385734294235311304e-01,1.959762092994724592e-01,-2.101799139686337525e-01,2.231385045557054692e-01,5.294258015246063875e-01,6.983976364135742188e-01
3.226370000000000071e-01,-2.143727873411899187e-02,1.070736949223709614e-02,9.966687560081481934e-01,-2.216848090646260719e-02,-2.589578573650275217e-02,4.662354170327454028e-03,-3.191086197935789903e-02,1.222885919387174843e-02,-4.331402480602264404e-02,-1.660858065003989470e-02,-1.035655034187878132e-01,-1.055743220507970453e-01,2.679077726874022347e-01,-3.223277982433973010e-01,2.282771446711484298e-01,1.679077726874022292e-01,-2.223277982433972677e-01,2.160975780851804584e-01,5.285545215685916176e-01,6.938257217407226562e-01
3.487469999999999737e-01,-2.227708331126203312e-02,1.116399682044347773e-02,9.956461191177368164e-01,-2.129693695486336788e-02,-2.790628986757126562e-02,3.212914763227603387e-03,-2.349659297358187154e-02,1.840654588917061893e-02,-5.036836117506027222e-02,9.651594444756887714e-02,-7.098066760714794032e-02,-4.781858011224369293e-02,9.979397344404197789e-02,3.387798983326417712e-03,2.029745245137982990e-01,-2.060265559580312894e-04,1.033877989833264233e-01,1.948036823520686578e-01,5.296039907844956041e-01,7.166138887405395508e-01
3.752320000000000100e-01,-2.347650401207010754e-02,1.189446794667737076e-02,9.939635396003723145e-01,-1.646807505064179847e-02,-2.710774547848049387e-02,-3.583160217668357461e-04,-3.082572006525354305e-02,1.963353585565882561e-02,-6.609290093183517456e-02,2.208041253851866503e-01,1.316999349460116486e-01,-1.329529310374197304e-01,2.089171689831450518e-01,1.040076654268172196e-01,-7.859683411227554040e-02,1.089171689831450601e-01,2.040076654268172252e-01,-7.698490849843754591e-02,5.300619529435618427e-01,6.692006587982177734e-01
4.015980000000000105e-01,-2.418669063796838672e-02,1.245273791390129683e-02,9.926897883415222168e-01,-1.218871791826128467e-02,-2.398198882372382101e-02,-2.573160825485309999e-03,-2.347667599505798980e-02,2.737373045910150571e-02,-7.048296183347702026e-02,1.944206939972678294e-01,1.793880490636296510e-01,-8.641777480334576766e-02,2.580229014708358970e-01,1.137051742919099606e-01,-1.385600192225532046e-01,1.580229014708358914e-01,2.137051742919099662e-01,-1.310346914023042542e-01,5.308385745580793680e-01,6.855148077011108398e-01
4.225970000000000004e-01,-2.442797159555063283e-02,1.223855617863470711e-02,9.913820028305053711e-01,-7.061807404870795550e-03,-2.021591062595251564e-02,-4.971334986699993408e-03,-2.854061969271352861e-02,2.287787576592955133e-02,-6.334682554006576538e-02,2.818778558586794714e-01,1.478492446287346662e-01,-1.286242882173199154e-01,7.578317669717180016e-02,1.146925696797927718e-01,-1.416646236968580608e-01,7.150712646189365945e-03,2.146925696797927774e-01,-1.276164843879625810e-01,5.303203349680157830e-01,6.765112876892089844e-01
4.496720000000000161e-01,-2.504800906497665208e-02,1.213287211718261024e-02,9.893845319747924805e-01,6.695807206807527284e-04,-1.625972363558614298e-02,-5.582726904029167159e-03,-4.478306163303630294e-02,2.614905406937918439e-02,-6.660569459199905396e-02,2.354376788142622801e-01,8.026651726664811581e-02,3.662858651612949795e-02,-1.871258535574352733e-01,1.042793040312178232e-01,-8.474417440001663637e-02,-2.087062127773821885e-01,2.042793040312178288e-01,-6.926853961513967928e-02,5.315955143254159632e-01,7.215399742126464844e-01
4.792919999999999958e-01,-2.599606162088909794e-02,1.213831035392669115e-02,9.875724911689758301e-01,9.359997313834992824e-03,-1.564486835196188252e-02,-4.309255911136844475e-03,-5.094987033734733883e-02,3.371868281626162062e-02,-7.555403560400009155e-02,2.355923241299666959e-01,1.086548887203580421e-02,7.031005423496855533e-02,-2.431630517309201767e-01,8.024416086796093417e-02,-2.772666427657414015e-02,-2.138736456376843786e-01,1.802441608679609397e-01,-1.613318824534940368e-02,5.326101386316044461e-01,7.302217483520507812e-01
5.042400000000000215e-01,-2.673351894128246295e-02,1.219079532277749477e-02,9.863570332527160645e-01,1.397195864685403348e-02,-1.672866153962604407e-02,-3.023399128674331138e-03,-5.513653359797349163e-02,3.286275548818771292e-02,-6.552581489086151123e-02,2.245292902346474606e-01,-6.614323838740174266e-02,7.612421079739654928e-02,-2.748111215571577559e-01,5.630337701444507181e-02,7.462011234282256433e-02,-2.140485129855533852e-01,1.563033770144450774e-01,8.242662413533846655e-02,5.322328553522077677e-01,7.402893304824829102e-01
5.229390000000000427e-01,-2.716928793250138890e-02,1.193589563970067283e-02,9.857373833656311035e-01,1.557229200328273493e-02,-1.722572902103447490e-02,-2.430583779758244134e-03,-5.337358606733588751e-02,3.411115589093734884e-02,-7.361015677452087402e-02,1.663568645895991127e-01,-7.407521079333898029e-02,7.584998409808739461e-02,-2.806554354924550299e-01,5.732790159208001057e-02,1.203809555976647350e-01,-2.105612314162496890e-01,1.573279015920800161e-01,1.264579020054946434e-01,5.329830145488108073e-01,7.427668571472167969e-01
5.507539999999999658e-01,-2.857264310871738058e-02,1.129749477523194802e-02,9.837628006935119629e-01,1.627820922195024125e-02,-1.944051791487910741e-02,-1.214118020304022494e-03,-5.569866285046065624e-02,3.966021840692835615e-02,-7.516260445117950439e-02,-2.400946068133374273e-02,-9.347018131534279295e-02,2.554812351662563014e-02,-2.150787345785661331e-01,-2.990973842189116882e-01,1.733174752518430728e-01,-1.443779643205500840e-01,-1.990973842189116827e-01,1.758593935833689670e-01,5.322837710008032630e-01,6.856985092163085938e-01
5.791969999999999619e-01,-2.998315033614469896e-02,1.088370763781523580e-02,9.815257191658020020e-01,1.213170788770523943e-02,-2.112123995185721803e-02,-1.525206365013298537e-03,-5.243883050974356558e-02,4.021216119157994956e-02,-8.456540852785110474e-02,-1.948857443923054378e-01,-4.977282719060589777e-02,-6.375267645931247118e-02,-2.388896501797714844e-01,-4.425611187746716912e-03,-2.238619805946187036e-01,-1.946041377830720898e-01,9.557438881225328864e-02,-2.203156805204765090e-01,5.338707767165430385e-01,7.219066619873046875e-01
5.968040000000000012e-01,-3.096327739967940154e-02,1.069456849691481984e-02,9.799636006355285645e-01,7.794852249048357141e-03,-2.236304615113859917e-02,-2.048061816040558369e-03,-4.938027967635702509e-02,4.314267989952318139e-02,-9.698887914419174194e-02,-2.108451264399947289e-01,-7.664673166832791651e-02,-2.579621908868741029e-02,-1.903019454173350833e-01,-1.236314096902832727e-01,-1.788484937022401244e-01,-1.763751721714212073e-01,-2.363140969028326363e-02,-1.736919734731881271e-01,5.346314516520269677e-01,7.027145624160766602e-01
6.242090000000000138e-01,-3.254012249850276456e-02,1.080885429885185094e-02,9.774655699729919434e-01,-9.903263481802194426e-05,-2.219669254339895481e-02,-3.925061861790091200e-03,-6.123646647876401089e-02,3.875219099528059291e-02,-9.603480249643325806e-02,-2.671150195053277887e-01,7.439538447415891542e-02,-6.341101369139653943e-02,-1.602856121981821313e-01,1.197181065216512130e-01,-1.669510347387178073e-01,-1.939632042295205139e-01,2.197181065216512186e-01,-1.561863452818148534e-01,5.351105073279288638e-01,7.168776988983154297e-01
6.546250000000000124e-01,-3.442000541778199307e-02,1.179867492194510217e-02,9.748502969741821289e-01,-8.126742993291720743e-03,-1.947132362965930952e-02,-3.053851353181036288e-03,-5.507355985103912221e-02,5.091278033906599526e-02,-1.057693213224411011e-01,-2.932819755748058421e-01,1.026645148847899203e-01,3.657207959734868480e-02,-3.282288106526819182e-02,1.213081757190390686e-01,-6.187986046736925622e-02,-1.295271734988315548e-01,2.213081757190390741e-01,-5.327439811307215639e-02,5.359639387511315745e-01,7.086161375045776367e-01
6.747819999999999929e-01,-3.569437530681170145e-02,1.254194596291336068e-02,9.731020927429199219e-01,-1.238392923421668783e-02,-1.709424601328812798e-02,-1.539974465911919665e-03,-6.734099575220416078e-02,5.357398917330064708e-02,-1.022717282176017761e-01,-1.845819402387983976e-01,1.334220744665331193e-01,9.515176997502758360e-02,-6.702017853484742993e-02,1.228807836013423305e-01,6.668192769582062529e-02,-1.670201785348474355e-01,2.228807836013423360e-01,7.120863952719788670e-02,5.363970883567840131e-01,7.326514720916748047e-01
7.023329999999999851e-01,-3.778932452294796185e-02,1.375869537616568154e-02,9.707375764846801758e-01,-1.766516209027941750e-02,-1.496053591112711523e-02,6.070666107735878114e-04,-7.246314661891209430e-02,5.984857587125859413e-02,-8.165188133716583252e-02,-1.113749226315653151e-01,6.212941051672567910e-02,4.590172014291993285e-02,2.562954830942850704e-01,1.206664994851252837e-01,1.885968508129655108e-01,1.562954830942850371e-01,2.206664994851252892e-01,1.872644741322512241e-01,5.351118126900640259e-01,7.280023097991943359e-01
7.290750000000000286e-01,-3.935151088860408541e-02,1.448958795363541018e-02,9.692539572715759277e-01,-2.041530599567656715e-02,-1.541978369605723209e-02,1.746844356334653625e-03,-6.403528120831421255e-02,5.743738805753136056e-02,-9.134628623723983765e-02,-1.505696121402076981e-01,-4.329431334911867935e-02,4.497327251411013804e-02,2.947157810835832614e-01,1.056685892994264075e-01,2.088763813217153487e-01,1.947157810835832559e-01,2.056685892994264131e-01,2.044588146372132431e-01,5.356664622748480431e-01,7.085907459259033203e-01
7.592149999999999732e-01,-4.102087941762288387e-02,1.518229796420671879e-02,9.678605794906616211e-01,-2.192620435404635942e-02,-1.698043117531167212e-02,2.035310881433938235e-03,-8.258577631817962117e-02,6.009871559263120500e-02,-8.582396060228347778e-02,-4.436157867783671604e-02,-1.161187739855328582e-01,6.562947256150752917e-03,2.874268371108263942e-01,-3.040043411881953594e-01,2.169573436342871753e-01,1.874268371108263609e-01,-2.040043411881953539e-01,2.118520192340442032e-01,5.354842182131829276e-01,7.082970142364501953e-01
7.809169999999999723e-01,-4.186531969969781858e-02,1.552757084199275599e-02,9.671588540077209473e-01,-2.288104259405602733e-02,-1.789831351827708694e-02,1.975389811931460571e-03,-8.346123750218703563e-02,5.916601247346902487e-02,-8.708959817886352539e-02,-9.779254698406102120e-02,-6.544956323778210183e-02,2.003900672585921458e-02,3.012861048814804987e-01,-1.810220392913255427e-01,2.242194887387913282e-01,2.012861048814804932e-01,-8.102203929132553717e-02,2.193427154291600623e-01,5.356986592717656315e-01,7.064204216003417969e-01
8.080819999999999670e-01,-4.359200132240220044e-02,1.632300153606427648e-02,9.658263921737670898e-01,-2.278808478636905679e-02,-2.042764998195845116e-02,9.704764348714700617e-04,-7.804073657145498000e-02,6.417074479491040317e-02,-7.971924543380737305e-02,5.063266082171358901e-02,-1.354159886481906827e-01,-8.610809753889472895e-02,2.273678585877026148e-01,-2.638569096038751449e-01,2.022965731842011894e-01,1.273678585877026093e-01,-1.638569096038751394e-01,2.002386115647409315e-01,5.353717233018598920e-01,7.065209150314331055e-01
8.248039999999999816e-01,-4.445816792215052243e-02,1.673190487485222422e-02,9.651672840118408203e-01,-2.204758201306976015e-02,-2.187841717963867616e-02,3.616073626664384477e-04,-7.088091328309514827e-02,6.222378877904725936e-02,-7.988774776458740234e-02,9.928048626432331436e-02,-1.548339632188512061e-01,-5.786810142407616819e-02,2.120646736695805390e-01,-2.280066849891948522e-01,1.984324438485850772e-01,1.120646736695805334e-01,-1.280066849891948466e-01,1.980735469967987161e-01,5.355799968171324199e-01,7.091882228851318359e-01
8.525530000000000053e-01,-4.706079092336788033e-02,1.796468360481764254e-02,9.631915688514709473e-01,-1.708898372100510835e-02,-2.557589251703462629e-02,-2.342369672371447109e-03,-8.346173208078447314e-02,6.771294489603368882e-02,-7.850527018308639526e-02,2.365592360712179820e-01,-8.391015369206292207e-02,-1.163390465370477966e-01,1.670544232437497500e-01,-1.379611085829210437e-01,8.972110935867373682e-02,6.705442324374974450e-02,-3.796110858292104512e-02,9.671906645754703435e-02,5.357155948922865951e-01,7.079551219940185547e-01
8.757190000000000252e-01,-4.890623853981505842e-02,1.917282265002967501e-02,9.618087410926818848e-01,-1.241943709193783427e-02,-2.600986900255963796e-02,-4.403349732352790369e-03,-7.895331804302353762e-02,6.423365306256378915e-02,-8.373822271823883057e-02,2.186527800869189631e-01,2.237176554120938812e-03,-7.165344227153315482e-02,5.137582728660960996e-02,7.958336114906286451e-02,-3.744113715387085289e-02,-4.862417271339039559e-02,1.795833611490628701e-01,-2.491072773394251844e-02,5.361489808915748112e-01,6.998741626739501953e-01
9.036779999999999813e-01,-5.166831703275671928e-02,2.145623463732629355e-02,9.593470692634582520e-01,-3.930944951282605224e-03,-2.315842415046365232e-02,-7.863909754867615121e-03,-8.058040642712313573e-02,7.139931129707458024e-02,-8.093087375164031982e-02,3.360242147203277296e-01,1.672264117740387968e-01,-1.250751601982349748e-01,1.741493625910587317e-01,1.088951715831803224e-01,1.537616331412902659e-03,8.407531963942772857e-02,2.088951715831803280e-01,2.324080040630298327e-02,5.362370003067403745e-01,6.996622085571289062e-01
9.246199999999999974e-01,-5.348974044066138328e-02,2.302321976403037124e-02,9.576554894447326660e-01,1.777017444143927025e-03,-1.935244183492335068e-02,-1.027635575357965791e-02,-7.282043039598895540e-02,7.163059686757426714e-02,-9.433816373348236084e-02,2.692701668032693729e-01,2.086387120453818134e-01,-7.936331050392790576e-02,2.514461698001251300e-01,1.196941295384748583e-01,-7.644685210619284188e-03,1.983658406297318655e-01,2.196941295384748638e-01,2.058915780491682446e-02,5.381498308375519679e-01,7.392084598541259766e-01
9.532049999999999690e-01,-5.619559643374194557e-02,2.551256171345382684e-02,9.549432992935180664e-01,1.017450830639700550e-02,-1.225872674509709270e-02,-1.338501841833128481e-02,-7.937143842510470393e-02,8.049998602514284174e-02,-9.805577993392944336e-02,2.933830768649561271e-01,2.474923779449819117e-01,-6.623070731973423886e-02,2.200324786597368798e-01,1.212200898123058646e-01,-8.645263806323696953e-02,2.132761217657256347e-01,2.212200898123058701e-01,-4.978502540516673708e-02,5.389891622886335831e-01,7.526061534881591797e-01
9.772950000000000248e-01,-5.807334893481853888e-02,2.712398126893854691e-02,9.531216025352478027e-01,1.491058903710636499e-02,-8.044598285346538091e-03,-1.455709916045466734e-02,-8.142115653664171171e-02,7.485979658344997512e-02,-9.447323530912399292e-02,1.950286620779314029e-01,1.681828781217705182e-01,-4.428626595466590710e-02,1.815940780863256609e-01,1.208251489430832992e-01,-9.921012476864472796e-02,2.101043864406521855e-01,2.208251489430833048e-01,-5.927682351780057257e-02,5.389863040276814399e-01,7.523741722106933594e-01
1.002720999999999973e+00,-5.995927285108062360e-02,2.873138011004808950e-02,9.513907432556152344e-01,1.907988827296113604e-02,-4.977930626452353735e-03,-1.482330170422674342e-02,-9.122186266360489404e-02,8.344966048205558484e-02,-9.362366050481796265e-02,2.221333591647970951e-01,1.709050479112411147e-01,2.310217012911867582e-03,1.337464181929368112e-01,1.235699152233156461e-01,3.988372217343096049e-02,1.807687827514738443e-01,2.235699152233156517e-01,8.045657550697106475e-02,5.392133869550391756e-01,7.537050247192382812e-01
1.030032999999999976e+00,-6.194477000052789339e-02,3.028889819395590155e-02,9.497107267379760742e-01,2.292153907962427017e-02,-4.071018235316969935e-03,-1.536060542422124087e-02,-8.468850396166158201e-02,7.497197105538548623e-02,-8.653240650892257690e-02,1.682671923422443261e-01,-1.760912338601797189e-02,-3.995084777473659893e-02,-2.960516863482121064e-01,1.088640708970879112e-01,1.071112902353145158e-01,-2.176320435283881360e-01,2.088640708970879167e-01,1.491795659319867240e-01,5.385488263055429048e-01,7.317986488342285156e-01
1.055145000000000000e+00,-6.396643300395937759e-02,3.180946281441886930e-02,9.481281042098999023e-01,2.727666181343897309e-02,-4.266047955131302416e-03,-1.540270935632093163e-02,-9.898583791300447077e-02,7.384273316083529715e-02,-8.538919687271118164e-02,2.489221560904695818e-01,-3.552042095124684912e-02,2.058059786639732189e-03,-3.185455159353243193e-01,1.040241154602895568e-01,1.236877241131390803e-01,-2.185455159353242860e-01,2.040241154602895624e-01,1.656207029481686355e-01,5.386469709480558032e-01,7.279441356658935547e-01
1.076364000000000098e+00,-6.500810726473894852e-02,3.253471691417989670e-02,9.473440051078796387e-01,2.930567437240333070e-02,-4.895093079606782638e-03,-1.548423340989812935e-02,-1.007079313200104076e-01,6.522748604398412309e-02,-8.270530402660369873e-02,2.050605133720962425e-01,-6.117837911117064709e-02,1.165438071814861934e-02,-3.177347440305566817e-01,8.835608384526991155e-02,9.463757348762946719e-02,-2.177347440305567039e-01,1.883560838452699171e-01,1.367237423847660893e-01,5.387226389155317374e-01,7.330260276794433594e-01
1.101642999999999928e+00,-6.709796327574872599e-02,3.391174663445836041e-02,9.458172917366027832e-01,3.388993635922683823e-02,-6.672797407530239866e-03,-1.495880696990958825e-02,-9.358957368773401786e-02,6.860062225099322619e-02,-8.423345535993576050e-02,2.337018958300187965e-01,-8.161281508187655243e-02,4.758011415507768654e-02,-3.195110840189125945e-01,9.122674698901347967e-02,1.175098113628136043e-01,-2.195110840189125612e-01,1.912267469890134852e-01,1.578806976052354594e-01,5.391137647312415071e-01,7.357807159423828125e-01
1.122419000000000056e+00,-6.919626556616055579e-02,3.509691550436428581e-02,9.443376660346984863e-01,3.839248601994512539e-02,-9.116228922958713454e-03,-1.451687577984617228e-02,-9.480898805496257298e-02,6.044562597663095255e-02,-7.995932549238204956e-02,2.082112063628612231e-01,-1.256346900310613135e-01,-1.585829895957607718e-04,-3.180313555645047918e-01,5.220438349535971856e-02,1.618522177860876599e-01,-2.180313555645047585e-01,1.522043834953597241e-01,2.006574168004626735e-01,5.390478655028244637e-01,7.363681793212890625e-01
1.149570999999999898e+00,-7.231567805473025634e-02,3.663087134881671397e-02,9.421645402908325195e-01,4.451191114069193155e-02,-1.295512450575220242e-02,-1.445755573955609385e-02,-1.001753584793701329e-01,4.596825285672727357e-02,-7.878731191158294678e-02,1.734554872615212406e-01,-1.500958495590619390e-01,-1.125939689224051202e-02,-3.217695048137102498e-01,-2.197490937052185567e-01,1.761372077174515882e-01,-2.217695048137102165e-01,-1.197490937052185650e-01,2.142350354187116113e-01,5.391539932837051685e-01,7.313804626464843750e-01
1.177996999999999961e+00,-7.542794736290735214e-02,3.796644131709270287e-02,9.399062991142272949e-01,4.727019624870808928e-02,-1.632558141835294130e-02,-1.571498248748759430e-02,-9.306538615662326985e-02,5.195926520837169243e-02,-8.400891721248626709e-02,-1.275628667445545712e-02,-1.032624551192162232e-01,-1.490764711851818268e-02,-3.090993849677018956e-01,-2.991698622210691161e-01,1.565565140977910330e-01,-2.090993849677018901e-01,-1.991698622210690828e-01,1.977764345081489683e-01,5.386139807531555856e-01,6.646733283996582031e-01
1.199764999999999970e+00,-7.748188305467156034e-02,3.890938512493330448e-02,9.383482933044433594e-01,4.554485645641947328e-02,-1.767373135115368754e-02,-1.714254142623383714e-02,-1.027647354247943762e-01,4.643746851345296328e-02,-8.443672209978103638e-02,-1.541851764940487812e-01,-9.917614331090893187e-02,-1.104732129047570482e-01,-2.997785466367506313e-01,-2.909726291962078104e-01,-2.338253517808348281e-01,-1.997785466367506257e-01,-1.909726291962078049e-01,-1.887182535059082900e-01,5.395444919330546485e-01,7.007200717926025391e-01
1.228598999999999997e+00,-8.029641933774857299e-02,4.063697421875873267e-02,9.357753992080688477e-01,3.825101762688352253e-02,-1.984026332283117533e-02,-1.871736366920417893e-02,-9.290361907433761224e-02,4.677235247674690205e-02,-9.971930831670761108e-02,-3.324833183753397869e-01,-4.052507944764022207e-02,-2.483891380947297542e-02,-2.759913756894794012e-01,-1.086232888517425221e-01,-2.564301520070088602e-01,-1.759913756894793957e-01,-8.623288851742513111e-03,-2.066171818495353141e-01,5.409958535199131946e-01,7.029770612716674805e-01
1.251222999999999974e+00,-8.220579923586221471e-02,4.171262973941194940e-02,9.340673089027404785e-01,3.216971602741115766e-02,-2.164440201384398854e-02,-2.010771244926834456e-02,-1.044740840113191349e-01,4.457030887977888461e-02,-8.984557539224624634e-02,-3.044619555476985040e-01,-7.874396020516993833e-02,-1.212067283570992110e-01,-2.528076058110421132e-01,-2.818957147962463106e-01,-2.513794939321907229e-01,-1.528076058110420798e-01,-1.818957147962463328e-01,-1.975535398247123819e-01,5.402380125995916993e-01,6.846466064453125000e-01
1.272896999999999945e+00,-8.416596105094938107e-02,4.270677182741137307e-02,9.323739409446716309e-01,2.558070901010749479e-02,-2.333802239575621940e-02,-2.170052708947523001e-02,-1.094308928509296480e-01,3.702287770057376831e-02,-9.669321775436401367e-02,-3.492951610983943689e-01,-6.232981510802568931e-02,-5.940720470239933826e-02,-2.366515625173993831e-01,-2.638599970405759443e-01,-2.477873370635765571e-01,-1.366515625173993775e-01,-1.638599970405759110e-01,-1.891762005141345016e-01,5.404148397291440586e-01,6.524178981781005859e-01
1.303288999999999920e+00,-8.707251307629643167e-02,4.411439871684180031e-02,9.297808408737182617e-01,1.558007770932145694e-02,-2.345053023837406769e-02,-2.481100161701310647e-02,-1.010721928107450457e-01,4.028094775788556431e-02,-8.814629912376403809e-02,-2.960630489064721149e-01,1.002280529553834648e-01,-1.282343397159760867e-01,-2.140824038425779841e-01,8.996325239736538415e-02,-2.512698930027511546e-01,-1.736763551889365376e-01,1.899632523973653897e-01,-1.833492475829527069e-01,5.407436513036241177e-01,6.864520311355590820e-01
1.328192000000000039e+00,-8.918890456693198687e-02,4.509274641756733093e-02,9.279860854148864746e-01,8.337704220449288633e-03,-2.107526986587671125e-02,-2.672009985059786707e-02,-9.701123791199711688e-02,3.884790096481520461e-02,-1.060323268175125122e-01,-3.910639850077657909e-01,1.594057743357758516e-01,-3.848051638083620218e-02,-1.335941312111073032e-01,1.176016839056300001e-01,-2.322556791821667188e-01,-1.390472711555879315e-01,2.176016839056300056e-01,-1.584723886957242200e-01,5.421765842485770648e-01,6.796333789825439453e-01
1.354718000000000089e+00,-9.268350533009626913e-02,4.675264089725900823e-02,9.254319667816162109e-01,-2.254132677707596909e-03,-1.436352863950873804e-02,-2.619591730028814069e-02,-1.060269751603091504e-01,4.401228730120253924e-02,-9.443199634552001953e-02,-2.951909366960012715e-01,2.702305811320535600e-01,8.330350089866883634e-02,-3.293521456749488874e-02,1.246115597934145947e-01,-2.106941390777885281e-01,-1.123225988438507211e-01,2.246115597934146002e-01,-1.377560469676017141e-01,5.423814964689023244e-01,7.175617218017578125e-01
1.378320999999999907e+00,-9.630250324598063627e-02,4.852899516183531436e-02,9.231172800064086914e-01,-1.204004851623574450e-02,-6.849457330058372762e-03,-2.376494372632143026e-02,-1.070812356254647463e-01,5.358556426978841603e-02,-8.625562489032745361e-02,-2.716109517691992492e-01,2.725822782664179544e-01,8.796057823501900186e-02,-5.472520506433797838e-02,1.313240929110390809e-01,-2.662126598399508492e-01,-1.547252050643379839e-01,2.313240929110390864e-01,-1.996540271705164460e-01,5.425524044931574474e-01,7.416816949844360352e-01
1.402992999999999935e+00,-9.869815390103610364e-02,4.975136249785637454e-02,9.217826724052429199e-01,-1.775819983210794387e-02,-2.290198442266966339e-03,-2.187507246816666751e-02,-9.684581389073844415e-02,5.133471475994850347e-02,-7.387795299291610718e-02,-2.559321520300081310e-01,2.216233441580165164e-01,8.604536676121853078e-02,-3.432128319303878738e-02,1.332596799760083772e-01,-2.769839604883418960e-01,-1.343212831930387929e-01,2.332596799760083828e-01,-2.155230695971711019e-01,5.419481984935398122e-01,7.444400787353515625e-01
1.431308000000000025e+00,-1.010400569622298406e-01,5.112903170933453395e-02,9.205458760261535645e-01,-2.324054861026197960e-02,2.799333769692990970e-03,-1.965042091306723471e-02,-1.099879850221904681e-01,5.243339534550215536e-02,-7.193703949451446533e-02,-2.404236629727694030e-01,2.675178555472459418e-01,1.539388082285217119e-01,-7.356632161358961364e-02,1.356927296984737630e-01,-2.739631424824831019e-01,-1.735663216135896192e-01,2.356927296984737685e-01,-2.186128600463573823e-01,5.421963603545628674e-01,7.525348663330078125e-01
1.453179999999999916e+00,-1.033317276184185091e-01,5.270135304819186656e-02,9.194557070732116699e-01,-2.812474962608021642e-02,7.699955336371244741e-03,-1.750489513648423312e-02,-1.006454698230000305e-01,6.597200832747104893e-02,-6.569069623947143555e-02,-2.586496452827519166e-01,2.125328938192347361e-01,7.660969872893319543e-02,1.087767847966030210e-01,1.374496185699483619e-01,-2.514902792760136396e-01,8.776784796603012001e-03,2.333346047423381919e-01,-2.021817845148450865e-01,5.419606079826500000e-01,7.524878978729248047e-01
1.477117999999999931e+00,-1.067794021231094903e-01,5.527307206290796304e-02,9.180867671966552734e-01,-3.434948253514014810e-02,1.142535160857138798e-02,-1.357921832292197095e-02,-1.130615579667222093e-01,7.437058726774740947e-02,-4.642170295119285583e-02,-1.764574087130681423e-01,1.032531072193261859e-02,1.178386947656981654e-01,3.222343365036567375e-01,1.457259449819926500e-01,-2.529475532700498075e-01,2.222343365036567042e-01,2.314572080488156713e-01,-2.145686198843415327e-01,5.408358720278647613e-01,7.529640197753906250e-01
1.499452999999999925e+00,-1.102531110986081225e-01,5.812530541421388752e-02,9.174092411994934082e-01,-3.898792281144237287e-02,1.092022902994549405e-02,-9.410442778285732501e-03,-1.016299069790073117e-01,9.194718307704177751e-02,-3.424430638551712036e-02,-1.262601497029293418e-01,-5.874536314110325591e-02,8.965181731571043866e-02,3.225683773072508531e-01,1.505009617734908711e-01,-2.023211110650089684e-01,2.225683773072508476e-01,2.320333000651086941e-01,-1.755886935408748351e-01,5.401337339633487389e-01,7.533740997314453125e-01
1.530542999999999987e+00,-1.137723434467138445e-01,6.126595979681944554e-02,9.170116186141967773e-01,-4.132173221899785448e-02,7.744864931373163230e-03,-4.729537415530726818e-03,-1.092139505073107392e-01,9.673263687126720800e-02,-1.954834163188934326e-02,-5.491928244386686669e-02,-1.505930800378874057e-01,1.100620120822794479e-01,3.145452433810547732e-01,1.148732847654749256e-01,8.911539165703757925e-02,2.145452433810547677e-01,2.148732847654749312e-01,1.029363796183441759e-01,5.390973902399064377e-01,7.462700605392456055e-01
1.555450999999999917e+00,-1.162088578985342041e-01,6.355113367778802980e-02,9.169502854347229004e-01,-4.280335060566370364e-02,5.405206568608322826e-03,-1.000698381760756206e-03,-1.054253397749777416e-01,1.118163732581134717e-01,-3.067887388169765472e-02,-1.024636744173171715e-01,-8.941046409932083827e-02,2.201643759062766603e-01,3.221496519241162093e-01,1.176352068064231149e-01,1.685749443179906382e-01,2.221496519241162038e-01,2.176352068064231204e-01,1.720118102750053946e-01,5.396840989589081206e-01,7.284184694290161133e-01
1.581375999999999893e+00,-1.197304105879088559e-01,6.738830062952876065e-02,9.169744849205017090e-01,-4.444751263728907720e-02,1.624357745428461897e-03,4.689569171863361419e-03,-1.007089052468191082e-01,1.210420053347077696e-01,-1.666814833879470825e-02,-6.386946944789992364e-02,-1.156574752968660136e-01,2.235111504782978653e-01,3.188150610441581323e-01,1.128088217237525892e-01,2.413567050255453483e-01,2.188150610441581267e-01,2.128088217237525948e-01,2.290004723724463620e-01,5.379987467042436355e-01,6.849350929260253906e-01
1.600357000000000030e+00,-1.208675597186302519e-01,6.875414037111654553e-02,9.170522093772888184e-01,-4.490164207534767804e-02,6.905004959900651329e-05,6.475722061895616832e-03,-1.011068471574694955e-01,1.287076165301382358e-01,-9.066750295460224152e-03,-7.746004084617250096e-02,-1.433049326333832585e-01,1.995899299607260535e-01,3.190863725754672364e-01,1.132399648571141837e-01,2.495904326860323430e-01,2.190863725754672309e-01,2.132399648571141892e-01,2.322808014928705866e-01,5.379837238894310536e-01,7.092837095260620117e-01
1.637586999999999904e+00,-1.254858714782062790e-01,7.449724858380731007e-02,9.177547693252563477e-01,-4.190809559423558373e-02,-6.494375890565118326e-03,1.379846101233184186e-02,-1.049135293981271755e-01,1.427692954890570909e-01,9.625105187296867371e-03,1.754008682828032961e-01,-1.836861993424833694e-01,1.434238739055704315e-01,3.106045982462199984e-01,-1.749183312625784970e-01,2.553789557438952418e-01,2.106045982462200206e-01,-7.491833126257847753e-02,2.175759201692782085e-01,5.365961017059107663e-01,7.040569782257080078e-01
1.659926999999999930e+00,-1.278235876381836056e-01,7.739065648983660395e-02,9.183122515678405762e-01,-3.732514718065416820e-02,-9.861578125386571969e-03,1.714382706963446523e-02,-9.540979721137661518e-02,1.428862575831600090e-01,7.375742774456739426e-03,2.559695487682022152e-01,-1.480278847754446514e-01,1.646291501769155674e-01,3.004211642922509085e-01,-1.069742125081129536e-01,2.513808967818723650e-01,2.004211642922509029e-01,-6.974212508112949752e-03,2.040422707528100066e-01,5.366209331031660534e-01,6.954147815704345703e-01
1.688566000000000011e+00,-1.301062887127981405e-01,8.041164102083785126e-02,9.189627766609191895e-01,-3.126713412172265477e-02,-1.298602758250155809e-02,1.909861444648308648e-02,-9.712381548964572897e-02,1.512755658653447133e-01,2.211849205195903778e-02,3.531736244146829184e-01,-1.322841884277317082e-01,7.404183777780744269e-02,2.846403391888682188e-01,-1.174953854350821170e-01,2.225198161732069302e-01,1.846403391888682410e-01,-1.749538543508211141e-02,1.693669259531433990e-01,5.353212641662249416e-01,6.804634332656860352e-01
1.723557000000000006e+00,-1.344682796748555009e-01,8.672755170816355552e-02,9.203718304634094238e-01,-1.873757860787387750e-02,-1.831400324939047586e-02,1.936600878008443161e-02,-9.476430380613495852e-02,1.647431667517161025e-01,1.990372687578201294e-02,3.651638716806129836e-01,-1.035470338912081179e-01,-5.459292751156830104e-02,2.708177187566755961e-01,-1.258264929891860784e-01,1.147708354284036891e-01,1.708177187566755628e-01,-2.582649298918605896e-02,5.999527818159330894e-02,5.354461378949889605e-01,6.800488233566284180e-01
1.748628999999999989e+00,-1.378093994308987047e-01,9.173469887985943871e-02,9.214112162590026855e-01,-8.980189054426527054e-03,-2.234508251351141617e-02,1.750650341424320189e-02,-9.058226633715982246e-02,1.584318420357931634e-01,1.612804457545280457e-02,3.208075918588669806e-01,-1.444229706352148646e-01,-7.666872813106316575e-02,2.576626608100625049e-01,-2.361645277632559159e-01,6.210236397341960951e-02,1.576626608100625271e-01,-1.361645277632559103e-01,1.185208077983079290e-02,5.357555436477434707e-01,6.834412813186645508e-01
1.773765000000000036e+00,-1.400387378571535668e-01,9.520095359230526522e-02,9.221065640449523926e-01,-1.608236410409647106e-03,-2.480330805498098812e-02,1.597114601882054785e-02,-9.305313840531717617e-02,1.695908153369562466e-01,1.298378221690654755e-02,4.107912076413867131e-01,-8.182888955582082180e-02,-7.099047846801578854e-02,2.330170880761814611e-01,-2.010430971028667746e-01,-5.664439844774535326e-03,1.330170880761814556e-01,-1.010430971028667690e-01,-5.236841866434148451e-02,5.361408504311939716e-01,6.904685497283935547e-01
1.793128000000000055e+00,-1.422975213108382264e-01,9.870265125059764222e-02,9.227380156517028809e-01,5.701169393899037374e-03,-2.602674316007580479e-02,1.386092167213259785e-02,-9.725013555607184279e-02,1.663053823570946055e-01,7.181277498602867126e-03,3.367445303988572114e-01,-3.972109580956035418e-02,-8.696877040295612760e-02,2.137210384535822016e-01,-2.052359341510804902e-01,-3.707417371853094501e-02,1.137210384535821961e-01,-1.052359341510804985e-01,-7.847885985050395696e-02,5.365099127551918867e-01,6.866486072540283203e-01
1.838422999999999918e+00,-1.445130144729647459e-01,1.021627063419919407e-01,9.232464432716369629e-01,1.266474345853667305e-02,-2.577323736097003604e-02,1.168949980169387004e-02,-8.833554710279474531e-02,1.671013398585874388e-01,-1.590121682966127992e-04,3.531736742708416199e-01,4.021869025536178865e-02,-1.110365939573052657e-01,1.647105875070400682e-01,-4.595427200687535185e-03,-1.902935608478829865e-02,6.471058750704006268e-02,9.540457279931247037e-02,-5.485504094180394807e-02,5.372652543088345389e-01,6.976963281631469727e-01
1.907917000000000085e+00,-1.494609926611261685e-01,1.108305039708240014e-01,9.241189360618591309e-01,2.921561938796267063e-02,-2.059698279550259414e-02,6.803327474450115986e-03,-9.189730487897648792e-02,1.611196070734790542e-01,4.381782491691410542e-04,3.487037941366119553e-01,1.179057389487099122e-01,-6.389071433254224497e-02,-2.077906936223499479e-01,9.425661335818236175e-02,1.971633293664537823e-01,-2.111790010490409708e-01,1.942566133581823673e-01,1.741091765158170601e-01,5.372808819978873718e-01,6.998660564422607422e-01
1.950023999999999980e+00,-1.562955738914685033e-01,1.235075060715930956e-01,9.251013398170471191e-01,5.381783984613456445e-02,-5.549065789266727222e-03,4.210670828225016038e-03,-9.564879592834295285e-02,1.413860088927113567e-01,-1.184716820716857910e-02,2.967434224724022074e-01,2.593188140122088536e-01,7.207269416119999224e-03,-3.213823720483355295e-01,1.179750141686972398e-01,-1.190705312951418626e-01,-2.213823720483355240e-01,2.179750141686972453e-01,-1.348600566585296534e-01,5.390144198917875551e-01,7.468640804290771484e-01
1.975151000000000101e+00,-1.585097713515210005e-01,1.283022200917144084e-01,9.254449009895324707e-01,6.167661343807117474e-02,1.692875919215852676e-03,4.967301248681055270e-03,-8.711586597711017121e-02,1.303635417305601674e-01,-1.154977921396493912e-02,2.589627147002312446e-01,1.973007538298188202e-01,-2.336011348490285924e-02,-3.107587117751989814e-01,1.353050211979577311e-01,1.826361104159507920e-01,-2.107587117751990036e-01,2.353050211979577366e-01,1.653740865657676307e-01,5.388988732548508631e-01,7.392454147338867188e-01
2.033050999999999942e+00,-1.612650195453408652e-01,1.339801527492832656e-01,9.258078932762145996e-01,7.055404150718389000e-02,9.593654221497160961e-03,6.092763657971955737e-03,-7.998175244079279433e-02,1.053980073425127423e-01,-9.230809286236763000e-03,2.206810649368747823e-01,1.571074473992864484e-01,-4.445930812977672009e-02,-3.124706642403338730e-01,1.339457826859061507e-01,1.609537030229658827e-01,-2.124706642403338952e-01,2.339457826859061562e-01,1.414002190118705260e-01,5.383825039980835170e-01,7.182217836380004883e-01
2.052462999999999926e+00,-1.637151489391265036e-01,1.384971357131105918e-01,9.262344837188720703e-01,7.666911857671858399e-02,1.576384234180117083e-02,6.580129215896679540e-03,-5.505724425426089530e-02,9.442139094678461686e-02,-9.510477073490619659e-03,1.128660250643786223e-01,1.200181868178247929e-01,-5.316166162946768525e-02,-2.999741667182616589e-01,1.621012010702160278e-01,6.908337393084901246e-02,-1.999741667182616534e-01,2.250299439930747158e-01,4.926048712201547969e-02,5.380687903003438244e-01,6.985875368118286133e-01
2.078933999999999838e+00,-1.652425390673589178e-01,1.406147364791288656e-01,9.265598058700561523e-01,7.704183293449182179e-02,1.820181047121649520e-02,5.025672095817501628e-03,-6.076717807564614715e-02,8.054992229901745959e-02,-1.449627988040447235e-02,-8.159280165124196960e-02,3.202160761720308779e-02,-5.996392990865955647e-02,-3.185157399315710069e-01,1.429735379763884540e-01,-2.186402101257752806e-01,-2.185157399315710292e-01,1.998886794402716938e-01,-2.339655475472484092e-01,5.392572538711575270e-01,7.414933443069458008e-01
2.100099000000000160e+00,-1.661990474348323810e-01,1.419017880666564035e-01,9.266266822814941406e-01,7.460564777654798974e-02,1.826167775079756694e-02,5.073579861310628658e-03,-4.299843136787465797e-02,8.492592703893782347e-02,-2.396078407764434814e-02,-1.487826788097625641e-01,-3.485557133641496719e-02,4.499733888492395834e-02,-3.091842231882476755e-01,1.905633568319913262e-01,1.824835360802979645e-01,-2.091842231882476977e-01,2.334235408939054623e-01,1.673450978315975390e-01,5.397658757169989663e-01,7.282564640045166016e-01
2.134459000000000106e+00,-1.675920459859045752e-01,1.442292554161170581e-01,9.267649054527282715e-01,6.239097045598325508e-02,1.726856165193235704e-02,3.920455231321229306e-03,-3.465827004428466418e-02,7.486922870948886644e-02,-1.624599285423755646e-02,-4.333165260566834709e-01,-3.561053895913832840e-02,-1.636697869810380471e-02,-3.049169818659359099e-01,1.623525582953214141e-01,-1.656523255948253170e-01,-2.049169818659359044e-01,2.098426041358939231e-01,-1.775260701104254546e-01,5.395569983836585592e-01,7.438058853149414062e-01
2.162129000000000190e+00,-1.680081880720681597e-01,1.449124763229853730e-01,9.268394708633422852e-01,5.779022770818518367e-02,1.696659608144579501e-02,3.288011934037937678e-03,-1.143883675959419914e-02,6.686973448258462516e-02,-2.048642560839653015e-02,-5.159691242841933922e-01,-3.751058981159124256e-02,-3.416843446589207245e-02,-2.869429980527959945e-01,1.802942441863408796e-01,-1.221984010291271849e-01,-1.869429980527959889e-01,2.138227208776709298e-01,-1.320006152427937451e-01,5.398476773971402354e-01,7.401348352432250977e-01
2.186833000000000027e+00,-1.691205442116609503e-01,1.468367564097356193e-01,9.270613193511962891e-01,4.502339482987540581e-02,1.562028146944771656e-02,1.710652345460417223e-03,-1.070906626153969934e-02,5.833472467278154328e-02,-1.100891083478927612e-02,-4.007537260920028821e-01,-6.246751722689756342e-02,-1.062511137268983170e-02,3.579898260132491350e-02,1.626006763937262733e-01,-2.170649317366315778e-01,1.357989826013249191e-01,2.094981640193647743e-01,-2.225515472264291972e-01,5.394486769605122412e-01,7.520670890808105469e-01
2.209016999999999786e+00,-1.698713637056988301e-01,1.485771033537849617e-01,9.273670911788940430e-01,3.248503952106272102e-02,1.347997072828954757e-02,1.902904315390863133e-03,3.040431733508781615e-03,5.666357525752811070e-02,-8.074540644884109497e-03,-3.835671646940726487e-01,-9.551328217037309554e-02,4.063290333086116285e-02,1.507723553580238574e-01,1.613896596865259658e-01,-2.252736256016997785e-01,2.049094945459969119e-01,2.127292750399205346e-01,-2.312287527448054214e-01,5.393430944040450425e-01,7.554494142532348633e-01
2.236578000000000177e+00,-1.702042048966027066e-01,1.497007920048520901e-01,9.276880621910095215e-01,2.346613606520062470e-02,1.251816253328441597e-02,3.680110326669261411e-03,4.063346970865844981e-03,5.348318666069595134e-02,-9.998558089137077332e-03,-4.928050439314640152e-01,1.226501695751249475e-02,9.396173168832827605e-02,-5.547183033111257461e-02,1.646235992045769481e-01,3.387161888132245863e-02,-5.923648723877567718e-02,2.237952589608401821e-01,2.296117806547943313e-02,5.389801193732695062e-01,7.248075008392333984e-01
2.264015000000000111e+00,-1.704069252961051273e-01,1.512223490594777897e-01,9.284395575523376465e-01,1.062551048768782015e-02,1.100801876708668026e-02,5.307767628423221140e-03,2.161756118661115750e-02,5.387269961210239960e-02,8.353277109563350677e-03,-4.746208268010433939e-01,-7.254565986532117428e-02,7.082373425318751192e-02,2.891679332627073995e-01,1.662590059084614602e-01,-2.049488500636836574e-01,1.988018565188869047e-01,2.227571554926930653e-01,-2.202388397345372562e-01,5.381121997674247481e-01,7.495415210723876953e-01
2.290687999999999835e+00,-1.706937927604855187e-01,1.525002037300566826e-01,9.295214414596557617e-01,-7.507650378337598056e-04,8.042719984433288616e-03,9.356070354351153640e-03,1.787456925197275504e-02,6.067940730510534147e-02,1.913952827453613281e-02,-3.291818167851215393e-01,-4.857953573400376063e-02,2.278076783288552898e-01,3.122794388043820257e-01,1.415475286834579349e-01,-1.653107522227137971e-01,2.122794388043820202e-01,2.232629779987282959e-01,-1.919456534570443407e-01,5.372656375842833620e-01,7.461326122283935547e-01
2.317039999999999988e+00,-1.706165317041062890e-01,1.535074401407612310e-01,9.304085373878479004e-01,-8.014978910847566501e-03,5.179032132915262210e-03,1.346377307669355261e-02,2.491138801389445462e-02,7.014450516534531666e-02,2.854410372674465179e-02,-3.847291075796500093e-01,-1.783434349919728878e-01,2.116709979615976900e-01,3.011601866906271074e-01,1.261671069163958214e-01,-1.493398315970881629e-01,2.011601866906271019e-01,2.207131792182460694e-01,-1.874228164003187425e-01,5.364729409184629816e-01,7.406173944473266602e-01
2.342349000000000014e+00,-1.703629113855852639e-01,1.551417828983270575e-01,9.318818449974060059e-01,-1.734895116182831598e-02,1.671283629139930227e-03,2.181549907110480468e-02,2.674436445798910114e-02,7.267938892542008533e-02,3.555641695857048035e-02,-3.038449553384637292e-01,-1.142276660045224851e-01,2.772456659284773806e-01,2.978547244573320762e-01,1.220954599337366886e-01,-6.134724034348329469e-02,1.978547244573320707e-01,2.220954599337366941e-01,-1.226790074480848258e-01,5.356549562374631757e-01,7.271265983581542969e-01
2.366683999999999788e+00,-1.699797302613791916e-01,1.564338097099201574e-01,9.329259991645812988e-01,-2.070990741371582164e-02,-1.118542813471679054e-03,2.847134146640328822e-02,4.178869760357986629e-02,6.569397975147124591e-02,2.769718691706657410e-02,-7.196997902874992248e-02,-1.128053565852736445e-01,3.588624355525064646e-01,2.651293459099112182e-01,9.808390343162753933e-02,1.151160860489805621e-01,1.651293459099112126e-01,1.980839034316275449e-01,3.524309912775104581e-02,5.361403007768509310e-01,7.259851694107055664e-01
2.387300999999999895e+00,-1.693647899614109942e-01,1.586401165071699426e-01,9.347233772277832031e-01,-2.273622369026345388e-02,-5.808266432836495241e-03,3.736958700332282390e-02,6.354464546157531646e-02,7.450730194899554681e-02,4.856170341372489929e-02,2.299786347372577422e-02,-1.772465813703897886e-01,2.687574743192326920e-01,2.788381746039642062e-01,1.068535429656578273e-01,1.556749163885771114e-01,1.788381746039642284e-01,2.068535429656578328e-01,5.567491638857711977e-02,5.345640474710076084e-01,7.275799512863159180e-01
2.414362000000000119e+00,-1.687291627114046177e-01,1.602864735979794564e-01,9.358230829238891602e-01,-2.335321236874253470e-02,-8.300723108822571916e-03,4.337580911533756023e-02,6.096299668098531521e-02,8.923014790807494434e-02,3.526265174150466919e-02,-6.232148119486068116e-02,-1.135518820515582644e-01,3.190166071334548659e-01,2.805287116923192992e-01,1.040205274651397616e-01,2.240451837844090188e-01,1.805287116923193214e-01,2.040205274651397671e-01,1.240451837844090272e-01,5.349271239534815203e-01,6.967723369598388672e-01
2.451661000000000090e+00,-1.674910791092798223e-01,1.629406135227739194e-01,9.377379417419433594e-01,-2.182206128925364211e-02,-1.281938261026627224e-02,5.385340157909213055e-02,5.761299194316862188e-02,9.166032871979172547e-02,5.647730827331542969e-02,1.018116130094966210e-01,-1.320263497791972496e-01,3.889526174435046224e-01,2.677799870226800216e-01,1.040886407555452198e-01,2.330682404384151196e-01,1.677799870226800438e-01,2.040886407555452253e-01,1.330682404384151141e-01,5.334126962562882879e-01,7.040801048278808594e-01
2.490816000000000141e+00,-1.657307301119854137e-01,1.655521254259935682e-01,9.401457309722900391e-01,-1.612744257907504364e-02,-1.726443843136626910e-02,6.433277928297020942e-02,7.555167007992048822e-02,9.343476054105535888e-02,7.047113776206970215e-02,2.933917857428620102e-01,-1.677948680148667326e-01,3.249952774676287404e-01,2.262495808910670037e-01,9.533231407272971247e-02,1.875224130014991053e-01,1.262495808910669981e-01,1.953323140727297180e-01,8.752241300149909975e-02,5.323843330424536946e-01,7.131922245025634766e-01
2.532246000000000219e+00,-1.619197438287234836e-01,1.699676127411619553e-01,9.445862770080566406e-01,-1.779201081749131556e-03,-2.568639985325038566e-02,7.920135998445632097e-02,1.004156410986521281e-01,9.911476243049169299e-02,8.683348447084426880e-02,3.607014049511441112e-01,-1.395490799938660931e-01,2.912223743260525799e-01,1.733861312208489491e-01,1.045276402811894656e-01,1.325707118859353328e-01,7.338613122084892970e-02,2.045276402811894711e-01,3.257071188593531341e-02,5.297346781262857185e-01,6.515994071960449219e-01
2.574450999999999823e+00,-1.567678003401030140e-01,1.745401049282989669e-01,9.493886828422546387e-01,1.486196726248077520e-02,-3.538881105471136657e-02,8.941854202127696993e-02,1.120092281972023818e-01,9.881138596180341627e-02,9.228486567735671997e-02,3.993985277691630142e-01,-1.624460777288154745e-01,1.594787271008609453e-01,2.150160822529119664e-01,8.238583907894528324e-02,1.890201522136643608e-01,1.150160822529119609e-01,1.823858390789452888e-01,8.902015221366435527e-02,5.288375025622302772e-01,6.451122760772705078e-01
2.598196000000000172e+00,-1.537345915053707490e-01,1.757375894045900000e-01,9.513307809829711914e-01,2.190429856205778486e-02,-3.957467221360677634e-02,9.255144326948894218e-02,1.102177654335738249e-01,9.596538072904760297e-02,9.449798613786697388e-02,3.938689434903812625e-01,-1.567703799225158567e-01,1.852882183351222123e-01,1.768544336178721754e-01,-6.306559661419260110e-02,1.083572789544188231e-01,1.055445489940352588e-01,3.693440338580740445e-02,8.357278954418817518e-03,5.291330355552851250e-01,6.799700260162353516e-01
2.618618999999999808e+00,-1.492051283115745364e-01,1.776537451911782417e-01,9.539023041725158691e-01,3.169106278562808937e-02,-4.285647114725477103e-02,9.652506410400851777e-02,1.211744857195861530e-01,9.357775944496495024e-02,8.065808564424514771e-02,2.879019590961064967e-01,-6.919676775472738406e-02,1.622442121070181431e-01,-1.958983962617220353e-01,7.575901666737572260e-02,1.288858435355633714e-01,-2.024082441806454857e-01,1.757590166673757281e-01,2.888584353556335541e-02,5.293290530053544884e-01,6.481945514678955078e-01
2.637036000000000158e+00,-1.460234959241433761e-01,1.788891156275884964e-01,9.555276036262512207e-01,3.713115248769801452e-02,-4.431682648564261306e-02,9.945594905618748705e-02,1.319567561790379595e-01,8.582330116538021414e-02,7.280314713716506958e-02,2.742121771787026652e-01,-5.383960234830745262e-02,1.411382163380379973e-01,-2.638032717126471693e-01,7.824478267757986605e-02,1.478963164080357162e-01,-2.296290138298739958e-01,1.782447826775798716e-01,4.789631640803571067e-02,5.297691818154578458e-01,6.496751308441162109e-01
2.655905999999999878e+00,-1.428788054634705651e-01,1.799984557848974542e-01,9.569020867347717285e-01,4.201099444986511333e-02,-4.590629063022233503e-02,1.028004828525228564e-01,1.244134566948258275e-01,9.084672228288333262e-02,6.432981044054031372e-02,2.601000650596477226e-01,-6.884821926155344773e-02,1.958518821691080936e-01,-2.939948595647156049e-01,5.802810346542797149e-02,8.315266261287748706e-02,-2.346359901449399099e-01,1.580281034654279770e-01,-1.684733738712252543e-02,5.301070536920656773e-01,6.404736042022705078e-01
2.679869000000000057e+00,-1.391372506368637740e-01,1.821076975085659799e-01,9.582257270812988281e-01,4.623001562531672132e-02,-4.807873064164747134e-02,1.060660775291906166e-01,1.241415484311545192e-01,8.508425801383995291e-02,6.449133902788162231e-02,2.244596432687870069e-01,-1.086302845932932554e-01,1.834227112886723243e-01,-2.960274893423466835e-01,-2.370651882090388241e-01,1.529791582570492192e-01,-2.056306389476917074e-01,-1.370651882090388185e-01,5.297915825704922754e-02,5.291870077449117860e-01,5.974742174148559570e-01
2.703638999999999903e+00,-1.333899874213349823e-01,1.848558884705206462e-01,9.601930379867553711e-01,5.337626732834729881e-02,-5.050261422818946855e-02,1.112311587036931559e-01,1.286355296016139793e-01,6.519222778783573258e-02,5.566990748047828674e-02,2.619335212025738491e-01,-7.610470866005990265e-02,1.759043018567448546e-01,-3.285626071404448290e-01,-1.161778953102330231e-01,2.161908683711982471e-01,-2.285626071404448234e-01,-1.617789531023301752e-02,1.161908683711982415e-01,5.300231903330097083e-01,6.182000637054443359e-01
2.727774999999999839e+00,-1.297226506668861523e-01,1.865314518178660674e-01,9.613200426101684570e-01,5.673140937659255922e-02,-5.124933798203712421e-02,1.149942549885554222e-01,1.321725472908695243e-01,6.800812145124963959e-02,5.073243007063865662e-02,1.421137933160097899e-01,-1.227555134748097021e-02,2.297603722396825976e-01,-3.404504601605476966e-01,6.698698940658864842e-02,-3.046870935484163878e-02,-2.404504601605476910e-01,1.669869894065886540e-01,-1.304687093548416443e-01,5.293005668250413409e-01,5.636833906173706055e-01
2.754210000000000047e+00,-1.242227573184903344e-01,1.887021672904764247e-01,9.626552462577819824e-01,6.078715538812349412e-02,-5.162127540067906750e-02,1.210476857269675577e-01,1.306331953625613218e-01,4.079295173351793480e-02,4.327156022191047668e-02,1.012497660510137676e-01,3.127559806690943887e-03,1.757721927899230097e-01,-3.406930002724191109e-01,6.787183150522280162e-02,-8.548295917028536639e-02,-2.406930002724190776e-01,1.678718315052228072e-01,-1.854829591702853719e-01,5.287028597446086220e-01,5.088112354278564453e-01
2.776463000000000125e+00,-1.223664555650496588e-01,1.895552193523884210e-01,9.629799723625183105e-01,6.130084581394931037e-02,-5.132403240500282848e-02,1.232001276069891738e-01,1.253622872070419836e-01,4.682103852890057150e-02,2.894911915063858032e-02,3.953125116356933505e-02,5.893274653440665894e-02,1.891946822016743468e-01,-3.395735780309044327e-01,7.818089375058073776e-02,-1.416626905265115921e-01,-2.395735780309044272e-01,1.781808937505807433e-01,-2.416626905265115977e-01,5.288223623076857560e-01,4.588038921356201172e-01
2.812562999999999924e+00,-1.149470148141216591e-01,1.929474207377019912e-01,9.636721014976501465e-01,5.750488549201297067e-02,-4.879116717069686970e-02,1.327863185825912673e-01,1.326361749638970688e-01,4.083434836114166466e-02,5.400533322244882584e-03,-1.931354123075305074e-01,4.450857645983138933e-02,2.617410659135357975e-01,-3.221834378257816267e-01,9.702969010743803246e-02,2.512411856699245938e-01,-2.221834378257816212e-01,1.970296901074380380e-01,1.512411856699245882e-01,5.309598900953511613e-01,4.844294786453247070e-01
2.833413000000000181e+00,-1.111998388438315694e-01,1.944656845021087432e-01,9.636811614036560059e-01,5.312208024230331838e-02,-4.698730426452057962e-02,1.373844489269495650e-01,1.346942704715257122e-01,3.263355768815565799e-02,6.278574001044034958e-04,-2.661009559112272882e-01,7.084199995538217887e-02,2.188510655836051200e-01,-3.118467271686736764e-01,9.838089631975152627e-02,2.624462290202220771e-01,-2.118467271686736431e-01,1.983808963197515318e-01,1.624462290202220993e-01,5.302647133307846206e-01,4.260947704315185547e-01
2.852791999999999994e+00,-1.075341521035805131e-01,1.958981460799475161e-01,9.633302092552185059e-01,4.747181650532365793e-02,-4.502994166870966097e-02,1.422316786016799561e-01,1.374047685854682121e-01,3.256697218704930619e-02,-1.404177863150835037e-02,-2.596629955164100889e-01,3.688183223726920756e-02,2.331581633435459988e-01,-2.948301313351185393e-01,1.012470923979095216e-01,2.726483752821668438e-01,-1.948301313351185338e-01,2.012470923979095272e-01,1.726483752821668383e-01,5.316080345399364360e-01,4.377248287200927734e-01
2.876021000000000161e+00,-1.018535636808002576e-01,1.982124495439584189e-01,9.625316858291625977e-01,3.946052444777065765e-02,-4.168894587204352575e-02,1.509425086969087282e-01,1.386869252844058209e-01,2.504945745462372822e-02,-3.660877048969268799e-02,-2.569009404454644652e-01,7.990840813860349001e-02,3.318800625812023952e-01,-2.542204669926928506e-01,1.043370056060114182e-01,2.494496689347571738e-01,-1.766647345799735314e-01,2.043370056060114237e-01,1.494496689347571683e-01,5.355716663746267203e-01,5.602732896804809570e-01
2.912640999999999813e+00,-9.646977535823772487e-02,2.004782306145112825e-01,9.612830877304077148e-01,3.322981643627645476e-02,-3.827568310186912903e-02,1.614816239016243493e-01,1.425927152538619680e-01,1.869148386726262115e-02,-4.520261660218238831e-02,-1.987198526200453230e-01,8.625898670676923619e-02,3.585787391115375367e-01,-2.396353001514000547e-01,9.784028410063758119e-02,2.199146129279734296e-01,-1.996847726685422875e-01,1.978402841006375867e-01,1.199146129279734241e-01,5.364207643636237366e-01,5.643017292022705078e-01
2.939740000000000020e+00,-9.083954993646981002e-02,2.023647956843999396e-01,9.597333669662475586e-01,2.481693670570762553e-02,-3.354113251178203470e-02,1.734745028724749005e-01,1.320710795497430923e-01,1.640181634555994486e-02,-5.838945135474205017e-02,-3.557531680979155175e-01,1.337352993616665597e-01,4.054404494882042354e-01,-1.942432664230512307e-01,9.472383790849600582e-02,2.595517252601939329e-01,-2.103701003984824180e-01,1.947238379084960114e-01,1.595517252601939273e-01,5.376708892484225455e-01,5.702290534973144531e-01
2.962057000000000162e+00,-8.728257484838763958e-02,2.035954814850699790e-01,9.585055112838745117e-01,1.799885765294241893e-02,-2.949561015395518737e-02,1.796550375270058453e-01,1.499340731820387185e-01,7.917679965926143273e-03,-4.959957674145698547e-02,-4.028671506212038178e-01,1.134275334952749847e-01,2.660131672525798407e-01,-1.305456225316792562e-01,9.618864060043952335e-02,2.689791888516871454e-01,-1.846728961218075671e-01,1.961886406004395289e-01,1.689791888516871121e-01,5.326860493525834572e-01,3.209675550460815430e-01
