timestamp,x,y,z,roll,pitch,yaw,vx,vy,vz,p,q,r,psp,qsp,rsp,pres,qres,rres,thrust_sp, thrust_res
0.000000000000000000e+00,2.576628624524480819e-03,-3.722465170316307929e-04,9.406370520591735840e-01,1.650292538213163004e-02,-6.566614736468467939e-03,2.780743856373357227e-03,-1.018789657022786156e-02,-1.984303255190445966e-02,2.687715739011764526e-02,1.216818113874907140e-02,-3.571952907787934867e-02,-6.929830345456251817e-03,-1.000000000000000056e-01,-4.924144830352291530e-02,7.934538147020164800e-03,0.000000000000000000e+00,0.000000000000000000e+00,0.000000000000000000e+00,5.143869447117946914e-01,-0.000000000000000000e+00,-7.294332981109619141e-02,8.037182634096969025e+01,0.000000000000000000e+00
2.344399999999999956e-02,2.424564816843008744e-03,-1.230071863135503291e-03,9.399580955505371094e-01,1.610135853589580307e-02,-6.261413108651137094e-03,2.755874215629718245e-03,-8.368415570752470167e-03,-1.957138086283798095e-02,1.818530634045600891e-02,-2.303033714123674247e-02,5.961017576150104934e-03,1.465406412618803188e-02,-1.000000000000000056e-01,-4.441420912918946085e-02,7.850247573239932386e-03,0.000000000000000000e+00,0.000000000000000000e+00,0.000000000000000000e+00,5.151171717645083303e-01,-0.000000000000000000e+00,-2.411535978317260742e-01,9.801068058950090744e+01,0.000000000000000000e+00
4.918600000000000055e-02,2.252107827820017116e-03,-2.664964823279363220e-03,9.389861226081848145e-01,1.569207113679893864e-02,-6.499368896242030402e-03,2.713891202339887860e-03,-6.771803844749588706e-03,-2.136107710110966493e-02,2.866591513156890869e-02,6.826116491960620807e-03,-1.621619627533959704e-02,-2.040113170634704626e-02,-1.000000000000000056e-01,-4.508745699675641844e-02,7.727038180008416468e-03,0.000000000000000000e+00,0.000000000000000000e+00,0.000000000000000000e+00,5.144459749605619914e-01,-0.000000000000000000e+00,-1.856781244277954102e-01,1.320314635245517252e+02,0.000000000000000000e+00
7.059200000000000197e-02,2.148534158346511805e-03,-3.617559431600687707e-03,9.383464455604553223e-01,1.499932742528396930e-02,-6.721917828663936945e-03,2.842359197176665218e-03,-1.223811812389498203e-02,-1.833924841601638350e-02,1.947380416095256805e-02,-3.274165567820486178e-02,-2.930161810012460455e-02,2.652708563780186747e-03,-1.000000000000000056e-01,-5.122694951973635891e-02,8.100051823543674701e-03,0.000000000000000000e+00,0.000000000000000000e+00,0.000000000000000000e+00,5.152107988993331888e-01,-0.000000000000000000e+00,-1.461762189865112305e-01,1.004655530300410362e+02,0.000000000000000000e+00
9.684600000000000153e-02,2.040621378639216610e-03,-4.977462097261881914e-03,9.374156594276428223e-01,1.421657351812268683e-02,-6.653216183958532426e-03,2.653489891822926466e-03,-1.034885074868048538e-02,-1.666688131696535125e-02,1.513874344527721405e-02,-3.669028377665330826e-02,2.502203583757801886e-02,-1.808573718605697642e-02,-1.000000000000000056e-01,-4.856832925427240211e-02,7.555680271189191277e-03,0.000000000000000000e+00,0.000000000000000000e+00,0.000000000000000000e+00,5.156431745833078839e-01,-0.000000000000000000e+00,1.798177957534790039e-01,9.668839694732145063e+01,0.000000000000000000e+00
1.225460000000000022e-01,1.882948034385922885e-03,-6.248448086282732891e-03,9.360965490341186523e-01,1.284341214027882698e-02,-6.041370852475802522e-03,2.531915634232174625e-03,-3.639765081359585836e-03,-8.828807759407508379e-03,7.353790570050477982e-03,-3.585967065223862743e-02,7.632873141623911471e-03,1.386309593308737882e-02,-9.241762000884849726e-02,-3.961166132861337896e-02,7.187156241367786969e-03,0.000000000000000000e+00,0.000000000000000000e+00,0.000000000000000000e+00,5.163659093571685288e-01,-0.000000000000000000e+00,-1.583158969879150391e-02,1.052584811857465752e+02,0.000000000000000000e+00
1.479219999999999979e-01,1.550074678584774119e-03,-7.515530037737706490e-03,9.347126483917236328e-01,1.082504470755584446e-02,-4.486081418868748116e-03,2.286525521754810553e-03,-5.530175283890928148e-03,-1.194168907034298156e-02,-4.363503307104110718e-03,-1.062780080620253781e-01,9.912789208136438268e-02,-1.337512998367262548e-02,-8.371745048858404703e-02,-3.221164677922810221e-02,6.463073610066871755e-03,0.000000000000000000e+00,0.000000000000000000e+00,0.000000000000000000e+00,5.173949376096468322e-01,-0.000000000000000000e+00,7.864063978195190430e-01,-4.069549650898657234e+01,0.000000000000000000e+00
1.739539999999999975e-01,1.078996719589734622e-03,-8.674462597224178936e-03,9.330015778541564941e-01,8.459589899621904746e-03,-3.444540968598808206e-03,2.116143008357669608e-03,-1.728173442472334329e-02,-1.869880416893186098e-02,-1.691301539540290833e-02,-1.072483639668537214e-01,6.676255340303609287e-02,-1.809344284971019234e-02,-7.398362670064673186e-02,-3.482120200522099279e-02,5.966683038515496751e-03,0.000000000000000000e+00,0.000000000000000000e+00,0.000000000000000000e+00,5.185215865726754414e-01,-0.000000000000000000e+00,-2.494968175888061523e-01,9.641471126727904561e+01,0.000000000000000000e+00
1.983209999999999973e-01,7.076623008256856121e-04,-9.368833559476973452e-03,9.317458271980285645e-01,6.757176044575006167e-03,-2.793611819377872507e-03,2.326294161483806380e-03,4.689852629693487128e-04,2.875307582404516230e-03,-3.114161454141139984e-02,-3.443802587224401024e-02,-5.228554643492664376e-03,2.919455561848852479e-02,-4.534123827322896622e-02,-1.505696604846686396e-02,6.534820162419796574e-03,0.000000000000000000e+00,0.000000000000000000e+00,0.000000000000000000e+00,5.197470524269647285e-01,-0.000000000000000000e+00,-2.642565965652465820e-01,8.306796155356218492e+01,0.000000000000000000e+00
2.241070000000000007e-01,3.010086917315664651e-04,-1.026513082140676457e-02,9.295956492424011230e-01,3.623549400722561251e-03,-1.611366868498054217e-03,2.225774214247949918e-03,2.904072871619405288e-03,3.623897290225490831e-03,-4.301519691944122314e-02,-1.383072964311232167e-01,8.755655323081536212e-02,-1.907504388292342173e-02,-2.803862617358955645e-02,-8.269404397359909897e-03,6.237387527337767690e-03,0.000000000000000000e+00,0.000000000000000000e+00,0.000000000000000000e+00,5.208785044009910381e-01,-0.000000000000000000e+00,-4.542258977890014648e-01,8.774877898423113720e+01,0.000000000000000000e+00
2.455199999999999882e-01,2.827416683599354120e-05,-1.078932214315993579e-02,9.279681444168090820e-01,1.695322438763140812e-03,-1.162599402814601390e-03,2.349244928276703233e-03,-2.556582413338411019e-02,-1.709070135974859184e-02,-3.512194752693176270e-02,-1.125175173510138960e-01,4.332660199196538935e-03,-1.687674045463880695e-02,-3.228381885924597877e-02,-2.838618311703243816e-02,6.568222698045134145e-03,0.000000000000000000e+00,0.000000000000000000e+00,0.000000000000000000e+00,5.205228363504528222e-01,-0.000000000000000000e+00,-1.190167665481567383e-01,1.053762882885509526e+02,0.000000000000000000e+00
2.735690000000000066e-01,-9.864056683070363245e-04,-1.212294295632672728e-02,9.254881143569946289e-01,-4.096232312034001934e-04,-6.924667264613937334e-04,2.571085783066032887e-03,-1.514223988742140203e-02,-6.023641705637364230e-03,-5.043207481503486633e-02,-7.422244317776326150e-02,-1.795146977897030260e-02,4.802121924306987366e-02,-7.774026992754794023e-03,-1.367040092620794289e-02,7.193105022379187030e-03,0.000000000000000000e+00,0.000000000000000000e+00,0.000000000000000000e+00,5.219358744237263537e-01,-0.000000000000000000e+00,-2.503455877304077148e-01,1.103626542317404216e+02,0.000000000000000000e+00
3.004740000000000189e-01,-1.924514290048221984e-03,-1.330030546244141514e-02,9.227811694145202637e-01,-1.469269473234440177e-03,-2.840583393897144759e-04,2.347515534719325780e-03,1.796713133668524295e-03,-8.451040492158395792e-04,-5.411579832434654236e-02,1.718225131215592736e-03,-1.155860434996634593e-02,-3.094264849730731740e-03,8.166664961980121124e-04,1.867383977843434554e-04,6.573162404702515005e-03,0.000000000000000000e+00,0.000000000000000000e+00,0.000000000000000000e+00,5.225231150932232449e-01,-0.000000000000000000e+00,2.222176790237426758e-01,1.267449654088535596e+02,0.000000000000000000e+00
3.244630000000000014e-01,-2.472943289497177115e-03,-1.398962675027937488e-02,9.209687709808349609e-01,-2.322214851426121409e-03,1.305475157284963217e-04,2.204788653302941753e-03,-3.193117014104947769e-03,3.598932494886805146e-03,-6.358408182859420776e-02,-6.593658126596611824e-02,5.194749368445769795e-03,-4.754438704763074008e-03,8.673977280665393086e-03,-3.775197285698187865e-03,6.170719684401249072e-03,0.000000000000000000e+00,0.000000000000000000e+00,0.000000000000000000e+00,5.234769138290351620e-01,-0.000000000000000000e+00,9.850656986236572266e-02,1.251746912582892861e+02,0.000000000000000000e+00
3.500460000000000238e-01,-3.038011567356036034e-03,-1.457721548327696459e-02,9.190797209739685059e-01,-2.864221925262261468e-03,6.453159370638505976e-04,2.253609065228607839e-03,-2.258977858724686531e-03,6.516592331428860789e-03,-7.990143448114395142e-02,-2.144303585607116105e-02,1.430761156731598371e-02,4.642826671689073703e-02,1.347942781764205171e-02,6.647008366973451449e-04,6.310631290466217624e-03,0.000000000000000000e+00,0.000000000000000000e+00,0.000000000000000000e+00,5.249496670184888858e-01,0.000000000000000000e+00,-3.259347677230834961e-01,1.039997251330374155e+02,0.000000000000000000e+00
3.749799999999999800e-01,-3.790335453636086739e-03,-1.461666724929353185e-02,9.171102046966552734e-01,-3.600169791617833202e-03,1.259598733424960315e-03,2.089270618501628662e-03,-6.288882814892834613e-03,9.995599802339497769e-03,-7.751427590847015381e-02,-4.842556131442691397e-02,7.386770162185357647e-02,-2.805053662612912516e-02,2.052059520135028278e-02,9.140382240073308519e-04,5.850751576060631010e-03,0.000000000000000000e+00,0.000000000000000000e+00,0.000000000000000000e+00,5.250669666724246953e-01,-0.000000000000000000e+00,-5.026448965072631836e-01,1.715747071205571501e+02,0.000000000000000000e+00
4.010170000000000123e-01,-4.752158335852132813e-03,-1.421036405613672511e-02,9.153146743774414062e-01,-4.074047724719987058e-03,1.268941133950152178e-03,2.171118160806860542e-03,-3.036315914381095948e-03,1.571091757613408274e-02,-7.509012520313262939e-02,3.492653996080303386e-02,-3.760077412819601284e-02,1.881564247599865763e-02,2.779100434906493777e-02,3.469913439630794259e-03,6.082020276448274476e-03,0.000000000000000000e+00,0.000000000000000000e+00,0.000000000000000000e+00,5.251681033578285973e-01,-0.000000000000000000e+00,-5.131161212921142578e-02,7.553500738965765038e+01,0.000000000000000000e+00
4.240180000000000060e-01,-5.644322164418525897e-03,-1.371303904123003306e-02,9.133851528167724609e-01,-4.674829247019347822e-03,1.420827779809563651e-03,2.266794905394792052e-03,-9.501272766275393675e-03,2.056138257396669319e-02,-9.647145867347717285e-02,-5.019750711108473401e-02,3.110323169065620785e-02,2.696751218326190816e-02,3.496158183495549909e-02,-1.545560289443968435e-03,6.345688288926065734e-03,0.000000000000000000e+00,0.000000000000000000e+00,0.000000000000000000e+00,5.270281167994201876e-01,-0.000000000000000000e+00,-1.559034585952758789e-01,3.646172178968412680e+01,0.000000000000000000e+00
4.492120000000000002e-01,-6.534139558117223884e-03,-1.317848186615069341e-02,9.115509390830993652e-01,-4.950609356932271846e-03,1.219935286467244140e-03,2.166446097696312668e-03,-6.806009254614538671e-03,2.294736996812500943e-02,-8.594738692045211792e-02,-2.848500112274750598e-03,5.138833589204389908e-03,5.576173701695213460e-03,3.827096104412998356e-02,-4.496508489217859554e-04,6.065647171016819161e-03,0.000000000000000000e+00,0.000000000000000000e+00,0.000000000000000000e+00,5.265581324741700486e-01,0.000000000000000000e+00,-3.333717584609985352e-01,1.289092064700204787e+02,0.000000000000000000e+00
4.730869999999999798e-01,-7.360913343243487630e-03,-1.251150125591028207e-02,9.096856117248535156e-01,-5.051036734634411531e-03,1.047072869705623077e-03,2.110253960043170264e-03,-2.009527837281351991e-03,2.605606052332605505e-02,-8.764564245939254761e-02,1.475366438258003676e-02,-1.426616517713421781e-02,-1.122815684199316745e-02,4.142229460351872644e-02,1.234983632709180882e-03,5.909691153243745720e-03,0.000000000000000000e+00,0.000000000000000000e+00,0.000000000000000000e+00,5.269797235899882359e-01,-0.000000000000000000e+00,-5.845086574554443359e-01,1.161055660783463566e+02,0.000000000000000000e+00
4.961220000000000074e-01,-8.114679539354654331e-03,-1.188841212706467400e-02,9.080600142478942871e-01,-4.681987949484563323e-03,6.480636957282293054e-04,2.062479638217851706e-03,1.976431921230965057e-03,3.296130132284389586e-02,-9.025119245052337646e-02,4.635182293047672430e-02,-5.406288251020792412e-02,2.743198297372688096e-02,4.433866623005945640e-02,5.838461005132663910e-04,5.775252289328902666e-03,0.000000000000000000e+00,0.000000000000000000e+00,0.000000000000000000e+00,5.274536910391649513e-01,-0.000000000000000000e+00,4.407509565353393555e-01,1.590853510533519852e+02,0.000000000000000000e+00
5.226880000000000415e-01,-8.778657851024841349e-03,-9.158293217822974577e-03,9.055185317993164062e-01,-3.973411436163433973e-03,5.962971708817210725e-04,1.728354583312538767e-03,2.919516529205162477e-04,3.802313245053909330e-02,-9.314244985580444336e-02,3.136456523632989019e-02,2.406792738774572032e-02,-3.265097675247813358e-02,4.436834787766699012e-02,-2.020518806880966349e-03,4.838898485746478961e-03,0.000000000000000000e+00,0.000000000000000000e+00,0.000000000000000000e+00,5.280195310007479437e-01,-0.000000000000000000e+00,-4.066525697708129883e-01,-3.858542909322161041e+00,0.000000000000000000e+00
5.481399999999999606e-01,-9.165379952305693911e-03,-5.624936912974482124e-03,9.033331274986267090e-01,-3.144656133880096259e-03,1.048195200953783157e-03,1.568584789543755933e-03,-3.466049464203673457e-03,4.052876947063790286e-02,-9.434447437524795532e-02,2.499506362230602408e-02,3.925579164060524762e-02,1.323997867093831783e-03,4.240796333212856761e-02,-1.995296206981288581e-03,4.392135390572093900e-03,0.000000000000000000e+00,0.000000000000000000e+00,0.000000000000000000e+00,5.284401622052014025e-01,-0.000000000000000000e+00,-3.812817335128784180e-01,1.469733629377900286e+02,0.000000000000000000e+00
5.706759999999999611e-01,-9.350584702355458841e-03,-3.251095877089790406e-03,9.018006324768066406e-01,-2.450245117826499192e-03,1.309227507341637065e-03,1.585217277871961211e-03,7.291385312463900294e-03,5.196366391332998824e-02,-1.010444834828376770e-01,4.642439471973248966e-02,8.243162196617030008e-03,1.652308994712995902e-02,4.783141097578985645e-02,8.391273145676851966e-03,4.434180170143076083e-03,0.000000000000000000e+00,0.000000000000000000e+00,0.000000000000000000e+00,5.292192056284070745e-01,-0.000000000000000000e+00,-2.798739671707153320e-01,5.641827437455952321e+01,0.000000000000000000e+00
5.979929999999999968e-01,-9.595919640339135512e-03,3.094516067831474659e-04,9.000756740570068359e-01,-1.898559282216208703e-03,1.528725016759269195e-03,1.407871769326686333e-03,1.618501950929010849e-02,6.394368188024143751e-02,-9.909982234239578247e-02,2.841519995562285725e-02,-1.233088798018789310e-02,-2.230777379984498921e-03,5.414439391693922493e-02,1.501311044145593396e-02,3.927413522481604247e-03,0.000000000000000000e+00,0.000000000000000000e+00,0.000000000000000000e+00,5.293883122222619031e-01,-0.000000000000000000e+00,4.375282526016235352e-01,-5.076304166632904291e+00,0.000000000000000000e+00
6.227810000000000290e-01,-1.010170174495102040e-02,3.882092197248233987e-03,8.983170390129089355e-01,-1.164342023556147769e-03,1.824938438028000931e-03,1.450057034492827903e-03,6.148239712135943752e-03,6.709170726773069915e-02,-1.075148582458496094e-01,-2.755491393718236329e-02,6.047561326149206162e-02,1.320449899187892649e-02,5.236901504232845811e-02,7.709613727523153409e-03,4.050690219782937529e-03,0.000000000000000000e+00,0.000000000000000000e+00,0.000000000000000000e+00,5.303145342065608281e-01,0.000000000000000000e+00,5.100795030593872070e-01,7.224448862492313594e+01,0.000000000000000000e+00
6.509310000000000374e-01,-1.075773440060511822e-02,7.404976075828421413e-03,8.967721462249755859e-01,-2.637669188449418868e-04,1.248106052256447995e-03,1.349952028318275425e-03,-5.296192983890979887e-03,5.853546107466370274e-02,-1.005839779973030090e-01,1.411284766853112931e-02,-1.988935137216292851e-02,-1.945418476169897409e-02,4.188825534289015301e-02,-3.839799179415656454e-03,3.784789777470154437e-03,0.000000000000000000e+00,0.000000000000000000e+00,0.000000000000000000e+00,5.301110789470147022e-01,-0.000000000000000000e+00,5.674850940704345703e-02,1.230427296711398384e+02,0.000000000000000000e+00
6.714590000000000281e-01,-1.118065294484003706e-02,9.803374634565591161e-03,8.956225514411926270e-01,7.645754968692256449e-04,9.080862250714361039e-04,1.332485345045201835e-03,1.702069735141152965e-02,7.962202592630894527e-02,-1.078211963176727295e-01,9.869223276493099828e-02,-4.316072808152220108e-02,1.748453130895307600e-02,5.409291957634103365e-02,1.238563554315595672e-02,3.704765493596329229e-03,0.000000000000000000e+00,0.000000000000000000e+00,0.000000000000000000e+00,5.309164646325467141e-01,-0.000000000000000000e+00,7.337987422943115234e-02,8.128778202942508813e+01,0.000000000000000000e+00
6.977200000000000069e-01,-1.160157563631135542e-02,1.337957574595603424e-02,8.943735361099243164e-01,2.275350351929267614e-03,9.186820508981785594e-04,9.204913262699276942e-04,1.596898743057118680e-02,8.342898448765979913e-02,-1.057185977697372437e-01,6.305941179881364989e-02,4.798187260931377485e-02,-5.302529586160904806e-02,4.667238474380132340e-02,8.294883840986885457e-03,2.556491630219703826e-03,0.000000000000000000e+00,0.000000000000000000e+00,0.000000000000000000e+00,5.310487180460233825e-01,-0.000000000000000000e+00,-2.684122323989868164e-01,9.910195357357217461e+01,0.000000000000000000e+00
7.239349999999999952e-01,-1.198289162579862718e-02,1.582002298637013443e-02,8.928834199905395508e-01,4.212079428788289247e-03,9.837177980038802616e-04,6.439487560917314148e-04,2.325081895493090814e-03,7.361036732355875911e-02,-9.769958257675170898e-02,2.490706387775186090e-02,1.415023496306728155e-02,2.377894493363604499e-03,2.787329768314302653e-02,-1.817279567401798275e-03,1.808081417915274880e-03,0.000000000000000000e+00,0.000000000000000000e+00,0.000000000000000000e+00,5.307624413464823165e-01,-0.000000000000000000e+00,1.767853498458862305e-01,1.142809425132799817e+02,0.000000000000000000e+00
7.468900000000000539e-01,-1.226796560523315920e-02,1.590309597936069227e-02,8.921833038330078125e-01,5.833814166372147496e-03,1.011568059394063468e-03,4.742501988320658372e-04,2.300006533200616918e-02,8.081193028279030910e-02,-9.895486384630203247e-02,7.914116014060783300e-02,-2.821006841711938898e-02,2.579670688078725474e-02,2.450991702893831961e-02,1.589699648181679137e-02,1.275087667529373192e-03,0.000000000000000000e+00,0.000000000000000000e+00,0.000000000000000000e+00,5.310953757069042380e-01,-0.000000000000000000e+00,-6.459224224090576172e-02,9.192828102038865268e+01,0.000000000000000000e+00
7.738129999999999731e-01,-1.261125134520359875e-02,1.599898754411253898e-02,8.914807438850402832e-01,8.340982709685886703e-03,1.367686723778405167e-03,1.775791369857000746e-04,1.702503259489439313e-02,8.206128358856303040e-02,-7.341191172599792480e-02,1.301279141813308227e-01,-7.926738589580198694e-04,-3.689380420751625644e-02,8.861904864111277633e-03,1.058484219235320510e-02,4.561023222640625541e-04,0.000000000000000000e+00,0.000000000000000000e+00,0.000000000000000000e+00,5.294700606762007267e-01,-0.000000000000000000e+00,-1.664634943008422852e-01,9.430761839889761688e+01,0.000000000000000000e+00
7.963940000000000463e-01,-1.282814961174230488e-02,1.614479950335578548e-02,8.912626504898071289e-01,9.483208576911076118e-03,1.689050035803107974e-03,4.249471901418608430e-05,4.700079151635637442e-03,7.876240990488156402e-02,-8.013619482517242432e-02,5.795467481653406028e-02,3.581409562853738685e-03,-8.347561566252563806e-03,-9.682082566701925028e-04,3.920348814569426382e-03,1.031007630559743760e-04,0.000000000000000000e+00,0.000000000000000000e+00,0.000000000000000000e+00,5.301425916743360833e-01,-0.000000000000000000e+00,1.101678609848022461e-01,7.375241680874353278e+01,0.000000000000000000e+00
8.221230000000000482e-01,-1.306625932571350152e-02,1.646695146993517461e-02,8.911828398704528809e-01,1.090742290367843065e-02,1.597234761559374050e-03,-1.273013870129166612e-04,1.185276396354219622e-02,7.327120448368576455e-02,-6.621231138706207275e-02,5.383817374043280146e-02,-2.634293088114858863e-02,-9.284196378318234147e-03,-1.331927003032081294e-02,1.035810000042297792e-02,-4.005572589189099197e-04,0.000000000000000000e+00,0.000000000000000000e+00,0.000000000000000000e+00,5.293016349811086041e-01,-0.000000000000000000e+00,-5.465775728225708008e-01,1.274809046315440924e+02,0.000000000000000000e+00
8.494639999999999969e-01,-1.308099067172792916e-02,1.730308547347008188e-02,8.909384012222290039e-01,1.260216934702454786e-02,1.334739978029908514e-03,-1.180082502316023922e-04,1.475033732578486141e-02,7.516409865045536876e-02,-7.583458721637725830e-02,6.023428116799539600e-02,-1.797635742750808632e-02,2.699663832586842588e-02,-2.145495332475655381e-02,9.867411777555542066e-03,-3.769922986540108489e-04,0.000000000000000000e+00,0.000000000000000000e+00,0.000000000000000000e+00,5.301840307719796197e-01,-0.000000000000000000e+00,5.977666378021240234e-02,1.075778904844778481e+02,0.000000000000000000e+00
8.708040000000000225e-01,-1.307538188606018580e-02,1.774828175176769440e-02,8.909695148468017578e-01,1.373284027738679892e-02,1.019415947218327290e-03,-2.695834614239648978e-04,1.798330585417190139e-02,7.759252046165629468e-02,-7.424135506153106689e-02,6.371779810821942558e-02,-1.009281846106105385e-02,7.553721166009813755e-03,-2.662761189726944172e-02,9.895780789599099500e-03,-8.046853157092082043e-04,0.000000000000000000e+00,0.000000000000000000e+00,0.000000000000000000e+00,5.302353121132524771e-01,-0.000000000000000000e+00,-2.141869068145751953e-02,1.036431004659035437e+02,0.000000000000000000e+00
8.964109999999999578e-01,-1.299491996326647587e-02,1.873633265812544441e-02,8.908435106277465820e-01,1.534342244018392989e-02,1.639516121629824852e-04,-4.490176080990209676e-04,2.256190421437332186e-02,8.329038186818887857e-02,-7.132452726364135742e-02,6.367460571456214080e-02,-6.012482978335039613e-02,-6.297410804823665859e-03,-3.213335939317621404e-02,7.452125606363268172e-03,-1.298651411609619277e-03,0.000000000000000000e+00,0.000000000000000000e+00,0.000000000000000000e+00,5.302015225925090780e-01,-0.000000000000000000e+00,1.693261861801147461e-01,9.460982011872482644e+01,0.000000000000000000e+00
9.221019999999999772e-01,-1.289214057610945166e-02,1.965636780814283835e-02,8.910150527954101562e-01,1.689235288397378590e-02,7.958014888242992413e-05,-7.339482114131905570e-04,1.418955047115952502e-02,7.310661231770390622e-02,-6.708037108182907104e-02,5.809582336424239796e-03,6.024785173382792014e-02,-3.354930696564625836e-02,-4.988782613966917523e-02,-8.476410939797459666e-05,-2.054694957091762753e-03,0.000000000000000000e+00,0.000000000000000000e+00,0.000000000000000000e+00,5.300396585100028979e-01,-0.000000000000000000e+00,1.837722063064575195e-01,8.662640131867962623e+01,0.000000000000000000e+00
9.482570000000000165e-01,-1.262474141785791155e-02,2.038623440778085383e-02,8.912503719329833984e-01,1.809657393917449633e-02,-2.504883637581833966e-04,-1.010836750054297517e-03,9.048895192247316532e-03,6.309364880345758042e-02,-5.585641786456108093e-02,4.490535406119552236e-02,-1.752197795356929058e-02,-6.531052873892304739e-03,-6.312087491938990491e-02,-4.866260038371971255e-03,-2.802730162559219362e-03,0.000000000000000000e+00,0.000000000000000000e+00,0.000000000000000000e+00,5.293605052964728275e-01,-0.000000000000000000e+00,-4.101455211639404297e-02,9.444323863505739780e+01,0.000000000000000000e+00
9.710990000000000455e-01,-1.239841819340943910e-02,2.090221450186695307e-02,8.913532495498657227e-01,1.883829058571567447e-02,-1.109268017074338530e-04,-1.058705502741157144e-03,3.393191295928801865e-02,8.152880064021578166e-02,-7.373410463333129883e-02,9.068477648292905605e-03,-6.272712673922193824e-03,3.307214616619623404e-02,-5.204063943052421315e-02,1.594646252173947606e-02,-3.066501675654309533e-03,0.000000000000000000e+00,0.000000000000000000e+00,0.000000000000000000e+00,5.308183228181823088e-01,-0.000000000000000000e+00,-6.869399547576904297e-02,9.659036324216425839e+01,0.000000000000000000e+00
9.991130000000000289e-01,-1.192041037264139278e-02,2.182839817017516448e-02,8.916770219802856445e-01,1.971033442071320335e-02,1.686693868614419500e-04,-1.581259649401099525e-03,3.229283238473294737e-02,7.756882879259587027e-02,-6.278838962316513062e-02,5.502001828960186025e-02,-3.160861580107762747e-02,-2.233358049236080362e-02,-6.227931780419270619e-02,1.338756774535541580e-02,-4.513874884603363835e-03,0.000000000000000000e+00,0.000000000000000000e+00,0.000000000000000000e+00,5.301589912352339118e-01,-0.000000000000000000e+00,1.848467588424682617e-01,-6.328830062290636960e+01,0.000000000000000000e+00
1.022420000000000107e+00,-1.164487458629249149e-02,2.241204989933394051e-02,8.917151689529418945e-01,1.943769660325935303e-02,2.963735181589211010e-04,-1.719872663485396943e-03,1.668141883676803328e-02,7.093522925459490314e-02,-5.786778405308723450e-02,-3.361696604518286946e-02,-1.775899159702961846e-02,-1.272031988043867412e-02,-6.433323356579363772e-02,2.692633951223758013e-03,-4.832758893175914672e-03,0.000000000000000000e+00,0.000000000000000000e+00,0.000000000000000000e+00,5.299504136703991897e-01,-0.000000000000000000e+00,-9.262573719024658203e-02,7.142955826448141465e+01,0.000000000000000000e+00
1.051355999999999957e+00,-1.116659833172630595e-02,2.344995876246545180e-02,8.918651938438415527e-01,1.915428183145391830e-02,-2.172877778057191733e-04,-1.942005876466002543e-03,1.738112168624704468e-02,6.892884078343834708e-02,-5.411017313599586487e-02,1.278833990037210599e-02,-4.422783739075572540e-02,-2.291187384889879081e-02,-6.213344783493254808e-02,2.362537385578233895e-03,-5.452594267220167712e-03,0.000000000000000000e+00,0.000000000000000000e+00,0.000000000000000000e+00,5.298168744960350951e-01,-0.000000000000000000e+00,-3.628252744674682617e-01,1.341288233733658899e+02,0.000000000000000000e+00
1.074886999999999926e+00,-1.084972210887354474e-02,2.429708257197111740e-02,8.919103741645812988e-01,1.858969917253613588e-02,-5.839816098365258057e-04,-2.030581600326023320e-03,2.722084570647183982e-02,7.394401811310596928e-02,-5.072480067610740662e-02,-2.183212633651359855e-02,-2.361461515497782770e-02,-9.665255735127952635e-03,-5.347035992949437933e-02,7.647523078780193995e-03,-5.733714661819433456e-03,0.000000000000000000e+00,0.000000000000000000e+00,0.000000000000000000e+00,5.297174522837923005e-01,-0.000000000000000000e+00,-3.682714700698852539e-01,-8.776092989076458650e+01,0.000000000000000000e+00
1.098179999999999934e+00,-1.025167696530067396e-02,2.563773099939049144e-02,8.919627666473388672e-01,1.772105925374205943e-02,-1.068874129136920814e-03,-2.277095325795655024e-03,3.055558073717532311e-02,7.010199677624982806e-02,-5.952194333076477051e-02,-1.600612295330290646e-02,-1.986422000101134219e-02,1.013408837353352819e-03,-5.048130519536600525e-02,6.058500875471103247e-03,-6.412384742880139488e-03,0.000000000000000000e+00,0.000000000000000000e+00,0.000000000000000000e+00,5.304999906671428178e-01,-0.000000000000000000e+00,3.697797060012817383e-01,4.497651906187257964e+01,0.000000000000000000e+00
1.122592999999999952e+00,-9.608287960550881968e-03,2.685307073916786899e-02,8.924479484558105469e-01,1.714348236511861051e-02,-1.662357142895531936e-03,-2.688310806195218401e-03,3.872287471534956171e-02,7.725755470419336246e-02,-4.779304191470146179e-02,3.041751200282661813e-02,-4.110532272567587325e-02,-2.760202806286578964e-02,-3.947264572455325832e-02,8.454975286779166377e-03,-7.579183815102252808e-03,0.000000000000000000e+00,0.000000000000000000e+00,0.000000000000000000e+00,5.297656043712916096e-01,-0.000000000000000000e+00,-2.208673954010009766e-02,8.153379861313976562e+01,0.000000000000000000e+00
1.150511000000000061e+00,-8.990152162808599454e-03,2.820561698061007858e-02,8.927637338638305664e-01,1.635810589967269871e-02,-1.578989816267251101e-03,-3.113058102569421851e-03,3.442472009669571981e-02,7.477488622857250689e-02,-5.127235874533653259e-02,-7.997908584454554992e-02,2.829587494258235802e-02,-2.423670271495174250e-02,-3.618851042011357599e-02,4.980736198005405839e-03,-8.746278437760601765e-03,0.000000000000000000e+00,0.000000000000000000e+00,0.000000000000000000e+00,5.301370280343353780e-01,-0.000000000000000000e+00,-8.143675327301025391e-02,8.111262182816010124e+01,0.000000000000000000e+00
1.176698000000000022e+00,-8.466059313476732157e-03,2.965249324713369397e-02,8.934478759765625000e-01,1.583573470319216137e-02,-1.549772485504252728e-03,-3.524528595893918707e-03,2.367569814730668271e-02,6.670226915703666992e-02,-4.754147306084632874e-02,-2.886308928950923752e-02,5.957404092797662261e-03,-1.321004678257248210e-02,-3.740694757588144959e-02,-2.092497658643336072e-03,-9.857609790678123485e-03,0.000000000000000000e+00,0.000000000000000000e+00,0.000000000000000000e+00,5.299560359306575430e-01,-0.000000000000000000e+00,-1.308357715606689453e-02,9.793030292334819364e+01,0.000000000000000000e+00
1.206862000000000101e+00,-7.823315268520907723e-03,3.122475999066066585e-02,8.940425515174865723e-01,1.489816647836725988e-02,-1.494569050562111201e-03,-4.054300942411560513e-03,3.087465681056372757e-02,6.054057354245075129e-02,-3.463257849216461182e-02,-6.142801876187833909e-02,-3.231878173137184285e-02,1.130948185564843722e-02,-3.346325221780270531e-02,5.749524104003769787e-03,-1.138318984408448475e-02,0.000000000000000000e+00,0.000000000000000000e+00,0.000000000000000000e+00,5.291092147663639667e-01,-0.000000000000000000e+00,2.258006334304809570e-01,1.222951108249685888e+02,0.000000000000000000e+00
1.228428999999999993e+00,-7.409609552939021987e-03,3.217499503473165989e-02,8.947502374649047852e-01,1.421293304584144053e-02,-1.553636406695035888e-03,-4.401622208912324072e-03,4.743837755460669076e-02,7.465846424487157518e-02,-4.763848707079887390e-02,-3.484618473136170264e-02,4.429029686863952819e-02,-5.330615325387539488e-02,-1.657166710588801883e-02,1.729710651774828481e-02,-1.242175060523093011e-02,0.000000000000000000e+00,0.000000000000000000e+00,0.000000000000000000e+00,5.301457068462452904e-01,-0.000000000000000000e+00,-5.158936977386474609e-01,6.813811230156706422e+00,0.000000000000000000e+00
1.253413000000000110e+00,-6.978316927903659324e-03,3.323142817148509731e-02,8.953440785408020020e-01,1.322226747282255130e-02,-1.744559714435656161e-03,-4.583605260609327665e-03,2.609140895809886410e-02,6.217794637612630154e-02,-2.584073506295681000e-02,-4.339488532667169080e-02,-4.859122284777157852e-02,-3.897427106422769738e-02,-2.046028549214290101e-02,-2.178752164195311373e-03,-1.282388300277959026e-02,0.000000000000000000e+00,0.000000000000000000e+00,0.000000000000000000e+00,5.286395016015358328e-01,-0.000000000000000000e+00,-8.819854259490966797e-02,9.988586804499288974e+01,0.000000000000000000e+00
1.271662999999999988e+00,-6.573599362634172973e-03,3.459777970768879857e-02,8.964872360229492188e-01,1.217329560492606995e-02,-2.464940233055656904e-03,-4.902510057195983741e-03,3.023129236046796786e-02,6.654835413979538761e-02,-3.174336999654769897e-02,-3.215353785309123247e-02,-5.238808375064094025e-02,1.865567496385113835e-02,-7.439567534313189408e-03,-4.244796507999525699e-04,-1.372573556773004633e-02,0.000000000000000000e+00,0.000000000000000000e+00,0.000000000000000000e+00,5.291112346942378197e-01,-0.000000000000000000e+00,-9.367620944976806641e-02,1.892212043507695896e+01,0.000000000000000000e+00
1.301406999999999980e+00,-6.110225660480614156e-03,3.613628553634961466e-02,8.975858688354492188e-01,1.135986731460746947e-02,-3.395308204630520521e-03,-5.302163447259985486e-03,4.523205246852749634e-02,7.326161588133231484e-02,-3.185195848345756531e-02,6.965951664338784462e-04,-8.391600362305909333e-02,-1.869044512378646716e-02,3.723151614191897493e-03,4.812045854022905383e-03,-1.487110218498050029e-02,0.000000000000000000e+00,0.000000000000000000e+00,0.000000000000000000e+00,5.291679419402836038e-01,-0.000000000000000000e+00,2.549501657485961914e-01,-6.629324917844265030e+01,0.000000000000000000e+00
1.328047999999999895e+00,-5.561251294089831175e-03,3.757588180539325057e-02,8.989509940147399902e-01,1.069788406230186978e-02,-3.767791925469277103e-03,-5.934851954796913943e-03,4.069327079712108802e-02,6.765199157383358641e-02,-2.773816511034965515e-02,7.420909453398453169e-03,1.706534455574312131e-02,-2.031477579814699314e-02,4.060870670513201663e-03,-2.744257147265282380e-03,-1.660550867442023293e-02,0.000000000000000000e+00,0.000000000000000000e+00,0.000000000000000000e+00,5.288864522357501485e-01,-0.000000000000000000e+00,2.113529443740844727e-01,-6.970850085779993321e+00,0.000000000000000000e+00
1.349857000000000085e+00,-5.133006747523642666e-03,3.859094437711475117e-02,8.999623060226440430e-01,1.035783629850402059e-02,-3.861839203753270056e-03,-6.484533583035896262e-03,4.298890783682901562e-02,7.448717100228026411e-02,-2.470047958195209503e-02,-1.176030652994036231e-03,-2.052151009754710816e-03,-5.879392970490954912e-02,1.336439450298988231e-02,-6.293573053143294675e-04,-1.815476618502070982e-02,0.000000000000000000e+00,0.000000000000000000e+00,0.000000000000000000e+00,5.287128300868817465e-01,-0.000000000000000000e+00,2.117396593093872070e-01,6.874647554339280475e+01,0.000000000000000000e+00
1.376414000000000026e+00,-4.431278165155906612e-03,3.998504447398310707e-02,9.021928310394287109e-01,1.024931754004551610e-02,-3.527789181843932198e-03,-7.288498011415771999e-03,4.223533514108469833e-02,7.972104215101701030e-02,-3.043932281434535980e-02,4.800639329022869488e-03,4.744945428449765662e-03,7.046591934795392621e-03,1.829376271364598766e-02,1.080654865035211767e-03,-2.041464452080937741e-02,0.000000000000000000e+00,0.000000000000000000e+00,0.000000000000000000e+00,5.290863948449608944e-01,-0.000000000000000000e+00,2.808700799942016602e-01,8.079775010742251595e+01,0.000000000000000000e+00
1.402155000000000040e+00,-3.975132696391588637e-03,4.082085591671907182e-02,9.032303094863891602e-01,1.022175615218590301e-02,-3.276606985388452742e-03,-7.848056670664774540e-03,3.496703408547943009e-02,6.390309484708968368e-02,-1.589901186525821686e-02,-1.883165527815826214e-03,2.636140941113175595e-02,-2.640886237327269917e-02,6.668912041528779477e-03,-2.286981301448760915e-03,-2.196520904711091182e-02,0.000000000000000000e+00,0.000000000000000000e+00,0.000000000000000000e+00,5.280548806796919736e-01,-0.000000000000000000e+00,-5.144584178924560547e-02,1.212275932388306217e+02,0.000000000000000000e+00
1.421335000000000015e+00,-3.344314288309818001e-03,4.194446993791774853e-02,9.048970341682434082e-01,1.018031849170993389e-02,-3.508415717389246069e-03,-8.310139395581568611e-03,3.616504585484160011e-02,6.908122164781013708e-02,-2.135946415364742279e-02,2.662379035200296631e-02,-7.306407973196737959e-02,-2.026455273954580840e-04,1.413290965046961473e-02,-1.462792447710375369e-03,-2.326278495059691531e-02,0.000000000000000000e+00,0.000000000000000000e+00,0.000000000000000000e+00,5.284407369871779725e-01,-0.000000000000000000e+00,-6.873654723167419434e-01,9.083079939436183281e+01,0.000000000000000000e+00
1.448711000000000082e+00,-2.753265341806951632e-03,4.310516100998582761e-02,9.065610170364379883e-01,1.013405964489397237e-02,-3.764470692959820397e-03,-8.896382588841709321e-03,4.548820686211009490e-02,7.485277048183130999e-02,-6.173505913466215134e-03,6.374851859144389787e-02,-3.219603280276993329e-02,-3.433314942628044181e-02,1.959064641825929848e-02,4.387930901657734542e-03,-2.493354025792759998e-02,0.000000000000000000e+00,0.000000000000000000e+00,0.000000000000000000e+00,5.273174354461505065e-01,-0.000000000000000000e+00,-1.271528005599975586e-01,9.610121241456462826e+01,0.000000000000000000e+00
1.474553999999999920e+00,-2.257619792676426439e-03,4.383591787609145835e-02,9.081828594207763672e-01,1.038676304841025175e-02,-4.219622194979733010e-03,-9.293448562336692129e-03,4.919739964769759971e-02,8.023589507847581070e-02,-1.193525083363056183e-02,3.358817307963000987e-02,-4.321977224177018378e-02,-3.429045776929825844e-04,2.207766518497552427e-02,3.336057712518996406e-03,-2.604090463261088395e-02,0.000000000000000000e+00,0.000000000000000000e+00,0.000000000000000000e+00,5.277156761222883130e-01,-0.000000000000000000e+00,-1.002281904220581055e-01,9.846347432014856338e+01,0.000000000000000000e+00
1.504421000000000008e+00,-1.841450846212742574e-03,4.442105684915506614e-02,9.093456268310546875e-01,1.047615349682452270e-02,-4.330229370805627198e-03,-9.784116074688774950e-03,3.210141098386452146e-02,6.248360953623499636e-02,-5.139167886227369308e-03,-4.542205678362489646e-02,-1.889406081526655290e-02,-1.522437174990924277e-02,7.815845899928897111e-03,-1.062262140289258264e-02,-2.734648830835018085e-02,0.000000000000000000e+00,0.000000000000000000e+00,0.000000000000000000e+00,5.272154711179023456e-01,-0.000000000000000000e+00,-2.045048475265502930e-01,3.881073312827823685e+01,0.000000000000000000e+00
1.530512000000000095e+00,-1.199482552968468303e-03,4.531298662243792019e-02,9.109337329864501953e-01,1.120434364596044341e-02,-4.457948191342042676e-03,-1.040167505456437470e-02,4.066064197858684087e-02,6.768068860734863246e-02,9.426248259842395782e-03,8.424576101501453362e-02,-5.351625506352965939e-02,-2.920606648271116892e-02,1.087494090366920851e-02,-1.951850630373461529e-03,-2.911655195884910174e-02,0.000000000000000000e+00,0.000000000000000000e+00,0.000000000000000000e+00,5.261240611518555044e-01,-0.000000000000000000e+00,-2.035506963729858398e-01,6.969876100804350472e+01,0.000000000000000000e+00
1.551652000000000031e+00,-5.491567075417602868e-04,4.629381170461713269e-02,9.125704169273376465e-01,1.193158291838733280e-02,-4.106470726428446127e-03,-1.102529854590723717e-02,4.466271151406914219e-02,7.148286112648533086e-02,-2.999870805069804192e-03,2.893672618513096900e-02,1.993577259974523529e-03,4.673588438220793208e-03,9.161864331890246654e-03,2.600156472789776681e-03,-3.088724991593883029e-02,0.000000000000000000e+00,0.000000000000000000e+00,0.000000000000000000e+00,5.269920527931526433e-01,-0.000000000000000000e+00,2.416025400161743164e-01,9.750176319444325657e+01,0.000000000000000000e+00
1.576599000000000084e+00,-1.068024688712514473e-04,4.799175998595235637e-02,9.142619371414184570e-01,1.283528918157938320e-02,-3.512971421783417370e-03,-1.159178069409313311e-02,4.609747808089554449e-02,7.937087446286718306e-02,-2.474113600328564644e-03,5.791630662423179893e-02,-2.255241925289766958e-03,-3.879735955881198628e-02,1.033173264692496471e-02,7.308223449346528712e-03,-3.250270835096424893e-02,0.000000000000000000e+00,0.000000000000000000e+00,0.000000000000000000e+00,5.269175855877520354e-01,-0.000000000000000000e+00,-9.260594844818115234e-02,1.333232981834112536e+02,0.000000000000000000e+00
1.597428999999999988e+00,-4.095619216817028465e-05,4.917421989410582228e-02,9.153937697410583496e-01,1.318488769855034014e-02,-3.229707321176444879e-03,-1.187489900323234794e-02,3.668186940144896324e-02,7.363659699758609567e-02,1.038431189954280853e-03,-8.041021591744681660e-03,9.857200755726621896e-03,1.778148190759888322e-02,3.660125186725560111e-03,1.877114401134822664e-03,-3.326343340553200578e-02,0.000000000000000000e+00,0.000000000000000000e+00,0.000000000000000000e+00,5.266528102022344227e-01,0.000000000000000000e+00,7.958972454071044922e-02,9.865954173046294784e+01,0.000000000000000000e+00
1.622703000000000007e+00,2.708848328186673178e-04,5.119155003075633037e-02,9.169895648956298828e-01,1.349978932446252444e-02,-3.448235628500384564e-03,-1.228112570291950596e-02,4.946803764497369887e-02,7.899836455537107005e-02,-4.097713157534599304e-03,1.998731591483053280e-02,-2.618987327160495274e-02,-2.710212651678959792e-02,8.250020089670510870e-03,1.188168374910843553e-02,-3.446256196901381630e-02,0.000000000000000000e+00,0.000000000000000000e+00,0.000000000000000000e+00,5.269969337699008660e-01,-0.000000000000000000e+00,-1.252723932266235352e-01,9.730771752012319098e+01,0.000000000000000000e+00
1.650622999999999951e+00,5.681856572850203790e-04,5.312341812648842254e-02,9.186499118804931641e-01,1.391723648341659271e-02,-3.737017818083110399e-03,-1.269171505845498663e-02,4.535212343672633678e-02,8.087032473399667631e-02,-6.583867594599723816e-03,-2.596418062888387196e-02,1.300948800845322731e-02,-1.693444859392846669e-02,7.776522093307388847e-03,5.286168852299323942e-03,-3.557333594050227088e-02,0.000000000000000000e+00,0.000000000000000000e+00,0.000000000000000000e+00,5.271379570988879992e-01,-0.000000000000000000e+00,1.005851030349731445e-01,9.169362304126370589e+01,0.000000000000000000e+00
1.672447000000000017e+00,7.400112921007299428e-04,5.462301808614052762e-02,9.196814298629760742e-01,1.433995628507228441e-02,-3.993677376637805310e-03,-1.290805624206787551e-02,3.636299313031492869e-02,6.654646712949802145e-02,1.115549635142087936e-02,5.016908293477324518e-03,-1.315209277312278519e-02,-2.694145870430243381e-02,-4.676701247374685094e-03,-2.336564827438333304e-03,-3.613160493069345058e-02,0.000000000000000000e+00,0.000000000000000000e+00,0.000000000000000000e+00,5.258315553024413003e-01,-0.000000000000000000e+00,3.299201726913452148e-01,1.370022293156768853e+02,0.000000000000000000e+00
1.697899999999999965e+00,1.231482160904903873e-03,5.800246066110340687e-02,9.219467639923095703e-01,1.510868410230661700e-02,-4.077430665465842097e-03,-1.337735479921336665e-02,3.620115143750259751e-02,6.556715251451553095e-02,1.655836822465062141e-03,1.601354547102957701e-02,-2.263386800777146199e-02,2.299158211386970532e-02,-6.081432146814707423e-03,-1.447806645474483374e-03,-3.745097342710695942e-02,0.000000000000000000e+00,0.000000000000000000e+00,0.000000000000000000e+00,5.264295473961801974e-01,-0.000000000000000000e+00,-5.451905727386474609e-02,9.467905091615207880e+01,0.000000000000000000e+00
1.725594999999999990e+00,1.501907861362485703e-03,5.956325029367182111e-02,9.230056405067443848e-01,1.576662955373686614e-02,-3.735267008349474338e-03,-1.375353238525246248e-02,6.213943262388912925e-02,8.299085962635530112e-02,-1.554192509502172470e-03,3.114795900283378813e-02,3.911492019925905117e-02,-1.955592642600408049e-02,4.821286380115551162e-03,2.098740015461004679e-02,-3.865989235765737719e-02,0.000000000000000000e+00,0.000000000000000000e+00,0.000000000000000000e+00,5.266755106495373262e-01,-0.000000000000000000e+00,9.784901142120361328e-02,-1.040030309445956931e+02,0.000000000000000000e+00
1.753127000000000102e+00,1.963931851248516477e-03,6.213494151735136223e-02,9.245179295539855957e-01,1.618022133227614914e-02,-3.145173244895493880e-03,-1.424864422923303661e-02,4.599942959840071233e-02,8.391549176234996965e-02,1.333986874669790268e-03,-7.517128315141547931e-03,7.493257330609977285e-02,-3.248049729941479558e-02,2.349742072850815808e-03,9.104895791589826676e-03,-3.996526998172056366e-02,0.000000000000000000e+00,0.000000000000000000e+00,0.000000000000000000e+00,5.264199018912187888e-01,-0.000000000000000000e+00,1.819862127304077148e-01,9.546226870827744904e+01,0.000000000000000000e+00
1.776806000000000108e+00,2.253044588653045199e-03,6.367949913246380433e-02,9.255134463310241699e-01,1.641433206243749290e-02,-2.761196658074283050e-03,-1.445370930591289432e-02,3.406901592920860006e-02,7.306288449397158047e-02,-4.726194601971656084e-04,2.116484398606807010e-02,-6.772592136019968748e-03,-8.579759435473075305e-03,-6.404925984831454783e-03,5.005635835219809579e-03,-4.050932042426441670e-02,0.000000000000000000e+00,0.000000000000000000e+00,0.000000000000000000e+00,5.265401370327853492e-01,-0.000000000000000000e+00,7.740076780319213867e-01,6.620143777561933973e+01,0.000000000000000000e+00
1.798106999999999900e+00,2.649461545119602326e-03,6.625472288202347015e-02,9.269512295722961426e-01,1.693672377566362783e-02,-2.769185708662691425e-03,-1.485045017848832076e-02,5.255305529890659522e-02,7.889595348415823217e-02,1.216689962893724442e-02,5.838206270526402619e-02,-6.537373401917767612e-02,1.181827456894814568e-02,-1.209955377938953542e-03,2.131491927747489884e-02,-4.174089794032720402e-02,0.000000000000000000e+00,0.000000000000000000e+00,0.000000000000000000e+00,5.255857461627416738e-01,-0.000000000000000000e+00,1.395815610885620117e-01,9.584856371716585954e+01,0.000000000000000000e+00
1.823579999999999979e+00,3.093372531330286675e-03,6.876512595344562440e-02,9.282963275909423828e-01,1.708382252128883699e-02,-2.543398629417437107e-03,-1.504042632499419732e-02,5.297866035884513797e-02,7.726202920882312142e-02,3.365399083122611046e-03,-1.818219302509688912e-02,2.439300765619391645e-02,1.977238874495942586e-02,-2.456285473501157446e-03,2.087103833997685370e-02,-4.227020433030548308e-02,0.000000000000000000e+00,0.000000000000000000e+00,0.000000000000000000e+00,5.261889838611336634e-01,0.000000000000000000e+00,-6.786668300628662109e-02,9.481443209569090413e+01,0.000000000000000000e+00
1.850460999999999911e+00,3.579124526179190430e-03,7.122824948813852308e-02,9.295573830604553223e-01,1.735362668603424724e-02,-2.548737227105579706e-03,-1.557298115503649022e-02,4.083929388033707975e-02,7.701374904398584909e-02,8.290339261293411255e-03,3.885794595111574656e-02,1.466144232795085073e-02,-3.867399703723566756e-02,-2.145096359811605839e-03,1.178142641397409221e-02,-4.369741456656317524e-02,0.000000000000000000e+00,0.000000000000000000e+00,0.000000000000000000e+00,5.257965038381342548e-01,-0.000000000000000000e+00,3.805726766586303711e-01,7.479309858163253466e+01,0.000000000000000000e+00
1.881229000000000040e+00,4.062543203190722985e-03,7.386938370465381820e-02,9.308341741561889648e-01,1.793275487033995849e-02,-2.424150847035289047e-03,-1.592857380958705507e-02,3.722976468237059605e-02,7.182156444321678712e-02,2.381311031058430672e-03,2.388243427715997565e-03,-2.112316808452005187e-02,-8.372240296096008366e-03,-7.933286144099323950e-03,1.188738257407262813e-02,-4.469460345210529706e-02,0.000000000000000000e+00,0.000000000000000000e+00,0.000000000000000000e+00,5.261921451255680005e-01,-0.000000000000000000e+00,1.510061025619506836e-01,9.121949179964892096e+01,0.000000000000000000e+00
1.902962000000000042e+00,4.550726813691326721e-03,7.693697167817849236e-02,9.319104552268981934e-01,1.886430747837678293e-02,-2.353074706279656425e-03,-1.639293449712391978e-02,4.727837909212971590e-02,7.824390819196949676e-02,8.347874507308006287e-03,1.076359121285849901e-01,-5.676703224365452216e-02,-1.008370550902552149e-02,-5.633805451536830905e-03,2.097722077369037347e-02,-4.607348382237275164e-02,0.000000000000000000e+00,0.000000000000000000e+00,0.000000000000000000e+00,5.257456140615982543e-01,-0.000000000000000000e+00,3.551663160324096680e-01,9.142311339918533974e+01,0.000000000000000000e+00
1.924336999999999964e+00,4.991015325499650358e-03,7.894169427115696469e-02,9.326037764549255371e-01,1.915437167897239557e-02,-1.741616464400852493e-03,-1.676003678497852215e-02,5.581273197510048384e-02,7.698907301161359018e-02,4.771187435835599899e-03,-2.329233107194225022e-02,5.104094406442449827e-02,-1.045772248855551985e-02,-7.676902855088386587e-03,3.053485871013864039e-02,-4.717892996806410943e-02,0.000000000000000000e+00,0.000000000000000000e+00,0.000000000000000000e+00,5.260141147083557955e-01,-0.000000000000000000e+00,6.145584583282470703e-02,6.651529179817059401e+01,0.000000000000000000e+00
1.949727999999999906e+00,5.606509131754638421e-03,8.183948750258324134e-02,9.335902333259582520e-01,1.952775807013694062e-02,-1.376855000826182618e-03,-1.732977828488380806e-02,3.948131638329369780e-02,6.806372384102504780e-02,1.450493745505809784e-02,-2.795020852546442613e-02,1.278998857982618573e-02,-5.505511577734352457e-02,-1.450115982863589385e-02,1.963965151571414255e-02,-4.868617642109812627e-02,0.000000000000000000e+00,0.000000000000000000e+00,0.000000000000000000e+00,5.252755279411519540e-01,-0.000000000000000000e+00,-4.553182125091552734e-01,9.493317493441158206e+01,0.000000000000000000e+00
1.977019000000000082e+00,6.401741195842113215e-03,8.477382149291695645e-02,9.344941377639770508e-01,1.964865226563253936e-02,-1.287986373537108875e-03,-1.749013149574859746e-02,3.940954239586604013e-02,7.080904672892988916e-02,-2.276004059240221977e-03,8.711354758399828327e-03,-3.896420800317309391e-02,1.404946914362253897e-03,-9.975165160397904407e-03,2.289990860254449354e-02,-4.916621410857235919e-02,0.000000000000000000e+00,0.000000000000000000e+00,0.000000000000000000e+00,5.264959292329671747e-01,-0.000000000000000000e+00,-2.952502965927124023e-01,7.011494492473988771e+01,0.000000000000000000e+00
1.996791999999999900e+00,6.539178144142620240e-03,8.594696277181095023e-02,9.350507259368896484e-01,1.988784343979619826e-02,-1.225161276081854211e-03,-1.776864535998661995e-02,5.792394559647958546e-02,7.681643344503781556e-02,2.458125818520784378e-03,-2.866205871948209957e-02,5.057589933593679976e-02,-3.721107905723556892e-03,-5.686302201057283519e-03,3.785814252027898397e-02,-5.007712382240447901e-02,0.000000000000000000e+00,0.000000000000000000e+00,0.000000000000000000e+00,5.261796854331888262e-01,-0.000000000000000000e+00,7.411360740661621094e-03,8.522520850101901146e+01,0.000000000000000000e+00
2.021363000000000021e+00,6.924633831166120655e-03,8.789699199497788551e-02,9.358474612236022949e-01,1.960339592721764557e-02,-1.465795844394435221e-03,-1.779844907968228945e-02,4.902067321615741907e-02,7.091596752345276367e-02,8.750262670218944550e-03,-2.420142534078105478e-02,-8.388637818023857856e-03,-4.697438208633672473e-04,-7.486655219499260827e-03,2.732889405044094597e-02,-5.006737318766513178e-02,0.000000000000000000e+00,0.000000000000000000e+00,0.000000000000000000e+00,5.257094532487207594e-01,-0.000000000000000000e+00,1.261729001998901367e-01,8.905709488955790221e+01,0.000000000000000000e+00
2.049008000000000163e+00,7.346798762972487143e-03,8.969821831231727938e-02,9.366254806518554688e-01,1.933075446210860346e-02,-1.820607866507506500e-03,-1.820494939233033987e-02,4.488561018934601743e-02,6.600648055684452120e-02,6.189485546201467514e-03,-4.573736679225541557e-02,-1.466668335074633803e-03,-3.526157072504455814e-02,-7.127240007656580195e-03,2.347514736037282362e-02,-5.117153132052015829e-02,0.000000000000000000e+00,0.000000000000000000e+00,0.000000000000000000e+00,5.258896362594791540e-01,-0.000000000000000000e+00,1.093529462814331055e-01,7.884230109899371541e+01,0.000000000000000000e+00
2.072642999999999791e+00,7.927058617082151717e-03,9.144116627233152272e-02,9.374085068702697754e-01,1.967709108394489342e-02,-2.198745856928363551e-03,-1.828896969439057149e-02,5.416848785488557333e-02,7.274170014731404232e-02,3.805847140029072762e-03,2.955208290115215325e-02,-6.141057318151683236e-02,-5.572525876741183173e-03,-1.793861576624969020e-03,2.920371594696150389e-02,-5.146323847537126461e-02,0.000000000000000000e+00,0.000000000000000000e+00,0.000000000000000000e+00,5.260698562358770980e-01,-0.000000000000000000e+00,2.531336545944213867e-01,8.471976767224890636e+01,0.000000000000000000e+00
2.102110000000000145e+00,8.134351814158957000e-03,9.561265255698279952e-02,9.381195306777954102e-01,1.984642571847818407e-02,-2.525742078406389979e-03,-1.867956625765876399e-02,6.184299368613632025e-02,7.465041486463966369e-02,2.244982635602355003e-03,8.472311225723941006e-03,2.522347077292686965e-02,-8.088491495376283133e-03,7.709440895229528225e-04,3.194979412597977186e-02,-5.258544203414539098e-02,0.000000000000000000e+00,0.000000000000000000e+00,0.000000000000000000e+00,5.261918695633774901e-01,-0.000000000000000000e+00,6.983864307403564453e-02,8.851072756728108004e+01,0.000000000000000000e+00
2.129345999999999961e+00,8.550016245520888902e-03,9.969369425991089773e-02,9.387789964675903320e-01,2.026164171947644754e-02,-2.564132774709904083e-03,-1.894928911088316140e-02,5.797719065225061252e-02,7.187856863839370281e-02,4.236737266182899475e-03,-5.504735267614759096e-04,3.461593696149808941e-02,-1.226872480024976050e-02,-1.289163407512511871e-03,2.807360815427790979e-02,-5.331104854978646612e-02,0.000000000000000000e+00,0.000000000000000000e+00,0.000000000000000000e+00,5.260511148148298011e-01,-0.000000000000000000e+00,3.394266366958618164e-01,9.320158537602993931e+01,0.000000000000000000e+00
2.151886999999999883e+00,8.810264517304771878e-03,1.022824628664321112e-01,9.391416311264038086e-01,2.043999895069055495e-02,-2.578092773358520162e-03,-1.912969992688758752e-02,4.701336058647712091e-02,6.015165155583041684e-02,8.156425319612026215e-03,5.846329058655086799e-03,-2.463257579355114177e-02,1.441364693684111555e-03,-9.026336442738116389e-03,2.049975357851108529e-02,-5.374642797539447292e-02,0.000000000000000000e+00,0.000000000000000000e+00,0.000000000000000000e+00,5.257795032644574373e-01,-0.000000000000000000e+00,1.782363653182983398e-01,9.313075631433690660e+01,0.000000000000000000e+00
2.185564999999999980e+00,9.470223239322297926e-03,1.071746870720483580e-01,9.398729801177978516e-01,2.049385682535558376e-02,-2.596909391771484721e-03,-1.924927599305735135e-02,4.189942303644199340e-02,6.330400252387047288e-02,8.429555222392082214e-03,-1.199028209286955027e-02,-3.447301926675092054e-02,-7.115499734630819674e-04,-1.767612237979469033e-03,1.841605021272354689e-02,-5.406951725767517036e-02,0.000000000000000000e+00,0.000000000000000000e+00,0.000000000000000000e+00,5.257612701181204606e-01,-0.000000000000000000e+00,-2.866041660308837891e-02,9.280379515876839491e+01,0.000000000000000000e+00
2.206887000000000043e+00,1.057644366444108856e-02,1.092442375540866456e-01,9.403544068336486816e-01,2.061172179171120653e-02,-2.785780627268197307e-03,-1.927274808121138064e-02,5.955725258706860703e-02,6.487854326444403297e-02,1.671128720045089722e-02,-2.736327283280934179e-04,-2.833107186754214163e-02,6.684976110424081797e-03,5.526862776195828539e-04,3.253820072369809774e-02,-5.426280790477799876e-02,0.000000000000000000e+00,0.000000000000000000e+00,0.000000000000000000e+00,5.251727817167425316e-01,-0.000000000000000000e+00,1.290055513381958008e-01,8.642980798379913665e+01,0.000000000000000000e+00
2.241093999999999919e+00,1.123658101057100483e-02,1.105006436037451745e-01,9.405395388603210449e-01,2.076914806962420340e-02,-3.159570881523299235e-03,-1.910644445870365166e-02,5.575193219406601036e-02,6.502163052267659338e-02,1.211982220411300659e-02,2.459980669676053305e-02,-3.197578302842499220e-02,-5.641406655408295195e-03,5.606126468027192861e-04,2.523869305192463774e-02,-5.373433567371566077e-02,0.000000000000000000e+00,0.000000000000000000e+00,0.000000000000000000e+00,5.255356723158204346e-01,-0.000000000000000000e+00,-1.812590360641479492e-01,9.062461647388666108e+01,0.000000000000000000e+00
2.263205000000000133e+00,1.269150747905408577e-02,1.131165801489659589e-01,9.408090710639953613e-01,2.048314389816981163e-02,-4.378312435710407513e-03,-1.891368062332629552e-02,4.929283853535570969e-02,6.059351848473858160e-02,9.172716177999973297e-03,-4.795331245758868710e-02,5.428363670113920368e-03,-1.822778198128535004e-02,1.016168340146050668e-03,1.396746861391165440e-02,-5.309187054820818652e-02,0.000000000000000000e+00,0.000000000000000000e+00,0.000000000000000000e+00,5.257733611632064985e-01,-0.000000000000000000e+00,5.009850263595581055e-01,6.832462256968531733e+01,0.000000000000000000e+00
2.285079999999999778e+00,1.343001004145471036e-02,1.143351751920379245e-01,9.409710168838500977e-01,2.052447498188434555e-02,-5.467413347580496463e-03,-1.849704567533360516e-02,5.231103351726315576e-02,6.468539602307449288e-02,6.353805307298898697e-03,4.973321426332832917e-02,-1.252106092175784280e-01,2.704297133567698519e-02,5.854285402401157405e-03,1.076039684951215179e-02,-5.189904405775669360e-02,0.000000000000000000e+00,0.000000000000000000e+00,0.000000000000000000e+00,5.260215960147588410e-01,-0.000000000000000000e+00,7.709348201751708984e-02,9.599483904843084758e+01,0.000000000000000000e+00
2.302859000000000211e+00,1.404392258655278065e-02,1.170034485678898006e-01,9.410248994827270508e-01,2.029897742009967310e-02,-5.833402056022674032e-03,-1.833821508118832141e-02,5.785190472884169099e-02,6.552665001802809863e-02,-6.406317930668592453e-03,-6.474472225499551536e-02,1.488307614921135537e-02,3.954677659907839676e-02,9.275386966324537796e-03,1.270833382598424502e-02,-5.147197942218950661e-02,0.000000000000000000e+00,0.000000000000000000e+00,0.000000000000000000e+00,5.270071230912644067e-01,-0.000000000000000000e+00,-1.953693628311157227e-01,1.602008233976526341e+01,0.000000000000000000e+00
2.324033000000000015e+00,1.497359033363294956e-02,1.208338634600951422e-01,9.411125779151916504e-01,2.027613458875486205e-02,-6.694455536980781218e-03,-1.815224706399329660e-02,4.641791287618887707e-02,6.216687344874213816e-02,-1.325643504969775677e-03,-2.646902613217890637e-02,2.697784273485892906e-02,-2.988521498698320719e-02,9.652828681298226618e-03,-1.654027901939536700e-03,-5.082168176034790319e-02,0.000000000000000000e+00,0.000000000000000000e+00,0.000000000000000000e+00,5.266846370218737361e-01,-0.000000000000000000e+00,2.890959978103637695e-01,1.270815571311517829e+02,0.000000000000000000e+00
2.348777000000000115e+00,1.624665389053429193e-02,1.257291567329317239e-01,9.411125183105468750e-01,2.052136265275170124e-02,-7.438986464889385530e-03,-1.768513263055965234e-02,4.765074807829671605e-02,6.115277550238092108e-02,-6.569377728737890720e-04,-1.231818860513812092e-02,5.074625931564721859e-02,-5.564284568306172157e-03,1.136514805942455061e-02,-2.929380025928630428e-03,-4.950176767358943630e-02,0.000000000000000000e+00,0.000000000000000000e+00,0.000000000000000000e+00,5.266958326867458018e-01,-0.000000000000000000e+00,8.664834499359130859e-02,8.380067009677530621e+01,0.000000000000000000e+00
2.369393999999999778e+00,1.683937263874875009e-02,1.279570328239670596e-01,9.410841464996337891e-01,2.090557167322451212e-02,-7.862404499905828459e-03,-1.745812407101739877e-02,4.866541836852766173e-02,6.085734771629278811e-02,6.022608838975429535e-03,3.430697402958881453e-02,-2.105119676049996627e-02,2.655702126309505626e-03,1.096495144855508079e-02,-4.430587840984059889e-03,-4.885179220982721615e-02,0.000000000000000000e+00,0.000000000000000000e+00,0.000000000000000000e+00,5.262648411510849611e-01,-0.000000000000000000e+00,1.816858053207397461e-01,-1.039518864880906364e+02,0.000000000000000000e+00
2.398121000000000169e+00,1.810446011242403119e-02,1.326531803297996692e-01,9.408651590347290039e-01,2.147185400834776201e-02,-7.813621903371759103e-03,-1.701978450498844997e-02,5.928273055526654678e-02,6.369274798424071071e-02,-4.962340928614139557e-03,1.299083517734046745e-03,3.226402574345415414e-02,5.339150962856158145e-02,1.271065306003797690e-02,4.809213735032354109e-03,-4.771251153230976483e-02,0.000000000000000000e+00,0.000000000000000000e+00,0.000000000000000000e+00,5.271463208694090463e-01,0.000000000000000000e+00,-2.248203754425048828e-02,8.819008433669482372e+01,0.000000000000000000e+00
2.420055000000000067e+00,1.900129882576296128e-02,1.360489302898355846e-01,9.406853914260864258e-01,2.169507751862055286e-02,-7.644752401396726071e-03,-1.695059756377093399e-02,4.754193912202786532e-02,5.749410240698141911e-02,3.027266357094049454e-03,2.367470185666731980e-02,1.742136234867939712e-02,-1.429689605572540684e-02,8.863201133769333523e-03,-3.765313832098494875e-03,-4.743624894408471349e-02,0.000000000000000000e+00,0.000000000000000000e+00,0.000000000000000000e+00,5.266249282461743508e-01,-0.000000000000000000e+00,-1.854296922683715820e-01,7.007298024247933199e+01,0.000000000000000000e+00
