timestamp,x,y,z,roll,pitch,yaw,vx,vy,vz,p,q,r,psp,qsp,rsp,pres,qres,rres,thrust_sp, thrust_res
0.000000000000000000e+00,2.456629211678948779e-02,1.392848934366936169e-03,9.975116848945617676e-01,6.228895221981867701e-03,-9.855040395058356495e-03,-6.771115551532799759e-03,1.148128011143820931e-02,-5.311941156830254224e-03,1.045659370720386505e-02,2.190580847224297620e-02,-1.521331270179355696e-02,4.731565114916356889e-03,1.723253459619061845e-01,6.524952411074635972e-02,-2.350096498123705746e-01,2.160219669342040849e-01,1.045169591903686440e-01,-2.160992145538329912e-01,4.985960138870841885e-01,-6.729580163955688477e-01,2.952703237533569336e-01,1.884368937283770506e+01,2.354954481124877930e-01
2.564100000000000060e-02,2.445237832443738352e-02,1.052451057489534872e-03,9.976927042007446289e-01,6.189731843410468601e-03,-9.676314260898433162e-03,-7.028600763409759318e-03,-6.790188368128533686e-03,-1.974197986073538205e-02,9.408254176378250122e-03,-8.596218849927426270e-03,1.333726248482408269e-02,-1.389644393401809341e-02,-2.772076631701307914e-01,1.671038492702811018e-01,1.867622545776886078e-01,-2.225204586982726940e-01,2.216276943683624101e-01,2.063956618309021052e-01,4.981913681484677614e-01,-6.970825791358947754e-01,1.784788370132446289e-01,7.452704905308219452e+01,2.354954481124877930e-01
5.331000000000000322e-02,2.423755418408577930e-02,5.506860520502562415e-04,9.978764057159423828e-01,6.275521947017621491e-03,-9.897834347874168159e-03,-7.012988979721668757e-03,3.291015406428037925e-03,-5.941219470256380031e-03,-2.162779215723276138e-03,-5.810374273860488548e-02,4.398623881596826907e-02,4.122233177332174092e-02,-2.460737816206575723e-01,1.675236477615058561e-01,1.872116357054137703e-01,-2.038441836833953802e-01,2.128004193305969294e-01,2.067888379096984863e-01,5.005076149913157968e-01,-6.211901903152465820e-01,-1.617678403854370117e-01,7.646854398503666062e+01,2.354954481124877930e-01
7.687399999999999789e-02,2.411700698092534428e-02,2.505889481085294508e-04,9.980003237724304199e-01,6.866542163118240921e-03,-1.046504903082801086e-02,-7.416520819309447773e-03,-3.307586282258028094e-03,-1.171887894559202337e-02,7.289809174835681915e-03,3.798954931032089838e-02,-6.839800106476971731e-02,-6.909629132174244237e-02,1.568082985105525573e-01,1.532268714108702690e-01,-1.932320523933077905e-01,2.098398685455322155e-01,2.089403629302978571e-01,-1.725328087806701494e-01,5.027063994210989595e-01,-4.677058458328247070e-01,-2.995420694351196289e-01,1.214410912919068721e+02,2.354954481124877930e-01
9.838399999999999923e-02,2.402570161244888675e-02,-9.641447809791947837e-05,9.979919791221618652e-01,5.976749221777983949e-03,-1.108980197061182338e-02,-8.759744072896015477e-03,-5.046865606850736534e-03,-2.115293971927931227e-03,-1.507523842155933380e-02,-9.235930603702920128e-02,-2.573339997607747634e-02,-4.819108742870101963e-02,-1.247442375207980236e-01,-2.076832853903678999e-01,-2.274877821360540009e-01,-8.592027425765991211e-02,-1.473752260208129883e-01,-2.030382871627807451e-01,5.002561710471999934e-01,-6.854476928710937500e-01,-1.573232412338256836e-01,8.045650019611034054e+01,2.354954481124877930e-01
1.244600000000000012e-01,2.379143121272451339e-02,-1.256605525063930805e-04,9.975775480270385742e-01,2.265447780856282706e-03,-1.378233741372092425e-02,-1.170351645768450723e-02,-9.592348035304371079e-03,-7.100557011157629904e-03,-1.242802757769823074e-02,-1.157677832592607231e-01,-1.588849896238865300e-01,-8.189379738904967176e-02,-5.824077013857885399e-02,-1.237528946420801967e-01,-2.518724361128544809e-01,-3.816018104553222517e-02,-4.253718852996826033e-02,-2.191279649734496904e-01,5.010410700060724531e-01,-6.362422108650207520e-01,1.493817567825317383e-01,5.396461087750247998e+01,2.354954481124877930e-01
1.534139999999999948e-01,2.333477621468118060e-02,1.026931183201879174e-04,9.968853592872619629e-01,-1.091864182889044086e-03,-1.775509639511896331e-02,-1.089660259870013810e-02,-1.437944328988099985e-02,-4.169236083616557897e-03,-2.476820349693298340e-02,-8.892900317168260516e-02,-1.075712801042327943e-01,5.262654431129497323e-02,1.839959945061467317e-01,-2.956936120986938255e-01,-2.570237674478731416e-01,1.790204286575317327e-01,-1.956936120986938477e-01,-2.264797210693359208e-01,5.005798946218682488e-01,-7.132658958435058594e-01,-2.075076103210449219e-03,1.076195956195499406e+02,2.354954481124877930e-01
1.776060000000000139e-01,2.299880908418903275e-02,3.003377458938261092e-04,9.961400032043457031e-01,-3.349109592475467412e-03,-1.909574132489266773e-02,-9.260485881521401605e-03,-1.090483771107914404e-02,-2.025034872135525791e-04,-3.972702845931053162e-02,-1.002896404585950085e-01,-3.825656109532767774e-02,8.635408778464796764e-02,2.290103822508004205e-01,-2.697146654129028431e-01,-2.507338524348516895e-01,2.064965844154357799e-01,-1.697146654129028376e-01,-2.247239470481872392e-01,5.018320058817953289e-01,-7.118310332298278809e-01,-2.642716169357299805e-01,9.988691989412507155e+01,2.354954481124877930e-01
1.995250000000000079e-01,2.270784729254954684e-02,4.893152554358514393e-04,9.951953291893005371e-01,-6.063762368015492531e-03,-1.844505101702309524e-02,-7.425078589177643192e-03,-1.838816375930207858e-02,-3.090806061780813300e-03,-4.376141726970672607e-02,-1.148887446095947229e-01,6.039245228177055058e-02,6.696358491363187115e-02,2.078928703799440281e-01,1.116374492645263450e-01,-1.464809675554903379e-01,1.706178903579711748e-01,2.116374492645263505e-01,-1.255280256271362194e-01,5.031496170219701414e-01,-6.646897196769714355e-01,-1.873086690902709961e-01,8.404183212353741439e+00,2.354954481124877930e-01
2.280550000000000077e-01,2.224574336085112167e-02,1.061085848269452533e-03,9.935075640678405762e-01,-8.163366711114408703e-03,-1.505827550882754551e-02,-4.299728964206140334e-03,-4.899345979951223728e-03,4.068777791540353211e-03,-6.037200242280960083e-02,-5.991389111015389332e-03,1.493709535807495881e-01,8.751888203559068935e-02,-1.658375866618608807e-01,4.518235760588738825e-02,2.029248091753491079e-01,-2.231845200061798040e-01,1.299214482307433915e-01,2.151009142398834229e-01,5.097734124929097499e-01,-3.902323842048645020e-01,2.692520618438720703e-02,1.112679684854689270e+02,2.354954481124877930e-01
2.504410000000000247e-01,2.201095538320463341e-02,1.501953653032512929e-03,9.922890663146972656e-01,-6.648049437333931715e-03,-1.127696683404355582e-02,-2.013267993275785414e-03,-9.480011110896909704e-03,3.467621536634513026e-03,-6.336066871881484985e-02,1.069781874047061321e-01,1.911545343991506718e-01,9.715227924274608129e-02,-1.766893884834087602e-01,8.499309118126605056e-02,2.115882170779136429e-01,-2.228664100170135443e-01,1.508841633796691728e-01,2.173132181167602428e-01,5.065058818066390245e-01,-5.835327506065368652e-01,8.867243528366088867e-01,-1.528023624886948184e+01,2.354954481124877930e-01
2.778240000000000154e-01,2.161138706789663549e-02,1.984365159161441058e-03,9.902938604354858398e-01,-1.439245885686457572e-03,-5.947004621523310774e-03,2.239752178605824485e-04,-1.481181487461812746e-02,-9.449853339764668902e-03,-7.478577643632888794e-02,2.338979303085714223e-01,1.382603721720474799e-01,2.100117714969454430e-02,-2.137525852383225788e-01,1.791116782579108002e-01,1.258165221112749477e-01,-2.161539494991302490e-01,2.141788065433502253e-01,1.252083420753478948e-01,5.095109934936513651e-01,-4.815500974655151367e-01,-4.409800767898559570e-01,1.269000653445261975e+02,2.932091474533081166e-01
3.005419999999999758e-01,2.136121887245149079e-02,2.254754668025822899e-03,9.887213706970214844e-01,1.769057224404443256e-03,-4.221383325828886868e-03,3.595368258633220327e-05,-8.584176492508067968e-03,6.787807414456081302e-03,-9.398199617862701416e-02,9.239757190516918739e-02,9.312517780079605789e-02,-3.175890986785607356e-02,-2.250795018625975086e-01,1.935966259441125048e-01,2.155203532895846597e-01,-2.215029001235961914e-01,2.119031667709350419e-01,2.154079020023345892e-01,5.124710231070788158e-01,-4.113283157348632812e-01,-1.777800321578979492e-01,8.915585942495629013e+01,2.932091474533081166e-01
3.279380000000000073e-01,2.087477721637445022e-02,2.965871189303784152e-03,9.858270883560180664e-01,3.328007531101807078e-03,-4.564971111869819964e-03,-2.376046467121547320e-03,-7.738832043335398814e-03,2.527306378758521939e-03,-9.840400516986846924e-02,2.246040275387995236e-02,-9.170174296470012809e-02,-8.510450670652187910e-02,1.807718010234060091e-01,1.970913044680835946e-01,-1.010792350423736080e-01,1.996907472610473522e-01,2.181479930877685547e-01,-9.444329738616942527e-02,5.186119948815177683e-01,-1.167562007904052734e-01,-1.046553850173950195e-01,1.008745720782980726e+02,2.932091474533081166e-01
3.501310000000000255e-01,2.042439197614394700e-02,3.866926585323323794e-03,9.836066365242004395e-01,1.851593586390256783e-03,-5.518984942437077379e-03,-3.846411512671079301e-03,-1.434371342812405282e-02,3.075485351144322671e-02,-1.237125471234321594e-01,-8.922540382680516080e-02,-6.645571570510699910e-02,-5.957485019645350488e-02,1.277542240589666644e-01,1.561333518818346644e-01,-2.222395974903954297e-01,1.137667536735534612e-01,1.890513181686401256e-01,-2.115110993385314886e-01,5.139658505544931755e-01,-4.818915128707885742e-01,-1.261061429977416992e-01,7.885710211892514110e+01,2.932091474533081166e-01
3.763079999999999758e-01,1.969198695506463315e-02,5.478459127558318702e-03,9.798780083656311035e-01,-2.469811039210865599e-03,-9.006186648520264626e-03,-6.260054478878858582e-03,-2.164285752159688520e-02,2.596070661489547488e-02,-1.242774799466133118e-01,-1.645999114166553090e-01,-1.684328198329597404e-01,-6.811284285328182697e-02,1.664706162248017762e-01,8.200930388980245955e-03,-2.352886901510285733e-01,1.310721874237060491e-01,6.897972822189331332e-02,-2.177671909332275224e-01,5.115911053139819975e-01,-6.327357888221740723e-01,8.690273761749267578e-02,1.360434756618821837e+02,2.932091474533081166e-01
4.022709999999999897e-01,1.874898613931789276e-02,7.145831063125110232e-03,9.758254885673522949e-01,-6.161243603101258445e-03,-1.467118118921195702e-02,-6.239777120556091322e-03,-2.887673502954920396e-02,2.350595883727892368e-02,-1.312628835439682007e-01,-5.759920059750246041e-02,-2.328765990594778290e-01,1.494955368919464317e-02,2.721556921494199255e-01,-2.855338335037231334e-01,-2.413618314645362140e-01,2.129092454910278265e-01,-1.855338335037231279e-01,-2.238196134567260742e-01,5.110213701081232074e-01,-7.144540548324584961e-01,-2.304111719131469727e-01,3.158757585455796857e+01,2.932091474533081166e-01
4.244029999999999747e-01,1.790974029026542666e-02,8.131952373765053213e-03,9.730761051177978516e-01,-6.789824607499393531e-03,-1.910657544672811348e-02,-4.664698576135205624e-03,-3.387333026794341756e-02,3.027813569931897195e-02,-1.455944776535034180e-01,1.424717107164202466e-03,-1.951786897522666264e-01,1.140911553337329160e-01,2.801865112226446519e-01,-2.221264839172363281e-01,-2.353357118802543724e-01,2.106232166290283037e-01,-1.221264839172363226e-01,-2.221910834312438854e-01,5.151922355938042264e-01,-5.679304003715515137e-01,2.141267061233520508e-01,1.023058518792525859e+02,2.932091474533081166e-01
4.508809999999999762e-01,1.641437833047858230e-02,9.439211801786445699e-03,9.689550399780273438e-01,-4.468901273855801701e-03,-2.454279759650868087e-02,-2.166749405260985726e-03,-3.264390698929502121e-02,2.564170709243004942e-02,-1.379319429397583008e-01,1.210181197259128927e-01,-1.393200007813232832e-01,8.513688372276508043e-02,2.704264020243927202e-01,-2.140235662460327204e-01,-2.250931068159771342e-01,2.196104764938354437e-01,-1.140235662460327148e-01,-2.189854145050048884e-01,5.148742788843706508e-01,-5.793759226799011230e-01,8.622285127639770508e-01,-2.526286849445035188e+01,2.932091474533081166e-01
4.761710000000000109e-01,1.503826272588039761e-02,1.070433365846183010e-02,9.647654294967651367e-01,1.981640863740921391e-05,-2.480322785031252586e-02,9.663273614867405039e-04,-2.760105947497471304e-02,1.939631979561603700e-02,-1.358511596918106079e-01,2.246354279236336682e-01,3.450798359979832114e-02,1.100632897140840782e-01,1.394217228180920920e-01,4.915871620178222101e-02,-2.008448068732525682e-01,1.211959362030029241e-01,1.491587162017822266e-01,-2.036536216735839733e-01,5.152314980570680270e-01,-5.770915150642395020e-01,3.126729726791381836e-01,-8.205735993377793136e+01,2.932091474533081166e-01
5.063649999999999540e-01,1.420478125706042642e-02,1.157518264052280650e-02,9.619078040122985840e-01,4.124790195449195597e-03,-2.204367685525276954e-02,3.336782282805310362e-03,-2.699205043649719957e-02,2.821163981106963523e-02,-1.480295658111572266e-01,1.887430347346734094e-01,1.894595734479805060e-01,1.212645612239892229e-01,-2.191908106848912685e-01,-9.758504629135132669e-02,2.205748769768038353e-01,-2.189519226551055742e-01,2.414953708648681467e-03,2.109645903110504150e-01,5.161649712641889209e-01,-5.958387255668640137e-01,-1.142212152481079102e-01,-5.395457732961173036e+01,2.932091474533081166e-01
5.241289999999999560e-01,1.379511558469375364e-02,1.196329158267472013e-02,9.604945778846740723e-01,6.928148124721538077e-03,-2.053076045261370552e-02,4.468994406365718423e-03,-2.055972183863908481e-02,2.968665243204841528e-02,-1.407155692577362061e-01,2.643371184100946625e-01,1.792940312078143972e-01,1.158914189106849679e-01,-2.412627548809591349e-01,4.965288639068601850e-02,2.200128707181590038e-01,-2.230624616146087702e-01,1.496528863906860241e-01,2.071742713451385498e-01,5.157589971672355000e-01,-6.033030748367309570e-01,-2.171820402145385742e-01,9.978182377336608511e+01,2.932091474533081166e-01
5.497919999999999474e-01,1.274125902179684862e-02,1.337253114685078501e-02,9.561662077903747559e-01,1.502894459228256915e-02,-1.444587783838557904e-02,7.504388946689440239e-03,-3.465991604964877709e-02,1.695475011471026319e-02,-1.468392163515090942e-01,2.096411704612774762e-01,1.870338129140616257e-01,8.082487737824527174e-02,-3.019238636770105177e-01,-1.346781373023986927e-01,2.337559817088568082e-01,-2.219957828521728349e-01,-3.467813730239868025e-02,2.123251140117645153e-01,5.160567588316192777e-01,-6.381198763847351074e-01,-3.601347208023071289e-01,1.168483354902068925e+02,2.932091474533081166e-01
5.760330000000000172e-01,1.168492559453808942e-02,1.458748235646179989e-02,9.517697691917419434e-01,2.146959627998750245e-02,-9.838159061371420933e-03,7.828034898199271244e-03,-1.807019933309132742e-02,1.686130049034028147e-02,-1.576388776302337646e-01,1.305068579133893403e-01,1.341162890062718993e-01,1.391654852653564055e-02,-3.188323140144347922e-01,-8.849973199549743264e-02,2.285407120966217176e-01,-2.188323140144348145e-01,-2.322002649307250768e-02,2.062764823436737116e-01,5.177800930691103254e-01,-6.158626675605773926e-01,-2.337144613265991211e-01,3.644884346800407116e+01,2.932091474533081166e-01
6.017360000000000486e-01,1.069862868154895785e-02,1.593697752798394623e-02,9.469068646430969238e-01,2.121004791867795586e-02,-6.741601885503101244e-03,5.244127108792651440e-03,-2.761658752871735956e-02,3.804824270285987742e-02,-1.731272339820861816e-01,-5.290443521542249894e-02,8.378929003645356477e-02,-1.175067400050397587e-01,-3.249887347221374623e-01,1.653069326911638104e-01,1.535933468126130796e-01,-2.249887347221374567e-01,2.207397043704986406e-01,1.385875403881073054e-01,5.219661321234269069e-01,-4.820251464843750000e-01,-4.395729303359985352e-01,6.083101029540005555e+01,2.932091474533081166e-01
6.233530000000000459e-01,1.007583464526599568e-02,1.681061792884489328e-02,9.434922337532043457e-01,1.811594435446972282e-02,-5.184362027108813109e-03,3.470536757775275014e-03,-2.867426259186198895e-02,3.266597091315485285e-02,-1.804300546646118164e-01,-1.941059612728250061e-01,9.500604609398786982e-02,-5.307292754316489392e-02,-3.091838059477851619e-01,1.490146468397276491e-01,2.138207714779110646e-01,-2.223248004913329912e-01,1.943414211273193359e-01,2.038798213005065807e-01,5.241381316445686833e-01,-4.184005260467529297e-01,9.537047147750854492e-01,-2.910490454409588423e+01,2.932091474533081166e-01
6.512069999999999803e-01,9.302112602653758028e-03,1.791283923113987098e-02,9.380571246147155762e-01,1.074365564461553409e-02,-2.522636648299991791e-03,2.190942005077994371e-04,-2.224634123902202720e-02,4.335949791542698800e-02,-1.919556856155395508e-01,-2.805329390179809868e-01,1.017272003161902721e-01,-1.456733921086039441e-01,-2.188434158309414124e-01,1.953284867116048540e-01,-1.080919999683416189e-03,-1.894662559032440075e-01,2.189527094364166204e-01,-1.780736446380615191e-03,5.243924035146985130e-01,-4.844192266464233398e-01,-2.353621721267700195e-01,5.052218187543770966e+01,2.932091474533081166e-01
6.724909999999999499e-01,8.796530070371743476e-03,1.866098188916519296e-02,9.343379139900207520e-01,4.682650265653370836e-03,-1.702660980192449713e-03,-1.714328552368056232e-03,-2.819170723629597919e-02,3.674754460774131565e-02,-1.975718885660171509e-01,-3.591678399243303232e-01,5.782811289556095968e-02,-7.848272108747840481e-02,8.026029589133765185e-02,1.934505736529823494e-01,-1.506551570504494619e-01,7.620584964752197266e-02,2.175371468067169023e-01,-1.459068059921264648e-01,5.224399585711244631e-01,-6.402500867843627930e-01,-4.487589597702026367e-01,1.000382973767000578e+02,2.932091474533081166e-01
6.980640000000000178e-01,7.929478076081908355e-03,1.979463554553350171e-02,9.285614490509033203e-01,-4.497434179223078025e-03,-2.988834183783373177e-03,-4.780553632320281958e-03,-2.288161321681525529e-02,4.347642175495754213e-02,-1.877247244119644165e-01,-2.522305125312209739e-01,-1.267018765930853497e-01,-9.592182449305292069e-02,2.577145168111809603e-01,9.756390343546036958e-02,-2.321988740044198252e-01,1.871076107025146373e-01,1.258094608783721924e-01,-2.188246607780456598e-01,5.227413279914265853e-01,-6.209037303924560547e-01,-1.876565217971801758e-01,8.288560233291201484e+01,2.932091474533081166e-01
7.229400000000000270e-01,7.266536104787629617e-03,2.059003301865269808e-02,9.247056841850280762e-01,-1.067005230143480005e-02,-5.140077253828145842e-03,-5.390045439299251916e-03,-3.677860868023163227e-02,3.759363742972729461e-02,-1.863316148519515991e-01,-2.813161695878109159e-01,-1.485710610289187605e-01,1.020692758278753630e-02,3.058402299880981223e-01,-1.586780556690631228e-01,-2.392434629206883490e-01,2.058402299880981445e-01,-1.047997355461120633e-01,-2.240930557250976618e-01,5.215415708009804030e-01,-7.086371779441833496e-01,-1.747299432754516602e-01,7.105416423750833133e+01,2.932091474533081166e-01
7.485009999999999719e-01,5.437049915257594762e-03,2.252173964335085418e-02,9.191513061523437500e-01,-1.584176058305784493e-02,-1.037255521007685033e-02,-4.196876529411108260e-03,-3.601974437266260848e-02,4.392308877112233861e-02,-1.890987157821655273e-01,-1.265686496761165569e-01,-1.663786739521386504e-01,8.209005609716182872e-02,3.149601697921752819e-01,-2.854462563225985683e-01,-2.388061382322413106e-01,2.149601697921752763e-01,-1.989370107650756669e-01,-2.268846273422241155e-01,5.221757527271368993e-01,-7.208083868026733398e-01,-1.773999929428100586e-01,9.799041541823346790e+01,2.932091474533081166e-01
7.735689999999999511e-01,4.199456867836715533e-03,2.377784653289983716e-02,9.156256318092346191e-01,-1.570602347290243894e-02,-1.418490818202333692e-02,-2.696577683393733445e-03,-3.611243089347064561e-02,4.431694566533103674e-02,-1.628975272178649902e-01,7.649107578128112872e-02,-2.269475330266560453e-01,6.331347690157963781e-02,3.166759610176086426e-01,-2.912650346755981667e-01,-2.242065356848704227e-01,2.166759610176086370e-01,-1.912650346755981334e-01,-2.164402484893798717e-01,5.213243684460429073e-01,-6.896724700927734375e-01,-7.983332872390747070e-01,1.011292288513128312e+02,2.932091474533081166e-01
7.990220000000000100e-01,2.451438274793641629e-03,2.551812094017783666e-02,9.106130599975585938e-01,-1.197225430868439043e-02,-1.629556704631229813e-02,-3.583957199217443026e-04,-3.733096088043297289e-02,3.808388694145539710e-02,-1.640770286321640015e-01,2.037311137424698548e-01,-6.782978824091106390e-03,5.348411082210348388e-02,3.196193456649780162e-01,-1.846367120742799239e-02,-2.217283334142646223e-01,2.196193456649780107e-01,8.153632879257201316e-02,-2.205662012100219616e-01,5.236451896542799744e-01,-6.010890007019042969e-01,-4.433858394622802734e-02,1.404921674060609682e+01,2.932091474533081166e-01
8.235930000000000195e-01,1.431760093156670983e-03,2.665435026507990968e-02,9.074512720108032227e-01,-7.889403697745879865e-03,-1.439589628080328865e-02,1.525615752326481408e-03,-3.125282189716515474e-02,4.302314664994119631e-02,-1.618271619081497192e-01,2.025730950820249787e-01,1.481704324022209418e-01,1.141501008744663370e-01,-1.236814680714148074e-01,1.063572525978088157e-01,2.271851102292015978e-01,-2.208265185356139970e-01,2.063572525978088212e-01,2.229334473609924372e-01,5.247288149682890479e-01,-5.586543679237365723e-01,-3.275681734085083008e-01,1.238876377318487556e+02,2.932091474533081166e-01
8.509660000000000002e-01,7.446701170361736235e-04,2.739925811314230034e-02,9.028375148773193359e-01,8.300642173118365349e-04,-8.067104534094760027e-03,4.282579751863020527e-03,-3.104916501475964152e-02,3.998668044589195197e-02,-1.660843789577484131e-01,2.909231349951050816e-01,2.755162519283406719e-01,1.114710693815107734e-01,-1.808990310523940770e-01,5.539671859025274703e-02,2.308778366976222129e-01,-2.189811944961547741e-01,1.268908917903900091e-01,2.187707483768463190e-01,5.246616368908555428e-01,-6.104691028594970703e-01,-3.327304124832153320e-01,9.803241425143988863e+01,2.932091474533081166e-01
8.757319999999999549e-01,3.511394257329485016e-04,2.793677615957738600e-02,9.000735282897949219e-01,7.911523786042698111e-03,-3.933197399788923576e-03,5.003134528236551949e-03,-1.800731339055977945e-02,4.576676886528004140e-02,-1.445923298597335815e-01,3.168619157924523200e-01,1.745910680912810542e-01,-1.390280731473881974e-02,-2.112502671066906756e-01,1.676039779125098883e-01,2.355494158755503387e-01,-2.087817192077636719e-01,2.026765286922454778e-01,2.214235961437225342e-01,5.222520964938315302e-01,-6.794294118881225586e-01,-7.111265659332275391e-01,1.154535835409336215e+02,2.932091474533081166e-01
9.006579999999999586e-01,-2.635624281267536211e-04,2.869075990552502620e-02,8.959043622016906738e-01,1.410196951395984236e-02,-4.828130857079671046e-04,2.986964169042233275e-03,-3.381244535305591437e-02,3.798335482701212934e-02,-1.526736021041870117e-01,1.505539945494578924e-01,5.938884469414760364e-02,-1.094679755861967807e-01,-2.497152437224740285e-01,1.674671704879831247e-01,2.317562339640846514e-01,-2.009126007556915339e-01,1.943188726902007890e-01,2.232728362083435114e-01,5.242974815094237906e-01,-6.297559142112731934e-01,-1.068805456161499023e-01,3.515435528065199122e+01,2.932091474533081166e-01
9.267170000000000130e-01,-7.861037588339148856e-04,2.956922155187807419e-02,8.913965821266174316e-01,1.384173475755401048e-02,6.477040656440724575e-04,-4.446075951898357517e-04,-1.701452944150246699e-02,6.317368222307845338e-02,-1.726171672344207764e-01,-1.163617785110322295e-01,2.872064960911093964e-02,-9.068555455362213580e-02,-2.248958628118659098e-01,2.061868711057239512e-01,6.668862908745958051e-02,-1.981901228427886963e-01,2.113922238349914551e-01,6.790716648101806363e-02,5.288937074772908087e-01,-4.903867244720458984e-01,1.816691160202026367e-01,7.152156774279065132e+01,2.932091474533081166e-01
9.508210000000000273e-01,-1.049055353640897508e-03,3.004169679576723304e-02,8.883157968521118164e-01,1.158744123221437834e-02,-3.592802008300921557e-04,-3.121499727315277684e-03,-3.409709322346871768e-02,5.097489887731501690e-02,-1.638616472482681274e-01,-1.571913131428714916e-01,-4.524022010250310782e-02,-1.571297381123740733e-01,-2.199318195610487081e-01,1.484994279731930433e-01,1.435021374674140260e-01,-1.958359122276306097e-01,1.757406413555145097e-01,1.521283686161041260e-01,5.342093132652816490e-01,-1.898479461669921875e-01,-4.130269289016723633e-01,1.031264308061379182e+02,2.932091474533081166e-01
9.769419999999999771e-01,-1.516898735748131721e-03,3.086828111305346678e-02,8.836288452148437500e-01,5.259806339942478363e-03,-3.867515258049625260e-03,-6.403978463895695569e-03,-2.164004953637350265e-02,6.092847991027636190e-02,-1.649798601865768433e-01,-2.672278663603085413e-01,-1.272897840706967709e-01,-7.908124693626300550e-02,1.618355431408829148e-01,-7.250294544336172153e-02,-2.359390327624058536e-01,1.349974751472473034e-01,-3.360536098480224748e-02,-2.181300401687621959e-01,5.265592692329907898e-01,-6.460967659950256348e-01,-1.505075693130493164e-01,8.299955720902450196e+01,2.932091474533081166e-01
1.000547000000000075e+00,-1.859482515742945721e-03,3.149777122354757708e-02,8.804740905761718750e-01,6.742695873491145672e-04,-7.181494437339397408e-03,-8.404798398753285382e-03,-2.622441872835211407e-02,5.467068437039283857e-02,-1.544208824634552002e-01,-2.028262649914905347e-01,-2.255381376858413001e-01,-1.416644779772295581e-01,2.263852201845618084e-01,-2.530856458749350391e-01,-2.445336560832006290e-01,1.750775456428527721e-01,-1.871971607208251787e-01,-2.211310386657714677e-01,5.264593253643462534e-01,-6.358899474143981934e-01,2.975882291793823242e-01,1.227598642168529324e+02,2.932091474533081166e-01
1.027003000000000110e+00,-2.234837970208870643e-03,3.212509047195739875e-02,8.774960041046142578e-01,-4.506186767273432855e-03,-1.049279599688679454e-02,-1.005668005889311621e-02,-2.305215744586908838e-02,6.718392050337998467e-02,-1.552511006593704224e-01,-2.656485781594472018e-01,-1.682444868329358301e-01,-4.490154530483893985e-02,2.988370889428846322e-01,-2.793670416938358603e-01,-2.524202234741037554e-01,2.030031681060791016e-01,-1.945854663848876898e-01,-2.243659257888794001e-01,5.258112081719266140e-01,-7.003830075263977051e-01,-1.346820592880249023e-01,1.078331346537612205e+02,2.932091474533081166e-01
1.051112000000000046e+00,-2.584670009474402882e-03,3.222092950290460917e-02,8.746045231819152832e-01,-7.926182504380568927e-03,-1.328925118869239697e-02,-1.000074002092869382e-02,-2.354695483269174730e-02,5.514264254339590332e-02,-1.478146910667419434e-01,-8.433570370543208572e-02,-1.448928308728328340e-01,5.421179760775227813e-02,3.102894067764282449e-01,-3.080597758293152078e-01,-2.550130783717355909e-01,2.102894067764282116e-01,-2.080597758293151744e-01,-2.270274996757507269e-01,5.255192652054223590e-01,-7.116957306861877441e-01,-2.235032320022583008e-01,9.731926737000968330e+01,2.932091474533081166e-01
1.076445000000000096e+00,-2.905389163513232009e-03,3.233659987286280346e-02,8.719210624694824219e-01,-9.580783435041833121e-03,-1.466501498569927620e-02,-9.202530695246010500e-03,-3.027367305614210233e-02,5.572845738470914162e-02,-1.408737450838088989e-01,-6.349003636093070169e-02,-2.556070603959189474e-02,1.253664337739561832e-02,3.159912824630737305e-01,-2.796311855316161998e-01,-2.519483879244819313e-01,2.159912824630737249e-01,-1.796311855316161943e-01,-2.261675834655761663e-01,5.254235092951805575e-01,-7.136447429656982422e-01,-3.686937093734741211e-01,1.135813945384872738e+02,2.932091474533081166e-01
1.101990000000000025e+00,-3.195472890769789943e-03,3.241736971444175025e-02,8.694356679916381836e-01,-8.921285559178808444e-03,-1.359976957841091405e-02,-7.627341882316393713e-03,-7.463734593156679670e-03,6.018862583916583658e-02,-1.408569663763046265e-01,6.606376124937626826e-02,1.217874567294777166e-01,1.261848955452418153e-01,-1.240741729736327958e-01,6.081253669468072998e-02,2.004511816375305344e-01,-2.240741729736328014e-01,1.542173981666564997e-01,2.217943489551544023e-01,5.307427473251853378e-01,-4.465324878692626953e-01,-3.397856950759887695e-01,8.004556869488568793e+01,2.932091474533081166e-01
1.125202000000000035e+00,-3.420520739098327923e-03,3.251248798504947218e-02,8.671348094940185547e-01,-6.105757819345034379e-03,-1.108393515901395787e-02,-6.159614329781595149e-03,-3.378371849847509878e-02,4.252611678644664661e-02,-1.192735955119132996e-01,2.020473985870839817e-01,1.121961106546644077e-01,5.191676661399705073e-02,-2.887108097958980546e-02,1.205528616905212347e-01,1.978508422184509785e-01,-1.173953890800475963e-01,2.205528616905212402e-01,2.150672435760498102e-01,5.250047535260762288e-01,-6.959962844848632812e-01,3.438578844070434570e-01,1.034848381526451675e+02,2.932091474533081166e-01
1.149108999999999936e+00,-3.558819673677286223e-03,3.255085957705994293e-02,8.648783564567565918e-01,-1.537441904379560458e-03,-6.233524014177982409e-03,-4.528862684799952673e-03,-5.212327712407153341e-03,5.093624245494016156e-02,-1.171616390347480774e-01,2.121465030507512783e-01,3.026712680391437371e-01,8.262677047680037912e-02,-1.538992818218485881e-01,1.436918937262217644e-01,2.072157079929966284e-01,-2.217623412609100175e-01,1.873530507087707575e-01,2.198274672031402532e-01,5.260284791516945946e-01,-6.535426974296569824e-01,5.067182779312133789e-01,1.345156169860636908e+02,2.932091474533081166e-01
1.180215999999999932e+00,-3.547617825034111213e-03,3.221340087145365544e-02,8.627084493637084961e-01,4.872882288127599291e-03,-5.310006830900881880e-04,-2.952505551285952452e-03,-1.260561509771646917e-02,3.933251495641161555e-02,-1.130658164620399475e-01,3.971920849573936652e-01,3.030988945320449712e-01,5.713596866611050235e-02,-2.011792641918388469e-01,1.975641522574017594e-01,2.149238208893427260e-01,-2.175331592559814342e-01,2.135634541511535478e-01,2.231487572193145696e-01,5.256959617852512423e-01,-6.763479709625244141e-01,1.073578238487243652e+00,1.322702059568003392e+02,2.932091474533081166e-01
1.200968999999999953e+00,-3.435944346789574291e-03,3.185143797448781317e-02,8.616709113121032715e-01,7.646554291124353642e-03,2.628202783682809240e-03,-3.102573683251533872e-03,-2.112434271053282783e-02,3.095649587276142270e-02,-1.137868985533714294e-01,2.628535923825458531e-01,2.928762401479028110e-01,-1.270783261127350801e-02,-2.288944899665309451e-01,2.036024052597784073e-01,2.118772938388756855e-01,-2.224721431732177568e-01,2.044294595718383623e-01,2.205621242523193304e-01,5.260692090055590908e-01,-6.755273938179016113e-01,-6.879270076751708984e-02,9.465453053703173225e+01,2.932091474533081166e-01
1.232232999999999912e+00,-3.191497675965125191e-03,3.119597468625635167e-02,8.594776988029479980e-01,1.299120148416243840e-02,7.613171655206807387e-03,-4.495024113711557773e-03,6.751232552363990724e-03,4.964261788555407451e-02,-1.026511490345001221e-01,2.441776528045179195e-01,1.928257729169445822e-01,-1.287372706678557022e-01,-2.452419709149281091e-01,2.697315526296402144e-01,2.081500118356170159e-01,-2.191494941711425726e-01,2.161854028701782060e-01,2.209900259971618597e-01,5.269700313328082864e-01,-6.035704016685485840e-01,-5.877100229263305664e-01,1.035880286506257306e+02,2.794412374496459961e-01
1.252275000000000027e+00,-3.100145213637259690e-03,3.091357547330552194e-02,8.583752512931823730e-01,1.447258539250504371e-02,9.300918093699817035e-03,-5.452869973308145830e-03,1.244462777479254153e-03,5.022472146550514133e-02,-1.107703819870948792e-01,1.834477648901184643e-01,1.626860302703869166e-01,-9.452979189330489029e-02,-2.582411051925317391e-01,2.714751804327206752e-01,2.047436542867525910e-01,-2.203144848346710039e-01,2.148844420909881425e-01,2.202940821647643987e-01,5.281911825306616626e-01,-5.859368443489074707e-01,1.369248628616333008e-01,1.408186384955565416e+02,2.794412374496459961e-01
1.277789000000000064e+00,-2.901624035970269515e-03,3.048350834128437173e-02,8.561285734176635742e-01,1.575670955702721324e-02,1.099602453979975358e-02,-7.841119899577194546e-03,-8.863035130744869802e-03,4.344546735566945372e-02,-1.025900244712829590e-01,7.451321574057639431e-03,3.191961165090108354e-02,-1.519196802933041601e-01,-2.652597269425429061e-01,2.845769867561235844e-01,1.934734088952876074e-01,-2.137851119041442871e-01,2.238178789615631048e-01,2.157381892204284501e-01,5.300216390973022662e-01,-4.746273756027221680e-01,5.133813619613647461e-01,-5.622136599720357175e+00,2.794412374496459961e-01
1.303042999999999951e+00,-2.773129985286123134e-03,3.012053396750927550e-02,8.539872169494628906e-01,1.522766996377303804e-02,1.067515822720399576e-02,-9.979455918365780914e-03,-5.428469718975187765e-04,5.478011737858630437e-02,-1.053748056292533875e-01,-4.272524998845583094e-02,-6.755649946697599162e-02,-8.657495307303550436e-02,-2.223559934068556898e-01,2.789669863130965766e-01,-1.608984437272595602e-01,-1.836808204650878795e-01,2.128448903560638261e-01,-1.326055169105529730e-01,5.304043907920167333e-01,-4.859066009521484375e-01,-7.111895084381103516e-02,8.903823673725949561e+01,2.794412374496459961e-01
1.330313999999999997e+00,-2.865568532882147457e-03,2.994385879658183203e-02,8.519809246063232422e-01,1.307798270119117298e-02,8.750368451259538105e-03,-1.276626043889566610e-02,-9.440648869485094435e-03,4.795424952984483902e-02,-1.054509356617927551e-01,-1.427374874078525535e-01,-1.385032936603696196e-01,-1.628373528090855116e-01,-2.096467901507883813e-01,2.308843971448558408e-01,-1.508509297596190568e-01,-1.783273279666900690e-01,1.851974129676818848e-01,-1.148940324783325195e-01,5.312720669696467946e-01,-4.590941667556762695e-01,-5.691497325897216797e-01,1.016609659083874959e+02,2.794412374496459961e-01
1.350085999999999897e+00,-3.156417882108759638e-03,2.991247604409781949e-02,8.499482274055480957e-01,9.848651597690778747e-03,5.961945362653597869e-03,-1.540660678654140990e-02,-9.770893109233022913e-03,5.828459047571556140e-02,-1.115417405962944031e-01,-1.506683303985942857e-01,-1.739720257033363915e-01,-1.327828051059688208e-01,-5.878568467034041983e-02,2.030696750109133031e-02,-2.575560689493343602e-01,-5.720620751380919855e-02,-7.834446430206297787e-03,-2.142977714538574219e-01,5.290931634504048020e-01,-6.238245368003845215e-01,1.533347368240356445e-01,1.051773112176501428e+02,2.794412374496459961e-01
1.374411000000000049e+00,-3.571390012740522854e-03,2.999397395825006626e-02,8.469466567039489746e-01,2.967250597860452820e-03,4.076318878938334223e-04,-2.010987321040810100e-02,-7.290454920654030474e-03,4.615558169414180761e-02,-1.120928302407264709e-01,-2.394410466154173189e-01,-2.169687532060131097e-01,-1.949389725640357507e-01,1.854946799802734692e-01,-1.565340094590232656e-01,-2.754041136677898849e-01,1.524121999740600530e-01,-1.502534866333007646e-01,-2.191102981567382701e-01,5.303583267537280710e-01,-5.815997123718261719e-01,4.869588613510131836e-01,1.430586400149972235e+02,2.794412374496459961e-01
1.399286999999999948e+00,-3.855778997788823596e-03,3.012131017151649034e-02,8.449458479881286621e-01,-2.517745393010348276e-03,-3.808935959659143222e-03,-2.267209379113797885e-02,-4.324418838313826897e-04,6.370162374700999441e-02,-1.200385317206382751e-01,-3.089456314261679881e-01,-1.799460208178900456e-01,-1.263182124984808252e-01,2.772152495851258891e-01,-2.192847717741815972e-01,-2.860136901530498932e-01,1.934500694274902399e-01,-1.899677753448486273e-01,-2.225802898406982477e-01,5.303387019845329231e-01,-6.361135244369506836e-01,1.093636870384216309e+00,-1.260514314156250393e+01,2.794412374496459961e-01
1.424766999999999895e+00,-4.242558085873205688e-03,3.067499176848441714e-02,8.420463800430297852e-01,-1.075032333459127569e-02,-1.202505683637733469e-02,-2.693210142592700890e-02,-3.460752774973383308e-03,5.889174101446404547e-02,-1.000209450721740723e-01,-2.749525844786980810e-01,-3.389470154928372336e-01,-1.096450538120676971e-01,3.138511657714843639e-01,-2.931420554230601550e-01,-3.014438312079419369e-01,2.138511657714843583e-01,-2.072014331817626787e-01,-2.260139465332031139e-01,5.285370947346627046e-01,-6.798113584518432617e-01,5.966025590896606445e-01,-2.171489428668867205e+01,2.794412374496459961e-01
1.451716999999999924e+00,-4.603139294942315378e-03,3.133176251896112319e-02,8.401877880096435547e-01,-1.642256907237491653e-02,-1.750855648618454552e-02,-2.799982913449892280e-02,-1.002328311698005500e-02,6.856407516036511218e-02,-1.001216545701026917e-01,-2.601114016470488233e-01,-2.863034586749252375e-01,-4.865682918542273833e-02,3.191137313842773438e-01,-3.082821846008300670e-01,-3.055012270330864643e-01,2.191137313842773382e-01,-2.082821846008300615e-01,-2.269550442695617565e-01,5.282583882146166809e-01,-7.160476446151733398e-01,3.994618654251098633e-01,-1.161187073623094506e+02,2.794412374496459961e-01
1.476431999999999967e+00,-5.211528314000217314e-03,3.260122566337689959e-02,8.376922011375427246e-01,-2.499936591655715565e-02,-2.563565660629074650e-02,-2.802126549123473698e-02,-1.820655200117033898e-02,6.360558836343682687e-02,-9.635765850543975830e-02,-3.225355397845382499e-01,-2.481280651662453596e-01,-2.619886780113588748e-02,3.225547552108764537e-01,-3.072897315025329701e-01,-3.064950317775647637e-01,2.225547552108764482e-01,-2.072897315025329645e-01,-2.274600148200988659e-01,5.282496166610335386e-01,-7.243630290031433105e-01,5.128657817840576172e-02,9.318134069533002162e+01,2.794412374496459961e-01
1.501740000000000075e+00,-5.999708569278325299e-03,3.413540169321161583e-02,8.355373740196228027e-01,-3.161066241446305880e-02,-3.182174081146760258e-02,-2.593681580957704971e-02,-1.520019632308716208e-02,7.264160932197551157e-02,-7.658599317073822021e-02,-2.005659265047163853e-01,-1.546736026091341532e-01,1.165535671480270041e-01,3.254678487777710183e-01,-3.067545056343078391e-01,-3.016547182488271139e-01,2.254678487777709850e-01,-2.067545056343078613e-01,-2.280911207199096680e-01,5.268899632657126908e-01,-7.412695884704589844e-01,-1.495834589004516602e-01,9.308797200937594596e+01,2.794412374496459961e-01
1.526880000000000015e+00,-6.554235233756034763e-03,3.534525076143503475e-02,8.342966437339782715e-01,-3.399406999976008203e-02,-3.398441236895144435e-02,-2.417038786429744415e-02,-2.778660178251476237e-02,8.488669574958127018e-02,-7.151753455400466919e-02,-5.652219772041868623e-02,-6.981991670339798839e-02,9.043371157952656558e-02,3.259283661842345969e-01,-3.138343572616577037e-01,-2.968432902676643170e-01,2.259283661842346191e-01,-2.138343572616576982e-01,-2.280680894851684348e-01,5.269349289644597034e-01,-7.359761595726013184e-01,2.180882692337036133e-01,1.179388981346045000e+02,2.794412374496459961e-01
1.553096999999999950e+00,-6.876084662435045375e-03,3.696405515757444915e-02,8.328502178192138672e-01,-3.292782288351123188e-02,-3.354652715375072702e-02,-2.103298916580706793e-02,-1.689842157489692548e-02,8.673387825501756299e-02,-6.158262491226196289e-02,1.779818292207976382e-01,7.669526046860783430e-02,1.283115382330084209e-01,3.026210784912109486e-01,1.121747314929961992e-01,1.100109170582205254e-01,2.026210784912109431e-01,2.121747314929962047e-01,1.698846101760864147e-01,5.266668088272221659e-01,-7.284516692161560059e-01,3.584886789321899414e-01,-1.123939388305238793e+02,2.794412374496459961e-01
1.577887000000000040e+00,-7.113673028763913171e-03,3.814533735490730632e-02,8.322272896766662598e-01,-2.973423005189839222e-02,-3.103930138632193803e-02,-1.895005997515337645e-02,-3.166344994503442895e-02,8.403776853775450639e-02,-3.823283687233924866e-02,1.912807145842856105e-01,1.630505657507671236e-01,9.147130481441539951e-02,2.472829222679138184e-01,1.196019470691680742e-01,1.641248184935642229e-01,1.472829222679138128e-01,2.196019470691680797e-01,2.180033147335052324e-01,5.250752833454798152e-01,-7.356784939765930176e-01,-7.057678699493408203e-02,8.712829044908131948e+01,2.794412374496459961e-01
1.602908999999999917e+00,-7.580743806233754267e-03,4.002288983445548981e-02,8.315603733062744141e-01,-2.122854810306783191e-02,-2.412960118675200327e-02,-1.538079878462593822e-02,-2.868730319662967862e-02,8.113111110307984208e-02,-2.226589992642402649e-02,3.699402608690757766e-01,2.418356813390024895e-01,1.030671022294376987e-01,2.749618530273437722e-01,1.237136662006378118e-01,1.778253532247199842e-01,1.749618530273437389e-01,2.237136662006378174e-01,2.212080359458923340e-01,5.244492526995964132e-01,-7.187395095825195312e-01,-2.033528089523315430e-01,9.749901745839690648e+01,2.794412374496459961e-01
1.626887999999999890e+00,-7.852125197706933887e-03,4.137993645999212683e-02,8.311594724655151367e-01,-1.456150984299539423e-02,-1.756616859712600842e-02,-1.278581839081945407e-02,-2.356612677197284997e-02,9.671438250683808691e-02,-4.249549284577369690e-02,3.105279668966186568e-01,3.761121213923590556e-01,1.558777850807813448e-01,-2.765687704086303156e-02,1.165879487991332841e-01,1.856462146192197904e-01,-1.276568770408630371e-01,2.165879487991332897e-01,2.214323401451110673e-01,5.264045204697948011e-01,-7.049650549888610840e-01,-3.464161157608032227e-01,-1.981092612158154864e+01,2.794412374496459961e-01
1.654700999999999977e+00,-7.994453102521807339e-03,4.298059890103402697e-02,8.309087157249450684e-01,-6.606162800221214437e-03,-1.116428101098221326e-02,-9.949432592610885084e-03,-1.957975416032723542e-02,9.948568672517554834e-02,-8.328834548592567444e-03,4.864548581313786202e-01,2.922341073600155936e-01,1.598159117428720744e-01,2.507134675979614258e-01,1.320455264696890896e-01,1.955971183933989110e-01,1.507134675979614202e-01,2.241898119449615423e-01,2.232832968235015925e-01,5.242661462256820171e-01,-6.962034702301025391e-01,4.701939821243286133e-01,-8.550674889860694350e+01,2.794412374496459961e-01
1.678120999999999974e+00,-8.116879183872920817e-03,4.467903751500403031e-02,8.308437466621398926e-01,9.321829784828302833e-04,-4.075535880804004307e-03,-7.142436150929542572e-03,-2.520473419199879134e-02,8.662909225890287612e-02,-2.006381750106811523e-02,3.469717127452527361e-01,3.464826616934713055e-01,1.242372736157373175e-01,-8.902180665991772657e-02,1.698769731867154076e-01,2.032718479661707878e-01,-1.736154913902282770e-01,2.206527113914489580e-01,2.231088817119598333e-01,5.252748889975851210e-01,-6.971412897109985352e-01,1.040407776832580566e+00,-3.337243064318194996e+01,2.794412374496459961e-01
1.705092999999999970e+00,-8.315852134667999287e-03,4.799866981360742524e-02,8.309415578842163086e-01,1.675411306594705441e-02,7.591051358349920619e-03,-4.798936285905452265e-03,-1.199653249132914996e-02,8.800047894247721436e-02,-3.292955690994858742e-03,3.885774379591965810e-01,1.973378147135282368e-01,-1.921384100108692802e-02,-1.392762571476408584e-01,2.571359503147075953e-01,2.077708616625946747e-01,-1.264736831188201793e-01,2.216311633586883489e-01,2.214505970478057861e-01,5.245448296039918468e-01,-6.789374947547912598e-01,-3.734377622604370117e-01,-1.006482930337374349e+01,2.794412374496459961e-01
1.730167999999999928e+00,-8.364624008151095441e-03,4.879465605266363609e-02,8.310104012489318848e-01,2.066470401108128421e-02,8.902729377620044460e-03,-5.091765231561879747e-03,-1.345010391663577047e-02,9.248541528078102480e-02,-8.375744335353374481e-03,4.141035637881582132e-01,6.733722621913362794e-02,-5.219243918804931243e-02,1.524336702720943126e-01,2.634819400628893304e-01,1.162402331848609305e-01,1.867224454879760631e-01,2.224996268749236950e-01,1.308173239231109619e-01,5.245467834588150025e-01,-7.077028751373291016e-01,-1.564134359359741211e-01,1.465160544521010024e+02,2.794412374496459961e-01
1.752356999999999942e+00,-8.447280622282201182e-03,5.136931491474761025e-02,8.307952880859375000e-01,3.056992305121484024e-02,9.911559607628683821e-03,-6.780697625027278658e-03,-2.326062417469251797e-02,8.888678503972861911e-02,-1.122371386736631393e-02,2.885199768038888002e-01,-1.307814489616100466e-02,-8.832911726588461854e-02,8.758440017700194757e-02,2.606136099457625477e-01,7.912188724694423081e-03,1.875844001770019531e-01,2.206137835979461725e-01,2.729499936103820662e-02,5.248670907385930562e-01,-7.114253044128417969e-01,4.620765447616577148e-01,-6.575132830931549677e+01,2.794412374496459961e-01
1.783373000000000097e+00,-8.492498295391870053e-03,5.390641260356816844e-02,8.303355574607849121e-01,3.774425788380999375e-02,7.714764531517426249e-03,-9.058992389392273720e-03,-1.653643155797203390e-02,7.634256269701995834e-02,-1.782373525202274323e-02,1.560860112428845980e-01,-9.903491713789376594e-02,-8.780560159433845047e-02,1.048258543014526367e-01,1.961585895790107226e-01,-1.847693967900382039e-01,2.048258543014526423e-01,1.644614875316619818e-01,-1.590466260910034235e-01,5.257067205797196774e-01,-7.026711702346801758e-01,2.947223186492919922e-02,3.833684435837899684e+01,2.794412374496459961e-01
1.806203000000000003e+00,-8.489980559705420302e-03,5.560187315683595005e-02,8.298066854476928711e-01,4.055419379426546123e-02,5.517106908153213141e-03,-1.067961281497766500e-02,-9.344212979347777531e-03,8.598598653501103584e-02,-1.349530834704637527e-02,1.575636326686784550e-01,-1.357028726209926761e-01,-1.143703671282959577e-01,1.041390299797058105e-01,1.727993341328228905e-01,-1.746321088936415855e-01,2.041390299797058161e-01,1.513298034667968639e-01,-1.444634914398193193e-01,5.260147172485855060e-01,-6.805095672607421875e-01,5.912371873855590820e-01,-7.535578664093110390e+00,2.794412374496459961e-01
1.825201999999999991e+00,-8.438765359198277874e-03,5.795853533759132842e-02,8.289564251899719238e-01,4.391549486405206537e-02,1.256944517848301857e-03,-1.383795461518332395e-02,-6.663374681510385138e-03,6.812573613137842821e-02,-1.473282929509878159e-02,8.536010901994692257e-02,-1.655196611888679337e-01,-1.141029613352672195e-01,8.136264085769651100e-02,9.217433018280947465e-02,-2.074060506659171355e-01,1.813626408576965165e-01,9.773615598678588035e-02,-1.687224268913269098e-01,5.269232979968089259e-01,-6.479942798614501953e-01,3.797374963760375977e-01,-6.723573332163437044e+01,2.794412374496459961e-01
1.851369000000000042e+00,-8.756890212550737240e-03,5.979902222123573835e-02,8.282311558723449707e-01,4.436016346960681977e-02,-1.759316291570334201e-03,-1.596840027694502312e-02,-1.378751923464919225e-02,7.623861860126893153e-02,-2.367809414863586426e-02,1.694219934655444640e-02,-2.006507049941596565e-01,-1.021009566799612051e-01,-5.893169641494751948e-02,2.834752807831264487e-02,-2.266965555915649577e-01,4.106830358505248607e-02,5.981208086013793668e-02,-1.823799848556518499e-01,5.295064993982789847e-01,-5.553576946258544922e-01,4.255636930465698242e-01,-5.097746691758512583e+00,2.794412374496459961e-01
1.876198999999999950e+00,-9.279085423773817537e-03,6.242989116838430774e-02,8.271260857582092285e-01,4.329238481885256534e-02,-7.532859003445135926e-03,-1.868316097937362461e-02,-1.365469557325243652e-02,6.171627630329922648e-02,-2.806900441646575928e-02,-1.525689469148137391e-02,-2.373204957460319509e-01,-7.728062235053764772e-02,-1.666435420513153187e-01,-1.725302614208048813e-01,-2.573410958575126917e-01,-6.664354205131529929e-02,-1.040581226348876870e-01,-2.058595418930053711e-01,5.289752364033065701e-01,-6.157375574111938477e-01,9.034574031829833984e-02,1.151186174036578507e+02,2.794412374496459961e-01
1.900744999999999907e+00,-9.905145854912176390e-03,6.474976184523958955e-02,8.261422514915466309e-01,4.351176236387058194e-02,-1.542953881600661603e-02,-2.005025766666588757e-02,-1.793013673351818993e-02,5.720747340390760355e-02,-2.783690579235553741e-02,1.763133640328309534e-02,-2.599207568278724123e-01,-5.606180249173279423e-02,-1.748087227344513050e-01,-2.867738008499145508e-01,-2.464933724916233415e-01,-7.480872273445128562e-02,-1.867738008499145452e-01,-1.918673515319824219e-01,5.279720140963040098e-01,-6.836422681808471680e-01,2.282098531723022461e-01,8.656033972902726248e+01,2.794412374496459961e-01
1.926109000000000071e+00,-1.044812134892152654e-02,6.609136555668823632e-02,8.255122900009155273e-01,4.406953292235055164e-02,-2.116548684329622176e-02,-1.952155293736443017e-02,-1.815933596590395618e-02,4.954945476993080633e-02,-3.011744841933250427e-02,1.814479846553366041e-02,-2.658018225549723113e-01,8.743501281810818482e-02,-1.207409501075744629e-01,-3.117300748825073131e-01,-2.570098168965955221e-01,-2.074095010757446081e-02,-2.117300748825073076e-01,-2.043215274810790960e-01,5.278431049623997229e-01,-7.122487425804138184e-01,6.767877340316772461e-01,-8.376695628303211549e+01,2.794412374496459961e-01
1.950352000000000086e+00,-1.090931840289811536e-02,6.732696613974084587e-02,8.249337673187255859e-01,4.506636182363872589e-02,-2.652761565387606879e-02,-1.870193406740346814e-02,-3.392722076962265132e-02,3.999347061320922270e-02,-2.293939515948295593e-02,3.657706372777492360e-02,-2.828284672348785334e-01,2.048258697694603850e-02,-2.714338362216949241e-01,-3.073723793029785045e-01,-2.283230764974705507e-01,-1.714338362216949463e-01,-2.073723793029784990e-01,-1.785180330276489313e-01,5.275496916977049366e-01,-7.120530605316162109e-01,-2.251827716827392578e-02,1.225250969547012545e+02,2.794412374496459961e-01
1.978801999999999950e+00,-1.146134419583125057e-02,6.892419170409135043e-02,8.242087960243225098e-01,4.701905361781583137e-02,-3.244613491830827812e-02,-1.624882965352055300e-02,-2.100884292116924484e-02,2.332036136767928064e-02,-1.494750846177339554e-02,6.536350378811942030e-02,-1.574782137586699937e-01,8.660093478724202598e-02,-2.839961767196655384e-01,-3.062545776367187611e-01,-1.353930391575950409e-01,-1.839961767196655329e-01,-2.062545776367187556e-01,-9.281437397003174106e-02,5.272850059446007043e-01,-7.068489193916320801e-01,5.416010618209838867e-01,-2.149843022396533598e+01,2.794412374496459961e-01
2.005087000000000064e+00,-1.214854322717823405e-02,7.024895592160679270e-02,8.236289620399475098e-01,4.779590025077630477e-02,-3.590571164410394367e-02,-1.269907649969991698e-02,-3.927568100201721951e-02,2.195098151925374899e-02,-2.795877866446971893e-02,-2.016068197701309517e-02,-6.003898928055555889e-02,1.316108162482048649e-01,8.443040847778318647e-02,-3.198545217514038308e-01,3.133950952202181617e-03,1.844304084777831920e-01,-2.198545217514037975e-01,3.523775339126587053e-02,5.289848376705488242e-01,-6.782169342041015625e-01,5.616295337677001953e-02,9.537101738096608017e+01,2.794412374496459961e-01
2.026549000000000156e+00,-1.241108205868529137e-02,7.063520447092704047e-02,8.234301209449768066e-01,4.757933259980957896e-02,-3.643138900172826489e-02,-1.142370918170284091e-02,-3.206287956010960699e-02,1.639023262283864288e-02,-1.810208894312381744e-02,-4.565745285578118318e-02,-3.138798054057415771e-02,1.234688158741661101e-01,1.038753867149352916e-01,-3.208646059036254772e-01,1.871056631371572909e-01,2.038753867149352972e-01,-2.208646059036254716e-01,2.157334327697753851e-01,5.287731151926789996e-01,-6.611525416374206543e-01,-1.772760152816772461e-01,9.355773192992191412e+01,2.794412374496459961e-01
2.052777999999999992e+00,-1.314732964120363286e-02,7.187173876038835396e-02,8.228179216384887695e-01,4.473827633163245110e-02,-3.497006124513868386e-02,-6.924464944730607946e-03,-3.146861036403037631e-02,1.683174422870706635e-02,-1.804681122303009033e-02,-1.403704007789209895e-01,1.144807917776519829e-01,1.523624756354810539e-01,-3.243310570716858021e-01,-1.439490675926208552e-01,1.975849008489780900e-01,-2.243310570716857966e-01,-4.394906759262084961e-02,2.138685643672943171e-01,5.416027138842915978e-01,3.462302684783935547e-02,-1.469837427139282227e-01,8.617196834263116045e+01,2.794412374496459961e-01
2.078444999999999876e+00,-1.381580447474012492e-02,7.332702410681653238e-02,8.222110271453857422e-01,3.993481166017122386e-02,-2.919250333468581537e-02,-2.028193079866130386e-03,-4.609013107926746011e-02,-4.583535365661783531e-03,-1.980859600007534027e-02,-2.040006581609823400e-01,2.197759164024070122e-01,1.438107499251478072e-01,-3.247707784175872803e-01,-1.063858032226562556e-01,2.099711296265299176e-01,-2.247707784175872747e-01,-6.385803222656250000e-03,2.132205069065093994e-01,5.378480469595954272e-01,-1.928930878639221191e-01,1.322513818740844727e-01,9.640249205885389472e+01,2.794412374496459961e-01
2.105586999999999875e+00,-1.456125479180899254e-02,7.451240633343855779e-02,8.216108679771423340e-01,3.439435773829428722e-02,-2.048473056582644780e-02,2.954153117195984848e-03,-3.116298107569277082e-02,1.078407590466735552e-02,-3.450248762965202332e-02,-2.491011914624531864e-01,3.649212734782768530e-01,1.882768912839735131e-01,-3.255167007446289062e-01,-8.363875746726989746e-02,2.238076355572983511e-01,-2.255167007446289007e-01,1.636124253273010115e-02,2.139476895332336481e-01,5.410970420233180977e-01,-8.381080627441406250e-02,-3.945351839065551758e-01,7.153004400755064296e+01,2.794412374496459961e-01
2.129659999999999886e+00,-1.478886120229623742e-02,7.487004552086611031e-02,8.214238882064819336e-01,3.225646095889001669e-02,-1.746567081976069247e-02,4.369591777744867567e-03,-4.362505180187466192e-02,-6.738894146466421070e-03,-1.687042415142059326e-02,-2.291351632760653123e-01,2.922422381700089389e-01,1.412732394684046433e-01,-3.251150488853454812e-01,-5.342018604278565147e-02,2.275799494313882898e-01,-2.251150488853454479e-01,4.657981395721435408e-02,2.139802336692810114e-01,5.382149319727320691e-01,-1.844861507415771484e-01,2.356365919113159180e-01,8.752166153394986736e+01,2.794412374496459961e-01
2.154551999999999801e+00,-1.604445775530496596e-02,7.648750219828955033e-02,8.202714920043945312e-01,2.351233028801486685e-02,-4.478121020093928095e-03,8.335254739462451615e-03,-3.601816101623245975e-02,-1.048721933001282164e-02,-9.881821461021900177e-03,-1.249983516808609862e-01,3.321304904698134108e-01,7.268160621482388194e-03,-3.201789488453383736e-01,5.770432166628368387e-02,2.411289368339810391e-01,-2.249635398387908880e-01,1.212258696556091225e-01,2.173461735248565507e-01,5.342904927036995488e-01,-3.876720666885375977e-01,-9.261548519134521484e-02,1.087958361568961720e+02,2.794412374496459961e-01
2.179481000000000002e+00,-1.640057395643150853e-02,7.695431061796340066e-02,8.199976682662963867e-01,2.251425198960439744e-02,-1.488287959780620895e-03,8.604999729861440710e-03,-2.980348539845132511e-02,-1.300889522210040526e-02,-2.265352755784988403e-03,-5.186120156242177148e-02,2.637614981605694853e-01,-7.232888204025986027e-03,-3.138773882248114266e-01,1.267335199980597904e-01,2.408648317129443162e-01,-2.243378162384033203e-01,1.676399946212768499e-01,2.164943218231201172e-01,5.318374647865311555e-01,-5.026266574859619141e-01,-1.649571657180786133e-01,8.267450167623442780e+01,2.794412374496459961e-01
2.205807000000000073e+00,-1.734002943656198434e-02,7.795707237019515456e-02,8.193448185920715332e-01,2.076140172321886898e-02,6.867081164973587448e-03,7.684687844022462105e-03,-2.818753594584782682e-02,-1.916025775332748718e-02,-1.164914807304739952e-03,-4.973209201085813935e-02,2.488409688796331676e-01,-6.293976436545621611e-02,-3.059371976563261541e-01,2.136461171819171723e-01,2.411950434585811986e-01,-2.243876338005065807e-01,2.006787836551666149e-01,2.197579801082611139e-01,5.304490117277518291e-01,-5.860177278518676758e-01,6.549493074417114258e-01,1.144026291635329216e+02,2.794412374496459961e-01
2.234256999999999938e+00,-1.813644963376163932e-02,7.892710481140575995e-02,8.186911344528198242e-01,1.558845512179458416e-02,1.504445906837093005e-02,6.128017221599743256e-03,-3.068657392507052883e-02,-1.144294833560929869e-02,-1.716266945004463196e-02,-2.409301689399156454e-01,2.607696010529462205e-01,-1.694812923788124523e-02,-2.619046167609700992e-01,2.854966000073492216e-01,2.302852596954452769e-01,-2.210904657840728760e-01,2.220519661903381237e-01,2.134663760662078857e-01,5.292184676287893241e-01,-7.292997241020202637e-01,4.570027589797973633e-01,4.819611314226568055e+01,2.794412374496459961e-01
2.257473000000000063e+00,-1.880540263263450612e-02,7.983493123874529918e-02,8.186594247817993164e-01,1.057547368994544816e-02,1.910545162501797734e-02,4.667464390683926691e-03,-1.636811470267472007e-02,-6.094462547993700907e-03,-1.231876108795404434e-02,-2.768316340211847137e-01,1.921132752629085005e-01,-6.138331166703323016e-02,-2.169629103768705158e-01,3.249949753284454568e-01,2.019910551883592476e-01,-2.123440325260162187e-01,2.249949753284454235e-01,1.893623650074005016e-01,5.288292186558323227e-01,-7.412202358245849609e-01,-2.639020681381225586e-01,1.523767119298087778e+02,2.794412374496459961e-01
2.282275999999999971e+00,-1.995908225692451937e-02,8.159624260223256875e-02,8.187381029129028320e-01,9.624420402381977414e-04,2.315369344298168208e-02,2.768838630730864267e-03,-2.030776629889384163e-02,-3.541863378775771294e-03,-2.866937778890132904e-03,-3.691244772712543032e-01,8.883734519211419767e-02,-7.417943109983278493e-02,2.553260059836053308e-01,3.249467134475708119e-01,-2.045210293110027444e-01,1.950043201446533259e-01,2.249467134475708063e-01,-2.119828462600708008e-01,5.282931532169549138e-01,-7.422139048576354980e-01,-1.024281978607177734e-02,1.650101713281228797e+02,2.794412374496459961e-01
2.307506000000000057e+00,-2.061944988931888739e-02,8.279301446978129531e-02,8.191005587577819824e-01,-5.902350612878665137e-03,2.470850113722300456e-02,1.243941809890555372e-03,-1.087734455381112429e-02,-9.339002302380571214e-04,3.891803789883852005e-03,-3.496516948945753711e-01,4.872617664106780599e-02,-7.864044843216640157e-02,3.171704530715942494e-01,3.245788753032684548e-01,-2.167412395205357001e-01,2.171704530715942438e-01,2.245788753032684215e-01,-2.200841903686523438e-01,5.279401753355908999e-01,-7.422029972076416016e-01,6.259381771087646484e-02,5.127818819390974170e+01,2.794412374496459961e-01
2.333876000000000062e+00,-2.142827476123982181e-02,8.464245112481384725e-02,8.198298811912536621e-01,-1.673897970566418439e-02,2.484294620523375130e-02,-1.650501862659192092e-03,-2.423348787184310873e-03,1.611004750794719012e-02,1.014007348567247391e-02,-3.725747685338053339e-01,-1.610104810236938008e-02,-1.223035979722746219e-01,3.201852560043335072e-01,3.231499910354614369e-01,-2.272933117015409066e-01,2.201852560043335016e-01,2.231499910354614313e-01,-2.227956891059875433e-01,5.278383586246252479e-01,-7.291312813758850098e-01,1.989530324935913086e-01,1.077650786488712100e+02,2.187273740768432562e-01
2.356542999999999832e+00,-2.183721132677934537e-02,8.594290389991528223e-02,8.201950192451477051e-01,-2.395979229916667813e-02,2.353807470217339493e-02,-3.432378142010185547e-03,-4.748768430991064451e-03,1.734983595387588548e-02,7.747213821858167648e-03,-3.791848366976144358e-01,-5.631687834093795919e-02,-4.045304949653746873e-02,3.222079992294311634e-01,3.210129499435424583e-01,-2.342283260200632433e-01,2.222079992294311579e-01,2.210129499435424805e-01,-2.249376296997070146e-01,5.283233830030689138e-01,-7.192785739898681641e-01,-5.212668180465698242e-01,7.776369811583280978e+01,2.187273740768432562e-01
2.377787999999999791e+00,-2.240502990937834685e-02,8.721028683736546661e-02,8.205760717391967773e-01,-3.357798804156791883e-02,1.872007781721607422e-02,-6.446668111255899475e-03,1.319460896303204823e-02,2.858636273736519379e-02,1.914155669510364532e-02,-2.743917782387712556e-01,-2.429341869834514278e-01,-9.045176184754211146e-02,3.234913825988769420e-01,-6.686168909072875977e-02,-2.422366452059729613e-01,2.234913825988769365e-01,-1.668616890907287653e-01,-2.246616125106811468e-01,5.277566169612687430e-01,-7.120013236999511719e-01,3.721557855606079102e-01,-1.012393656516792930e+02,2.187273740768432562e-01
2.404167999999999861e+00,-2.284862206929963099e-02,8.885369171829390900e-02,8.209509253501892090e-01,-4.325162869981060559e-02,1.110687599898563249e-02,-8.612671098844804432e-03,-2.469994548445255452e-03,3.867951114596214490e-02,2.683233283460140228e-02,-3.281135711187601611e-01,-2.940143523388956126e-01,-8.040531893985869427e-02,3.252274155616760032e-01,-1.343149654592157294e-01,-2.499408196458954290e-01,2.252274155616760254e-01,-1.833735466003418024e-01,-2.261248826980590820e-01,5.273954360602357561e-01,-7.078819274902343750e-01,5.648621320724487305e-01,7.902610148955875502e+01,2.187273740768432562e-01
2.428652000000000033e+00,-2.313202832777606216e-02,9.015649238553946621e-02,8.211804032325744629e-01,-4.871326000085768326e-02,5.002182728337745132e-03,-8.493319491580447397e-03,-9.796871323276719595e-04,5.208525997806773278e-02,1.527883764356374741e-02,-2.832965525740335222e-01,-2.928798054179670984e-01,7.333089813006707369e-02,3.261812090873718040e-01,-1.767928548487017748e-01,-2.510853547908638572e-01,2.261812090873718262e-01,-1.892138600349426159e-01,-2.273938536643981823e-01,5.282879811778345980e-01,-7.125009298324584961e-01,1.890152692794799805e-01,-8.702805742301138991e+01,2.187273740768432562e-01
