timestamp,x,y,z,roll,pitch,yaw,vx,vy,vz,p,q,r,psp,qsp,rsp,pres,qres,rres,thrust_sp, thrust_res
0.000000000000000000e+00,-1.502914326419000496e-02,-2.243934723045124674e-02,1.048272609710693359e+00,2.032678447459707397e-02,-8.983841219676103051e-03,-8.578409368235284660e-03,1.082965305626882625e-02,1.094298706310904137e-03,-3.777454793453216553e-02,2.737472257426762715e-02,-6.007019610630977974e-02,-2.270783210921632767e-02,9.118492603302000288e-02,1.558383548563261056e-01,-2.063539661963699479e-01,1.911849260330200084e-01,2.150810837745666393e-01,-1.825683474540710505e-01,4.998979146607930302e-01,-5.946858525276184082e-01,-2.547322511672973633e-01,9.379247870150608435e+01,2.350328207015991155e-01
1.752599999999999991e-02,-1.506220476634859834e-02,-2.245454825106421234e-02,1.048160910606384277e+00,2.046327734447634175e-02,-9.054038318331736335e-03,-8.593065097688980594e-03,9.505470235711514781e-03,-4.270905333481200307e-03,-3.927687183022499084e-02,2.827744820953501798e-02,-1.641121449522384146e-02,-1.852912181843293640e-03,7.065515518188475452e-02,-5.538584672596726793e-02,-2.233066094188886630e-01,1.706551551818847601e-01,6.992697715759277344e-03,-1.994846820831298884e-01,4.989015223268798982e-01,-6.527494788169860840e-01,5.919134616851806641e-02,9.962655991315334347e+01,2.350328207015991155e-01
4.056799999999999989e-02,-1.519568804964660513e-02,-2.251247365057945996e-02,1.047756075859069824e+00,2.105960092404094222e-02,-9.205186231323381207e-03,-8.716231846531457411e-03,6.920685346976424360e-03,4.446627270551538509e-03,-3.872486576437950134e-02,5.171742213915333369e-02,2.435252642575813035e-03,-6.299456909196155148e-03,-3.040512681007385143e-01,1.138015755741198370e-01,-1.696535634268482584e-01,-2.040512681007385087e-01,1.792307317256927324e-01,-1.455235004425048662e-01,5.019497640199919175e-01,-4.920340776443481445e-01,8.965278863906860352e-01,-7.417658863167424954e+00,2.350328207015991155e-01
6.369099999999999762e-02,-1.524411892080525764e-02,-2.253633133378597428e-02,1.047260046005249023e+00,2.110155531264614609e-02,-9.249927546111536003e-03,-8.581221756476842960e-03,1.363405161656900712e-02,5.991143182731407252e-03,-4.191767051815986633e-02,-1.352276080398380140e-02,3.469433485973583489e-03,2.168657821896590940e-02,-3.237536132335662731e-01,8.977031228164894516e-02,1.934821488806323375e-01,-2.237536132335662675e-01,1.497104644775390514e-01,2.172568559646606279e-01,5.114860917164771870e-01,-2.068638801574707031e-03,2.603362798690795898e-01,9.231809357669962424e+01,2.350328207015991155e-01
8.740499999999999658e-02,-1.521313332620336835e-02,-2.182710485555042559e-02,1.046611785888671875e+00,2.118049626532396770e-02,-9.267567366076923108e-03,-7.363500682110821205e-03,1.098966317614299450e-02,7.535401530603545207e-03,-4.561563581228256226e-02,-5.152867842347639421e-02,-1.786198214814708682e-02,5.334898914000030246e-02,-1.209287047386169434e-01,3.514848923131586034e-02,-7.489662440031780166e-02,-2.092870473861694128e-02,9.830424785614012839e-02,-5.454897880554199219e-02,5.002086989998869582e-01,-6.147197484970092773e-01,2.835716009140014648e-01,8.400823954565198903e+01,2.350328207015991155e-01
1.142409999999999953e-01,-1.516102440169654619e-02,-2.080842901887670904e-02,1.045242309570312500e+00,1.897337349375666574e-02,-9.405529441819160397e-03,-5.416755254725073160e-03,8.870475753284416676e-03,2.031830742032574022e-02,-6.426987051963806152e-02,-1.030413654251953331e-01,7.894923376270908399e-03,-3.480856155816904572e-03,-3.197078406810760498e-01,8.547544721828961856e-02,1.453269298109125807e-01,-2.197078406810760443e-01,1.508021414279937800e-01,1.602225422859191728e-01,5.008508184247487671e-01,-6.611170172691345215e-01,2.000199556350708008e-01,4.149024024533633082e+01,2.350328207015991155e-01
1.366970000000000129e-01,-1.509208362008263547e-02,-1.990440729385696550e-02,1.043866872787475586e+00,1.389263537520322306e-02,-1.080782638999999712e-02,-5.945266384533962230e-03,3.142564485531268437e-03,2.244193896570576691e-02,-7.427321374416351318e-02,-2.259266484585858714e-01,-4.831422583229747630e-02,-1.542271021137336072e-02,-2.882288943486970290e-01,7.598780994207360306e-02,-1.574027869183213524e-01,-2.002878785133361816e-01,1.546715140342712347e-01,-1.409977197647094560e-01,5.006147027012716189e-01,-7.199665307998657227e-01,-4.250353574752807617e-01,1.492482940446461726e+02,2.350328207015991155e-01
1.630179999999999962e-01,-1.534782375364593388e-02,-1.837067145350718828e-02,1.042066574096679688e+00,8.032810905644933649e-03,-1.245434998103589486e-02,-6.224310739714912846e-03,4.562555632946059536e-03,1.936518838517946317e-02,-9.241444617509841919e-02,-2.591702356253502426e-01,-4.717884409405161128e-02,-2.669246783796703354e-02,-2.287722144390762491e-01,-1.378996946592932205e-02,-2.083597840449210592e-01,-1.771265387535095048e-01,7.373135089874267856e-02,-1.910848617553710938e-01,5.020141779081497280e-01,-7.278535366058349609e-01,-7.941615581512451172e-02,8.763800014608270317e+01,2.350328207015991155e-01
1.888710000000000111e-01,-1.579994357193939547e-02,-1.641994017246818302e-02,1.039816498756408691e+00,1.301585292871233193e-03,-1.461073947097379921e-02,-6.297399291724472235e-03,3.008446393006315115e-04,2.752293603512579595e-02,-1.036511138081550598e-01,-2.902121537842339283e-01,-7.511180718717500038e-02,3.133334855671081332e-02,9.983262557834922390e-02,-4.436043500900269110e-02,-2.401719722239251398e-01,9.954557418823241355e-02,5.563956499099731445e-02,-2.225994586944579912e-01,5.029804929864097884e-01,-7.335792183876037598e-01,-4.088662862777709961e-01,1.238948367512339530e+02,2.350328207015991155e-01
2.125559999999999949e-01,-1.614438815155378598e-02,-1.502907653397871253e-02,1.037999749183654785e+00,-3.697658515046864033e-03,-1.583355095243521582e-02,-5.087379865534150808e-03,9.837252261311596815e-03,4.426528407249157721e-02,-1.203261315822601318e-01,-2.707503681608213197e-01,-6.554614689387405768e-02,7.448081812758529374e-02,2.410832739983047590e-01,-3.318063020706177313e-02,-2.390858573608612703e-01,1.952731132507324052e-01,6.681936979293823242e-02,-2.248333811759948564e-01,5.046621903445095425e-01,-7.222675085067749023e-01,1.820266246795654297e-02,7.656489063346884905e+01,2.350328207015991155e-01
2.383790000000000076e-01,-1.664909172972165938e-02,-1.280803244600528350e-02,1.034982204437255859e+00,-1.193584839725544619e-02,-1.724321484572510776e-02,-2.397346131467433580e-03,5.656989506559862053e-03,5.459126246701514334e-02,-1.350124925374984741e-01,-2.739734958486766958e-01,-2.556775886917710822e-02,1.115681106179965271e-01,3.131482481956481823e-01,-1.314617395401002087e-02,-2.316665488437504861e-01,2.131482481956481767e-01,8.685382604598998468e-02,-2.247611761093139537e-01,5.064371179356226271e-01,-7.035996317863464355e-01,1.946815252304077148e-01,1.158924778366203014e+02,2.350328207015991155e-01
2.636299999999999755e-01,-1.714525383434010314e-02,-1.036815448958945500e-02,1.031620979309082031e+00,-1.638243721057718039e-02,-1.858023752698390041e-02,8.234335338547912539e-04,-6.112571696097372255e-03,5.182571711585971796e-02,-1.288867294788360596e-01,-8.587676400401252075e-02,-5.023922010671428434e-02,1.013417292696016103e-01,3.194888114929199108e-01,-2.977546930313110241e-01,-2.251839857389341393e-01,2.194888114929199052e-01,-1.977546930313110185e-01,-2.271270990371704046e-01,5.063930332510104826e-01,-6.998953819274902344e-01,-5.356731414794921875e-01,-4.121121335736297198e+01,2.350328207015991155e-01
2.888120000000000132e-01,-1.756501571767416989e-02,-7.829400048613283786e-03,1.028169393539428711e+00,-1.508037561966274476e-02,-1.963252647730096001e-02,4.323771757970968667e-03,-1.592175092331293840e-02,4.518578131748371418e-02,-1.349279284477233887e-01,1.218384365030128480e-01,2.568636453498164378e-03,1.457952896481519434e-01,-5.526020526885985773e-02,8.964548110961911842e-02,2.273029649314060874e-01,-1.552602052688598633e-01,1.896454811096191240e-01,2.155680119991302546e-01,5.249130500334410199e-01,2.498801946640014648e-01,-2.923263311386108398e-01,1.047824716421100391e+02,2.350328207015991155e-01
3.149770000000000070e-01,-1.801705192331325145e-02,-5.344248606460500102e-03,1.024568080902099609e+00,-9.570382978008317235e-03,-1.938582398724619793e-02,7.802791656147859897e-03,-5.538666892625322864e-03,4.387583886021435148e-02,-1.354183107614517212e-01,2.192583554094065523e-01,3.206012489228086265e-02,1.470458979741407213e-01,-8.726238295775727571e-02,1.201458454132079967e-01,1.199179170406511202e-01,-1.744941473007202148e-01,2.201458454132080023e-01,9.824241399765014371e-02,5.134958267847458124e-01,-3.869701623916625977e-01,-2.340662479400634766e-02,1.515563515689769076e+02,2.350328207015991155e-01
3.392009999999999748e-01,-1.817545470788278425e-02,-3.620461694337579785e-03,1.021685838699340820e+00,-4.885226431398512724e-03,-1.709729526559411461e-02,9.074281780925763305e-03,8.956185438712665342e-03,6.272216085042452149e-02,-1.575761139392852783e-01,2.450692242928345366e-01,1.438118571728272677e-01,1.107109474494749092e-02,-1.363720604851902662e-01,1.018741905689239391e-01,2.454316518938736147e-01,-2.091201245784759521e-01,2.018741905689239446e-01,2.199886143207550049e-01,5.115765715190564444e-01,-5.952521562576293945e-01,6.110440492630004883e-01,-7.453805931802425278e+01,2.350328207015991155e-01
3.616829999999999767e-01,-1.815272686551701667e-02,-1.343448069567457171e-03,1.017163515090942383e+00,4.741193849579351631e-04,-1.421603821638939280e-02,8.183294981813766383e-03,5.814737649045807630e-05,7.395951676780943007e-02,-1.600355356931686401e-01,1.654205662486959993e-01,1.037603049614235773e-01,-5.283148413141012384e-02,-1.550481907491878253e-01,1.045102298259734941e-01,2.399384737520092736e-01,-2.007129907608032060e-01,2.045102298259734996e-01,2.168447971343994141e-01,5.120754082877325697e-01,-6.035727262496948242e-01,2.127274274826049805e-01,3.189004053666823069e+01,2.350328207015991155e-01
3.867820000000000147e-01,-1.776551199079576954e-02,4.081379389499291323e-04,1.012313246726989746e+00,2.546002027960479318e-03,-1.351344489439965102e-02,6.690795108032737519e-03,-8.331978739418219662e-03,7.600941176428960278e-02,-1.680867671966552734e-01,3.425521657265312436e-02,9.785962124498264608e-03,-7.996152033004381987e-02,-1.505642924638218028e-01,9.983746409416197065e-02,2.267457404824625711e-01,-1.839809060096740667e-01,1.998374640941619762e-01,2.077787876129150446e-01,5.129096875400118716e-01,-6.178799271583557129e-01,-3.163074254989624023e-01,1.652582437987777269e+02,2.350328207015991155e-01
4.126900000000000013e-01,-1.742211531839549937e-02,2.566415561330689672e-03,1.006714224815368652e+00,2.034073803767594106e-03,-1.446859160195690386e-02,4.096964968526894783e-03,-2.737977972625118845e-03,8.542533350481766596e-02,-1.817188560962677002e-01,-6.681344286721106751e-02,-5.637096162194807358e-02,-1.032204778103252701e-01,1.901889879762326541e-01,-2.130432367324829046e-01,-2.025089541230512269e-01,1.450817942619323786e-01,-1.130432367324828991e-01,-2.142321109771728460e-01,5.205133270798159018e-01,-2.945704460144042969e-01,-7.944715023040771484e-02,9.966887976525075032e+01,2.350328207015991155e-01
4.398469999999999880e-01,-1.718429325332174878e-02,4.863982748421633896e-03,1.001033663749694824e+00,-8.876233169465575770e-04,-1.651311879374572911e-02,1.095250443096074675e-03,-2.934964135707347679e-03,1.002489992783492379e-01,-2.046767622232437134e-01,-1.551644962160867169e-01,-7.339389871796229980e-02,-1.094830649491910918e-01,2.742293036607253987e-01,-2.870207786560058372e-01,-2.195618509545508856e-01,1.986790895462036133e-01,-1.870207786560058594e-01,-2.228837013244628906e-01,5.170009812618928668e-01,-6.073363423347473145e-01,-2.299034595489501953e-02,1.566295428768955560e+02,2.350328207015991155e-01
4.633349999999999969e-01,-1.713114761194497668e-02,6.608879842634344040e-03,9.969661831855773926e-01,-3.165526654888897989e-03,-1.788309401881571503e-02,5.588092921042024349e-04,-1.108535511337232007e-02,1.004795746017001362e-01,-2.009712606668472290e-01,-1.349265742562290871e-01,-6.375437949920502445e-02,1.045568008136875740e-02,2.952143234284231310e-01,-2.688039302825927512e-01,-2.245024308612575403e-01,2.053826093673705999e-01,-1.688039302825927734e-01,-2.262856721878051536e-01,5.151892707542089500e-01,-7.161633372306823730e-01,5.120319128036499023e-01,9.645436051541096845e+01,2.123203516006469671e-01
4.891519999999999757e-01,-1.662496648394980181e-02,9.846595521708384480e-03,9.910668134689331055e-01,-4.625628481660445587e-03,-1.816438365143180356e-02,2.148140543367225118e-03,-6.285107150296745382e-03,1.064792808376355954e-01,-2.048279941082000732e-01,-2.146635768450465189e-03,1.611620931641006768e-02,6.844763225100083948e-02,-1.041850388050079290e-01,-1.272546768188476674e-01,2.136032044895666837e-01,-2.041850388050079346e-01,-2.725467681884765486e-02,2.073874533176422175e-01,5.215319610678998963e-01,-4.242317080497741699e-01,4.177614450454711914e-01,-5.172023718321931973e+00,2.123203516006469671e-01
5.153149999999999675e-01,-1.616787724211227878e-02,1.308969325532721370e-02,9.851970672607421875e-01,-2.633515169589695920e-03,-1.551350327549050334e-02,4.848580082777922441e-03,-9.280283557976862913e-03,1.127409681461534197e-01,-2.084293812513351440e-01,1.426757095151362231e-01,1.615190914149721713e-01,1.038996432657201818e-01,-1.054661936132144512e-01,-8.484578728675842840e-02,2.172676737315208939e-01,-2.046272814273834284e-01,1.515421271324157715e-02,2.034385979175567516e-01,5.190450169322906593e-01,-6.072620749473571777e-01,1.265987157821655273e-01,1.051909032940984616e+02,3.026088476181030273e-01
5.411110000000000086e-01,-1.555078163409498275e-02,1.626017434410243628e-02,9.796289205551147461e-01,2.652406437035449011e-03,-1.022801142466889246e-02,5.758886274284519095e-03,-6.002291478378077479e-03,1.071009630072763535e-01,-1.957992613315582275e-01,1.724364955290957346e-01,2.059802533364427923e-01,-2.130199429126910030e-02,-1.139367802560654896e-01,7.867973605589213826e-02,2.160222729626452010e-01,-1.759601891040802057e-01,1.584934473037719616e-01,1.996414661407470703e-01,5.203287443085164998e-01,-5.208314061164855957e-01,-1.878082752227783203e-02,9.141848253092807397e+01,3.026088476181030273e-01
5.630709999999999882e-01,-1.511174728845834925e-02,1.851913391868541953e-02,9.757426977157592773e-01,5.229577486113026578e-03,-6.130059160579293120e-03,4.551263236807948954e-03,8.763616825789631234e-03,1.168580459514099307e-01,-2.134640514850616455e-01,1.060337756792216618e-01,2.102394967272686044e-01,-6.508815114404205293e-02,-1.414543744600020581e-01,1.470184247313685022e-01,2.262654380902768270e-01,-1.963152587413787842e-01,1.891336083412170355e-01,2.133496105670928955e-01,5.203331075425609020e-01,-6.179331541061401367e-01,-2.882635593414306641e-02,6.004314797463908349e+01,3.026088476181030273e-01
5.899759999999999449e-01,-1.397593831572980366e-02,2.212657120790769913e-02,9.700198173522949219e-01,6.543490746723269053e-03,-6.861285316075438345e-04,2.023827864242551400e-03,9.843271304244002179e-03,1.274528784096620737e-01,-2.170115262269973755e-01,-1.698330799665717303e-02,1.637440793611337486e-01,-1.048156949316779718e-01,-1.502096109542453983e-01,2.127742569979564347e-01,2.277490017262867317e-01,-2.056585013866424616e-01,2.202460169792175293e-01,2.220470130443572832e-01,5.208213710453991618e-01,-6.409198641777038574e-01,-2.159467935562133789e-01,1.032849594967739222e+02,3.026088476181030273e-01
6.122379999999999489e-01,-1.293380589577004282e-02,2.608262190239025308e-02,9.640731811523437500e-01,5.239743546432112931e-03,1.791299277602353968e-03,-6.881723479165002128e-04,-1.876912058700317505e-03,1.314011991052319861e-01,-2.260233610868453979e-01,-4.298035843161222835e-02,6.237872526519703392e-02,-1.001814873032376429e-01,1.274735072360335120e-01,2.249801591065085093e-01,2.211090918995627930e-01,5.955423116683959683e-02,2.250190973281860352e-01,2.230359613895416260e-01,5.235178293492468438e-01,-5.673791766166687012e-01,9.319424629211425781e-03,1.598847563938102780e+02,3.026088476181030273e-01
6.394379999999999509e-01,-1.209915360749641046e-02,2.998904682417007431e-02,9.584332108497619629e-01,2.666184044284990434e-03,4.267482951294532256e-04,-3.858524146282979548e-03,-6.874980919896278228e-03,1.395064384516645495e-01,-2.184486538171768188e-01,-9.798715806572032283e-02,-1.211960241646543174e-01,-1.267085614151536588e-01,3.068170696616030479e-01,1.994257005235507973e-01,-2.068661990946854268e-01,2.137825012207031083e-01,2.103518307209014948e-01,-1.961076378822326494e-01,5.251192457768555366e-01,-4.861972332000732422e-01,6.229299306869506836e-01,3.518042952780851351e+01,3.026088476181030273e-01
6.637800000000000367e-01,-1.158434623613105452e-02,3.275592662814919009e-02,9.546649456024169922e-01,1.080846203308164031e-03,-1.829787923730341603e-03,-6.094950759403815893e-03,-1.634701335688484077e-03,1.455973075987972987e-01,-2.209027409553527832e-01,-7.043070039519862269e-02,-1.320676045078744143e-01,-1.350175199101935619e-01,3.166474580764770397e-01,1.695859343413363141e-01,-2.264888929176929744e-01,2.166474580764770341e-01,1.904668271541595514e-01,-2.095065593719482311e-01,5.268679479994407000e-01,-4.291638135910034180e-01,1.419366598129272461e-01,1.406203581039510482e+02,3.026088476181030273e-01
6.890399999999999858e-01,-1.110427341886634396e-02,3.694981578252548582e-02,9.493517279624938965e-01,7.170451646978033859e-04,-7.112548204170510147e-03,-8.114076617495599372e-03,-1.015971993335839339e-02,1.443439733470290309e-01,-2.122886329889297485e-01,3.961153175506691021e-02,-2.076113754542561474e-01,-1.946883894576523916e-02,3.186026096343994030e-01,9.104120148019539949e-02,-1.591478973714799683e-01,2.186026096343993974e-01,1.533895790576934870e-01,-1.366782546043396052e-01,5.226671152391459962e-01,-6.576140522956848145e-01,-1.514219045639038086e-01,1.050854929846376535e+02,3.026088476181030273e-01
7.115780000000000438e-01,-1.094555846107327611e-02,4.120305686684151009e-02,9.442943334579467773e-01,4.376828327772172393e-03,-1.332928284295364918e-02,-6.951061586876273839e-03,-1.569624429041534264e-02,1.442675798149408994e-01,-2.024931311607360840e-01,2.040617995221759851e-01,-2.444115142503577587e-01,9.543381402897448129e-02,3.117615007192682253e-01,-2.913939952850344572e-03,-2.273340487602593107e-01,2.197257041931152399e-01,9.708606004714966098e-02,-2.083907604217529186e-01,5.233088484193288981e-01,-6.172294616699218750e-01,4.368340969085693359e-02,1.237136318325535171e+02,3.026088476181030273e-01
7.373549999999999827e-01,-1.091233729435036985e-02,4.547754245631840941e-02,9.394696354866027832e-01,1.088693848539084089e-02,-1.958072884210393383e-02,-5.011705254123045503e-03,-3.541797780604072441e-03,1.462431783152656206e-01,-2.045048326253890991e-01,2.466729508860312781e-01,-2.227897100313178391e-01,6.996161521298706332e-02,2.754831168394470398e-01,-5.371462106704712886e-02,-2.109462316437449303e-01,2.212892532348632868e-01,4.628537893295287670e-02,-1.977953195571899303e-01,5.240648048536135084e-01,-6.166670322418212891e-01,4.737150669097900391e-02,8.917934844551196250e+01,3.026088476181030273e-01
7.617019999999999902e-01,-1.100592416955931997e-02,4.835686305769858889e-02,9.363869428634643555e-01,1.650690720211413220e-02,-2.279289687853891522e-02,-3.648655700394238480e-03,-2.336678458623907273e-02,1.438252371098182880e-01,-1.943600475788116455e-01,3.473026812181532197e-01,-1.606242691185765792e-01,7.308853887152391704e-02,2.346806531950887120e-01,-8.618374466896057406e-02,-2.092813248390078817e-01,2.167212724685669001e-01,1.381625533103942802e-02,-2.004028201103210394e-01,5.233493237828292788e-01,-6.406253576278686523e-01,1.307179093360900879e+00,-4.699111665474004162e+00,3.026088476181030273e-01
7.894740000000000091e-01,-1.089560685033496255e-02,5.257775584086786524e-02,9.320573210716247559e-01,2.546304394874496918e-02,-2.550607964586637522e-02,-1.233550489456569817e-03,-1.920630365946448745e-02,1.414391580245687174e-01,-1.886015236377716064e-01,3.379256131436287891e-01,-8.187774853196636005e-02,1.254489363828019677e-01,1.682269716297144779e-01,-1.699927091598510964e-01,-1.568212439432991878e-01,2.068705558776855469e-01,-6.999270915985107699e-02,-1.551620006561279241e-01,5.225469678422911546e-01,-6.913182735443115234e-01,-4.986941814422607422e-02,1.086889163756287928e+02,3.026088476181030273e-01
8.149899999999999922e-01,-1.038757651428261902e-02,5.697445691394963790e-02,9.280186891555786133e-01,3.365247690839223704e-02,-2.557031639041484894e-02,1.369110669991816572e-03,-6.973910899655263312e-03,1.442851857346886535e-01,-1.992717534303665161e-01,2.925866563915978102e-01,2.193918052619034734e-02,1.084864754732101366e-01,1.106798954267460416e-01,3.884955644607543390e-02,9.148946472046122491e-02,1.973861932754516491e-01,1.388495564460754395e-01,8.560423851013183871e-02,5.237246399363567617e-01,-6.994085907936096191e-01,-2.666250467300415039e-01,9.833153555595141881e+01,3.026088476181030273e-01
8.387390000000000123e-01,-1.002541224822995486e-02,6.152519314949853046e-02,9.235836863517761230e-01,4.129856213800588149e-02,-2.366897591641592413e-02,4.072423617700465792e-03,-1.372347825326102576e-02,1.487310471503636156e-01,-2.003759443759918213e-01,2.800419440087626999e-01,1.156143433297537326e-01,8.201420420628886820e-02,-3.138907015323638694e-01,2.589849233627317115e-02,2.230436038720889913e-01,-2.138907015323638916e-01,1.258984923362731767e-01,2.093452513217926025e-01,5.253108871070630848e-01,-6.493921279907226562e-01,-2.051280736923217773e-01,1.084200801298971015e+02,3.026088476181030273e-01
8.658879999999999910e-01,-9.679533354501623083e-03,6.573442524189909708e-02,9.194086790084838867e-01,4.743260362224903381e-02,-2.068100945750228625e-02,5.544211420364581963e-03,-2.441795960936594262e-02,1.335118484078134937e-01,-1.911440491676330566e-01,1.757178870302785745e-01,1.270680340796011276e-01,3.303103085216142765e-02,-3.162077546119689830e-01,-1.413201451301574763e-01,2.306332950338455257e-01,-2.162077546119689775e-01,-4.132014513015747070e-02,2.128213763236999345e-01,5.242483532859462114e-01,-7.002661228179931641e-01,-2.237371206283569336e-01,4.911984841618571807e+01,3.026088476181030273e-01
8.886420000000000430e-01,-9.416010058475516795e-03,6.952108261825115654e-02,9.165428280830383301e-01,5.093386218624160189e-02,-1.930814798429913992e-02,5.029975385314210123e-03,-8.627535513074928442e-03,1.357889840031626938e-01,-2.006186544895172119e-01,1.422033999204689592e-01,5.979896364806378678e-02,-4.528227825709715132e-02,-3.133110582828521617e-01,-1.367377161979675404e-01,2.393383894875568130e-01,-2.133110582828521562e-01,-3.673771619796752791e-02,2.231598079204559215e-01,5.251844990213456743e-01,-7.126362323760986328e-01,-2.486749887466430664e-01,9.762485003347605073e+01,3.026088476181030273e-01
9.139300000000000201e-01,-8.909729532101059307e-03,7.653942207212136029e-02,9.124086499214172363e-01,5.167210649838513414e-02,-1.759257733715680061e-02,2.570696181300302380e-03,-8.632553980800339657e-03,1.433625506938858152e-01,-2.066085040569305420e-01,-6.171411214154404884e-02,5.622302018060476581e-02,-1.393931014719219930e-01,-3.209573388099670188e-01,1.148597300052642822e-01,7.267739220131932965e-02,-2.209573388099670410e-01,2.148597300052642878e-01,6.346246004104613703e-02,5.305464034701908860e-01,-4.753177165985107422e-01,-2.103062868118286133e-01,9.620300272376532291e+01,3.026088476181030273e-01
9.397389999999999910e-01,-8.495204690493302416e-03,8.342721105759010047e-02,9.080079197883605957e-01,4.679070040283425658e-02,-1.541922450096433472e-02,-3.285529732060217599e-04,-2.048064355251871804e-02,1.495506590979400752e-01,-2.115762680768966675e-01,-2.269983937068866253e-01,1.316824727052113009e-01,-1.192608614215353302e-01,-3.222533643245696910e-01,-1.386504173278808594e-01,2.038709630082927993e-01,-2.222533643245696855e-01,-3.865041732788086076e-02,2.029516339302062933e-01,5.335216462603257215e-01,-3.647260665893554688e-01,-3.265631198883056641e-02,-5.164257195594075256e+01,3.026088476181030273e-01
9.624420000000000197e-01,-8.236916348691352210e-03,8.797933798132090422e-02,9.050767421722412109e-01,4.151026197587931454e-02,-1.377098535826704051e-02,-2.155222919124322699e-03,-1.117020794391429366e-02,1.477300786874012895e-01,-2.120924443006515503e-01,-2.814440576619899326e-01,7.756249204510493045e-02,-8.991263584630392047e-02,-3.211134433746337669e-01,-1.069693446159362821e-01,1.948376520365459330e-01,-2.211134433746337891e-01,-6.969344615936279123e-03,1.994358658790588434e-01,5.350023682553645132e-01,-3.121228218078613281e-01,-2.151526212692260742e-01,8.711557946703592847e+01,3.026088476181030273e-01
9.884500000000000508e-01,-8.077892008540397267e-03,9.459124431532778265e-02,9.007906317710876465e-01,3.274846121413767935e-02,-1.199963082018729033e-02,-4.379316871355671929e-03,-1.357841737016281768e-02,1.447269295313759474e-01,-2.081409841775894165e-01,-3.293679685112314015e-01,4.715140676260183572e-02,-8.921657230084133194e-02,-2.393628796896610234e-01,3.524801770072938378e-02,1.353658781007889000e-01,-1.831065773963928278e-01,1.294971227645873857e-01,1.464779019355773870e-01,5.339515562223779988e-01,-3.869255185127258301e-01,9.732848405838012695e-01,1.003927568738670431e+02,3.026088476181030273e-01
1.012100999999999917e+00,-8.213264559155924321e-03,1.012003289866117706e-01,8.966806530952453613e-01,2.399348283061128462e-02,-1.055638707400174958e-02,-7.489067441871388731e-03,-1.645225506311453340e-02,1.396669319452638058e-01,-2.020381689071655273e-01,-3.537294490306112094e-01,5.818687362569150562e-02,-1.250441258801008593e-01,1.069129787917524610e-01,1.045183372477091061e-01,2.682023433231891379e-02,1.050848007202148382e-01,1.917885661125182939e-01,4.688817858695983748e-02,5.337504990579252651e-01,-4.054949283599853516e-01,1.121999025344848633e-01,1.248467602158586374e+02,3.026088476181030273e-01
1.041064999999999907e+00,-8.328482090301212587e-03,1.078686339454325571e-01,8.922939896583557129e-01,1.519411089918377283e-02,-8.156148074114133451e-03,-1.051424518133463326e-02,-1.318582520582145361e-02,1.514356747872062370e-01,-2.018229365348815918e-01,-2.918402131965283641e-01,7.191353236253159031e-02,-1.319997869027783599e-01,2.779578399437464542e-01,1.357473163754753243e-01,-1.128655023512209060e-01,2.051519036293029674e-01,2.051876485347747803e-01,-8.403961658477783481e-02,5.333161944180527803e-01,-4.623773097991943359e-01,-4.467307329177856445e-01,1.872489872279284029e+01,3.026088476181030273e-01
1.062464000000000075e+00,-8.447715826232996689e-03,1.119744991534411538e-01,8.899651169776916504e-01,9.850190349910852017e-03,-7.136497192360868880e-03,-1.215498558937355353e-02,-1.962574819199670167e-02,1.495268299468111850e-01,-1.906823515892028809e-01,-2.355359344902352159e-01,5.716388414708540450e-02,-8.899948296297831296e-02,3.132535338401794545e-01,1.432899998152949717e-01,-2.274490818898444455e-01,2.132535338401794489e-01,2.116584420204162542e-01,-1.939414501190185602e-01,5.302892187549687053e-01,-6.088490486145019531e-01,-5.062687397003173828e-02,8.257389981994931816e+01,3.026088476181030273e-01
1.088381999999999961e+00,-8.795675721354439050e-03,1.183438516931588635e-01,8.862601518630981445e-01,5.092466171256553563e-03,-7.855773996884085619e-03,-1.341606048441887702e-02,-2.743252262106781261e-02,1.465172395703759345e-01,-1.626082658767700195e-01,-9.501265711661682767e-02,-7.880684789221245601e-02,-2.252605060883878380e-02,3.166051149368286355e-01,-2.624446457847224856e-01,-2.615967270423670832e-01,2.166051149368286022e-01,-1.839315176010131725e-01,-2.245655536651611217e-01,5.272523291263589984e-01,-6.926735043525695801e-01,7.756892442703247070e-01,8.167134496264549171e+01,3.026088476181030273e-01
1.118276999999999965e+00,-9.707599439322638080e-03,1.228519464091995111e-01,8.833768367767333984e-01,6.030479969684960848e-03,-1.164057920732064488e-02,-1.312646591624196113e-02,-2.176726300759187008e-02,1.461543683715026687e-01,-1.526065915822982788e-01,8.807476274925031545e-02,-1.612586695300052830e-01,4.423684369390121912e-02,3.226279973983764426e-01,-2.102298370992252696e-01,-2.513710102221855536e-01,2.226279973983764648e-01,-1.117310643196105929e-01,-2.153208017349243220e-01,5.261321197414596806e-01,-7.393022775650024414e-01,-6.457531452178955078e-02,8.969263716163843014e+01,3.026088476181030273e-01
1.138365000000000071e+00,-1.038962092944522263e-02,1.258513914156665636e-01,8.816493153572082520e-01,9.316330145661943715e-03,-1.463030073787829899e-02,-1.201169502016651881e-02,-3.203547156843319227e-02,1.359515882472449311e-01,-1.326708346605300903e-01,2.135694914193846661e-01,-1.762223089571837431e-01,8.929536170238368264e-02,3.239414215087890736e-01,-1.311900854110717718e-01,-2.473303966885892491e-01,2.239414215087890681e-01,-3.119008541107177665e-02,-2.146781086921691895e-01,5.251596705411627486e-01,-7.325640320777893066e-01,-1.946116685867309570e-01,9.973899848727009498e+01,3.026088476181030273e-01
1.162701999999999902e+00,-1.129928425459537748e-02,1.302118393790155093e-01,8.793052434921264648e-01,1.592531892525014120e-02,-1.609479636084842902e-02,-9.622060874933066957e-03,-2.751839701510284258e-02,1.456234596837445161e-01,-1.339455693960189819e-01,2.586256210343709783e-01,2.870918415226184767e-02,9.159999823270303931e-02,3.064547897441360913e-01,9.895739555358884498e-02,9.427438366328456942e-02,2.235053300857543779e-01,1.989573955535888505e-01,1.199561119079589760e-01,5.261533166229431790e-01,-7.064527869224548340e-01,-6.074973344802856445e-01,1.237412531175570507e+02,3.026088476181030273e-01
1.188741000000000048e+00,-1.228911091608860320e-02,1.361564140790542110e-01,8.764119148254394531e-01,2.577109625449642769e-02,-1.175453145553495560e-02,-5.622584616182330769e-03,-1.300544236184461924e-02,1.400524693091937667e-01,-1.218491569161415100e-01,3.208391198407172240e-01,1.378478599215918476e-01,1.526016933768225281e-01,1.714777652988026257e-01,1.175708681106096692e-01,2.067270163592330734e-01,1.534018993377685436e-01,2.112313091754913219e-01,2.213801622390746959e-01,5.265358435160508721e-01,-6.613664031028747559e-01,-2.559889554977416992e-01,1.051097811373262232e+02,3.026088476181030273e-01
1.213921000000000028e+00,-1.265143242683004939e-02,1.391044666020500309e-01,8.750150799751281738e-01,3.143188241773860192e-02,-8.794908667798084778e-03,-4.402224349621349821e-03,-2.474064141614139289e-02,1.387713805787523236e-01,-1.209097430109977722e-01,3.442465338947159337e-01,1.463460695887425500e-01,3.772638713214176986e-02,1.442131821278092862e-01,1.193952003512875337e-01,2.089734890892014640e-01,1.607002973556518610e-01,2.046870946884155329e-01,2.201963782310485673e-01,5.261622123380690352e-01,-6.961237192153930664e-01,4.344838857650756836e-01,-5.396347706610026052e+01,3.026088476181030273e-01
1.236814999999999998e+00,-1.326574018975452789e-02,1.432261832407395463e-01,8.732315301895141602e-01,4.040510524984941565e-02,-6.764536496716377911e-03,-5.138812378504327254e-03,-2.667574838465619144e-02,1.310353784940699595e-01,-1.020556911826133728e-01,3.323752391111122195e-01,2.881657199735696354e-02,-8.139202904521548876e-02,1.346886963358892575e-01,9.676366954082110672e-02,2.011575589378210571e-01,2.112758874893188310e-01,1.694742858409881425e-01,2.144716680049896240e-01,5.250371260410745533e-01,-7.011732459068298340e-01,8.340731859207153320e-01,-6.821560592034273895e+01,2.621250391006469949e-01
1.261460999999999943e+00,-1.385994424351902517e-02,1.471361785590418747e-01,8.715974688529968262e-01,4.841092576032451217e-02,-7.491927551023680465e-03,-7.501994370308219529e-03,-2.172398478154406037e-02,1.316517462472431010e-01,-1.112813130021095276e-01,2.870990284745492116e-01,-4.815908777893126297e-02,-8.509574630465129019e-02,1.108104348182678001e-01,1.081668268240151831e-02,1.815185277743788517e-01,2.108104348182678056e-01,8.526481389999389371e-02,2.012894690036773626e-01,5.258157291994266513e-01,-7.140444517135620117e-01,7.027810811996459961e-01,-4.034901467277016707e+01,2.621250391006469949e-01
1.286404000000000103e+00,-1.448476777402208857e-02,1.509196955096861748e-01,8.697905540466308594e-01,5.439527627651016134e-02,-9.401926115690351082e-03,-1.063163826525410742e-02,-1.906159918428719513e-02,1.249160233513965795e-01,-1.076954081654548645e-01,1.423228702392256850e-01,-6.370845015547518808e-02,-1.125884117445794530e-01,5.692710876464843195e-02,-2.619477568369986686e-01,1.872929707901926921e-01,1.569271087646484375e-01,-1.751856565475463923e-01,2.155202329158782959e-01,5.257294170219424245e-01,-7.234268784523010254e-01,2.073049545288085938e-04,9.811811946514519889e+01,2.621250391006469949e-01
1.312812000000000090e+00,-1.422249952641276884e-02,1.546268746315551390e-01,8.685060739517211914e-01,5.741821125321650010e-02,-1.092351464593788180e-02,-1.262888457377741615e-02,-1.971839079440322606e-02,1.225880867341066077e-01,-1.090984866023063660e-01,1.358471983926744509e-01,-9.478667913643587517e-02,-1.098998016387800203e-01,3.976082801818847656e-02,-2.972291654710313979e-01,1.475474277904788856e-01,1.397608280181884821e-01,-1.992808341979980524e-01,1.810996949672698808e-01,5.261356602171993746e-01,-7.241533398628234863e-01,-9.986698627471923828e-02,9.371016809181826090e+01,2.621250391006469949e-01
1.339142000000000055e+00,-1.381310133108210221e-02,1.598431708785960637e-01,8.665665984153747559e-01,6.043152432441505767e-02,-1.205836361447643057e-02,-1.573155907592700686e-02,-9.964942025686842481e-03,1.183121928699925468e-01,-1.193544119596481323e-01,1.043271646923087659e-01,-2.401096308929078979e-02,-1.457561423689194280e-01,-3.144192934036255105e-01,-2.478044523147891476e-01,1.817678920764129735e-01,-2.144192934036254772e-01,-1.492587447166442705e-01,2.239366471767425537e-01,5.273964005992090032e-01,-7.162601947784423828e-01,3.941036462783813477e-01,9.953710492559369527e+01,2.621250391006469949e-01
1.363493000000000066e+00,-1.337725998244408861e-02,1.647643525567306089e-01,8.644040822982788086e-01,6.242489299524874025e-02,-9.911436956330010872e-03,-1.855268332434322279e-02,-1.344271905961365483e-02,1.109843414842296844e-01,-1.188349574804306030e-01,9.198373626835265604e-02,1.613452649765999281e-01,-9.182446787154260881e-02,-3.185018479824066051e-01,-3.026501891255285737e-02,1.705396639413879756e-01,-2.185018479824065996e-01,5.874456167221069058e-02,2.207628071308135875e-01,5.283465246518402880e-01,-6.835392713546752930e-01,-8.082258701324462891e-02,8.044718381808245056e+01,2.621250391006469949e-01
1.386825999999999892e+00,-1.270075519059333906e-02,1.695239517562474318e-01,8.617560863494873047e-01,6.311082023974945443e-02,-3.737707639857923425e-03,-2.132708635428912092e-02,1.460742754101383017e-03,1.050275107640429584e-01,-1.212873756885528564e-01,2.309109902554796687e-03,2.532359198847253245e-01,-7.134605291534315552e-02,-3.208746373653411643e-01,6.933771565297640327e-03,1.535117030085684509e-01,-2.208746373653411865e-01,4.463251233100890697e-02,2.125150501728057806e-01,5.347909690126322335e-01,-3.629235625267028809e-01,-4.774326086044311523e-01,5.222248916742069014e+01,2.621250391006469949e-01
1.412544000000000022e+00,-1.225888520346156765e-02,1.744890528459149270e-01,8.591845035552978516e-01,6.048167012610382309e-02,4.021181005395391139e-03,-2.440964761845999115e-02,3.680894605551527417e-03,1.049262579959678726e-01,-1.240541711449623108e-01,-1.480806611075942414e-01,2.651009516410165467e-01,-1.160486879933004117e-01,-3.223540902137756459e-01,5.487554029506942765e-02,1.458268014379231758e-01,-2.223540902137756403e-01,4.302173852920532227e-02,2.144463121891021784e-01,5.330654059100979891e-01,-4.926565289497375488e-01,-2.450820207595825195e-01,1.163978025521745252e+02,2.621250391006469949e-01
1.437680999999999987e+00,-1.202241474002777033e-02,1.777215864528651768e-01,8.572754263877868652e-01,5.674355750446936214e-02,8.218100701429476018e-03,-2.639398281661375564e-02,-2.998392850013071112e-03,1.013945014366850056e-01,-1.274699568748474121e-01,-2.290467454070187758e-01,2.017676708828616272e-01,-1.171525251141875140e-01,-3.223420023918152078e-01,4.161136391486471020e-03,1.411355042729479647e-01,-2.223420023918151744e-01,-2.951037883758544922e-02,2.157090783119201549e-01,5.327777600858513152e-01,-5.430422425270080566e-01,8.531421422958374023e-01,-2.207733315235352123e+01,2.621250391006469949e-01
1.463425999999999894e+00,-1.172882808846652247e-02,1.823248546718935215e-01,8.545023798942565918e-01,4.934132001726711930e-02,1.161167465346335526e-02,-2.918209348873384776e-02,-1.540686816417167690e-03,1.021328838330831518e-01,-1.216065511107444763e-01,-2.668427534262107215e-01,9.035511063213827465e-02,-1.160368392996018738e-01,-3.194025874137878529e-01,6.452320520474091881e-02,1.344878957029545519e-01,-2.194025874137878473e-01,7.152646780014038086e-03,2.172288894653320312e-01,5.344806295277442221e-01,-4.508526325225830078e-01,-1.214491128921508789e-01,-2.282201330963437869e+01,2.621250391006469949e-01
1.487238000000000060e+00,-1.137649821273499506e-02,1.866543201422249665e-01,8.518216609954833984e-01,4.067107722422974581e-02,1.230561756120596151e-02,-3.207050452719985290e-02,6.518836077904581298e-03,9.833921034999863753e-02,-1.110606640577316284e-01,-3.269864448201716400e-01,2.446671234237312101e-02,-9.442672722954964515e-02,-2.618698323982572296e-01,1.703511512450017196e-01,1.176380228081802815e-01,-1.952824473381042369e-01,1.028209447860717746e-01,2.085165739059448298e-01,5.330828396456693818e-01,-5.097373127937316895e-01,-2.535303831100463867e-01,6.432219318776037653e+01,2.574730634689331166e-01
1.512868000000000102e+00,-1.156582917579674664e-02,1.910074309091751577e-01,8.492313623428344727e-01,3.133068879164156023e-02,1.204579780451631166e-02,-3.529109773594545779e-02,1.553196343633162684e-03,9.241177783258906764e-02,-1.027529537677764893e-01,-3.902991387739760398e-01,-9.741726257892822580e-03,-1.027366574454497417e-01,1.018608474493877120e-01,2.343403378885172694e-01,-5.758701700705631116e-02,1.082887530326843289e-01,1.736008644104003740e-01,4.208021163940429271e-02,5.298167415851068318e-01,-6.790215373039245605e-01,-6.768047809600830078e-02,9.387115565055546540e+01,2.574730634689331166e-01
1.541390000000000038e+00,-1.192626842847158315e-02,1.954266655226042648e-01,8.465846776962280273e-01,2.187269344223987527e-02,1.093490211903414000e-02,-3.813394689310995594e-02,8.865114303952854533e-03,9.522512868796084717e-02,-9.750948846340179443e-02,-2.969318226765114144e-01,-7.523009902161516271e-02,-1.143160518806119741e-01,2.715769594282924082e-01,2.389421658348185040e-01,-2.858640670776367299e-01,2.100548744201660156e-01,1.798178851604461670e-01,-1.858640670776367243e-01,5.296543101700228462e-01,-6.907632946968078613e-01,6.821644306182861328e-02,8.863269425528999079e+01,2.574730634689331166e-01
1.561838000000000060e+00,-1.217432739827023144e-02,1.982540787430531470e-01,8.450104594230651855e-01,1.609818253395280813e-02,8.965348865653144372e-03,-3.943619305463030855e-02,1.162258676288941079e-03,9.504447487569879505e-02,-8.481094986200332642e-02,-2.574338512735066531e-01,-8.838523082327948144e-02,-5.626262231791469282e-02,3.157946944236755260e-01,1.376711287211757617e-01,-3.199515819549560436e-01,2.157946944236755205e-01,9.821006655693054199e-02,-2.199515819549560380e-01,5.287382962880488035e-01,-7.091423273086547852e-01,1.107188463211059570e-01,1.031839614895169461e+02,2.574730634689331166e-01
1.587728000000000028e+00,-1.261508382379471042e-02,2.022877788204651972e-01,8.430593609809875488e-01,1.132910344200740473e-02,3.010507571684639672e-03,-3.991008493428847836e-02,-8.974330262419783150e-04,8.921329032001104609e-02,-6.784424185752868652e-02,-1.336395271808684948e-01,-2.501714767679728557e-01,3.411247844020601216e-02,3.129470825195312389e-01,-1.993442906250386393e-01,-3.247622489929199441e-01,2.129470825195312333e-01,-1.995009183883666992e-01,-2.247622489929199108e-01,5.276423456602533646e-01,-7.208491563796997070e-01,1.234024763107299805e-01,9.067088417532433198e+01,2.574730634689331166e-01
1.612230000000000052e+00,-1.330874283380961524e-02,2.060360658040468473e-01,8.416450023651123047e-01,1.212946341832369171e-02,-4.490953532598984665e-03,-3.793715118195543912e-02,1.472331537436614209e-03,8.769358543780629567e-02,-5.492272228002548218e-02,9.515473571842467115e-02,-2.711439610938415345e-01,1.227223334981555475e-01,3.240841507911682018e-01,2.383694292595296693e-02,-3.219333410263061634e-01,2.240841507911681962e-01,7.062821388244629184e-02,-2.219333410263061579e-01,5.265017238002760447e-01,-7.485154271125793457e-01,4.533954858779907227e-01,3.001689189264349622e+01,2.574730634689331166e-01
1.637917999999999985e+00,-1.435773403222015930e-02,2.095640464339771636e-01,8.406038880348205566e-01,1.683305158488760875e-02,-1.050710428874257474e-02,-3.522592985209701405e-02,1.249167868388930888e-02,9.151895466758179498e-02,-5.344277992844581604e-02,1.844330483446362801e-01,-1.491224879892002753e-01,8.780617292328138368e-02,3.253515481948852095e-01,1.126418434184777023e-01,-3.083894379169325184e-01,2.253515481948852317e-01,1.911723017692565918e-01,-2.105625629425048884e-01,5.267718549835308517e-01,-7.432634234428405762e-01,-2.182480096817016602e-01,9.760552742831409034e+01,2.574730634689331166e-01
1.662236999999999965e+00,-1.493458187807738050e-02,2.119101871442506113e-01,8.399730324745178223e-01,2.104289444337288997e-02,-1.206315132255841860e-02,-3.291802339254613213e-02,2.890915555983710437e-03,8.259352072770982656e-02,-2.809648588299751282e-02,2.783223142827653263e-01,-5.066112973875559061e-02,1.300317787836665628e-01,2.991196001375754920e-01,7.807194525403925167e-02,-2.238310219451264127e-01,2.240579366683959905e-01,1.754052042961120605e-01,-1.327455282211303655e-01,5.254897952322853394e-01,-7.244529128074645996e-01,-1.246505975723266602e-01,9.841228205231931270e+01,2.574730634689331166e-01
1.687332000000000054e+00,-1.565765823542444521e-02,2.152550523239832037e-01,8.391959071159362793e-01,2.808905325344214846e-02,-1.250026997077791080e-02,-2.915970043632565289e-02,9.658829959937975315e-03,8.015147695130150907e-02,-2.927375957369804382e-02,2.877167711743412459e-01,-7.076863674809345806e-02,1.574708779408797166e-01,2.544795915926121865e-01,7.396856094510532997e-02,-1.716678930646287071e-01,2.229676723480224498e-01,1.678172528743743785e-01,-9.121427536010741355e-02,5.258997083593206501e-01,-7.195611000061035156e-01,-3.285777568817138672e-02,9.861009799106122387e+01,2.574730634689331166e-01
1.713823000000000096e+00,-1.620239451105711867e-02,2.184141983974341450e-01,8.386539816856384277e-01,3.688872632539946100e-02,-1.324146808717352464e-02,-2.578168964851502293e-02,1.009912929275361484e-02,8.391719684901779996e-02,-2.579466626048088074e-02,3.666816898811802727e-01,-3.673959695351361465e-02,1.161421692771247016e-01,2.007450450814558529e-01,4.745408267890431631e-02,-1.340122913780498748e-01,2.204707860946655273e-01,1.467761635780334417e-01,-6.329534053802489402e-02,5.258877246994156929e-01,-7.185565233230590820e-01,1.985582113265991211e-01,3.550834690986082620e+01,2.574730634689331166e-01
1.739017000000000035e+00,-1.639565342572410489e-02,2.215223620374771052e-01,8.378956317901611328e-01,4.553318089531737528e-02,-1.510992708020397757e-02,-2.269293707476318506e-02,6.773374768029574375e-03,8.031561409647001992e-02,-1.447682641446590424e-02,2.959540185114179489e-01,-7.521889320842312099e-02,1.267793320064926066e-01,1.362180806523817234e-01,-1.455882191658020020e-01,-1.587812245174319847e-01,2.121709942817688044e-01,-4.558821916580200334e-02,-9.714531898498535156e-02,5.251838317266681599e-01,-7.239517569541931152e-01,-3.608763217926025391e-02,2.928767016100167098e+01,2.574730634689331166e-01
1.763377999999999890e+00,-1.660748390126638371e-02,2.243083111773213345e-01,8.372784852981567383e-01,5.385714388190834118e-02,-1.665259512224870342e-02,-2.040554493321478438e-02,7.288955232944534061e-03,6.808639499634845660e-02,-1.273019611835479736e-02,2.642228854859735021e-01,-6.162497391701304145e-02,7.561672607018640746e-02,-2.624924778938293457e-01,-2.734040260314941628e-01,1.341749470980370673e-01,-1.624924778938293402e-01,-1.734040260314941295e-01,1.890556097030639537e-01,5.250879169440065830e-01,-7.328785061836242676e-01,1.780039072036743164e-01,1.157314766175047538e+02,2.574730634689331166e-01
1.788127000000000022e+00,-1.672658595318589347e-02,2.260632018459653447e-01,8.365901112556457520e-01,5.882409745183612287e-02,-1.728918974751958437e-02,-1.895873196598307775e-02,5.125080575736959583e-03,6.795849718205801415e-02,-2.175534889101982117e-02,2.914185351114639833e-01,-2.410310911087304789e-02,7.793148120643293708e-02,-3.160395443439483754e-01,-2.876253128051757812e-01,1.717651525991865380e-01,-2.160395443439483698e-01,-1.876253128051757757e-01,2.223374962806701494e-01,5.260163216640457717e-01,-7.303320169448852539e-01,-1.772650480270385742e-01,6.263497936841631031e+01,2.574730634689331166e-01
1.813131000000000048e+00,-1.667558252396807508e-02,2.285448160400567197e-01,8.354241847991943359e-01,6.328082113499111649e-02,-1.613828851781873297e-02,-1.735774079733123920e-02,1.492497678247989117e-02,6.826531210261417570e-02,-2.732496894896030426e-02,1.151348826256080593e-01,9.353652123632001658e-02,4.315047436096704908e-02,-3.198159515857696422e-01,-2.515174150466920056e-02,1.740429471702577280e-01,-2.198159515857696367e-01,7.484825849533080500e-02,2.203194737434387152e-01,5.266879812264448901e-01,-7.301694154739379883e-01,-2.649725675582885742e-01,1.038203438748653724e+02,2.574730634689331166e-01
1.838583000000000078e+00,-1.607212373403901426e-02,2.309742141888193601e-01,8.338896632194519043e-01,6.273529861706410304e-02,-1.136009706822682652e-02,-1.793239734115248396e-02,1.986111511698131910e-02,6.075851874689676413e-02,-3.909682855010032654e-02,-1.347923801899096330e-01,2.276838010244656707e-01,-5.058189548898660987e-02,-3.195350170135498047e-01,-2.262378538731692201e-02,1.603026236771522006e-01,-2.195350170135497991e-01,5.673630237579345426e-02,2.089117169380187988e-01,5.356516462285606517e-01,-3.009997606277465820e-01,-3.293764591217041016e-02,8.079008663517376476e+01,2.574730634689331166e-01
1.862986999999999949e+00,-1.535497677159435199e-02,2.332253977990703941e-01,8.320008516311645508e-01,5.752103261600502448e-02,-4.837779049966739464e-03,-1.929381983700756767e-02,1.411729854385674818e-02,5.196800082371567930e-02,-4.676577448844909668e-02,-2.139867848165759590e-01,2.072695135438669956e-01,-7.339383055837880865e-02,-3.197722673416137917e-01,-3.595846249981381193e-02,1.607526008132627859e-01,-2.197722673416137584e-01,5.685496330261230642e-03,2.140049099922180231e-01,5.330458987082787869e-01,-4.927392005920410156e-01,-5.457437038421630859e-02,9.486113692923545671e+01,2.574730634689331166e-01
1.888117999999999963e+00,-1.491005233121284190e-02,2.346852039528174727e-01,8.305267095565795898e-01,5.251255178502466786e-02,-1.275991691465305777e-03,-2.043369379755427886e-02,2.263187033413961019e-02,6.242984872737479540e-02,-4.813849925994873047e-02,-2.692534850829670368e-01,2.004914340226086333e-01,-1.039400197290791666e-01,-3.190843343734741100e-01,-3.885625101898033257e-02,1.570085338736575964e-01,-2.190843343734741044e-01,-2.738553285598754883e-02,2.140493094921112061e-01,5.320709047060335761e-01,-5.694881081581115723e-01,2.619063854217529297e-02,9.771091041701821212e+01,2.488743543624877819e-01
1.913388000000000089e+00,-1.426305341860277347e-02,2.366842597261643866e-01,8.284121751785278320e-01,4.431104566329016614e-02,2.430529346437948490e-03,-2.233839311115639117e-02,1.455252773070334245e-02,5.384797531267215831e-02,-4.572865739464759827e-02,-2.960128411985639141e-01,1.626040763869557870e-01,-6.248626901681797463e-02,-2.891409876529226208e-01,1.260583568068312510e-01,1.525113456870705320e-01,-2.167004764080047441e-01,1.202953577041625949e-01,2.151940762996673584e-01,5.311187773332172180e-01,-6.308758258819580078e-01,-5.111396312713623047e-02,2.072736675346801150e+01,2.488743543624877819e-01
1.937977000000000061e+00,-1.361148734992896972e-02,2.391079566005236134e-01,8.263719081878662109e-01,3.506340337526078071e-02,4.440886329629689655e-03,-2.447462284127359736e-02,1.460170096125108959e-02,4.677174587457220284e-02,-3.708863630890846252e-02,-3.741321562817123136e-01,5.982403602430677592e-02,-7.131392629597758936e-02,6.708639877892752512e-02,2.171999768666444952e-01,1.139152942693438253e-01,8.105757236480712336e-02,1.970233619213104248e-01,1.827776312828063854e-01,5.296328121129236788e-01,-6.965821385383605957e-01,-5.322468280792236328e-02,1.376060043779276612e+02,2.488743543624877819e-01
1.963511000000000006e+00,-1.286558725956652750e-02,2.415919753702199246e-01,8.242771029472351074e-01,2.510119878655092326e-02,5.417988900644710171e-03,-2.661001451098036694e-02,2.988673845097524623e-02,4.909828224341816066e-02,-3.829793632030487061e-02,-3.586181969164075611e-01,-1.433419497172878747e-02,-9.615251522803258677e-02,2.678589467401606972e-01,2.469231786948917762e-01,-2.572679660034417060e-01,2.121337652206420898e-01,2.088428199291229304e-01,-1.822405815124511774e-01,5.295799618597805125e-01,-7.237243056297302246e-01,2.089279890060424805e-01,-1.209191282355345010e+02,2.488743543624877819e-01
1.988118999999999970e+00,-1.214426663427462492e-02,2.438325379436068474e-01,8.222085833549499512e-01,1.694319801717739452e-02,4.115627774487817803e-03,-2.862725436752565703e-02,2.254005856898043392e-02,4.386701418389322982e-02,-2.576530538499355316e-02,-2.412131110042444182e-01,-4.804578395338342939e-02,-6.199932698020591687e-02,3.181336164474487527e-01,2.080086836232706293e-01,-3.004851163270889081e-01,2.181336164474487194e-01,1.854604482650756836e-01,-2.200497865676879772e-01,5.293437587654508114e-01,-7.052980065345764160e-01,1.029285192489624023e-01,7.012854383137738523e+01,2.488743543624877819e-01
2.011883999999999784e+00,-1.173334988266779878e-02,2.452389071352202021e-01,8.210476636886596680e-01,1.400482238642663038e-02,1.057146281935983367e-03,-2.880474404071961189e-02,1.665351833977329193e-02,4.530740541862744025e-02,-1.240923255681991577e-02,-9.609008278654858348e-02,-1.900420540416967174e-01,2.479852250484695236e-02,3.089172959327697865e-01,-1.654207906876902501e-01,-3.050171415099973138e-01,2.089172959327697809e-01,-1.649889349937438965e-01,-2.243345260620117076e-01,5.285643924991797471e-01,-7.096759676933288574e-01,-4.056836366653442383e-01,1.100007361679997899e+02,2.488743543624877819e-01
2.037091999999999903e+00,-1.173691649300836852e-02,2.465229623866499742e-01,8.197323679924011230e-01,1.489158166885794742e-02,-4.888452441016877259e-03,-2.681495378117075210e-02,1.391627630494615339e-02,4.194186583375349858e-02,9.225155226886272430e-03,1.321493359543974289e-01,-2.101105976365220118e-01,9.142207435273158600e-02,3.246760249137878307e-01,1.693654614729029062e-01,-2.924183502929804668e-01,2.246760249137878251e-01,2.093042850494384599e-01,-2.177254915237426813e-01,5.265460850360564882e-01,-7.480192780494689941e-01,1.411348581314086914e-01,9.896353295985269938e+01,2.488743543624877819e-01
2.063248000000000193e+00,-1.174165965660565851e-02,2.476453275624480588e-01,8.189127445220947266e-01,1.977566879557792270e-02,-1.095505255940509848e-02,-2.340299642246629688e-02,1.170738014630422208e-02,3.248694586947598745e-02,1.939351111650466919e-02,1.620543272029674742e-01,-1.721312042611935211e-01,1.768037101075027873e-01,3.125921456632964612e-01,1.310831709100045150e-01,-2.765723301014062496e-01,2.244529366493225042e-01,2.111226081848144587e-01,-2.119305610656738170e-01,5.264446295017719546e-01,-7.242240905761718750e-01,-1.622320413589477539e-01,1.063400962823314586e+02,2.488743543624877819e-01
2.089271999999999796e+00,-1.166289321828322192e-02,2.487287937415240957e-01,8.181392550468444824e-01,2.620322737944646291e-02,-1.406608405853404520e-02,-1.953498868750446274e-02,1.730650626036388598e-02,3.213121004094944555e-02,3.635612130165100098e-02,2.550118996848708686e-01,-1.090041651350233814e-01,1.310068301408157110e-01,2.728075887451293369e-01,1.035207557396651545e-01,-1.715577208012447064e-01,2.231185197830200251e-01,1.986976861953735352e-01,-1.180634021759033175e-01,5.257492481785079885e-01,-7.056882381439208984e-01,5.297287702560424805e-01,-9.681252880529726212e+01,2.488743543624877819e-01
2.112820999999999838e+00,-1.157713697296832399e-02,2.494370324950291873e-01,8.178294301033020020e-01,3.137416433444410735e-02,-1.574347224917227450e-02,-1.684618710335411898e-02,6.518685231139263736e-03,3.104611442373650387e-02,3.870347514748573303e-02,3.211568468783916330e-01,-8.179600370075650051e-02,1.564612657141700169e-01,2.363815090110771011e-01,8.479424118995665394e-02,-8.898749949558434902e-02,2.198480129241943415e-01,1.847942411899566595e-01,-4.340186119079589983e-02,5.260634718760034412e-01,-6.877848505973815918e-01,3.127418756484985352e-01,7.041447604060162746e+01,2.600645780563354270e-01
2.137844999999999995e+00,-1.147785278612365595e-02,2.500780900068189094e-01,8.174079060554504395e-01,4.002960891544875971e-02,-1.914088119772627827e-02,-1.316911889421663526e-02,5.071417913584735579e-03,2.202783350919019709e-02,4.371609166264533997e-02,3.205632419582883919e-01,-1.426951751184994954e-01,1.424900588605485519e-01,1.719717752041459713e-01,-2.239815711975097767e-01,-1.798786361909726628e-01,2.168604969978332464e-01,-1.239815711975097573e-01,-1.451169133186340221e-01,5.253627688884967561e-01,-7.141990065574645996e-01,3.889501094818115234e-02,8.856971308095330642e+01,2.600645780563354270e-01
2.164222000000000090e+00,-1.133605042452236894e-02,2.505687840981268844e-01,8.172423839569091797e-01,4.869980631191297288e-02,-2.256743678497796779e-02,-1.042659948156919765e-02,1.098963010058259630e-02,1.452733301385204095e-02,4.448841884732246399e-02,3.058137974924711178e-01,-1.287279948953516384e-01,1.030239057281631676e-01,-4.794425964355469166e-02,-3.011713981628417747e-01,1.045806413098110399e-01,5.205574035644531389e-02,-2.011713981628417969e-01,1.311231851577758789e-01,5.252779999271378619e-01,-7.229999899864196777e-01,3.910106420516967773e-01,6.141141928050022614e+01,2.600645780563354270e-01
2.187489999999999934e+00,-1.127635286264231165e-02,2.507495461265407677e-01,8.170576691627502441e-01,5.398893565102417386e-02,-2.418138086626009375e-02,-8.879134490371844157e-03,1.225969954049609643e-02,1.807796635058595003e-02,3.920299932360649109e-02,2.785234694440498759e-01,-5.369591695397380599e-02,1.024336212216240827e-01,-3.119697928428649680e-01,-2.981245517730712891e-01,1.978704657034250913e-01,-2.119697928428649902e-01,-1.981245517730712835e-01,2.196948230266571045e-01,5.257133004893901340e-01,-7.285510301589965820e-01,7.667988538742065430e-01,9.267062013033149981e+01,2.600645780563354270e-01
2.213264999999999816e+00,-1.101213219865402465e-02,2.509507738669324306e-01,8.166569471359252930e-01,6.000273963270497113e-02,-2.361350463903200136e-02,-6.886940755422261452e-03,1.175227449709482716e-02,8.359742818909438392e-03,3.434032201766967773e-02,1.660990462938512491e-01,1.038447536175648306e-01,4.489675466842744239e-02,-3.175312995910644642e-01,1.527655124664305253e-02,2.001918990243299334e-01,-2.175312995910644587e-01,1.152765512466430581e-01,2.163373231887817383e-01,5.271889567362059159e-01,-6.757519841194152832e-01,2.842537164688110352e-01,-1.131112316367802748e+02,2.600645780563354270e-01
2.237839999999999829e+00,-1.006168013393917912e-02,2.513592637465597579e-01,8.159934878349304199e-01,6.252341786764341325e-02,-1.855667446795727926e-02,-6.817155645279173067e-03,2.382892064585386341e-02,1.171470171699435679e-03,2.506279759109020233e-02,-3.626885764048563832e-03,2.254806838303995420e-01,-2.748261361498304661e-02,-3.191882789134979359e-01,3.497698307037352961e-02,1.892932913164796227e-01,-2.191882789134979304e-01,1.349769830703735352e-01,2.060374975204467829e-01,5.333803660231732913e-01,-3.835285902023315430e-01,6.998206377029418945e-01,-3.907960608627672361e+00,2.600645780563354270e-01
2.263088999999999906e+00,-8.766892472297119904e-03,2.518646005661112075e-01,8.148401975631713867e-01,5.992842863193802855e-02,-1.148360127108238871e-02,-8.072549716027964395e-03,2.796521398093856220e-02,6.172015269397358901e-03,9.871882386505603790e-03,-1.236423340417891203e-01,2.495569148872391341e-01,-7.535656631804557581e-02,-3.197157442569732444e-01,3.637054256775761052e-02,1.859159875870854683e-01,-2.197157442569732666e-01,1.046949148178100558e-01,2.071755945682525468e-01,5.370761759956470538e-01,-2.534584403038024902e-01,-1.522766351699829102e-01,1.095055747739305474e+02,2.600645780563354270e-01
2.288774000000000086e+00,-7.565671237127536732e-03,2.522950050197976801e-01,8.136055469512939453e-01,5.396869284967821534e-02,-6.086825478926360944e-03,-9.857891320297049870e-03,1.482017872612195405e-02,2.782500473011436260e-03,1.647843979299068451e-02,-2.502271830796702345e-01,1.666273108210241383e-01,-6.979626671316485620e-02,-3.183479964733123557e-01,-1.187651050483898851e-01,1.887616480968868360e-01,-2.183479964733123779e-01,-7.558722496032714566e-02,2.155812263488769420e-01,5.322966120939023327e-01,-5.040233135223388672e-01,-2.839338779449462891e-02,9.204106793415307664e+01,2.600645780563354270e-01
2.313069000000000042e+00,-6.889564689197569605e-03,2.524854756901893649e-01,8.128463625907897949e-01,4.898610103038775199e-02,-4.610045775762294795e-03,-1.120123336480021922e-02,1.171528799632315029e-02,2.477571316446328803e-03,1.334835030138492584e-02,-2.791300019882633210e-01,6.825984859127158522e-02,-6.550447697061032026e-02,-3.163322985172271617e-01,-1.342885717354461717e-01,1.838354724423194309e-01,-2.163322985172271562e-01,-1.003383994102478027e-01,2.146245896816253718e-01,5.346239740016185404e-01,-4.000959396362304688e-01,2.747153043746948242e-01,9.507744219006058017e+01,2.600645780563354270e-01
2.338602999999999987e+00,-5.844539506296891722e-03,2.526636732121980145e-01,8.118746280670166016e-01,4.050836240826654472e-02,-3.632013846871728902e-03,-1.361712526834694785e-02,2.078906421070639624e-02,-3.763080091582935056e-03,1.741728559136390686e-02,-3.644671846316144270e-01,4.700304897579383329e-02,-1.053297035847951535e-01,-2.449809005200480616e-01,1.964261854836557228e-02,1.533664918201187166e-01,-1.876061975955962968e-01,3.983012437820434432e-02,1.912017524242401179e-01,5.307796754623406166e-01,-6.073836088180541992e-01,-2.232323884963989258e-01,-1.084769073037916058e+02,2.600645780563354270e-01
2.362509999999999888e+00,-4.845700653254996632e-03,2.528945507092091871e-01,8.107753396034240723e-01,3.100796568365085312e-02,-2.288878156181173296e-03,-1.604316150390883849e-02,2.237797365565352345e-02,-7.525444765970787722e-03,1.639285869896411896e-02,-3.732424041444789009e-01,7.682149124380061034e-02,-8.881316352810951498e-02,1.097170570178609694e-01,1.891837455439357440e-01,8.490049261019697036e-02,1.065431714057922391e-01,2.003710091114044023e-01,1.296927094459533747e-01,5.293773397661154512e-01,-7.011025547981262207e-01,-3.308495283126831055e-01,2.025590133468629119e+02,2.600645780563354270e-01
2.388180999999999887e+00,-3.762236796205345110e-03,2.531293436063375979e-01,8.097423315048217773e-01,2.093699987197026463e-02,-3.008910559523236827e-04,-1.816693433864068757e-02,2.696311964948905002e-02,-2.971301409948437153e-03,1.130197104066610336e-02,-3.400250233565460523e-01,7.412790251489878579e-02,-7.707935472594029669e-02,2.826494785792668663e-01,2.233444681444407276e-01,-2.161064888019032515e-01,2.095544815063476451e-01,2.180045485496520941e-01,-1.651558756828307994e-01,5.295461604312942105e-01,-7.254559397697448730e-01,6.844927072525024414e-01,-3.482268129455616901e+01,2.600645780563354270e-01
2.412955000000000183e+00,-2.712092847861535903e-03,2.532906496711728184e-01,8.088421821594238281e-01,1.300673562883814666e-02,3.768162821016218800e-05,-2.007333949756092209e-02,2.033424590466250542e-02,-3.800395563672421921e-03,2.812927030026912689e-02,-2.036860144797109362e-01,-2.732140492519697164e-02,-6.091787681598005016e-02,3.189086318016052246e-01,1.880680472963335292e-01,-2.757742562793954466e-01,2.189086318016052191e-01,1.855026662349700817e-01,-2.195227861404418779e-01,5.290747705203694418e-01,-6.964567303657531738e-01,1.371098756790161133e-01,8.402097784845406636e+01,2.600645780563354270e-01
