timestamp,x,y,z,roll,pitch,yaw,vx,vy,vz,p,q,r,psp,qsp,rsp,pres,qres,rres,thrust_sp, thrust_res
0.000000000000000000e+00,2.989592453271498144e-03,-6.690787108766931566e-04,1.135661482810974121e+00,1.310543123801142205e-02,-5.253596117841707880e-03,6.258381342615515486e-02,-4.619108648125442446e-03,2.718884268345789224e-02,1.611081697046756744e-02,-2.578597650071068770e-03,4.475277397573251131e-02,1.575690320978531400e-01,-6.317963246378387188e-02,-3.382238474841746390e-02,1.000000000000000056e-01,0.000000000000000000e+00,-0.000000000000000000e+00,-0.000000000000000000e+00,5.004643487252062872e-01,0.000000000000000000e+00
2.330499999999999933e-02,2.002952135614937800e-03,1.104486736749852758e-03,1.135408759117126465e+00,1.335390607568264811e-02,-5.656094346031981246e-03,6.600851506455618356e-02,5.235525734667037696e-03,3.411249056754268177e-02,1.258207671344280243e-02,3.784326308304586384e-02,-9.062258682527567569e-03,1.867133255371181966e-01,-6.237907319132002248e-02,-2.782732536225221084e-02,1.000000000000000056e-01,0.000000000000000000e+00,-0.000000000000000000e+00,-0.000000000000000000e+00,5.006089213516736747e-01,0.000000000000000000e+00
5.171499999999999708e-02,6.566888288979762971e-04,3.667282356849844820e-03,1.134979009628295898e+00,1.389559757369041200e-02,-5.275143916488200801e-03,7.040577684520732404e-02,-8.433063956648709225e-03,2.657511456203353814e-02,1.673949882388114929e-02,6.990675651942737656e-02,3.722327245451105548e-02,1.613936949314151992e-01,-7.069944525249892420e-02,-3.924926682487263341e-02,1.000000000000000056e-01,0.000000000000000000e+00,-0.000000000000000000e+00,-0.000000000000000000e+00,5.001819923984536231e-01,0.000000000000000000e+00
7.330699999999999716e-02,-2.147267624770480968e-04,5.322467515458631504e-03,1.134621977806091309e+00,1.379282806863611419e-02,-5.202789470715396547e-03,7.441389622868554987e-02,1.293676446741688635e-02,3.743021953618060060e-02,1.671747653745114803e-03,-2.199601866254997928e-02,2.368084097318187350e-02,2.182342960908589813e-01,-5.981572724921683376e-02,-1.860981760690756312e-02,1.000000000000000056e-01,0.000000000000000000e+00,-0.000000000000000000e+00,-0.000000000000000000e+00,5.012173890471153248e-01,0.000000000000000000e+00
9.851500000000000534e-02,-1.539381815468663338e-03,7.720001304961018884e-03,1.134033083915710449e+00,1.354145142271346441e-02,-4.748898888552233188e-03,8.095152831495378010e-02,-1.898002029747306030e-02,2.536261116618989189e-02,-5.958036985248327255e-03,-8.047992985863355875e-02,4.408036468488118337e-02,2.412402074139355923e-01,-6.634284736295581464e-02,-4.675644455607735200e-02,1.000000000000000056e-01,0.000000000000000000e+00,-0.000000000000000000e+00,-0.000000000000000000e+00,5.017129852644467425e-01,0.000000000000000000e+00
1.233029999999999959e-01,-2.987273616300178351e-03,9.950219979853435967e-03,1.133445739746093750e+00,1.405574254395890871e-02,-4.946306621748108867e-03,8.730380444369623127e-02,6.036230856490527007e-03,3.538918151175968890e-02,1.223336090333759785e-03,6.742853673247449497e-02,-1.060548568041716141e-02,2.431840990609321074e-01,-5.952918703326127992e-02,-2.222321702582671921e-02,1.000000000000000056e-01,0.000000000000000000e+00,-0.000000000000000000e+00,-0.000000000000000000e+00,5.010892455648352506e-01,0.000000000000000000e+00
1.469389999999999863e-01,-3.833530765927664098e-03,1.139641865996740729e-02,1.133091330528259277e+00,1.413832086294082580e-02,-4.619196454689333819e-03,9.077955901636269864e-02,-1.061552269871569865e-02,1.348707493201104987e-02,1.459457539021968842e-02,2.215139179545465645e-02,-3.514051547585283347e-02,1.302000484017328263e-01,-7.743402114991505825e-02,-3.956175751788949119e-02,1.000000000000000056e-01,0.000000000000000000e+00,-0.000000000000000000e+00,-0.000000000000000000e+00,4.999637069223092922e-01,0.000000000000000000e+00
1.724420000000000119e-01,-4.970368603207768639e-03,1.338255558713424311e-02,1.132479906082153320e+00,1.418471263022279445e-02,-3.889652338031845957e-03,9.487981623740182613e-02,1.249366326785997412e-02,3.081819458882254989e-02,-3.434588201344013214e-03,-3.634425494790497618e-02,3.859723024278332443e-02,1.113559886985508729e-01,-6.007390471173594537e-02,-1.217166759505958207e-02,1.000000000000000056e-01,0.000000000000000000e+00,-0.000000000000000000e+00,-0.000000000000000000e+00,5.012493005501188481e-01,0.000000000000000000e+00
1.996489999999999931e-01,-5.792479772645534042e-03,1.538040889894557069e-02,1.131696701049804688e+00,1.393752740253921887e-02,-3.917797967030844930e-03,9.762116035581724915e-02,-2.927663904113566185e-03,2.773054323088071371e-02,4.456476308405399323e-04,1.816976079880313136e-02,-4.255272027267284485e-02,7.994570424385306906e-02,-6.092711660561606068e-02,-2.944816678241370111e-02,1.000000000000000056e-01,0.000000000000000000e+00,-0.000000000000000000e+00,-0.000000000000000000e+00,5.008889643143040749e-01,0.000000000000000000e+00
2.222330000000000139e-01,-6.261055879392059785e-03,1.666546368214128632e-02,1.131081461906433105e+00,1.379983514225779223e-02,-4.046755451017736149e-03,9.897300387397534038e-02,4.623372508511723773e-03,2.357191843982651275e-02,-2.723279641941189766e-03,9.488657772533966653e-03,-1.206049775396345405e-02,2.599079914963001170e-02,-6.272328658629344744e-02,-2.208506266149562469e-02,1.000000000000000056e-01,0.000000000000000000e+00,-0.000000000000000000e+00,-0.000000000000000000e+00,5.010509901122632836e-01,0.000000000000000000e+00
2.487890000000000101e-01,-6.865490820428659172e-03,1.850791377616454667e-02,1.130116939544677734e+00,1.368341599582948917e-02,-4.383972628232202240e-03,1.005830346257434726e-01,3.796395466898281473e-03,2.808695209496988449e-02,-1.503693871200084686e-02,-4.368528796610773174e-02,1.929249253883419737e-02,7.257376225623801691e-02,-5.619042215374860094e-02,-2.600877723718989648e-02,1.000000000000000056e-01,0.000000000000000000e+00,-0.000000000000000000e+00,-0.000000000000000000e+00,5.019424905450683427e-01,0.000000000000000000e+00
2.743530000000000135e-01,-7.191033094680749672e-03,1.965232709913044412e-02,1.129459857940673828e+00,1.364905273101497604e-02,-4.479790926281479457e-03,1.014868048430801473e-01,8.488915796856805890e-03,2.838521615679447802e-02,-8.627560921013355255e-03,6.112253457355400731e-03,2.680923795401250059e-02,3.969387281187964495e-02,-5.575568514582464330e-02,-2.273617193734864608e-02,1.000000000000000056e-01,0.000000000000000000e+00,-0.000000000000000000e+00,-0.000000000000000000e+00,5.013944503847944656e-01,0.000000000000000000e+00
2.994589999999999752e-01,-7.343731566649789634e-03,2.051739634131978865e-02,1.128793120384216309e+00,1.366748666318295599e-02,-4.572841512745062786e-03,1.025219321436294795e-01,4.299628945907449373e-03,2.499673960040037224e-02,-1.726592332124710083e-02,-2.615135659718858391e-02,-2.800813418850679054e-02,7.935872311273514668e-02,-5.774272803315584623e-02,-2.776336962531728708e-02,1.000000000000000056e-01,0.000000000000000000e+00,-0.000000000000000000e+00,-0.000000000000000000e+00,5.019880992224612370e-01,0.000000000000000000e+00
3.253119999999999901e-01,-7.243708315243077914e-03,2.133365102695453444e-02,1.127692103385925293e+00,1.436021800814583568e-02,-4.785852010853464122e-03,1.041221722695049312e-01,1.029528405362178933e-02,2.409647718594120844e-02,-6.639916915446519852e-03,4.963320243801654097e-02,1.710386510523853598e-02,3.776981010439034447e-02,-6.220900587990489672e-02,-2.324116823142552413e-02,1.000000000000000056e-01,0.000000000000000000e+00,-0.000000000000000000e+00,-0.000000000000000000e+00,5.011557320371188284e-01,0.000000000000000000e+00
3.479400000000000270e-01,-7.135229259375823647e-03,2.180792079238930148e-02,1.126966834068298340e+00,1.452488884816700507e-02,-4.989853146015743590e-03,1.050292100913485793e-01,2.473688689472235136e-02,2.558865086104558650e-02,-1.670992001891136169e-02,-5.037608991770296807e-03,-1.717985391983707991e-02,6.285514786667248388e-02,-6.245919335473990031e-02,-1.315469105203981477e-02,1.000000000000000056e-01,0.000000000000000000e+00,-0.000000000000000000e+00,-0.000000000000000000e+00,5.018647226053323251e-01,0.000000000000000000e+00
3.743770000000000153e-01,-6.878972717226184384e-03,2.250888941383844682e-02,1.125812053680419922e+00,1.544414655615923386e-02,-4.643872018278205616e-03,1.063105143584515133e-01,-9.028052001459115766e-04,1.424618107057397734e-02,-9.420979768037796021e-03,4.149270927717534779e-02,2.015196491538255932e-02,8.257407430792185199e-02,-7.545734369810239150e-02,-3.479120695290726512e-02,1.000000000000000056e-01,0.000000000000000000e+00,-0.000000000000000000e+00,-0.000000000000000000e+00,5.012894188292321695e-01,0.000000000000000000e+00
3.998809999999999865e-01,-6.651250227710361895e-03,2.274288757425097646e-02,1.125071763992309570e+00,1.548813089735544095e-02,-4.706129235072076256e-03,1.070595434909902277e-01,1.916786606474264049e-02,1.848624503472039507e-02,-1.257388573139905930e-02,-3.007498529758787648e-02,-1.704244132978742152e-02,2.742262885256860957e-03,-7.197233844793010649e-02,-1.394128654217177861e-02,1.000000000000000056e-01,0.000000000000000000e+00,-0.000000000000000000e+00,-0.000000000000000000e+00,5.014767866784178851e-01,0.000000000000000000e+00
4.269749999999999934e-01,-6.169520508720276360e-03,2.278035428510921320e-02,1.123906373977661133e+00,1.548812571299281945e-02,-4.832396847395337147e-03,1.083101242701012268e-01,1.615920752032150298e-02,1.660429474045270123e-02,-1.945765316486358643e-02,3.653673194421341083e-03,-3.656622989277415192e-02,5.897929727995771670e-02,-7.364981229809702823e-02,-2.008420428343645966e-02,1.000000000000000056e-01,0.000000000000000000e+00,-0.000000000000000000e+00,-0.000000000000000000e+00,5.019823034407417950e-01,0.000000000000000000e+00
4.468130000000000157e-01,-5.975786019716117919e-03,2.278154570545988175e-02,1.123520016670227051e+00,1.580911873953089533e-02,-5.052860035655415416e-03,1.085062392410398591e-01,9.220709434447344963e-03,1.023810129605627096e-02,-6.025728769600391388e-03,4.216926344802469223e-02,-5.375593980236120784e-02,1.338974189917110577e-02,-8.012302401536915142e-02,-2.702101701816472801e-02,1.000000000000000056e-01,0.000000000000000000e+00,-0.000000000000000000e+00,-0.000000000000000000e+00,5.008867635989845413e-01,0.000000000000000000e+00
4.753510000000000235e-01,-5.211709927504554196e-03,2.273066380983600546e-02,1.122051596641540527e+00,1.589311073569779284e-02,-5.354043213602333040e-03,1.098964223835092735e-01,1.762610090920214978e-02,1.434349332377601524e-02,-1.436307933181524277e-02,-6.860738882318322476e-03,-8.002885868659190965e-03,-9.333532469940307441e-03,-7.703903591916347326e-02,-1.996057260260667918e-02,1.000000000000000056e-01,0.000000000000000000e+00,-0.000000000000000000e+00,-0.000000000000000000e+00,5.015240345114524434e-01,0.000000000000000000e+00
4.981679999999999997e-01,-4.787515257326549825e-03,2.271859533458641528e-02,1.121234059333801270e+00,1.558300316310423823e-02,-5.652892189799363365e-03,1.105724490344295319e-01,1.987766154734664156e-02,1.205125278001675099e-02,-1.766396127641201019e-02,2.323052314667716726e-03,-4.900528718141449608e-02,5.219862530347454954e-02,-7.758274119592513396e-02,-2.121283151839443298e-02,1.000000000000000056e-01,0.000000000000000000e+00,-0.000000000000000000e+00,-0.000000000000000000e+00,5.017349594320751338e-01,0.000000000000000000e+00
5.211609999999999854e-01,-3.787408439556842667e-03,2.284488377304265058e-02,1.120025634765625000e+00,1.508552175168288365e-02,-6.013727660088896698e-03,1.115712351500219857e-01,1.735025356046589196e-02,1.591154175236774576e-02,-1.518373657017946243e-02,3.198619905980280148e-02,-1.815100825442291649e-02,2.595516372017843756e-02,-7.048197177339821096e-02,-2.499673371936893956e-02,1.000000000000000056e-01,0.000000000000000000e+00,-0.000000000000000000e+00,-0.000000000000000000e+00,5.015399765109186392e-01,0.000000000000000000e+00
5.498100000000000209e-01,-3.116965721850001834e-03,2.285515355140980628e-02,1.119270563125610352e+00,1.489428725222037217e-02,-6.229359426012326395e-03,1.119279838536686444e-01,2.211808097291740466e-02,5.686941941516380529e-03,-2.458785660564899445e-02,-2.588273403670214579e-02,-3.514711161737826828e-02,1.369420154836667632e-02,-7.870369318492319299e-02,-2.239021201790118015e-02,1.000000000000000056e-01,0.000000000000000000e+00,-0.000000000000000000e+00,-0.000000000000000000e+00,5.022130153091629579e-01,0.000000000000000000e+00
5.733740000000000503e-01,-2.067418730343346250e-03,2.286975028095325491e-02,1.118037223815917969e+00,1.475925054149090400e-02,-6.318144061897568164e-03,1.128109510193862075e-01,2.549035906955066100e-02,1.127704200916745253e-02,-1.799433305859565735e-02,-2.568081570342307593e-02,-3.645690380810719805e-03,6.601446207380767817e-02,-7.176277776592540625e-02,-1.953243125538912592e-02,1.000000000000000056e-01,0.000000000000000000e+00,-0.000000000000000000e+00,-0.000000000000000000e+00,5.017158988220877802e-01,0.000000000000000000e+00
5.968149999999999844e-01,-1.360042937320182516e-03,2.286752838160323320e-02,1.117263078689575195e+00,1.463650722950411709e-02,-6.429660870900466563e-03,1.133017674111103101e-01,2.140722989917960561e-02,1.037141956632981962e-02,-1.662207022309303284e-02,1.346553910325925391e-02,-3.557805794080046158e-02,-1.646806716712743979e-02,-7.216143958074056064e-02,-2.374649829083142968e-02,1.000000000000000056e-01,0.000000000000000000e+00,-0.000000000000000000e+00,-0.000000000000000000e+00,5.015742753575148649e-01,0.000000000000000000e+00
6.239829999999999544e-01,-6.621760685803604633e-04,2.249944165088649597e-02,1.116079568862915039e+00,1.379031248653115119e-02,-6.745649355682337145e-03,1.141349563485889451e-01,1.807889866174383284e-02,-4.666758972381886399e-04,-1.415070798248052597e-02,-6.567135997559540861e-02,-1.169514946363560057e-02,3.137192520514512500e-02,-7.558679545876820227e-02,-2.833021555362381927e-02,1.000000000000000056e-01,0.000000000000000000e+00,-0.000000000000000000e+00,-0.000000000000000000e+00,5.013785360031741689e-01,0.000000000000000000e+00
6.475870000000000237e-01,-1.631525512282100084e-04,2.226427977647190554e-02,1.115338087081909180e+00,1.373188177898964496e-02,-7.030970248504075926e-03,1.144304066702659384e-01,3.227072059639983503e-02,1.416493976075573064e-02,-1.784050278365612030e-02,5.305681781691031808e-03,1.869621634358514198e-03,-5.221463584958250213e-03,-6.265559908502928155e-02,-1.623724611967650860e-02,1.000000000000000056e-01,0.000000000000000000e+00,-0.000000000000000000e+00,-0.000000000000000000e+00,5.016235364327937818e-01,0.000000000000000000e+00
6.709889999999999466e-01,5.949429008080184527e-04,2.189343250739475555e-02,1.114314794540405273e+00,1.313907874621790019e-02,-7.405909023800782975e-03,1.149745883519739387e-01,1.792161271975760417e-02,-1.218623219011779907e-03,-1.529439538717269897e-02,4.788179765031277957e-03,-4.234830673265115031e-02,4.795514327425874461e-03,-7.279041771715163978e-02,-3.360069769798992162e-02,1.000000000000000056e-01,0.000000000000000000e+00,-0.000000000000000000e+00,-0.000000000000000000e+00,5.014099983130622107e-01,0.000000000000000000e+00
6.988290000000000335e-01,1.077949893808104924e-03,2.164822442277075307e-02,1.113614082336425781e+00,1.262216455958741976e-02,-7.499800027060743446e-03,1.154461619380551252e-01,1.861472075256211806e-02,3.004324884681973135e-03,-2.566890418529510498e-02,-4.523549566531272909e-02,9.864085254900921418e-03,3.137881964871027524e-02,-6.401764820210689710e-02,-3.065753861094010213e-02,1.000000000000000056e-01,0.000000000000000000e+00,-0.000000000000000000e+00,-0.000000000000000000e+00,5.021608845669411902e-01,0.000000000000000000e+00
7.226550000000000473e-01,2.268592330911895372e-03,2.205758359283217437e-02,1.112625718116760254e+00,1.208077593047747131e-02,-8.033379824815556347e-03,1.161018380392191407e-01,3.434357591175691421e-02,6.592937803357657410e-03,-2.222702093422412872e-02,-3.094976388053564259e-03,-4.088831745950738394e-02,2.076549881986169271e-02,-5.914733664696781440e-02,-2.009845289026836873e-02,1.000000000000000056e-01,0.000000000000000000e+00,-0.000000000000000000e+00,-0.000000000000000000e+00,5.018929262612907838e-01,0.000000000000000000e+00
7.487129999999999619e-01,3.072334909350226979e-03,2.228705877355771636e-02,1.111979007720947266e+00,1.189294370249744520e-02,-8.258824579387313847e-03,1.163852482786766895e-01,1.911912663543733487e-02,-1.459339926485854542e-04,-1.589821837842464447e-02,-8.045458849280007554e-03,-1.618767005411589051e-03,1.072552418129625248e-02,-6.252860229186070484e-02,-3.649546655104234788e-02,1.000000000000000056e-01,0.000000000000000000e+00,-0.000000000000000000e+00,-0.000000000000000000e+00,5.013703406770962934e-01,0.000000000000000000e+00
7.725710000000000077e-01,4.269225916116193946e-03,2.260312063927301038e-02,1.111059308052062988e+00,1.185526277844236968e-02,-8.391155481251466597e-03,1.168352567053188018e-01,3.206705832766190700e-02,5.489979097284829364e-03,-2.770847268402576447e-02,-5.103032581393666250e-02,1.333567847385325016e-02,4.403634027958163583e-02,-5.765130912103709482e-02,-2.291496439787420528e-02,1.000000000000000056e-01,0.000000000000000000e+00,-0.000000000000000000e+00,-0.000000000000000000e+00,5.022521917892430743e-01,0.000000000000000000e+00
7.980310000000000459e-01,5.060355785241552225e-03,2.282972657488601190e-02,1.110483169555664062e+00,1.192100363694857668e-02,-8.456583088229052692e-03,1.170905546668383757e-01,2.556093363336228372e-02,3.289682348329802872e-03,-1.689067482948303223e-02,-1.143240087667282169e-02,1.939474682285406357e-02,-1.641101361122471528e-02,-5.986171444445961831e-02,-3.020382284679138524e-02,1.000000000000000056e-01,0.000000000000000000e+00,-0.000000000000000000e+00,-0.000000000000000000e+00,5.013905549792408989e-01,0.000000000000000000e+00
8.219579999999999664e-01,6.262367556998862418e-03,2.341361897584291404e-02,1.109608530998229980e+00,1.213616159248333097e-02,-8.992660917579220481e-03,1.176132462279906310e-01,3.114713005066966842e-02,1.745783322266483998e-03,-1.687169447541236877e-02,1.445908998735807860e-02,-4.526609916922044730e-02,-1.374884859254103982e-02,-6.244763597875169908e-02,-2.714091675887958174e-02,1.000000000000000056e-01,0.000000000000000000e+00,-0.000000000000000000e+00,-0.000000000000000000e+00,5.013677382228929336e-01,0.000000000000000000e+00
8.489750000000000352e-01,7.043726412838002653e-03,2.386672846770803574e-02,1.109085798263549805e+00,1.254324300899844515e-02,-9.027176956883486980e-03,1.177793329195921945e-01,2.392195248701453614e-02,2.061889743239659831e-03,-1.870875433087348938e-02,4.834872724636423563e-02,-6.957050029025695255e-03,4.114122901663319100e-03,-6.365070824209427547e-02,-3.344060322655428852e-02,1.000000000000000056e-01,0.000000000000000000e+00,-0.000000000000000000e+00,-0.000000000000000000e+00,5.014582635396904742e-01,0.000000000000000000e+00
8.721980000000000288e-01,8.234767368940118515e-03,2.454406217696558645e-02,1.108407735824584961e+00,1.288520268972133398e-02,-9.048101163192878715e-03,1.180472929421991779e-01,2.849266329588719115e-02,3.742680930669782958e-03,-1.499105710536241531e-02,1.747393151175580944e-02,2.899789453030965705e-02,-1.176657395051751431e-02,-6.451698799332257483e-02,-2.751616601538413309e-02,1.000000000000000056e-01,0.000000000000000000e+00,-0.000000000000000000e+00,-0.000000000000000000e+00,5.011416622279477595e-01,0.000000000000000000e+00
8.984509999999999996e-01,9.011970743614759402e-03,2.495688938668742113e-02,1.108016967773437500e+00,1.291031260043843873e-02,-9.129664823874339419e-03,1.185228143280392388e-01,2.713209303244125403e-02,9.642157020046088212e-03,-1.809258013963699341e-02,1.215463273864571259e-02,-1.439318234750091782e-02,4.599643333343562956e-02,-5.957723511956231760e-02,-2.875771869762380403e-02,1.000000000000000056e-01,0.000000000000000000e+00,-0.000000000000000000e+00,-0.000000000000000000e+00,5.013197488872043195e-01,0.000000000000000000e+00
9.234200000000000186e-01,9.261812715625719616e-03,2.508265270189178123e-02,1.107555508613586426e+00,1.330275435634883235e-02,-9.132350299278835237e-03,1.188259637112574207e-01,1.792586751890473673e-02,-4.204748566881698173e-03,-8.743199519813060760e-03,3.366424285345913370e-02,2.867991114046531537e-02,3.259761677667451923e-02,-7.366412001343436433e-02,-3.696660357290002669e-02,1.000000000000000056e-01,0.000000000000000000e+00,-0.000000000000000000e+00,-0.000000000000000000e+00,5.005523220194878498e-01,0.000000000000000000e+00
9.481669999999999821e-01,9.143194995524907623e-03,2.498774390643541607e-02,1.107372045516967773e+00,1.384014477709680398e-02,-9.406201325601992735e-03,1.188819818705795228e-01,3.243039588260240164e-02,2.368150003684327005e-03,-7.018006406724452972e-03,1.511084147422499593e-02,1.979787699360923553e-02,-3.149492495998682667e-02,-7.084785514084233904e-02,-2.437649394160864430e-02,1.000000000000000056e-01,0.000000000000000000e+00,-0.000000000000000000e+00,-0.000000000000000000e+00,5.003440905650015091e-01,0.000000000000000000e+00
9.729839999999999600e-01,8.999742446714470781e-03,2.482399953096554868e-02,1.107135772705078125e+00,1.444979961964847071e-02,-9.430797977635130280e-03,1.193629921413179584e-01,1.824232654691293129e-02,-6.895408767700994361e-04,-5.874550901353359222e-03,1.564535896367583861e-02,-3.602672500642634806e-02,1.940642293882643282e-02,-7.706999939188115267e-02,-3.874737608886909962e-02,1.000000000000000056e-01,0.000000000000000000e+00,-0.000000000000000000e+00,-0.000000000000000000e+00,5.001756034424649222e-01,0.000000000000000000e+00
9.974129999999999940e-01,8.932068131909717129e-03,2.471538153037985963e-02,1.107065081596374512e+00,1.476080108589568167e-02,-9.374546598129196440e-03,1.195587063696452734e-01,1.727375475506148436e-02,-2.198544130345378780e-03,-1.924987649545073509e-03,2.806477797777098132e-02,-9.989198191893512713e-03,1.815301259734883668e-02,-7.997900441888608492e-02,-3.696481415756514705e-02,1.000000000000000056e-01,0.000000000000000000e+00,-0.000000000000000000e+00,-0.000000000000000000e+00,4.997824899622614891e-01,0.000000000000000000e+00
1.025201000000000029e+00,9.389983513812656668e-03,2.451206270861247538e-02,1.106995582580566406e+00,1.516176294938551168e-02,-9.644589584287377448e-03,1.196751550545951392e-01,2.659809547405211916e-02,-5.078886522212957026e-04,-3.355876309797167778e-03,6.879794514752532973e-03,-3.007455027558305922e-03,-4.195125315778037989e-02,-8.182636820494970653e-02,-3.014576764270364070e-02,1.000000000000000056e-01,0.000000000000000000e+00,-0.000000000000000000e+00,-0.000000000000000000e+00,4.997985140897795997e-01,0.000000000000000000e+00
1.049752000000000018e+00,9.905420929550498924e-03,2.433165098288556788e-02,1.106971740722656250e+00,1.504953421723938256e-02,-9.441384772341354648e-03,1.201441802492659860e-01,1.692734716489462457e-02,-1.733807071621819122e-03,-6.236813962459564209e-03,-9.768572058985822842e-03,5.908023204571981844e-03,6.711543263839687967e-02,-8.154576323340839705e-02,-3.800820604564648236e-02,1.000000000000000056e-01,0.000000000000000000e+00,-0.000000000000000000e+00,-0.000000000000000000e+00,4.999196775704930484e-01,0.000000000000000000e+00
1.077496999999999927e+00,1.060939395854652682e-02,2.408742440696435075e-02,1.106980204582214355e+00,1.498716669241974622e-02,-9.235319676279551970e-03,1.202448573523782205e-01,2.263386780304375151e-02,-1.361754979477700295e-04,-7.073737215250730515e-03,2.007928180516868957e-02,2.973172645271717970e-02,7.961594369319667519e-03,-8.030494883881994506e-02,-2.972858556456579177e-02,1.000000000000000056e-01,0.000000000000000000e+00,-0.000000000000000000e+00,-0.000000000000000000e+00,4.998881632914472517e-01,0.000000000000000000e+00
1.099806000000000061e+00,1.086136934474583003e-02,2.399583601569652350e-02,1.107028365135192871e+00,1.452470181814901305e-02,-9.345165956953671582e-03,1.204563034740939731e-01,2.245031836622708374e-02,-3.044060617165901192e-03,-1.636544056236743927e-02,-7.015737790308658461e-02,2.736566221808547830e-03,4.146447026950694781e-02,-7.993714113676954336e-02,-3.154825782005100249e-02,1.000000000000000056e-01,0.000000000000000000e+00,-0.000000000000000000e+00,-0.000000000000000000e+00,5.004984393911071638e-01,0.000000000000000000e+00
1.123145000000000060e+00,1.131612029966985906e-02,2.384395364739669634e-02,1.107101321220397949e+00,1.431264643836896097e-02,-9.448823228140668107e-03,1.206475473669279541e-01,2.218051217561928593e-02,-6.010099172427263957e-03,-1.353333587758243084e-03,-2.375595251815520656e-02,-3.793020683171777641e-03,-2.492306599343242779e-02,-8.061148215151156537e-02,-3.212238405489092202e-02,1.000000000000000056e-01,0.000000000000000000e+00,-0.000000000000000000e+00,-0.000000000000000000e+00,4.992584594481126459e-01,0.000000000000000000e+00
1.156360000000000054e+00,1.232959522299774749e-02,2.343140179053534999e-02,1.107268095016479492e+00,1.413337934486469903e-02,-9.684771831421690180e-03,1.207552468880235264e-01,1.950335619251493055e-02,-4.291853585584265961e-03,-6.863963790237903595e-03,-2.089693716985502325e-02,-3.494910841594060791e-02,-1.052164998934333046e-02,-7.768202893152129085e-02,-3.496447046568413458e-02,1.000000000000000056e-01,0.000000000000000000e+00,-0.000000000000000000e+00,-0.000000000000000000e+00,4.995660811419304626e-01,0.000000000000000000e+00
1.172179000000000082e+00,1.270653898307027435e-02,2.327367446676425339e-02,1.107366204261779785e+00,1.390686816134253934e-02,-9.679991268634946522e-03,1.207331232688146905e-01,1.857317599161249777e-02,-1.326573434450520166e-02,-7.630901411175727844e-03,-1.836357225054817757e-02,-3.400234959765165849e-02,-1.715779183132985428e-02,-8.402382817570808182e-02,-3.571906503302520186e-02,1.000000000000000056e-01,0.000000000000000000e+00,-0.000000000000000000e+00,-0.000000000000000000e+00,4.995203872599182082e-01,0.000000000000000000e+00
1.197360999999999898e+00,1.385226142501809650e-02,2.280819389930370880e-02,1.107597351074218750e+00,1.334294127551554493e-02,-9.515123173576167659e-03,1.212668364038069768e-01,2.798985391269016507e-02,-3.081468625572539918e-03,-1.268015429377555847e-02,-7.076894040609175984e-02,2.849481538687348783e-02,-1.019640083232986258e-02,-7.157867258038042024e-02,-2.494146816274531164e-02,1.000000000000000056e-01,0.000000000000000000e+00,-0.000000000000000000e+00,-0.000000000000000000e+00,4.997965579713723461e-01,0.000000000000000000e+00
1.221743999999999941e+00,1.494754946504234239e-02,2.233697475637480209e-02,1.107998371124267578e+00,1.261244068119777781e-02,-9.620926181646671793e-03,1.218918184388408932e-01,1.682484276765842598e-02,-6.362354167841417600e-03,-1.355802826583385468e-02,-2.245781096108462674e-02,-2.341130152278192086e-02,4.367000703132534883e-02,-7.045554503363389565e-02,-3.607846140362423737e-02,1.000000000000000056e-01,0.000000000000000000e+00,-0.000000000000000000e+00,-0.000000000000000000e+00,4.997395500346203390e-01,0.000000000000000000e+00
1.249956000000000067e+00,1.560032084420307635e-02,2.235487158400590799e-02,1.108705997467041016e+00,1.157141691047180662e-02,-9.059511478431758746e-03,1.222891119130451454e-01,3.272478501054472411e-02,-5.912928740630642123e-04,-1.513746660202741623e-02,-1.119698870036413135e-01,3.715933286904492261e-02,2.151051555873328969e-02,-5.970378692459313297e-02,-1.651475891389316691e-02,1.000000000000000056e-01,0.000000000000000000e+00,-0.000000000000000000e+00,-0.000000000000000000e+00,4.997203978623375731e-01,0.000000000000000000e+00
1.274400999999999895e+00,1.597174872195674181e-02,2.266153348800297590e-02,1.109184861183166504e+00,8.026143167284326488e-03,-7.585141486750490714e-03,1.229790902861267465e-01,1.344083754877600095e-02,5.618523816693296591e-04,-3.654863685369491577e-03,-1.149474371480283530e-01,1.499984573096233009e-02,7.061798391890020121e-02,-3.426262639102365531e-02,-2.556976442017501114e-02,1.000000000000000056e-01,0.000000000000000000e+00,-0.000000000000000000e+00,-0.000000000000000000e+00,4.987115511482104191e-01,0.000000000000000000e+00
1.297854000000000063e+00,1.619000155259928131e-02,2.294509152769621044e-02,1.109622478485107422e+00,4.993549554515740521e-03,-6.754880726885126307e-03,1.230648434270378289e-01,1.926438529071333380e-02,2.789879791813106285e-03,-6.068816408514976501e-03,-1.580135238118895724e-01,1.112969109020572542e-02,-1.982182492646240163e-02,-1.323890088351685132e-02,-1.241944730565953253e-02,1.000000000000000056e-01,0.000000000000000000e+00,-0.000000000000000000e+00,-0.000000000000000000e+00,4.987637393781099160e-01,0.000000000000000000e+00
1.324802000000000035e+00,1.683137698155629663e-02,2.328721765549375891e-02,1.110235095024108887e+00,2.029402405348356797e-04,-5.395928447845310671e-03,1.238033442750492430e-01,2.402076585526376901e-02,-1.604241966965589804e-03,-3.135650884360074997e-03,-1.625764555184184834e-01,1.791366432097695957e-02,3.166581090154561851e-02,1.404815566832441111e-02,-1.068811219357947845e-03,1.000000000000000056e-01,0.000000000000000000e+00,-0.000000000000000000e+00,-0.000000000000000000e+00,4.983932544612708071e-01,0.000000000000000000e+00
1.348422000000000009e+00,1.768609923537049766e-02,2.345698352165581299e-02,1.110679149627685547e+00,-1.490945301295918584e-03,-3.463514019827584889e-03,1.239251043655464901e-01,2.775177995920382126e-02,4.195678620356518319e-03,7.513129152357578278e-03,-4.632036559268188497e-02,9.106763767240017016e-02,-9.561636208760529790e-03,3.088349182539091436e-02,1.498765377475512993e-02,1.000000000000000056e-01,0.000000000000000000e+00,-0.000000000000000000e+00,-0.000000000000000000e+00,4.974419138581350763e-01,0.000000000000000000e+00
1.371683999999999903e+00,1.903611960118526888e-02,2.373413061439894750e-02,1.111407279968261719e+00,-3.193965365742513097e-03,-1.431057359158049991e-04,1.242648600470697140e-01,2.540121053470684176e-02,-5.839332499688965148e-04,7.697574794292449951e-03,-3.182149373277533277e-02,8.642340254884497974e-02,-1.046237380771695112e-02,3.803407888576907508e-02,3.433948161648468778e-02,1.000000000000000056e-01,0.000000000000000000e+00,-0.000000000000000000e+00,-0.000000000000000000e+00,4.972572867399555063e-01,0.000000000000000000e+00
1.397361000000000075e+00,1.999817951512950290e-02,2.393817756570166405e-02,1.111874818801879883e+00,-3.526132767592591883e-03,2.963504133095096194e-03,1.247148274084504127e-01,2.675402943341681494e-02,8.668198229456528653e-03,-2.636005519889295101e-04,-2.785020098493746002e-02,1.937731875905772116e-01,2.480225727143144793e-02,4.921754491985149554e-02,5.757537742198901021e-02,1.000000000000000056e-01,0.000000000000000000e+00,-0.000000000000000000e+00,-0.000000000000000000e+00,4.977203019244497151e-01,0.000000000000000000e+00
1.423626999999999976e+00,2.154831714194111250e-02,2.428811993477983031e-02,1.112588405609130859e+00,-2.361039639599650693e-03,8.620824428139828299e-03,1.250381768655102199e-01,5.194562919441340215e-02,1.257092325143570680e-02,3.402331843972206116e-03,6.782936589582636011e-02,2.013873141428932645e-01,2.898993824164369446e-02,4.269721403202086235e-02,1.000000000000000056e-01,1.000000000000000056e-01,0.000000000000000000e+00,-0.000000000000000000e+00,-0.000000000000000000e+00,4.972859127029291004e-01,0.000000000000000000e+00
1.452898999999999941e+00,2.252565103326475277e-02,2.428169339638038340e-02,1.113084673881530762e+00,-1.228193307050842037e-03,1.430416155094538233e-02,1.250396732364047470e-01,3.842377729566989059e-02,7.192064862713538377e-03,2.761888084933161736e-03,2.510056339270458695e-02,2.836763862466443187e-01,-5.861522051634314966e-03,3.274717312977271089e-02,1.000000000000000056e-01,1.000000000000000056e-01,0.000000000000000000e+00,-0.000000000000000000e+00,-0.000000000000000000e+00,4.971788903077890565e-01,0.000000000000000000e+00
1.477160999999999946e+00,2.364648524743642038e-02,2.431813449138556238e-02,1.113512754440307617e+00,4.455240347259825998e-04,2.075271376970011517e-02,1.253985578008831592e-01,5.889395482311424873e-02,1.558931611212215074e-02,6.348484661430120468e-03,6.283352260539097622e-02,3.448587040670816894e-01,3.625846080198222906e-03,2.908275510399009264e-02,1.000000000000000056e-01,1.000000000000000056e-01,0.000000000000000000e+00,-0.000000000000000000e+00,-0.000000000000000000e+00,4.967698787287552209e-01,0.000000000000000000e+00
1.496947999999999945e+00,2.483826635734373220e-02,2.439889389238232564e-02,1.113926410675048828e+00,1.938278552313186598e-03,2.745078954045365727e-02,1.256171102857552846e-01,6.589533111943170207e-02,1.533722737241960399e-02,-1.572457607835531235e-03,2.513870279731635765e-02,3.270319843732186760e-01,1.893165207401610942e-02,1.883806147985477020e-02,1.000000000000000056e-01,1.000000000000000056e-01,0.000000000000000000e+00,-0.000000000000000000e+00,-0.000000000000000000e+00,4.972328687684306470e-01,0.000000000000000000e+00
1.524520000000000097e+00,2.690741340869712978e-02,2.463203236155933618e-02,1.114511132240295410e+00,4.643637514569032287e-03,3.664933233995348871e-02,1.261360476002388875e-01,6.565771369292365545e-02,1.733768821713187885e-02,-9.320307523012161255e-03,1.067035128051014789e-02,2.816756334371043335e-01,5.039493334518053286e-02,4.834180988509013781e-03,1.000000000000000056e-01,1.000000000000000056e-01,0.000000000000000000e+00,-0.000000000000000000e+00,-0.000000000000000000e+00,4.976754545612445124e-01,0.000000000000000000e+00
1.550605999999999929e+00,2.961282325790435752e-02,2.504558131450435390e-02,1.115079641342163086e+00,7.818694759618573936e-03,4.399389730381764174e-02,1.268457240453948476e-01,8.174026976400083910e-02,2.601587564974284714e-02,-4.018043982796370983e-04,6.440099587263195535e-02,2.461284925627865716e-01,1.712687123879326478e-02,-8.517805316921965922e-03,1.000000000000000056e-01,1.000000000000000056e-01,0.000000000000000000e+00,-0.000000000000000000e+00,-0.000000000000000000e+00,4.968580320237436787e-01,0.000000000000000000e+00
1.576602999999999977e+00,3.277975152500871986e-02,2.556674007553962763e-02,1.115546703338623047e+00,9.919300461038784225e-03,4.932610938729609096e-02,1.275236501617620366e-01,9.407474359718481782e-02,2.633438415604241051e-02,-3.658418310806155205e-03,4.392460008017309847e-02,1.480391352861483989e-01,2.283008417820619682e-03,-2.278451016383937003e-02,1.000000000000000056e-01,1.000000000000000056e-01,0.000000000000000000e+00,-0.000000000000000000e+00,-0.000000000000000000e+00,4.969692216651275807e-01,0.000000000000000000e+00
1.596584999999999921e+00,3.393301703563923050e-02,2.578139147821346608e-02,1.115677714347839355e+00,1.045560905686575628e-02,5.078323676721918645e-02,1.279783674179846287e-01,8.666969928246254229e-02,2.427703279119831567e-02,5.309286061674356461e-04,9.008200979903284444e-02,1.413791703501351416e-01,4.424733102345086017e-02,-2.671782535983062076e-02,1.000000000000000056e-01,1.000000000000000056e-01,0.000000000000000000e+00,-0.000000000000000000e+00,-0.000000000000000000e+00,4.965246365591823308e-01,0.000000000000000000e+00
1.625518000000000018e+00,3.895378739576793592e-02,2.667025866742529089e-02,1.116086602210998535e+00,1.268189815350497657e-02,5.474999008440772919e-02,1.289989477158557385e-01,1.245860549490185182e-01,3.337816543519249446e-02,-3.149406053125858307e-03,6.463378636431874047e-02,1.128100987705811520e-01,1.126273462329237772e-02,-3.541251877995553465e-02,1.000000000000000056e-01,1.000000000000000056e-01,0.000000000000000000e+00,-0.000000000000000000e+00,-0.000000000000000000e+00,4.966978333840121884e-01,0.000000000000000000e+00
1.650328000000000017e+00,4.114184993676918423e-02,2.759798910501247426e-02,1.116208195686340332e+00,1.328329818171974583e-02,5.631406399167371291e-02,1.295683248227359474e-01,1.289967736435750911e-01,2.332461847318878859e-02,9.408017620444297791e-03,2.975651865608867908e-02,6.244969205601610951e-02,2.455412040448834432e-02,-4.800105316819060219e-02,1.000000000000000056e-01,1.000000000000000056e-01,0.000000000000000000e+00,-0.000000000000000000e+00,-0.000000000000000000e+00,4.956115266003884301e-01,0.000000000000000000e+00
1.674360999999999988e+00,4.489502908314420282e-02,2.907226918975681570e-02,1.116331696510314941e+00,1.382075970655171661e-02,5.932691409180024245e-02,1.305946179904464710e-01,1.472263712597988161e-01,3.492783510747413112e-02,-4.641737323254346848e-03,8.081289890297117242e-04,9.821887737229616222e-02,3.460386886369132969e-02,-4.034489402532331209e-02,1.000000000000000056e-01,1.000000000000000056e-01,0.000000000000000000e+00,-0.000000000000000000e+00,-0.000000000000000000e+00,4.965843885737537544e-01,0.000000000000000000e+00
1.698010000000000019e+00,4.770131379418725281e-02,3.005085044692816162e-02,1.116352677345275879e+00,1.389063974702680997e-02,6.056419566417425848e-02,1.313430770602959097e-01,1.590488950644781962e-01,3.071736658388386082e-02,2.054680138826370239e-03,1.138643332728641461e-02,3.887475332860693134e-02,2.330372506479083672e-02,-4.599128198332386175e-02,1.000000000000000056e-01,1.000000000000000056e-01,0.000000000000000000e+00,-0.000000000000000000e+00,-0.000000000000000000e+00,4.959703073979694343e-01,0.000000000000000000e+00
1.721634000000000109e+00,5.238431866213520693e-02,3.155295079728289570e-02,1.116209626197814941e+00,1.396254577576063437e-02,6.184250013279513070e-02,1.324061095583448644e-01,1.833840393114978262e-01,3.468721189072541261e-02,3.970424178987741470e-03,2.736162774374726117e-03,3.448557518983031561e-02,-1.019632204840733268e-02,-4.335426104669007352e-02,1.000000000000000056e-01,1.000000000000000056e-01,0.000000000000000000e+00,-0.000000000000000000e+00,-0.000000000000000000e+00,4.957510155057014423e-01,0.000000000000000000e+00
1.747341000000000033e+00,5.580701246529230775e-02,3.240609597627905347e-02,1.116100549697875977e+00,1.412640133402195963e-02,6.239491031652844022e-02,1.333364373009091608e-01,1.930252000338938678e-01,4.353811953447449257e-02,2.909546252340078354e-03,3.409552414078958343e-02,9.471496963091819224e-03,6.649793795532422946e-02,-3.745193299702712086e-02,1.000000000000000056e-01,1.000000000000000056e-01,0.000000000000000000e+00,-0.000000000000000000e+00,-0.000000000000000000e+00,4.957393928423545759e-01,0.000000000000000000e+00
1.774388999999999994e+00,6.131921693118717875e-02,3.355509217514088954e-02,1.115694761276245117e+00,1.420594879559392704e-02,6.304128393587071777e-02,1.342527589583464298e-01,2.017659866446644135e-01,3.312715692987026894e-02,2.968817250803112984e-03,4.569351195414165373e-02,5.036410995832673460e-02,1.999039294895791838e-02,-4.813762660696245532e-02,1.000000000000000056e-01,1.000000000000000056e-01,0.000000000000000000e+00,-0.000000000000000000e+00,-0.000000000000000000e+00,4.956628837765845175e-01,0.000000000000000000e+00
1.797395999999999994e+00,6.538526436076980142e-02,3.435408693369713246e-02,1.115382313728332520e+00,1.361272440879997617e-02,6.336902403894284497e-02,1.350903912021321762e-01,2.301899263657971595e-01,4.643269473524115620e-02,-1.679922267794609070e-02,-8.023888808120681337e-02,3.458555896620077452e-02,6.623208098984838255e-02,-3.361936248373924296e-02,1.000000000000000056e-01,1.000000000000000056e-01,0.000000000000000000e+00,-0.000000000000000000e+00,-0.000000000000000000e+00,4.971396608551457152e-01,0.000000000000000000e+00
1.824964999999999948e+00,7.200368892656920650e-02,3.563498201647248564e-02,1.114619374275207520e+00,1.265488352831476912e-02,6.456190102029668587e-02,1.364429083162930212e-01,2.393986168798932224e-01,4.535014807500706985e-02,-1.055866573005914688e-02,8.548473019543386883e-03,3.040885397066859369e-02,7.172779473478232970e-02,-2.999635628079122193e-02,1.000000000000000056e-01,1.000000000000000056e-01,0.000000000000000000e+00,-0.000000000000000000e+00,-0.000000000000000000e+00,4.966391610914300259e-01,0.000000000000000000e+00
1.848276999999999948e+00,7.646813760016302197e-02,3.666817949005903715e-02,1.114143490791320801e+00,1.196324071423820502e-02,6.590549134336409765e-02,1.368562162652049441e-01,2.520407166315176695e-01,3.743291441664801239e-02,-8.397091180086135864e-03,-6.715421258764629753e-02,4.795958178040050229e-02,1.861265468874330128e-02,-3.224503517273247244e-02,1.000000000000000056e-01,1.000000000000000056e-01,0.000000000000000000e+00,-0.000000000000000000e+00,-0.000000000000000000e+00,4.964315540014471173e-01,0.000000000000000000e+00
1.874467000000000105e+00,8.338590787449676189e-02,3.839783307360206122e-02,1.113240599632263184e+00,1.173612049354238844e-02,6.868093957041154773e-02,1.379303993806093587e-01,2.813544318984914638e-01,5.304233307859786140e-02,-1.945432089269161224e-02,-6.240014782101453023e-02,1.284647111391466479e-01,5.397375799348318876e-02,-1.772871223042103012e-02,1.000000000000000056e-01,1.000000000000000056e-01,0.000000000000000000e+00,-0.000000000000000000e+00,-0.000000000000000000e+00,4.973126028894844231e-01,0.000000000000000000e+00
1.896787999999999919e+00,8.839281057116470108e-02,3.955608642125191254e-02,1.112641215324401855e+00,1.166562936457067080e-02,7.078162113245078935e-02,1.384271813539477147e-01,2.961932087753114118e-01,4.599310475727560327e-02,-1.357298437505960464e-02,-2.925798386253899638e-02,1.016301114036247261e-01,2.693648308499812030e-02,-2.547241639032656046e-02,1.000000000000000056e-01,1.000000000000000056e-01,0.000000000000000000e+00,-0.000000000000000000e+00,-0.000000000000000000e+00,4.968407453758149073e-01,0.000000000000000000e+00
1.924449000000000076e+00,9.646095774372280551e-02,4.142155626866738521e-02,1.111687898635864258e+00,1.151597261907377247e-02,7.382102116206201714e-02,1.396327331516364900e-01,3.127440342090905268e-01,4.715274455449305901e-02,-1.990441232919692993e-02,-5.429612671489845999e-02,8.349606298432626916e-02,3.771666002005562984e-02,-2.252400665130337154e-02,1.000000000000000056e-01,1.000000000000000056e-01,0.000000000000000000e+00,-0.000000000000000000e+00,-0.000000000000000000e+00,4.973480050614121906e-01,0.000000000000000000e+00
1.947000999999999982e+00,1.022729114944810475e-01,4.269616978575308669e-02,1.111049294471740723e+00,1.152674019294042118e-02,7.568481278957173153e-02,1.405639459778926792e-01,3.374797343658803017e-01,6.059226947712917366e-02,-1.335558574646711349e-02,-1.459977610223166244e-02,1.188321791733711469e-01,3.317092429018442951e-02,-1.257009463026578268e-02,1.000000000000000056e-01,1.000000000000000056e-01,0.000000000000000000e+00,-0.000000000000000000e+00,-0.000000000000000000e+00,4.968716089894689159e-01,0.000000000000000000e+00
1.980450000000000044e+00,1.113248963464996688e-01,4.479082311866611904e-02,1.110231399536132812e+00,1.134212762732805108e-02,7.879283433093697830e-02,1.415093171228214430e-01,3.524436969642512074e-01,5.450023231961782788e-02,-4.606982693076133728e-03,1.864661842241704210e-03,1.208480876965036810e-01,2.774884471307553779e-02,-1.807762342013306475e-02,1.000000000000000056e-01,1.000000000000000056e-01,0.000000000000000000e+00,-0.000000000000000000e+00,-0.000000000000000000e+00,4.962084762412668493e-01,0.000000000000000000e+00
2.000974999999999948e+00,1.113248963464996688e-01,4.479082311866611904e-02,1.110231399536132812e+00,1.134212762732805108e-02,7.879283433093697830e-02,1.415093171228214430e-01,3.524436969642512074e-01,5.450023231961782788e-02,-4.606982693076133728e-03,1.864661842241704210e-03,1.208480876965036810e-01,2.774884471307553779e-02,-1.669482140373924894e-02,1.000000000000000056e-01,1.000000000000000056e-01,0.000000000000000000e+00,-0.000000000000000000e+00,-0.000000000000000000e+00,4.961064870651432646e-01,0.000000000000000000e+00
2.025288999999999895e+00,1.178024954185344642e-01,4.626394514570641298e-02,1.109739303588867188e+00,1.127534180231451987e-02,8.123501099454699670e-02,1.423061622981258711e-01,3.706281714337239519e-01,6.014142621743610861e-02,-1.837944239377975464e-02,-3.200758115008191934e-02,1.165097617887588671e-01,5.406157874899544108e-02,-1.231613352036533410e-02,1.000000000000000056e-01,1.000000000000000056e-01,0.000000000000000000e+00,-0.000000000000000000e+00,-0.000000000000000000e+00,4.971614374558666061e-01,0.000000000000000000e+00
2.050101000000000173e+00,1.246632023316077281e-01,4.775387431155667106e-02,1.109223484992980957e+00,1.099100213931043790e-02,8.398860347353465094e-02,1.429492662608733422e-01,3.869434839260443848e-01,6.178822838856352917e-02,-7.758660707622766495e-03,-3.122582544531782994e-02,1.520790946404647626e-01,-1.346329467894218784e-02,-9.958852057540289182e-03,1.000000000000000056e-01,1.000000000000000056e-01,0.000000000000000000e+00,-0.000000000000000000e+00,-0.000000000000000000e+00,4.963501076298679759e-01,0.000000000000000000e+00
2.075581999999999816e+00,1.319022746035574400e-01,4.932594762013256529e-02,1.108732581138610840e+00,1.034823480006357918e-02,8.693917243634641245e-02,1.439399467422788348e-01,4.078672907924208446e-01,6.767825328085819159e-02,-1.594998128712177277e-02,-5.492606068523993995e-02,1.403859488827262914e-01,6.508725925796068901e-02,-1.779903090613856043e-03,1.000000000000000056e-01,1.000000000000000056e-01,0.000000000000000000e+00,-0.000000000000000000e+00,-0.000000000000000000e+00,4.969889500321391651e-01,0.000000000000000000e+00
2.102294000000000107e+00,1.391647057588256409e-01,5.115956623335159853e-02,1.108216881752014160e+00,1.002714896706037584e-02,8.971542521339959109e-02,1.446954771164381537e-01,4.220844105673222657e-01,6.806808705922587355e-02,-4.820429719984531403e-03,4.719368376185322303e-03,1.210701493325439526e-01,2.359431764347375265e-03,1.362248510010507715e-04,1.000000000000000056e-01,1.000000000000000056e-01,0.000000000000000000e+00,-0.000000000000000000e+00,-0.000000000000000000e+00,4.961365108151871706e-01,0.000000000000000000e+00
2.128251999999999811e+00,1.465497759969111302e-01,5.330111661013825497e-02,1.107696533203125000e+00,9.901581724386709915e-03,9.220609359481923839e-02,1.454476376165516616e-01,4.356346336199473646e-01,7.550509713250533328e-02,-1.102920249104499817e-02,1.523711400487547801e-02,1.067976879116705607e-01,5.947645927847707015e-02,7.458527433467212163e-03,1.000000000000000056e-01,1.000000000000000056e-01,0.000000000000000000e+00,-0.000000000000000000e+00,-0.000000000000000000e+00,4.966130741131897786e-01,0.000000000000000000e+00
2.150034999999999918e+00,1.503817960605714488e-01,5.437117302277075237e-02,1.107455372810363770e+00,9.828014851058811466e-03,9.371978285120685648e-02,1.456290119924643633e-01,4.437905673120134398e-01,7.008068114008936256e-02,-1.741342805325984955e-02,-3.878799689952902585e-02,1.174197412604257307e-01,3.299363393586235427e-02,2.517994727361146969e-03,1.000000000000000056e-01,1.000000000000000056e-01,0.000000000000000000e+00,-0.000000000000000000e+00,-0.000000000000000000e+00,4.970568902439145287e-01,0.000000000000000000e+00
2.187014000000000014e+00,1.583935937224187074e-01,5.651822255806170786e-02,1.106940746307373047e+00,9.977110182143195463e-03,9.678022448308221115e-02,1.463366271890602643e-01,4.649915750233139522e-01,7.984764879623461320e-02,-1.235923543572425842e-02,1.169724035250669682e-02,1.764705254519322863e-01,8.672613712537232148e-04,1.026724368929011685e-02,1.000000000000000056e-01,1.000000000000000056e-01,0.000000000000000000e+00,-0.000000000000000000e+00,-0.000000000000000000e+00,4.967167526198243976e-01,0.000000000000000000e+00
2.209036000000000222e+00,1.625843236096986555e-01,5.762802349192579915e-02,1.106766819953918457e+00,9.933414940908042237e-03,9.827806647628323233e-02,1.467551077405857551e-01,4.783126372554790118e-01,8.369664989435304792e-02,-1.255565229803323746e-02,-1.434823084649397736e-02,1.723243714390542414e-01,5.734486402444226999e-02,1.224611988936088851e-02,1.000000000000000056e-01,1.000000000000000056e-01,0.000000000000000000e+00,-0.000000000000000000e+00,-0.000000000000000000e+00,4.967051666275544841e-01,0.000000000000000000e+00
2.229366000000000181e+00,1.712560911075554915e-01,5.986028497758491551e-02,1.106443524360656738e+00,9.784352750743024671e-03,1.015253966508939953e-01,1.474763524405993120e-01,4.968004617562513658e-01,8.172964142236309459e-02,-1.060874294489622116e-02,-3.133632369911481391e-02,1.230753249874134148e-01,2.215150196063297647e-02,1.096781306637084966e-02,1.000000000000000056e-01,1.000000000000000056e-01,0.000000000000000000e+00,-0.000000000000000000e+00,-0.000000000000000000e+00,4.965728540446960881e-01,0.000000000000000000e+00
2.256909999999999972e+00,1.855174110932986398e-01,6.299193419982231090e-02,1.106000542640686035e+00,9.772904774427253888e-03,1.065608615485094113e-01,1.486828036381522278e-01,5.187645916669851864e-01,8.760833489115187056e-02,-2.252169512212276459e-02,-5.979383309017838322e-02,1.612721575219903947e-01,6.553372218542319327e-02,1.625607445954525831e-02,1.000000000000000056e-01,1.000000000000000056e-01,0.000000000000000000e+00,-0.000000000000000000e+00,-0.000000000000000000e+00,4.975436485784517915e-01,0.000000000000000000e+00
2.282074000000000158e+00,1.957258706757290523e-01,6.502721061447794271e-02,1.105835914611816406e+00,1.014449370253646919e-02,1.097633432597204806e-01,1.493822752581941415e-01,5.424777495547279393e-01,9.091809028342824617e-02,-1.184301264584064484e-02,-8.407726949960735857e-03,1.858599254272309542e-01,-1.170270687194803830e-02,1.523547767470496972e-02,1.000000000000000056e-01,1.000000000000000056e-01,0.000000000000000000e+00,-0.000000000000000000e+00,-0.000000000000000000e+00,4.967723298281865318e-01,0.000000000000000000e+00
2.303428999999999949e+00,2.063905166293556193e-01,6.710633024466548802e-02,1.105705142021179199e+00,1.056573438114668910e-02,1.127870023136330335e-01,1.502265792804242661e-01,5.661315622542245629e-01,9.688549021048217802e-02,-1.388495136052370071e-02,-4.458325475947527011e-02,1.877581572141047150e-01,7.306098714900290114e-02,1.629227904684651951e-02,1.000000000000000056e-01,1.000000000000000056e-01,0.000000000000000000e+00,-0.000000000000000000e+00,-0.000000000000000000e+00,4.969698963834298100e-01,0.000000000000000000e+00
2.328958999999999779e+00,2.232456519654162641e-01,7.038562181394775186e-02,1.105786561965942383e+00,1.127532786883059766e-02,1.166819150268441074e-01,1.513886604331713404e-01,5.944528790429779441e-01,1.078720214329486615e-01,-7.538888137787580490e-03,2.991591932069448054e-02,1.116097546801693846e-01,4.497617160585191953e-02,1.935747290574037216e-02,1.000000000000000056e-01,1.000000000000000056e-01,0.000000000000000000e+00,-0.000000000000000000e+00,-0.000000000000000000e+00,4.965611340244795446e-01,0.000000000000000000e+00
2.349679000000000073e+00,2.350164919077445402e-01,7.262854393625503557e-02,1.105850934982299805e+00,1.098083406632593267e-02,1.188312610801460778e-01,1.522261868600167656e-01,6.141650296394617348e-01,1.024532263106679025e-01,-5.056636873632669449e-03,-6.531483845566284085e-02,7.062972942153236677e-02,3.781959924190263916e-02,1.458708365682597451e-02,1.000000000000000056e-01,1.000000000000000056e-01,0.000000000000000000e+00,-0.000000000000000000e+00,-0.000000000000000000e+00,4.963804949408974210e-01,0.000000000000000000e+00
2.375574999999999992e+00,2.530697039891309785e-01,7.654750174557815867e-02,1.105888605117797852e+00,1.117458650389134729e-02,1.205253298976165510e-01,1.534292751568611113e-01,6.539747016243872002e-01,1.127003569571592423e-01,-6.032591219991445541e-03,-4.933744396524253339e-02,8.474694022232108492e-02,5.254901948124116040e-02,2.046859952911578989e-02,1.000000000000000056e-01,1.000000000000000056e-01,0.000000000000000000e+00,-0.000000000000000000e+00,-0.000000000000000000e+00,4.966041435073142996e-01,0.000000000000000000e+00
2.405005000000000059e+00,2.722156640267181515e-01,8.055030188488321308e-02,1.105851888656616211e+00,1.157176270523606505e-02,1.214793753285383637e-01,1.547253317800503236e-01,6.873150922831462450e-01,1.195070051446374820e-01,-2.140744356438517570e-03,4.580545082197377826e-02,4.120837547540118738e-03,4.218611022538622940e-02,2.056438137174073505e-02,1.000000000000000056e-01,1.000000000000000056e-01,0.000000000000000000e+00,-0.000000000000000000e+00,-0.000000000000000000e+00,4.964307768964151268e-01,0.000000000000000000e+00
2.424482999999999944e+00,2.855597857501076531e-01,8.327214638126478885e-02,1.105815529823303223e+00,1.144177340398046944e-02,1.223262731318719432e-01,1.554902632934196394e-01,7.047404462430759686e-01,1.156384408909182371e-01,3.682031820062547922e-04,-3.354181419272517922e-02,4.527011705041920214e-02,2.748252634734789368e-02,1.683954098573620453e-02,1.000000000000000056e-01,1.000000000000000056e-01,0.000000000000000000e+00,-0.000000000000000000e+00,-0.000000000000000000e+00,4.962659914407733242e-01,0.000000000000000000e+00
2.450257000000000129e+00,2.994393945533204149e-01,8.609621385681344441e-02,1.105781435966491699e+00,1.147098487460030541e-02,1.226849406220607008e-01,1.566306764874902946e-01,7.344499369236394681e-01,1.267942168397183655e-01,6.926495116204023361e-03,-1.368905871206073724e-02,5.205739191495784013e-02,5.419715214301473738e-02,2.460303370070443876e-02,1.000000000000000056e-01,1.000000000000000056e-01,0.000000000000000000e+00,-0.000000000000000000e+00,-0.000000000000000000e+00,4.958912549906284717e-01,0.000000000000000000e+00
2.476335999999999871e+00,3.210349174912969783e-01,9.143117047787906182e-02,1.105694174766540527e+00,1.126378346769176496e-02,1.228898467968142505e-01,1.577941635568702594e-01,7.692723733373977302e-01,1.330856894288913739e-01,6.616043858230113983e-03,3.844545449768202450e-02,-1.973778240062737735e-02,-5.523801968591104949e-03,2.796730130793340097e-02,1.000000000000000056e-01,1.000000000000000056e-01,0.000000000000000000e+00,-0.000000000000000000e+00,-0.000000000000000000e+00,4.960918872617782194e-01,0.000000000000000000e+00
2.501055000000000028e+00,3.437285486978702287e-01,9.686650751518043057e-02,1.105626344680786133e+00,1.110075425076901233e-02,1.231773880241031627e-01,1.590679059950026453e-01,7.963483719219266455e-01,1.302144784228017049e-01,-5.133269820362329483e-03,1.970920368409683106e-03,-9.611405358224737148e-04,4.434894803842305555e-02,2.466162016474265917e-02,1.000000000000000056e-01,1.000000000000000056e-01,0.000000000000000000e+00,-0.000000000000000000e+00,-0.000000000000000000e+00,4.971242233447326075e-01,0.000000000000000000e+00
2.524725000000000108e+00,3.595078646990486071e-01,1.005651200665419742e-01,1.105530738830566406e+00,1.149186602220864106e-02,1.235591021959139280e-01,1.597830506181097121e-01,8.227083474729965928e-01,1.423461994669165953e-01,9.002886945381760597e-04,3.509499809752904265e-02,8.002734509477646418e-02,5.616372332649315763e-03,3.177732279811648630e-02,1.000000000000000056e-01,1.000000000000000056e-01,0.000000000000000000e+00,-0.000000000000000000e+00,-0.000000000000000000e+00,4.968188657199430480e-01,0.000000000000000000e+00
2.549326999999999899e+00,3.757925460156535946e-01,1.042704564147731716e-01,1.105490684509277344e+00,1.123026914992838153e-02,1.240700089478119494e-01,1.607429210513411366e-01,8.538904370297955015e-01,1.488273435699561942e-01,-1.129886135458946228e-02,-5.324997192176926519e-02,3.458257574657345318e-02,9.725664537088317407e-02,3.497284357345237932e-02,1.000000000000000056e-01,1.000000000000000056e-01,0.000000000000000000e+00,-0.000000000000000000e+00,-0.000000000000000000e+00,4.979209168107833205e-01,0.000000000000000000e+00
2.573434000000000221e+00,4.007083843587251337e-01,1.100113258375132602e-01,1.105434536933898926e+00,1.095992461304254317e-02,1.246668467438420969e-01,1.619501381900552150e-01,8.728195293581887393e-01,1.517130730863475996e-01,-2.302576322108507156e-03,1.196456681114892867e-02,1.845809733609957842e-02,4.388837702596835866e-02,3.830437110560158676e-02,1.000000000000000056e-01,1.000000000000000056e-01,0.000000000000000000e+00,-0.000000000000000000e+00,-0.000000000000000000e+00,4.973977726298245416e-01,0.000000000000000000e+00
2.601679999999999993e+00,4.355631069091862595e-01,1.178408144219895842e-01,1.105427980422973633e+00,1.058661163820572709e-02,1.243632123207547568e-01,1.631368375483914779e-01,9.297658174710442536e-01,1.646408454650678810e-01,-4.391688562463968992e-04,1.647935371912558067e-02,2.880820389869822445e-02,3.301650887450639088e-02,4.697921215238341081e-02,1.000000000000000056e-01,1.000000000000000056e-01,0.000000000000000000e+00,-0.000000000000000000e+00,-0.000000000000000000e+00,4.977474620552200246e-01,0.000000000000000000e+00
2.625640000000000196e+00,4.537589587392743540e-01,1.218047245127801964e-01,1.105307221412658691e+00,1.043433862094805646e-02,1.239644216581283764e-01,1.634258581935821297e-01,9.482986601308890373e-01,1.718078930711054997e-01,1.247524050995707512e-03,-2.956485555793419290e-02,-4.953459308933926691e-02,1.389466450345587696e-02,5.227369666037258444e-02,1.000000000000000056e-01,1.000000000000000056e-01,0.000000000000000000e+00,-0.000000000000000000e+00,-0.000000000000000000e+00,4.977366925000886733e-01,0.000000000000000000e+00
2.649945999999999913e+00,4.723968428284998633e-01,1.258149908354061208e-01,1.105150699615478516e+00,1.051176081166161659e-02,1.235224094223190683e-01,1.637140357798085866e-01,9.671536390549820839e-01,1.705541213838291659e-01,3.453338053077459335e-03,3.655946130753778833e-02,-3.866589072221059131e-02,3.691936519996852697e-03,4.910214093561285353e-02,1.000000000000000056e-01,1.000000000000000056e-01,0.000000000000000000e+00,-0.000000000000000000e+00,-0.000000000000000000e+00,4.977371414904862013e-01,0.000000000000000000e+00
2.672285000000000021e+00,4.917468720356825140e-01,1.300209466464518626e-01,1.104895114898681641e+00,1.019758878014312593e-02,1.227711139336804536e-01,1.642664482356988032e-01,9.867097918918265043e-01,1.765844151480205071e-01,-3.854404669255018234e-03,-3.668301403958373202e-02,-3.424647742749696577e-02,2.911361673795622926e-02,5.531974316185267471e-02,1.000000000000000056e-01,1.000000000000000056e-01,0.000000000000000000e+00,-0.000000000000000000e+00,-0.000000000000000000e+00,4.984919683614866814e-01,0.000000000000000000e+00
2.701205999999999996e+00,5.215705277988600397e-01,1.364475826191415275e-01,1.104329586029052734e+00,9.404370619153598621e-03,1.210151059136299612e-01,1.655299190636136952e-01,1.025315232170443513e+00,1.914027732055925135e-01,-9.044679813086986542e-03,1.789134709188291636e-02,-9.968749652237447745e-02,4.542268513412060782e-02,6.844850323179992035e-02,1.000000000000000056e-01,1.000000000000000056e-01,0.000000000000000000e+00,-0.000000000000000000e+00,-0.000000000000000000e+00,4.993442184167570241e-01,0.000000000000000000e+00
2.726303000000000143e+00,5.420263102243916276e-01,1.407931267338624615e-01,1.103928446769714355e+00,8.962392221125277392e-03,1.198980440007055837e-01,1.659199887732540901e-01,1.037788753132371955e+00,1.830823973711870611e-01,1.998106250539422035e-03,3.121498402169841507e-02,-9.545695543522929316e-02,-1.505398665349242694e-02,6.258315105761647068e-02,1.000000000000000056e-01,1.000000000000000056e-01,0.000000000000000000e+00,-0.000000000000000000e+00,-0.000000000000000000e+00,4.986614374136375538e-01,0.000000000000000000e+00
2.749483999999999817e+00,5.735207113915997690e-01,1.474238071655866733e-01,1.103348016738891602e+00,8.786517055013423269e-03,1.180443274268876408e-01,1.665660441699472472e-01,1.074271164082832408e+00,1.960314450145017595e-01,-1.558339037001132965e-02,-2.370910385334292284e-02,-4.014892554265545727e-02,2.310264292891099983e-02,7.252918631833459029e-02,1.000000000000000056e-01,1.000000000000000056e-01,0.000000000000000000e+00,-0.000000000000000000e+00,-0.000000000000000000e+00,5.004809789466465597e-01,0.000000000000000000e+00
2.774643000000000193e+00,5.954127444874538488e-01,1.521240396550014307e-01,1.102943778038024902e+00,9.250149644650075553e-03,1.167969320518902343e-01,1.672220434449478432e-01,1.090330732101495226e+00,2.035365164249656744e-01,-9.370220825076103210e-03,9.095685510299285348e-02,-2.570123223125249032e-02,8.477397309031747472e-03,7.368716816951928483e-02,1.000000000000000056e-01,1.000000000000000056e-01,0.000000000000000000e+00,-0.000000000000000000e+00,-0.000000000000000000e+00,5.002579021138765514e-01,0.000000000000000000e+00
