timestamp,x,y,z,roll,pitch,yaw,vx,vy,vz,p,q,r,psp,qsp,rsp,pres,qres,rres,thrust_sp, thrust_res
0.000000000000000000e+00,1.459421993755119495e-02,-1.839574938526599909e-02,9.764910936355590820e-01,7.165091277423226920e-03,-7.644218182105699810e-03,-5.077650208138440036e-03,-4.701218714950223219e-03,9.133956275319066523e-03,2.913468889892101288e-02,2.225080789082010610e-02,5.985576470503614632e-02,-4.587118765503672008e-02,1.751512319357181602e-01,1.738418127355856602e-01,-7.645247847030942068e-02,2.258397773284499255e-01,2.181718332916632030e-01,-6.229746917619507357e-02,5.072510125679978721e-01,-2.271906733512878418e-01,5.710244178771972656e-03,9.884115646049357906e+01,0.000000000000000000e+00
2.891099999999999920e-02,1.447692119162274395e-02,-1.773323723471617944e-02,9.771304726600646973e-01,7.145719405825647422e-03,-7.548758765417717953e-03,-4.788810351157080092e-03,-4.612484982806260882e-03,1.607181869534100860e-02,2.092427574098110199e-02,3.678459071066240288e-02,-4.966765792180936889e-03,4.642107904713666661e-02,-2.687192541533737766e-01,1.437795869306897067e-01,-3.212206159922886828e-02,-2.228240670023886871e-01,1.867893115338422616e-01,-1.878040120869728727e-02,5.260682460096042234e-01,7.528932094573974609e-01,2.095917463302612305e-01,5.926572901311906350e+01,0.000000000000000000e+00
5.037400000000000211e-02,1.429518703150443881e-02,-1.703056514972090332e-02,9.777244329452514648e-01,6.978005133935428518e-03,-7.398176844976012134e-03,-4.909075596872147784e-03,-1.193932430929014500e-02,9.247003371154666196e-03,2.042527124285697937e-02,-1.412024549646003456e-02,1.234133501277350289e-02,3.394967749844445687e-02,-2.716219577242778849e-01,1.729260108572801269e-01,6.428368916542029354e-02,-2.206819234795868168e-01,2.209644015298293518e-01,7.796574570428085882e-02,5.254639346783074316e-01,7.202951908111572266e-01,5.054390430450439453e-02,1.023154687856039686e+02,0.000000000000000000e+00
7.674400000000000666e-02,1.413013049023010941e-02,-1.640411221215875778e-02,9.784027338027954102e-01,7.501819413492434585e-03,-7.491352775600201852e-03,-5.145961149596756101e-03,6.217258939764738063e-03,7.942065142527696131e-03,2.602662518620491028e-02,3.053694773354539982e-02,-4.177419452207212225e-02,-5.014118460986948661e-02,-2.217721334783154530e-01,1.069315336366275931e-01,-4.396466726713282175e-02,-1.678031974272179982e-01,1.398653479239236053e-01,-2.960359111889875744e-02,5.254275252221281001e-01,7.432898283004760742e-01,3.226827383041381836e-01,-1.059637187081178951e+02,0.000000000000000000e+00
9.872100000000000319e-02,1.379549247687131795e-02,-1.585994376396050731e-02,9.791096448898315430e-01,8.240421484413630246e-03,-7.224573142306178752e-03,-5.151501487622001108e-03,-1.148544551803585764e-02,1.315379125545292592e-02,2.972659282386302948e-02,8.898117986984203920e-02,-5.366654902720043897e-03,-1.843968098245091919e-02,-2.782396139598101725e-01,1.515546748072515715e-01,-9.780716274659939646e-02,-2.241350922101599530e-01,1.999628807607620185e-01,-8.346804199369139976e-02,5.252723733063401346e-01,7.527593374252319336e-01,-2.472852468490600586e-01,1.103223424552590046e+02,0.000000000000000000e+00
1.238270000000000065e-01,1.300852657741722977e-02,-1.505044739461467752e-02,9.799674749374389648e-01,7.378037271506103674e-03,-7.287367880913775409e-03,-5.361968309734788107e-03,-4.816444049018609071e-03,1.892589415991438942e-02,1.086602453142404556e-02,-8.194037855709092322e-02,4.806287154712377691e-03,1.685043502998219075e-02,-1.297232022795551110e-01,1.783084928698008553e-01,-2.033142132416637105e-01,-8.566524803805108945e-02,2.196233291874001847e-01,-1.883717102150077038e-01,5.264939056907985693e-01,7.476572990417480469e-01,1.642900705337524414e-01,7.984373660491181113e+01,0.000000000000000000e+00
1.489379999999999871e-01,1.219782653933284937e-02,-1.403022955850047326e-02,9.804866313934326172e-01,3.617410939410915099e-03,-8.835832707624113880e-03,-6.232144089023394784e-03,-6.277258519140014800e-03,2.138503666456487498e-02,3.292026929557323456e-03,-2.114662656388477668e-01,-8.407316876931676675e-02,-3.244796631695771871e-02,1.692905064402443760e-01,1.658487459571290346e-01,-2.421968880803660462e-01,1.871010903301867645e-01,2.198664541834705888e-01,-2.247991938375732968e-01,5.272149124478313631e-01,7.582759857177734375e-01,1.934028863906860352e-01,1.217586541071774491e+02,0.000000000000000000e+00
1.752120000000000066e-01,1.127235339347416529e-02,-1.287256999989074349e-02,9.806389212608337402e-01,-2.618789718910735035e-03,-1.164502990552396255e-02,-5.898663828571404366e-03,-1.120196373936484767e-02,4.104336614627480256e-02,-1.123938057571649551e-02,-2.265787710885790729e-01,-1.556560157844914805e-01,1.512174486462201407e-02,6.174268272330193930e-02,1.441506319036822414e-01,-2.383549730396266053e-01,2.281975748181399796e-02,2.207699707373785847e-01,-2.218511356899706133e-01,5.282405772470657457e-01,7.558279037475585938e-01,-6.819217801094055176e-01,1.168098951855580623e+02,0.000000000000000000e+00
2.018610000000000126e-01,1.019478386119691306e-02,-1.143656720969762203e-02,9.804884791374206543e-01,-9.772057946596151082e-03,-1.552673848733965301e-02,-4.511040126177201515e-03,-2.447106977001525449e-02,3.995845413358273257e-02,-1.846684888005256653e-02,-2.956304928876305471e-01,-1.149457563637843183e-01,6.950497395418184232e-02,2.330518430490411963e-01,1.211212403981415386e-01,-2.225237517227341699e-01,1.504523263673825939e-01,2.211212403981415442e-01,-2.097275326471411960e-01,5.287177992718653519e-01,7.508533000946044922e-01,2.532838582992553711e-01,1.332871664827018776e+02,0.000000000000000000e+00
2.232490000000000030e-01,9.398117567646085621e-03,-1.031873256706987256e-02,9.805787205696105957e-01,-1.361076205551992914e-02,-1.919441887330819441e-02,-3.076087249431314063e-03,-3.018356051394386133e-02,3.680025427587807485e-02,-3.750098636373877525e-03,-1.779016838555508850e-01,-2.477380520138684483e-01,6.802484385290386015e-02,1.151468912972858777e-01,-1.647555149852097944e-03,1.940376462492005849e-01,1.514689129728587214e-02,9.835244485014790761e-02,2.029782071689483491e-01,5.272414806278427069e-01,7.275838851928710938e-01,8.213540315628051758e-01,-3.540381427970836370e+01,0.000000000000000000e+00
2.488049999999999984e-01,8.088289415863682275e-03,-8.645953084011951534e-03,9.806704521179199219e-01,-1.644711475590207236e-02,-2.493551689770345803e-02,-7.717491211267635265e-05,-1.835527988561562462e-02,4.545283470845415397e-02,-1.215778663754463196e-02,-8.240161471082505656e-03,-2.351658888418284576e-01,1.578304936639203515e-01,8.395396215272608875e-02,1.014124878735648549e-01,2.222504018774719148e-01,-1.604603784727391333e-02,2.014124878735648605e-01,2.229147489458775389e-01,5.280153669770402125e-01,7.353476285934448242e-01,1.709975004196166992e-01,9.351302151161502252e+01,0.000000000000000000e+00
2.776560000000000139e-01,6.651853327563515481e-03,-6.943119507888549993e-03,9.809100031852722168e-01,-1.625044794175450544e-02,-3.051350108267492089e-02,2.992457493467659546e-03,-2.624213236703314481e-02,4.796210822196765589e-02,-1.780404336750507355e-02,-6.189053877783875883e-03,-1.534356078294143166e-01,7.991135321185528773e-02,1.494092673274054206e-01,-2.629677363423996717e-01,2.289766243587307570e-01,4.940926732740542199e-02,-1.629677363423996661e-01,2.211457345036332012e-01,5.281709489122498047e-01,7.205822467803955078e-01,3.450177907943725586e-01,1.170527084105520146e+02,0.000000000000000000e+00
3.006710000000000216e-01,5.679170752689049854e-03,-5.834137896853015988e-03,9.809837341308593750e-01,-1.437857473029372987e-02,-3.363290011750263986e-02,4.350882719392101805e-03,-5.008304009317416511e-02,3.622445609005051081e-02,-8.684540167450904846e-03,1.484332021419276504e-01,-2.011708593553664937e-01,-2.698455912276486010e-04,1.183338147547201014e-01,-3.079899708983343531e-01,2.056180815954831431e-01,1.833381475472010275e-02,-2.079899708983343198e-01,1.940573908196839559e-01,5.276103577749192697e-01,7.248141765594482422e-01,-9.820592403411865234e-02,-6.412989604186783765e+01,0.000000000000000000e+00
3.258499999999999730e-01,4.133584598144997985e-03,-4.409010850016435376e-03,9.809613227844238281e-01,-1.098663776268119646e-02,-3.721259519283415251e-02,3.529410111126507488e-03,-2.886453516846497827e-02,4.709968966328779982e-02,-2.932928688824176788e-02,1.504180068107469348e-01,-1.316199520372671738e-01,-1.048101608195950440e-02,3.631658083255041858e-02,-2.725200045608716648e-01,2.154322045534650398e-01,-6.368341916744958697e-02,-1.725200045608716315e-01,2.058985905797467708e-01,5.291459943852306891e-01,7.247121334075927734e-01,1.267945766448974609e-02,7.610525988346201132e+01,0.000000000000000000e+00
3.509450000000000069e-01,2.591105412913657056e-03,-2.953828278531820360e-03,9.807376861572265625e-01,-7.359250589228765078e-03,-3.922300924050703408e-02,1.036571469807290313e-03,-3.388602832991833430e-02,4.727728199509462215e-02,-3.481971845030784607e-02,9.906500666279501044e-02,-4.033901082504402769e-02,-8.841746242946241230e-02,-2.774032412892799004e-03,-2.921238910664799016e-01,2.025462618707242202e-01,-8.050683659631086009e-02,-1.921238910664798960e-01,1.998081304119300738e-01,5.292931764111704629e-01,7.074315547943115234e-01,5.236824750900268555e-01,-2.169712896465746610e+00,0.000000000000000000e+00
3.769390000000000240e-01,1.001670843036799952e-03,-1.465453071417895277e-03,9.801033139228820801e-01,-2.964092445966950637e-03,-3.888562129609818285e-02,-2.321407340812875475e-03,-5.308413804852911422e-02,4.614071178092006564e-02,-4.925206303596496582e-02,1.572726581396650114e-01,9.002171242244645655e-02,-1.579316478667795731e-01,1.703718775178802713e-01,8.526047384855484079e-02,1.776880079966541015e-01,1.210502840198607044e-01,1.852604738485548463e-01,1.840838741838082548e-01,5.300834920547907725e-01,6.875164508819580078e-01,6.442344188690185547e-02,1.270970480001893748e+02,0.000000000000000000e+00
3.984699999999999909e-01,-8.715861041320950228e-05,-4.051847389005476833e-04,9.793726205825805664e-01,-2.026337264368376884e-05,-3.626710371748131934e-02,-4.655222718333407173e-03,-4.563353432080783506e-02,5.541160624014956904e-02,-5.269580706954002380e-02,1.631842523072948026e-01,1.975343841559532299e-01,-1.698717459879932612e-01,2.269917791351986902e-01,9.807130581368092570e-02,2.072982383033325215e-01,1.883899857378049658e-01,1.980713058136809313e-01,2.199956059764107963e-01,5.310748247471428485e-01,7.216758728027343750e-01,1.953804492950439453e-02,1.354394273920646015e+02,0.000000000000000000e+00
4.233600000000000141e-01,-1.556447738388102480e-03,1.306593845170119427e-03,9.780299663543701172e-01,3.887221450871076751e-03,-2.940987762042523990e-02,-8.216836339284272483e-03,-5.363705397683329185e-02,5.634413326870828242e-02,-6.407862901687622070e-02,1.607063644416197035e-01,3.193828003470865484e-01,-1.414756734029082863e-01,4.417172832858873299e-02,1.227073307639351962e-01,2.036113686836693859e-01,3.045435743187560954e-02,2.227073307639352018e-01,2.261300992324451753e-01,5.326423771174462196e-01,7.530398368835449219e-01,1.003612279891967773e-01,9.982669811621306621e+01,0.000000000000000000e+00
4.500199999999999756e-01,-3.043809005663217042e-03,3.127571654936788827e-03,9.763902425765991211e-01,6.433201918317881310e-03,-2.112311517694909213e-02,-1.168993726808409406e-02,-4.947745690736000262e-02,6.316396770038923414e-02,-7.500357180833816528e-02,8.896914218839517552e-02,2.734262755146766311e-01,-7.594627685736449196e-02,-2.247642462468702473e-01,1.271355433053400763e-01,1.857614139125544350e-01,-2.283427278296984719e-01,2.271355433053400819e-01,2.179958222441053250e-01,5.336856109392397185e-01,7.557991743087768555e-01,1.488006114959716797e-02,8.505700826251828062e+01,0.000000000000000000e+00
4.722379999999999911e-01,-4.171246316762008098e-03,4.378343573065580918e-03,9.751235246658325195e-01,8.117734779185960259e-03,-1.672565603765230335e-02,-1.407360641114552280e-02,-6.363423003601573202e-02,5.429027521529242173e-02,-8.551830798387527466e-02,9.185990238135764707e-02,1.695303270742994917e-01,-9.346725724354906784e-02,2.040210026358967588e-01,1.220458113806393019e-01,1.778882886132037155e-01,2.187212680842212098e-01,2.220458113806393075e-01,2.168238060281914015e-01,5.345243166740378804e-01,7.498486042022705078e-01,1.624883413314819336e-01,1.109537251421349850e+02,0.000000000000000000e+00
5.003969999999999807e-01,-6.042641746512457390e-03,6.041125680148573367e-03,9.732567667961120605e-01,1.261098959329418241e-02,-1.408124992900838812e-02,-1.765238911274225053e-02,-6.440952264426404172e-02,4.996726048367928358e-02,-6.880810856819152832e-02,1.886758641405335279e-01,-4.818021496706982425e-03,-1.688085099864861383e-01,-2.510935399342613117e-01,1.017873447920056851e-01,6.706331061459856746e-02,-2.062758073324288399e-01,2.017873447920056906e-01,1.159395452617024008e-01,5.329997484402484442e-01,7.197792530059814453e-01,3.170605897903442383e-01,1.014004624934432144e+02,0.000000000000000000e+00
5.274680000000000479e-01,-8.366613375701111022e-03,7.520182876090927490e-03,9.712319374084472656e-01,1.709752649013898673e-02,-1.425203064191760127e-02,-2.135868224691339634e-02,-7.837188137302017465e-02,5.621681613733592320e-02,-8.387738466262817383e-02,1.590853088996843634e-01,-2.842892608919089792e-02,-1.513781500112013068e-01,-2.752064449000992119e-01,1.018178514409390223e-01,1.002048449529093221e-01,-2.074677743437747801e-01,2.018178514409390278e-01,1.592235477096802243e-01,5.342501436995673592e-01,7.150537967681884766e-01,1.481119394302368164e-01,9.886974763235924968e+01,0.000000000000000000e+00
5.489129999999999843e-01,-9.888449334827202966e-03,8.321885941790438390e-03,9.699201583862304688e-01,1.887325427283579812e-02,-1.526432699197188825e-02,-2.395868865557293503e-02,-7.715458245847528485e-02,5.780531096363464988e-02,-8.474361151456832886e-02,6.863007775248880504e-02,-3.805513596253042030e-02,-1.288512567420735111e-01,-2.758039729375924565e-01,9.100016558695511737e-02,8.043814422227374417e-02,-1.975624717554963772e-01,1.910001655869551229e-01,1.466452041908353210e-01,5.344673212327721856e-01,7.127003669738769531e-01,1.705282926559448242e-01,7.605574101197942127e+01,0.000000000000000000e+00
5.742509999999999559e-01,-1.239041745306574197e-02,9.762695112819734511e-03,9.675167202949523926e-01,1.998925340379233140e-02,-1.729358450122742141e-02,-2.802838236115934301e-02,-7.952292624416389122e-02,5.583977486225177866e-02,-9.293650835752487183e-02,2.101628713115574754e-02,-9.361101780798700145e-02,-1.341402211680418621e-01,-2.577215961737332472e-01,-3.622170440444195949e-02,1.079832732095351855e-01,-1.713550867990653870e-01,6.377829559555804606e-02,1.854523560582166664e-01,5.354084899906211836e-01,7.163964509963989258e-01,2.816346883773803711e-01,9.619323555325220809e+01,0.000000000000000000e+00
5.976540000000000186e-01,-1.491346199100262136e-02,1.110432152212310897e-02,9.652090072631835938e-01,2.023512589892478494e-02,-1.913443736611020185e-02,-3.113502200153894783e-02,-7.968711345558335268e-02,5.686607614484947421e-02,-9.358103573322296143e-02,-2.169527022623885665e-02,-5.199764849544320083e-02,-1.301714115483572631e-01,-2.757473794853620430e-01,8.910277967987742520e-02,1.316155988267958543e-02,-1.898452003098591023e-01,1.891027796798774308e-01,9.922644009904563189e-02,5.358832792893960528e-01,7.244436740875244141e-01,6.042257547378540039e-01,5.973529085817909845e+01,0.000000000000000000e+00
6.220250000000000501e-01,-1.761756338276992614e-02,1.275380165388028883e-02,9.626755118370056152e-01,1.719153016044219079e-02,-2.092870138365698907e-02,-3.399013509193604676e-02,-9.538229464547304248e-02,6.059308589662199679e-02,-1.057910099625587463e-01,-1.497281561572580966e-01,-3.342663042593751327e-02,-9.435974228590907065e-02,-2.451646605088921294e-01,9.559387880916483948e-02,-3.214306399521232871e-01,-1.825375321685886454e-01,1.955938788091648450e-01,-2.274096794132966781e-01,5.372794476721874934e-01,7.357268333435058594e-01,4.663330316543579102e-01,1.013275843749991765e+02,0.000000000000000000e+00
6.470310000000000228e-01,-2.057024698808937804e-02,1.492431849739295907e-02,9.601693153381347656e-01,1.140081929980473439e-02,-2.282748218915831018e-02,-3.665107228436070841e-02,-9.416602302579250849e-02,6.357408953348381297e-02,-1.093043535947799683e-01,-2.534638817800737853e-01,-7.357940201505296096e-02,-9.308949404877539524e-02,-1.882906170602091922e-01,4.372066929134385549e-02,-3.126533813466495504e-01,-1.666253947118981060e-01,1.437206692913438610e-01,-2.126533813466495726e-01,5.374855185100306798e-01,7.158584594726562500e-01,3.899194002151489258e-01,9.397125207284200599e+01,0.000000000000000000e+00
6.725780000000000092e-01,-2.359772590013318322e-02,1.712129232568717491e-02,9.574987292289733887e-01,4.131475156708836784e-03,-2.421702351880261617e-02,-3.937360307834913975e-02,-8.967292456995056005e-02,6.820315113619676572e-02,-1.166427209973335266e-01,-2.759736594937748921e-01,-4.410995597564826981e-02,-1.191061727849518498e-01,-7.780443612960864785e-02,1.194982727977975112e-01,-2.932873361459595873e-01,-1.080606442380894344e-01,2.194982727977975168e-01,-1.932873361459595818e-01,5.385960371587762419e-01,7.298135757446289062e-01,2.300611734390258789e-01,9.484063270134707579e+01,0.000000000000000000e+00
7.008959999999999635e-01,-2.801056921363383884e-02,2.028161050381988711e-02,9.538612365722656250e-01,-5.554988606972685074e-03,-2.605268455575626696e-02,-3.971022439433125051e-02,-1.054001704374901704e-01,7.521363449459518569e-02,-1.081571653485298157e-01,-3.000969210332307124e-01,1.208589336200941236e-02,5.184531188067704327e-02,2.433449678330422972e-01,1.135589091613148360e-01,-1.233803509640110097e-01,1.435077393242800703e-01,2.135589091613148416e-01,-2.338035096401101104e-02,5.381538579151960988e-01,7.159786224365234375e-01,1.891459226608276367e-01,9.234880893739716612e+01,0.000000000000000000e+00
7.234909999999999952e-01,-3.120545857947400886e-02,2.230220945182375195e-02,9.514685273170471191e-01,-1.228697802691966316e-02,-2.744908883140761979e-02,-3.764977524972068501e-02,-1.216507125275600038e-01,7.973946380107337084e-02,-9.459763765335083008e-02,-2.090361127686913845e-01,-6.242006793893424554e-02,7.198704086341985164e-02,3.002257410554414196e-01,-1.127704713520050195e-02,1.091874980058120670e-01,2.002257410554414141e-01,8.872295286479950360e-02,2.091874980058120725e-01,5.372060489613309509e-01,6.997830867767333984e-01,-4.493287801742553711e-01,9.520009872717567134e+01,0.000000000000000000e+00
7.496730000000000338e-01,-3.587708488057330530e-02,2.522489637182402655e-02,9.485780000686645508e-01,-1.949992434161492219e-02,-3.004107779655740273e-02,-3.428513018537349133e-02,-1.303786568799512602e-01,7.804356245564464389e-02,-7.636197656393051147e-02,-1.478720355156168675e-01,-1.032339965251617281e-01,3.269790672693523997e-02,3.041787060817642829e-01,-3.099657854872884810e-01,1.255597490340354672e-01,2.041787060817642774e-01,-2.099657854872884477e-01,2.221341719742097320e-01,5.362857920123368372e-01,7.027373313903808594e-01,-1.020039319992065430e-01,1.040996986119188961e+02,0.000000000000000000e+00
7.740420000000000078e-01,-3.943365470893881591e-02,2.730916764504082161e-02,9.469931721687316895e-01,-2.029964953914363893e-02,-3.361888298325710345e-02,-3.343707499484271928e-02,-1.343404368034240570e-01,7.965225401173367525e-02,-7.027569413185119629e-02,7.012960815599729447e-02,-1.581838871760712362e-01,2.593374190800314116e-02,2.502292825827408529e-01,-3.322072846226605258e-01,1.206023481324840496e-01,1.502292825827408473e-01,-2.322072846226605203e-01,2.148764937560658783e-01,5.361667446830624684e-01,7.074496746063232422e-01,-1.238000392913818359e-02,9.519960012336626676e+01,0.000000000000000000e+00
7.972580000000000222e-01,-4.317986679919343790e-02,2.913795044352664176e-02,9.456160068511962891e-01,-1.636230592086063140e-02,-3.633435251167371760e-02,-3.509805677103705612e-02,-1.270200262728021501e-01,7.259624938393062499e-02,-5.987146124243736267e-02,1.739670615622425087e-01,-1.004587032417934012e-01,-7.410704470255077836e-02,1.835142570338017809e-01,-3.214357526176885305e-01,8.125297057913155596e-02,8.351425703380177534e-02,-2.214357526176885249e-01,1.799568426298666646e-01,5.352238735241768852e-01,6.856296062469482422e-01,4.050000905990600586e-01,-8.806476402580344143e+01,0.000000000000000000e+00
8.250929999999999653e-01,-4.664612258084091523e-02,3.054581535331805930e-02,9.444855451583862305e-01,-8.785588116507331985e-03,-3.421113442909429203e-02,-3.754232786051692194e-02,-1.234515269277746269e-01,8.221872329957866099e-02,-6.348959356546401978e-02,3.222097929038651443e-01,1.715626311279982996e-01,-1.271969222536507294e-01,2.351188406562809696e-01,4.128501508354109895e-02,-1.168052620256990332e-01,1.351188406562809641e-01,1.412850150835411045e-01,-1.680526202569903108e-02,5.352088060265440816e-01,6.597392559051513672e-01,-1.494179964065551758e-01,9.539940364715664600e+01,0.000000000000000000e+00
8.475489999999999968e-01,-4.895157057043822424e-02,3.156549405387040069e-02,9.436472058296203613e-01,-3.469358544485945123e-03,-3.019057532163937907e-02,-3.916621295092870270e-02,-1.318737059813867296e-01,8.144164489155730768e-02,-6.409461051225662231e-02,3.463195892592126901e-01,2.384997052961408959e-01,-5.855072888544414489e-02,2.931793528280751127e-01,1.056140852240505246e-01,-2.295165497735248694e-01,1.953760085343164976e-01,2.056140852240505301e-01,-1.295165497735248639e-01,5.363038275076791317e-01,7.080476284027099609e-01,-3.214801549911499023e-01,9.982828955028968210e+01,0.000000000000000000e+00
8.729909999999999615e-01,-5.242536644855268907e-02,3.316174641296609077e-02,9.424508810043334961e-01,3.925870507714103105e-03,-2.182250846834343783e-02,-4.115276188762795329e-02,-1.200035822826106546e-01,8.342220458487364931e-02,-7.042301446199417114e-02,2.448493065292066950e-01,2.640777098061160566e-01,1.138859258704489480e-02,2.817998974931255618e-01,1.158636519690049160e-01,-3.156759883755007046e-01,2.295021333123936635e-01,2.158636519690049216e-01,-2.156759883755006713e-01,5.377676494665438733e-01,7.532081604003906250e-01,-1.969333887100219727e-01,1.218238141118593632e+02,0.000000000000000000e+00
9.001169999999999449e-01,-5.616699216879980638e-02,3.484981943599681220e-02,9.413443207740783691e-01,1.195243056621179099e-02,-1.528745009775378527e-02,-4.102516063724048756e-02,-1.455382511997842243e-01,8.773628265071851950e-02,-6.144576892256736755e-02,3.181793322235628718e-01,1.661896188473869773e-01,-1.278766665959506221e-02,1.139911742532278560e-01,1.191550119041695222e-01,6.306703732747701019e-02,1.103758047078191307e-01,2.191550119041695277e-01,1.630670373274770157e-01,5.372457461373445486e-01,7.478793859481811523e-01,8.269751071929931641e-02,9.696217141982307908e+01,0.000000000000000000e+00
9.263139999999999707e-01,-5.901928920672828288e-02,3.592095823956382300e-02,9.408822059631347656e-01,1.756858064802139033e-02,-1.352906289979971532e-02,-3.965722877119048917e-02,-1.572771285657320606e-01,8.027486791501313446e-02,-5.466430634260177612e-02,3.562756609005884867e-01,4.931014931667777879e-02,1.343807606674662924e-01,-2.501422551812444439e-01,1.046327421238129607e-01,-3.910389226695133724e-02,-2.117495002913311886e-01,2.046327421238129662e-01,6.089610773304866831e-02,5.366760618793495752e-01,7.353279590606689453e-01,-2.517229318618774414e-01,1.073602669971429009e+02,0.000000000000000000e+00
9.483150000000000190e-01,-6.196593032816664903e-02,3.698810735475960981e-02,9.404352903366088867e-01,2.347978675760524492e-02,-1.306133136255960281e-02,-3.815296798642942022e-02,-1.561682379479212568e-01,7.363168520857081567e-02,-4.241305589675903320e-02,2.783791266779581108e-01,2.693077820917235549e-02,7.986911526135159756e-02,-2.948809822978065709e-01,1.004879912021589272e-01,6.947198216253863690e-03,-2.152833644602704100e-01,2.004879912021589328e-01,1.069471982162538692e-01,5.358233448423058709e-01,7.298278808593750000e-01,3.387955427169799805e-01,-5.348274103155807779e+01,0.000000000000000000e+00
9.734329999999999927e-01,-6.629068535549545449e-02,3.836990305860213391e-02,9.400332570075988770e-01,3.197044839595495486e-02,-1.465326715475678832e-02,-3.751620605981753620e-02,-1.622171274759756365e-01,7.628829958306712622e-02,-4.512117058038711548e-02,3.109089437060615913e-01,-1.207397490437682464e-01,2.315562401722203855e-03,-3.195406330507157833e-01,-2.797322659346151985e-01,1.350900394375685598e-02,-2.195406330507158055e-01,-1.797322659346151652e-01,1.135090039437568615e-01,5.356149335556074087e-01,7.000963687896728516e-01,-2.152472734451293945e-01,5.364109213727565617e+01,0.000000000000000000e+00
1.001441000000000026e+00,-7.068633402488187778e-02,3.974324809533864161e-02,9.394631385803222656e-01,3.629569014071371003e-02,-1.664616230906945660e-02,-3.782558102205002548e-02,-1.604613158071435397e-01,7.585069567690848336e-02,-4.939486831426620483e-02,1.139104071876957842e-02,-5.421541394267904296e-02,-1.106760237063926858e-02,-2.602032670119676094e-01,-3.090213232087353212e-01,3.926666120684027539e-02,-1.602032670119676316e-01,-2.090213232087353434e-01,1.392666612068402809e-01,5.356920804542438797e-01,6.796326637268066406e-01,8.809554576873779297e-02,5.828761177302738616e+01,0.000000000000000000e+00
1.028289000000000009e+00,-7.376693766671697794e-02,4.076930126099860552e-02,9.389264583587646484e-01,3.591730384326841802e-02,-1.790624800301654496e-02,-3.831606790087027647e-02,-1.647761709345017256e-01,7.368554296485436972e-02,-5.018941313028335571e-02,-7.438294094620423458e-02,-9.500510934727579571e-02,-4.241751231012642898e-02,-2.865911591661537416e-01,-3.037730335673254900e-01,4.341580112460940999e-03,-1.865911591661537638e-01,-2.037730335673254844e-01,1.043415801124609466e-01,5.344986830251076126e-01,6.025665998458862305e-01,1.511665582656860352e-01,8.825566098291612604e+01,0.000000000000000000e+00
1.052526000000000073e+00,-7.688413478965343273e-02,4.186444281688028041e-02,9.383365511894226074e-01,3.314154008575619093e-02,-1.842882434581061268e-02,-3.887788316306672876e-02,-1.597427645248117867e-01,7.558141962083378407e-02,-6.283222883939743042e-02,-2.036848142081674473e-01,1.785932153081813559e-03,-7.586132634252830409e-02,-2.180857813027796688e-01,-2.480794701348175146e-01,-2.732698541941598336e-01,-1.180857813027796771e-01,-1.480794701348175091e-01,-1.732698541941598003e-01,5.368034696746645240e-01,6.713647842407226562e-01,-4.386378526687622070e-01,8.302121573888261707e+01,0.000000000000000000e+00
1.075806000000000040e+00,-8.000836905289721024e-02,4.295073541702119219e-02,9.376318454742431641e-01,2.874303118081684635e-02,-1.773607223737316829e-02,-3.922008477385841019e-02,-1.602738075429126774e-01,7.755656311270130165e-02,-6.448837369680404663e-02,-2.464430871790296296e-01,5.140093715504464450e-02,-3.278877909209253899e-02,-1.649154621413030652e-01,1.581775382170917676e-02,-1.471570627445322743e-01,-6.491546214130305970e-02,1.158177538217091823e-01,-4.715706274453226182e-02,5.366795775993280504e-01,6.484940052032470703e-01,1.011644601821899414e-01,1.214271167248650301e+02,0.000000000000000000e+00
1.098316999999999988e+00,-8.302980754824698661e-02,4.401048385855643730e-02,9.368085265159606934e-01,2.332996427522813360e-02,-1.524894258435249839e-02,-3.990474133415400360e-02,-1.619440690766363877e-01,7.746614047696234739e-02,-8.240443468093872070e-02,-3.127347401951330874e-01,2.210990670174891037e-01,-1.037991084525159181e-02,-3.580008958295909094e-02,1.119995375974258967e-01,-3.214792673646267585e-02,3.435845083570489289e-02,2.119995375974259022e-01,6.785207326353732971e-02,5.378536667315505504e-01,6.318910121917724609e-01,1.065202951431274414e-01,1.450772614430594842e+02,0.000000000000000000e+00
1.122598999999999902e+00,-8.605897250200361670e-02,4.506837640900582254e-02,9.359531402587890625e-01,1.772701515582619097e-02,-1.159944784765887249e-02,-4.058617942633446773e-02,-1.486283989386774362e-01,6.840787994159841512e-02,-7.250757515430450439e-02,-3.617240149731617005e-01,2.190693306119046724e-01,-1.958733050381996840e-02,-5.886529377633969995e-02,1.147050128669125091e-01,-1.682085409125134157e-01,-1.922427028179654607e-02,2.147050128669125146e-01,-6.820854091251339624e-02,5.379899241704882984e-01,6.690943241119384766e-01,1.873172521591186523e-01,2.987551039191881941e+01,0.000000000000000000e+00
1.151818999999999926e+00,-9.049273748002938100e-02,4.694254998734981310e-02,9.348803758621215820e-01,9.994418204231341613e-03,-4.211137197350112160e-03,-4.050369873717607483e-02,-1.584435991111890485e-01,7.306668362513982218e-02,-6.416001915931701660e-02,-2.566939181064664677e-01,3.042483161635269329e-01,-3.710277405651021560e-03,-1.708774581637655943e-01,1.298289668853630785e-01,-2.614546163819013724e-01,-1.871690984455297579e-01,2.298289668853630840e-01,-1.614546163819013669e-01,5.387157842043278633e-01,7.304080724716186523e-01,2.781492471694946289e-01,1.246190826900654258e+02,0.000000000000000000e+00
1.175429999999999975e+00,-9.366107127922937425e-02,4.879378776294816117e-02,9.341362714767456055e-01,5.146355115945961192e-03,8.375377508995640596e-04,-3.917894960008028171e-02,-1.601553382910028966e-01,7.207692792050414410e-02,-6.327028572559356689e-02,-1.876057734677472055e-01,2.775605603248806896e-01,1.055776014621950532e-01,-1.645984020212902244e-01,1.323416209554673928e-01,-2.840945534290172381e-01,-2.122845974011549897e-01,2.323416209554673983e-01,-1.840945534290172603e-01,5.391597887640017239e-01,7.489478588104248047e-01,6.047642230987548828e-02,9.178911591604965281e+01,0.000000000000000000e+00
1.202649999999999997e+00,-9.836766582849972018e-02,5.143538081045360977e-02,9.332102537155151367e-01,-7.005200349341194482e-04,5.529195190417279804e-03,-3.843457737516464690e-02,-1.571682705856326800e-01,6.430378660243975253e-02,-4.141115397214889526e-02,-1.969749949371334408e-01,1.042322954898693144e-01,-2.765335838132046680e-03,-2.786846604967585517e-03,1.272406399172925084e-01,-2.885344821914237468e-01,-8.472172315536473375e-02,2.272406399172925140e-01,-1.885344821914237690e-01,5.371750605809300083e-01,7.162673473358154297e-01,1.449447870254516602e-01,1.237902255739060422e+02,0.000000000000000000e+00
1.224496999999999947e+00,-1.016338392471586444e-01,5.318913199713634632e-02,9.326865673065185547e-01,-2.891211836587446755e-03,6.171735051546667350e-03,-3.771641557789306987e-02,-1.613930084832647105e-01,7.451389010848429029e-02,-4.848218709230422974e-02,-6.598281011052128942e-02,-2.608780758065287406e-02,4.746552655907228940e-02,2.620368899002161189e-01,7.598539915079544071e-02,-2.729999945773788905e-01,1.620368899002161134e-01,1.759853991507954463e-01,-1.729999945773789127e-01,5.382321530472523596e-01,7.381081581115722656e-01,3.704613447189331055e-01,1.017694771237314910e+02,0.000000000000000000e+00
1.248671000000000086e+00,-1.064156524453670899e-01,5.577349590328647966e-02,9.321992397308349609e-01,-5.200081279990110585e-03,5.038869586750038820e-03,-3.594815055443878471e-02,-1.611225970753247527e-01,7.410516981728633434e-02,-3.674388676881790161e-02,-1.142188201914570850e-01,-6.314950111760693485e-02,7.679618906004261059e-02,2.635472019575005320e-01,8.310773626096365496e-02,-2.465317370266164043e-01,1.635472019575005265e-01,1.831077362609636605e-01,-1.465317370266163988e-01,5.374056970819180989e-01,7.312781810760498047e-01,5.257731676101684570e-01,-1.148216100426944308e+01,0.000000000000000000e+00
1.274394999999999945e+00,-1.114108573208656972e-01,5.880461199309042902e-02,9.317674040794372559e-01,-7.428304898450871149e-03,2.442760445681591008e-03,-3.301456688206316770e-02,-1.718081778495182121e-01,8.122378093931956200e-02,-1.948818191885948181e-02,-8.446714526187708294e-02,-8.163106128027278197e-02,1.165103393421107469e-01,2.704107173009335230e-01,6.292396443063597022e-02,-8.599433057859769136e-02,1.704107173009335174e-01,1.629239644306359758e-01,6.101399750550620324e-03,5.358085756454239457e-01,7.036380767822265625e-01,-3.997963666915893555e-01,1.119170277019169077e+02,0.000000000000000000e+00
1.298548999999999953e+00,-1.164914405016181653e-01,6.210396431284968821e-02,9.313763976097106934e-01,-1.067219250872712341e-02,-4.014565662209257368e-04,-2.962803156383020386e-02,-1.784944134127381399e-01,8.126947378029300562e-02,-2.638769149780273438e-02,-1.312969183593551414e-01,-1.513935520248102518e-01,1.434607524635279352e-01,2.836566260502288994e-01,-6.981366439382111211e-02,8.513334065953565011e-02,1.836566260502288939e-01,3.018633560617890038e-02,1.678419186708148825e-01,5.363952785110366328e-01,7.017655372619628906e-01,4.360002279281616211e-01,1.087644855886058224e+02,0.000000000000000000e+00
1.321771000000000029e+00,-1.217437459841633901e-01,6.561095900748493970e-02,9.310774803161621094e-01,-1.303683913058045589e-02,-3.960916067567765708e-03,-2.561798313682772665e-02,-1.605514548456580259e-01,9.748600097751027038e-02,-2.102193236351013184e-02,8.885968185162705646e-03,-1.857624712686064550e-01,1.623845615362410066e-01,2.920484317637270233e-01,-2.523088875140395704e-01,9.499235204613626360e-02,1.920484317637270177e-01,-1.523088875140395371e-01,1.664625490483759296e-01,5.360427235402452917e-01,6.980020999908447266e-01,3.756350278854370117e-01,1.030460394796068755e+02,0.000000000000000000e+00
1.348398999999999903e+00,-1.267312883919932132e-01,6.899022468811810693e-02,9.311100840568542480e-01,-1.257854515785070994e-02,-7.855945969486022307e-03,-2.171214522846942607e-02,-1.510205221636418127e-01,9.063962241493550565e-02,-1.086365152150392532e-02,3.590576637194966420e-02,-1.340694428261671456e-01,1.517501528341211881e-01,2.935524488137938870e-01,-2.913706150466850442e-01,4.395073873689864241e-02,1.935524488137938814e-01,-1.913706150466850664e-01,1.044742864940210181e-01,5.352779876473826581e-01,6.923557519912719727e-01,1.622080802917480469e-03,9.435094911899217607e+01,0.000000000000000000e+00
1.371863000000000055e+00,-1.316776150761204411e-01,7.207821821213221403e-02,9.314360022544860840e-01,-8.181225551295537302e-03,-1.201859591084453172e-02,-1.874301221330765266e-02,-1.612667662454358442e-01,9.557329156064081621e-02,2.973666181787848473e-03,2.239539664145902276e-01,-1.211569453313345451e-01,5.923095902767966381e-02,2.068409676503799033e-01,-2.881105184928437479e-01,-3.012433256026063322e-03,1.068409676503798977e-01,-1.881105184928437701e-01,4.880676426286984643e-02,5.339454330509867397e-01,6.699799299240112305e-01,1.407984495162963867e-01,7.144145645401556521e+01,0.000000000000000000e+00
1.399866000000000055e+00,-1.382244292112876360e-01,7.616008333944927766e-02,9.320516586303710938e-01,1.170314455044787864e-03,-1.574685954506738206e-02,-1.788569531965755743e-02,-1.527491416574724425e-01,8.406115646694062304e-02,-3.613356035202741623e-03,2.335728749522598124e-01,-1.994523470314070804e-02,-2.995097899169271109e-03,1.003732893129599402e-01,-2.351239984351798928e-01,-8.675352572491742964e-02,3.732893129599328271e-04,-1.351239984351798873e-01,-3.793682766860227012e-02,5.342161326185906889e-01,6.583671569824218750e-01,5.696359872817993164e-01,1.546574077163244283e+02,0.000000000000000000e+00
1.423921999999999910e+00,-1.427613104927648868e-01,7.905196577373201083e-02,9.323114156723022461e-01,9.549096623098411382e-03,-1.425967500020175471e-02,-1.877546062025903240e-02,-1.617398353233441832e-01,8.201687957141233498e-02,2.379384386586025357e-04,3.212687774854245948e-01,1.017003159419133246e-01,-6.936568104651044675e-02,-1.595454464291777563e-02,5.291374398429435355e-02,-5.391025478960156936e-02,-6.836617902298822158e-02,1.529137439842943591e-01,-3.206059857964047716e-03,5.343810795500418820e-01,6.790822744369506836e-01,2.778853178024291992e-01,9.776240321317094129e+01,0.000000000000000000e+00
1.450196000000000041e+00,-1.487928227212160226e-01,8.287076685447551661e-02,9.325410127639770508e-01,2.061264463853152915e-02,-6.613335913564277746e-03,-1.911728300183734852e-02,-1.574719954562547874e-01,9.012073396437604578e-02,-9.403696283698081970e-03,3.323831754374196867e-01,2.501786686363535739e-01,2.473525861725582586e-02,1.077042572206817067e-01,1.191141918436564306e-01,-2.093428050245758343e-01,1.181602565855201792e-01,2.191141918436564362e-01,-1.580988012317747493e-01,5.363783231788774586e-01,7.478003501892089844e-01,4.008344411849975586e-01,9.697204104317374629e+01,0.000000000000000000e+00
1.476903000000000077e+00,-1.531392850787434701e-01,8.553569513464284735e-02,9.325135946273803711e-01,2.769148891482393210e-02,1.219569769352890631e-03,-1.870844198690924109e-02,-1.366525716134535384e-01,8.767645822977424008e-02,-2.020706981420516968e-02,2.065070204111771335e-01,2.617170202519782385e-01,4.836203790243431833e-02,-1.174400125956212571e-01,1.208341800295318902e-01,-2.797258242682265639e-01,-5.984019714275266161e-02,2.208341800295318957e-01,-2.293807732476126071e-01,5.372431595013867911e-01,7.496466636657714844e-01,6.500829458236694336e-01,8.498072187967841273e+01,0.000000000000000000e+00
1.500032999999999950e+00,-1.574717971892699298e-01,8.819684538363246895e-02,9.323095083236694336e-01,3.292873212411311784e-02,7.928321462300935707e-03,-1.810374722807073233e-02,-1.497776280494571288e-01,8.794773125231580835e-02,-2.268296666443347931e-02,1.660778593772800349e-01,2.004561830669795985e-01,-7.090926059628761130e-03,8.914663281397026962e-02,1.151808781925081349e-01,-2.666317589428225387e-01,1.784366467059144423e-01,2.151808781925081404e-01,-2.179243670119345722e-01,5.375924872907872354e-01,7.521636486053466797e-01,4.888178110122680664e-01,6.433957601919804858e+01,0.000000000000000000e+00
1.526375000000000037e+00,-1.621270909755475609e-01,9.083440140326444479e-02,9.322347044944763184e-01,3.666680284927457956e-02,1.060883704217019385e-02,-1.598277340048448458e-02,-1.658223495354121668e-01,7.902901673882516131e-02,-5.840876605361700058e-03,1.050210989499755082e-01,6.339254728024082408e-02,1.298621100630654723e-01,-3.222763911093264877e-01,1.186245393899192646e-01,-2.755703694656495006e-01,-2.222763911093264544e-01,2.186245393899192702e-01,-2.328919753498017997e-01,5.364355324414838977e-01,7.494636774063110352e-01,1.238034963607788086e-01,5.396644819838921592e+01,0.000000000000000000e+00
1.549439000000000011e+00,-1.670970231392330807e-01,9.455913310502148117e-02,9.323081374168395996e-01,3.935773832186858362e-02,1.011744505252787363e-02,-1.319906261759307142e-02,-1.593095181523247195e-01,7.523410066597717438e-02,-6.437405478209257126e-03,5.397703359124798872e-02,-7.260516433031996564e-02,7.792980285869188783e-02,-3.077143512416079529e-01,-3.095599353701755097e-01,-1.940775891036802814e-01,-2.077143512416079474e-01,-2.095599353701755041e-01,-1.592930630760650001e-01,5.355960289239235506e-01,6.975927352905273438e-01,2.427605390548706055e-01,8.193382230225991236e+01,0.000000000000000000e+00
1.573936000000000002e+00,-1.720343600030855014e-01,9.806051687014247231e-02,9.325025081634521484e-01,4.009691299859059754e-02,8.005586883215398686e-03,-9.650114824257149948e-03,-1.636750596354158982e-01,6.914168527822249499e-02,-9.511837735772132874e-03,2.469181776366731820e-02,-4.356293153298208126e-02,1.684285754886410136e-01,-3.211286791829599530e-01,-2.512099052855810699e-01,-2.118829854359942366e-01,-2.211286791829599474e-01,-1.512099052855810644e-01,-1.873264044383506077e-01,5.359469865775915443e-01,7.009590864181518555e-01,3.664799928665161133e-01,9.176448625390257519e+01,0.000000000000000000e+00
1.596645000000000092e+00,-1.768910948577416542e-01,1.014089919321285727e-01,9.326289892196655273e-01,3.896172281538771293e-02,5.151228350970260550e-03,-6.218162386490755367e-03,-1.581063088047196807e-01,6.387384226251520414e-02,-4.623965651262551546e-04,-9.240565706924236400e-02,-1.153754034286857966e-01,1.126567309573774101e-01,-2.100380583586450023e-01,-2.615899492085724809e-01,-1.789500304055135493e-01,-1.100380583586449967e-01,-1.615899492085724476e-01,-1.641715380438775185e-01,5.346122427831634383e-01,6.602597236633300781e-01,3.634890317916870117e-01,1.052053969555172301e+02,0.000000000000000000e+00
1.624654999999999960e+00,-1.817084077079330617e-01,1.047672534941206518e-01,9.326480627059936523e-01,3.326564216155904891e-02,6.135308950470097500e-03,-2.875475529452442558e-03,-1.349176939344780557e-01,8.104857493006829838e-02,-1.798319630324840546e-02,-2.423739240089679559e-01,8.786610475849726543e-02,1.374331677339523938e-01,-1.496299933616485611e-01,1.115498036402980397e-01,-4.815707052210638217e-02,-7.200433762798774673e-02,2.115498036402980453e-01,-4.234442578210451114e-02,5.357028327106695409e-01,6.474967002868652344e-01,3.264521360397338867e-01,1.115276249569561315e+02,0.000000000000000000e+00
1.652649999999999952e+00,-1.860737904154073918e-01,1.084290874924373621e-01,9.323843717575073242e-01,2.470234821436103484e-02,1.017338770004072579e-02,5.254794344868862765e-04,-1.265419968312380128e-01,7.729929421598649708e-02,-2.514228597283363342e-02,-3.573917459408957331e-01,2.046764797066280561e-01,1.476078937199642727e-01,-2.083967366175895897e-01,1.190686459018165944e-01,-1.191226941944686646e-01,-1.842945799164140697e-01,2.190686459018165999e-01,-1.222024700875126435e-01,5.378410855837529869e-01,7.319095134735107422e-01,3.076757192611694336e-01,4.301892878913898244e+01,0.000000000000000000e+00
1.674374000000000029e+00,-1.889525263201223548e-01,1.108349345175812378e-01,9.320802092552185059e-01,1.921565293374769348e-02,1.357565086499046281e-02,2.329973700163856520e-03,-1.400598869481944342e-01,7.183634261940945176e-02,-2.292372286319732666e-02,-2.820150224874773959e-01,1.472351803200763476e-01,3.602272144900825479e-02,-1.213441263042880358e-01,1.215478274909438106e-01,-9.845098532829045512e-02,-1.316641888272233607e-01,2.215478274909438161e-01,-1.063139822936925022e-01,5.376266641283405923e-01,7.216527462005615234e-01,2.051259279251098633e-01,6.062897329975107397e+01,0.000000000000000000e+00
1.703842999999999996e+00,-1.932242231949948819e-01,1.142545342369826744e-01,9.315576553344726562e-01,1.215778096532724867e-02,1.752265088382110036e-02,4.480718653662618678e-03,-1.292610166141399952e-01,7.015581888634936369e-02,-3.238007053732872009e-02,-1.775514108575138583e-01,9.261195892777880634e-02,9.666414345002165287e-02,-1.410284130884735254e-01,1.219703122562552922e-01,-1.512236075806508151e-01,-1.995051855208201941e-01,2.219703122562552977e-01,-1.646434796176067528e-01,5.387969751175885058e-01,7.426503896713256836e-01,6.450155973434448242e-01,8.913205621569879611e+01,0.000000000000000000e+00
1.727009000000000016e+00,-1.960935637758465244e-01,1.164828183758507829e-01,9.312753677368164062e-01,8.488674363790365759e-03,1.814290235019377917e-02,5.777027240840837408e-03,-1.414544852891307380e-01,7.429268540262730369e-02,-2.675126306712627411e-02,-2.147486633443485560e-01,2.397159233286864054e-03,1.047206770235601520e-01,1.220978587178094821e-01,1.185831269704413771e-01,-1.403919854564655845e-01,3.387616897292635570e-02,2.185831269704413826e-01,-1.574304972073672926e-01,5.380947587939713950e-01,7.182536125183105469e-01,4.431712627410888672e-02,-1.334751332886606292e+02,0.000000000000000000e+00
1.747079999999999966e+00,-1.988438638980908890e-01,1.185609403478292134e-01,9.311313629150390625e-01,5.263239497614292939e-03,1.754751749497529545e-02,7.239356682592346104e-03,-1.326975088877389297e-01,6.940617486403857783e-02,-1.539405621588230133e-02,-1.918491227431055046e-01,-6.363432336363443464e-02,6.745764284099625696e-02,2.752388062788659884e-01,1.110461663504162255e-01,-1.823258670863549535e-01,1.752388062788660106e-01,2.110461663504162311e-01,-2.033479225430013804e-01,5.376904245874712940e-01,7.366682291030883789e-01,4.069505929946899414e-01,1.090151671915236307e+02,0.000000000000000000e+00
1.774469000000000074e+00,-2.031387622754037281e-01,1.216880107519999060e-01,9.308289289474487305e-01,6.065763720203842801e-04,1.518508619679681537e-02,9.886367060215395242e-03,-1.356253071501175023e-01,7.328494140208212382e-02,-2.306291833519935608e-02,-1.487089166480987934e-01,-1.352526625874022059e-01,1.166484071381198723e-01,2.417330151407438010e-01,1.652257673085853751e-02,2.604074704236131882e-02,1.417330151407437955e-01,1.165225767308585431e-01,-2.394254203778693746e-03,5.379021715816897364e-01,7.111573219299316406e-01,-5.852633714675903320e-01,1.223235653930508562e+02,0.000000000000000000e+00
1.798162999999999956e+00,-2.075216876140092981e-01,1.248747540832619712e-01,9.305747151374816895e-01,-3.039962706800392305e-03,1.129837775798181454e-02,1.267557526847462590e-02,-1.262475716270778925e-01,7.616045101227483793e-02,-8.374233730137348175e-03,-8.588506101360657286e-02,-1.816725863011469100e-01,9.814148885682151546e-02,2.442600148445361607e-01,-1.538768523842078961e-01,1.119665556320953714e-01,1.442600148445361552e-01,-5.387685238420789058e-02,7.572369759396860300e-02,5.367910052303338508e-01,7.028825283050537109e-01,6.017080545425415039e-01,9.522812299334023578e+01,0.000000000000000000e+00
1.823431000000000024e+00,-2.116436045258182630e-01,1.278706505832051255e-01,9.305148720741271973e-01,-3.304817357577308733e-03,6.569129045965294011e-03,1.602567146616107330e-02,-1.211142524672321613e-01,7.531462932877507066e-02,-9.768810123205184937e-03,6.043506615377727820e-02,-1.508890938029140982e-01,1.480165820158287626e-01,2.474436947340986070e-01,-2.451738579618311653e-01,3.883655381727239148e-02,1.474436947340986015e-01,-1.451738579618311598e-01,-6.920081992460492062e-03,5.366393656167102177e-01,6.846001148223876953e-01,-4.573285579681396484e-02,6.997138800876456344e+01,0.000000000000000000e+00
1.850702000000000069e+00,-2.169011514594826329e-01,1.309694747032135453e-01,9.307340979576110840e-01,2.048507138466205708e-03,1.345575108955943122e-03,1.785509873209267795e-02,-1.138396835621100223e-01,6.835474512690910276e-02,2.428218489512801170e-03,1.854049119415668023e-01,-5.398286621780746392e-02,-4.316952218876411729e-02,1.780015158052158930e-01,-3.801789990583909901e-02,8.445749217526481167e-02,7.800151580521587358e-02,6.198210009416090654e-02,3.317208140067127997e-02,5.355656664858309268e-01,6.711862087249755859e-01,2.599815130233764648e-01,8.090981985132408738e+01,0.000000000000000000e+00
1.873914000000000080e+00,-2.204596442755391572e-01,1.326470214270970005e-01,9.306721687316894531e-01,7.696585543459763881e-03,9.281791258348714990e-04,1.789099510768887846e-02,-1.195408624921996260e-01,6.849006086876330279e-02,-5.340322386473417282e-03,2.332351043018588699e-01,7.768551312151217303e-02,-8.238239980732009124e-03,9.084188164784227915e-02,1.118806731737788662e-01,4.308492005416302700e-02,-9.158118352157729875e-03,2.118806731737788718e-01,-8.686367231293906296e-03,5.369004302312194721e-01,7.091591358184814453e-01,1.095110177993774414e-01,-3.091023282475697442e+01,0.000000000000000000e+00
1.897208000000000006e+00,-2.237939904403374314e-01,1.343537476069936731e-01,9.303834438323974609e-01,1.320961021784912079e-02,3.478954588785665436e-03,1.814697525657615884e-02,-1.048511637523127649e-01,6.881309134094559798e-02,-2.228415012359619141e-02,1.910589119448267148e-01,1.044381772277362952e-01,4.799063398312718859e-02,1.252500349313409866e-01,1.190974704141686824e-01,-3.253882169173630268e-02,5.395760207702387373e-02,2.190974704141686880e-01,-8.512360860156700793e-02,5.385472898886504156e-01,7.286348342895507812e-01,5.999243259429931641e-02,1.020769107684629375e+02,0.000000000000000000e+00
1.924563000000000024e+00,-2.269848787221238340e-01,1.360019804972718571e-01,9.299653768539428711e-01,1.892642291772303823e-02,6.467374743210019261e-03,1.777393150665163013e-02,-9.880862734792732194e-02,6.255825424126944256e-02,-1.983465068042278290e-02,1.660298312309124447e-01,5.867084581913683400e-02,-3.586229438196809893e-02,1.246286534335640933e-03,1.205267906167903913e-01,1.783449263130319207e-01,-2.970443112332907601e-02,2.205267906167903968e-01,1.267256655747913408e-01,5.383106687297137816e-01,7.192120552062988281e-01,4.901911020278930664e-01,1.077185787210017622e+02,0.000000000000000000e+00
1.946906999999999943e+00,-2.288964830382211324e-01,1.375194313702234050e-01,9.296075105667114258e-01,2.267360100640715068e-02,7.520461936426192651e-03,1.788013237250862808e-02,-1.118260290574761007e-01,6.903318037771831450e-02,-2.282904833555221558e-02,2.556228133061402841e-01,2.692413943092299838e-02,-1.512713448392454842e-02,-1.878122560866163082e-01,1.110039420254411990e-01,2.097751324631860759e-01,-2.020056305112802320e-01,2.110039420254412046e-01,1.575832403352589450e-01,5.388632525855501232e-01,7.299894094467163086e-01,2.193695306777954102e-01,9.282712708497317067e+01,0.000000000000000000e+00
1.973130000000000051e+00,-2.316794456140292280e-01,1.396720051422284392e-01,9.291340112686157227e-01,2.723697903703164308e-02,6.988910541813275756e-03,1.803351017101206821e-02,-1.004687505527940700e-01,6.245311709699847419e-02,-1.711062341928482056e-02,1.286997340812045254e-01,-7.809122172275421297e-03,4.600658381919334032e-04,-2.325888331226705630e-01,1.061580481288523781e-01,2.046435535562793895e-01,-2.131551448291671702e-01,2.061580481288523836e-01,1.518872128882783334e-01,5.384714268494980027e-01,7.257158756256103516e-01,7.937467098236083984e-02,8.612292758439046736e+01,0.000000000000000000e+00
1.996434999999999960e+00,-2.345624276992994139e-01,1.417522358492467882e-01,9.285596609115600586e-01,2.990968366505719969e-02,4.780725691545528733e-03,1.624959570375961171e-02,-1.036281960071796099e-01,5.338404342034185068e-02,-2.936056442558765411e-02,2.763382018036784904e-02,-1.082621574464985859e-01,-7.713078026627494255e-02,1.029583607915426913e-04,-2.374893844335453363e-01,-5.151015960139725125e-02,4.187502863373757100e-02,-1.374893844335453308e-01,-9.959565604241064907e-02,5.389804802220924396e-01,6.978061199188232422e-01,2.938367128372192383e-01,7.493391659175068753e+01,0.000000000000000000e+00
2.022505000000000219e+00,-2.371678921383032768e-01,1.437429376789078617e-01,9.278899431228637695e-01,2.896972190725724539e-02,2.261895436694416617e-03,1.375657617846748337e-02,-9.654091529343203359e-02,6.459717960362185152e-02,-3.835387900471687317e-02,-8.573715448892194058e-02,-1.107819028349945611e-01,-1.430102052482956354e-01,-5.640215266443764086e-02,-1.838416017466795171e-01,-1.278575603518329884e-01,-3.160525453942076429e-02,-8.384160174667952548e-02,-1.691534535591435739e-01,5.393615737873594940e-01,6.748718023300170898e-01,3.051415681838989258e-01,1.030383760073581243e+02,0.000000000000000000e+00
2.047525999999999957e+00,-2.388846815252201883e-01,1.452320235270438131e-01,9.273047447204589844e-01,2.643952417601963187e-02,5.865012668979652233e-04,1.270077607043540446e-02,-1.038104299748807413e-01,6.709124137362107443e-02,-3.868530318140983582e-02,-1.101253773458548829e-01,-5.672010880056397447e-02,-4.354340799936279316e-02,-4.377643746852393630e-02,-2.298965558758696570e-01,-1.435836128930002009e-01,-3.714042467324548541e-02,-1.298965558758696515e-01,-1.820257552265191481e-01,5.389070019288531022e-01,6.393272876739501953e-01,1.550012826919555664e-01,9.649004142363511960e+01,0.000000000000000000e+00
2.072233999999999909e+00,-2.412509304132596788e-01,1.475596443775704647e-01,9.264004230499267578e-01,2.155873786194061406e-02,1.172141274283777790e-04,1.271631809729978357e-02,-9.812587552944876390e-02,6.474753891853753107e-02,-5.556100606918334961e-02,-2.017108823432941234e-01,4.819100424970871460e-02,6.145236978616937934e-02,5.494402786667135219e-02,1.157932500378106577e-01,-5.841502155537572905e-02,3.062488395270695357e-02,2.157932500378106633e-01,-9.661327152288171072e-02,5.403069911977342876e-01,6.407912969589233398e-01,4.579588174819946289e-01,1.013958726063209639e+02,0.000000000000000000e+00
2.099209999999999798e+00,-2.434757127748299887e-01,1.497348830729361702e-01,9.254967570304870605e-01,1.755407116758559913e-02,1.958154036353354499e-03,1.364233108611889733e-02,-8.631602634615154201e-02,5.406167650304363054e-02,-4.020816832780838013e-02,-1.396097585446587352e-01,7.740864031436059389e-02,-5.924781355276235138e-03,6.133634529630026255e-02,1.217476974692205394e-01,-1.201482043782762521e-01,1.628541221679487630e-02,2.217476974692205449e-01,-1.605145914363858284e-01,5.402260275540754497e-01,6.886475086212158203e-01,5.805093050003051758e-01,8.481308854687878807e+01,0.000000000000000000e+00
2.121945999999999888e+00,-2.457271907660951438e-01,1.518278338002218286e-01,9.248068332672119141e-01,1.490063883996799871e-02,5.995342717177276626e-03,1.514193427413834669e-02,-9.318547523461020998e-02,5.748897760510565669e-02,-4.010730236768722534e-02,-2.601660831899564943e-02,1.444831430284259366e-01,6.827513988857729366e-02,-1.566292461360659916e-01,1.171426931371970515e-01,-1.846878933847278248e-01,-2.254341418650169515e-01,2.171426931371970570e-01,-2.290135485203923793e-01,5.409578449576516457e-01,7.197537422180175781e-01,3.368822336196899414e-01,9.688820047111182987e+01,0.000000000000000000e+00
2.147117999999999860e+00,-2.477364476761893808e-01,1.532351519974174403e-01,9.242267012596130371e-01,1.402050383038684969e-02,8.196317643812012221e-03,1.623388936402236915e-02,-7.962370369843925488e-02,4.421775296580666981e-02,-2.692523598670959473e-02,-1.409951506254249372e-02,2.700694940752655909e-03,5.468158908357400455e-02,1.616251500016839260e-01,1.091385047506747696e-01,-1.570473555947714261e-01,9.573370798438411711e-02,2.091385047506747752e-01,-2.041357345658565692e-01,5.401643819293110438e-01,7.219042778015136719e-01,3.714936971664428711e-01,1.110723108865047521e+02,0.000000000000000000e+00
2.171999000000000013e+00,-2.490523193689374581e-01,1.540021519418506568e-01,9.240220189094543457e-01,1.410576664444124391e-02,8.334557096044692415e-03,1.742584496745158695e-02,-9.271635515666716565e-02,5.185405329284366316e-02,-3.836758062243461609e-02,2.451737248391932730e-02,-5.322067327584202590e-02,6.319275287287196008e-02,1.513243719226032291e-01,-1.591625183175889025e-01,-1.012453966296275321e-01,7.710118085154241130e-02,-5.916251831758889690e-02,-1.518319299416010792e-01,5.406292782864200452e-01,6.938598155975341797e-01,5.518583059310913086e-01,3.722089390083645810e+01,0.000000000000000000e+00
2.200174000000000074e+00,-2.510445507120121489e-01,1.551140941172209076e-01,9.237201213836669922e-01,1.337811376959460036e-02,7.062586750471666619e-03,1.992837681228887270e-02,-8.860204265025162229e-02,4.984958339317712567e-02,-2.301735617220401764e-02,-5.481218030022329268e-02,-9.004242947998186697e-02,1.016114300728123560e-01,2.032166837297033624e-01,-1.147978705347703077e-01,-1.626840555614723904e-02,1.245530197261549149e-01,-1.479787053477029865e-02,-7.387304804233120470e-02,5.393887260617329371e-01,6.797521114349365234e-01,3.945690393447875977e-01,9.706644791788166060e+01,0.000000000000000000e+00
2.224185999999999996e+00,-2.530029866414255646e-01,1.562008629259369896e-01,9.234752655029296875e-01,1.343966492747314216e-02,4.473453817564143620e-03,2.217789086361454665e-02,-8.465557538144835581e-02,4.521445749573425182e-02,-1.212792471051216125e-02,6.828102484289880203e-02,-6.728176442500688470e-02,7.899319201158587489e-02,8.896697804141974475e-02,-1.987986952161608922e-01,-9.683958357631886060e-02,1.191428577639966693e-02,-9.879869521616087280e-02,-1.608736211519557202e-01,5.388723797142880301e-01,6.888253688812255859e-01,2.438265085220336914e-01,1.191709822986047556e+02,0.000000000000000000e+00
2.255360000000000031e+00,-2.550276834104786006e-01,1.568792461071668032e-01,9.233891963958740234e-01,1.484294979040371235e-02,3.748417479941590358e-03,2.349922360743605942e-02,-8.006026370174747220e-02,3.373937782399642066e-02,-1.415042299777269363e-02,6.226668349480302816e-02,1.683293160783731312e-04,3.749939382755752143e-02,-8.890727599386002988e-02,1.011606084711257625e-01,1.244900529627407382e-02,-1.498224724508759598e-01,2.011606084711257680e-01,-5.533028025741126843e-02,5.393632445713310020e-01,7.037718296051025391e-01,2.481502294540405273e-01,9.989866098930831129e+01,0.000000000000000000e+00
2.276046000000000014e+00,-2.556804974843818745e-01,1.568972334169205785e-01,9.234077334403991699e-01,1.592725102837987822e-02,3.841342470934927533e-03,2.374968986054115661e-02,-7.009373341938225643e-02,3.760398687937588358e-02,-1.936806924641132355e-02,7.539567386303887286e-02,3.967744598386852700e-02,9.447297110695728958e-03,1.178907960050776943e-02,1.157302094968968575e-01,-1.765880250213180958e-03,-4.708564168808376110e-02,2.157302094968968631e-01,-7.028706162411246794e-02,5.400271348652437853e-01,7.156201601028442383e-01,3.506475687026977539e-01,5.580378274550098183e+01,0.000000000000000000e+00
2.300603000000000176e+00,-2.576798097071138494e-01,1.569227105111342391e-01,9.234372973442077637e-01,1.973877125556513373e-02,6.182611985071861938e-03,2.515657994930142749e-02,-7.397565035447774273e-02,3.406550962657032416e-02,-7.722609676420688629e-03,1.721916248498519264e-01,1.632434799623067034e-01,4.742616232190294961e-02,5.023002711426848010e-02,1.193268976826410421e-01,-1.403647311591100511e-01,1.787084313999115492e-02,2.193268976826410477e-01,-2.129209498014371926e-01,5.397017399377097568e-01,7.387983798980712891e-01,1.333020925521850586e-01,8.921952361820997623e+01,0.000000000000000000e+00
2.324917999999999818e+00,-2.594760915478460106e-01,1.569204791716421743e-01,9.235152006149291992e-01,2.185182683140968196e-02,9.653814550728778698e-03,2.605959018056935861e-02,-6.448921131945634100e-02,3.280593109267256752e-02,-2.567866817116737366e-02,1.108101069773162126e-02,7.166992975154869161e-02,5.789064367904069031e-02,-2.125268478196698507e-01,1.109844190599841018e-01,-1.554050328105203715e-01,-2.308652279271625751e-01,2.109844190599841074e-01,-2.302969433131902277e-01,5.404039645383921231e-01,7.028243541717529297e-01,3.871251344680786133e-01,9.676038031098421754e+01,0.000000000000000000e+00
2.347693000000000030e+00,-2.613818177947832555e-01,1.570211112873781401e-01,9.235723614692687988e-01,2.324426715108304439e-02,1.079426763753565943e-02,2.648753872637743534e-02,-6.920933621622239740e-02,3.060779441250281036e-02,-1.200428884476423264e-02,2.814136936454616003e-02,-9.035550514662945773e-03,-1.881122752743763157e-02,-1.596110371130085026e-01,1.053730307169200020e-01,1.644405742769113887e-01,-1.687868593708754528e-01,2.053730307169200076e-01,8.829180405156317191e-02,5.395548229816369279e-01,7.046234607696533203e-01,4.845756292343139648e-01,1.038465718012782162e+02,0.000000000000000000e+00
2.372930999999999901e+00,-2.632266891340242498e-01,1.561412018344700559e-01,9.239152669906616211e-01,2.389940658055682982e-02,9.309214749477545681e-03,2.830473972294123008e-02,-7.342347234868291939e-02,2.158920627833943104e-02,-1.398621592670679092e-02,1.480130017760435644e-02,-7.170043872433404242e-02,1.121328779243875723e-01,-1.130142086587895556e-01,-2.340802172200910636e-02,5.296073335957653117e-02,-1.117220639838534813e-01,7.659197827799089919e-02,-2.840174462195847738e-02,5.397091920983513313e-01,7.020876407623291016e-01,4.300564527511596680e-01,8.786129952061791926e+01,0.000000000000000000e+00
2.396962999999999955e+00,-2.650068524708353856e-01,1.552782139528660621e-01,9.241345524787902832e-01,2.288065707773365501e-02,6.502602017555592084e-03,2.953122834878429970e-02,-5.800912244507637483e-02,2.187024315297675381e-02,-6.721227429807186127e-03,-7.125537023047512353e-02,-1.611743699638780725e-01,-7.396729614246308655e-03,9.138401899753088864e-02,-2.038086587694349361e-01,6.489117009057449037e-02,8.433898602088391039e-02,-1.038086587694349167e-01,-1.995582331226208525e-02,5.386015472060688980e-01,6.671471595764160156e-01,4.018021821975708008e-01,9.083606547021192057e+01,0.000000000000000000e+00
2.422664000000000151e+00,-2.666300205703682202e-01,1.544553941345545300e-01,9.244635105133056641e-01,1.944899689251551600e-02,3.894091145585365510e-03,2.884858970022996516e-02,-5.182110843640072573e-02,2.794279408455906111e-02,-1.340588834136724472e-02,-1.430922848028934879e-01,-7.805048019759441846e-02,-5.229683181192371771e-02,2.696739071923494324e-02,-7.760350317019266975e-02,-3.917979939184022820e-02,-6.635220910920653845e-03,2.239649682980733927e-02,-1.221383362461367778e-01,5.390839926499855217e-01,6.641349792480468750e-01,4.048489332199096680e-01,9.474375329815961777e+01,0.000000000000000000e+00
