timestamp,x,y,z,roll,pitch,yaw,vx,vy,vz,p,q,r,psp,qsp,rsp,pres,qres,rres,thrust_sp, thrust_res
0.000000000000000000e+00,-1.156373495641264959e-02,1.181187711708259203e-01,9.812772870063781738e-01,3.330628464903902242e-02,-4.633498487063292259e-03,1.422904786555885710e-02,4.965584179776425834e-03,-6.656922429125050611e-04,-1.664969720877707005e-03,-4.936781162803963868e-02,7.887687341003260131e-04,1.482775795479985073e-02,-2.312633037567138616e-01,-1.060004889868631228e-01,-5.737696483935489367e-04,-1.312633037567138561e-01,-7.412531375885009211e-02,-4.072566032409667691e-02,5.094112494390475865e-01,-2.178614139556884766e-01,-1.088499188423156738e+00,1.048658272707408798e+02,-3.791286945343017717e-02
2.688600000000000018e-02,-1.143408988234610735e-02,1.186250396710893384e-01,9.811789393424987793e-01,3.368914442851526220e-02,-4.568512392337797934e-03,1.429276695236078414e-02,2.221054735851903453e-02,7.786755493268742064e-03,6.739715114235877991e-03,3.117304392581468284e-02,8.150712719876881257e-03,-8.085458724951971946e-03,-2.348197698593139648e-01,-1.133598550961750079e-01,-3.308505047040388725e-03,-1.348197698593139593e-01,-9.527109861373901645e-02,-4.351311922073364258e-02,5.066881176279534049e-01,-3.302111029624938965e-01,-1.324150204658508301e+00,9.257923902942589223e+01,-3.791286945343017717e-02
4.799599999999999700e-02,-1.130323690737915047e-02,1.190469993650317970e-01,9.810947775840759277e-01,3.310275797996582725e-02,-4.530245180326852861e-03,1.423579155550268142e-02,2.105539723494525076e-02,-2.231967825396533739e-03,2.293685218319296837e-03,-4.361706356198876561e-02,1.434820366506425054e-02,6.050742819088277685e-03,-2.317597985267639271e-01,-1.006015030657426146e-01,-2.852360555733235437e-03,-1.317597985267639216e-01,-7.929471731185912253e-02,-4.291981458663940430e-02,5.081137430383430020e-01,-2.731817960739135742e-01,-1.449345469474792480e+00,8.689018322442551323e+01,-3.791286945343017717e-02
7.371300000000000074e-02,-1.148721825082070491e-02,1.190291137218594947e-01,9.809589982032775879e-01,3.181463144720633046e-02,-4.471260390589648637e-03,1.445358495764739043e-02,1.223701793986291600e-02,-1.000099881315612629e-02,-1.997864339500665665e-03,-6.926462799074463439e-02,-1.710177076195983081e-02,2.823058642099166363e-02,-2.203474462032318226e-01,-7.102638874277879266e-02,-4.106742964916088034e-03,-1.203474462032318032e-01,-4.302066564559936523e-02,-4.483562707901000977e-02,5.111116183857999928e-01,-1.323603391647338867e-01,-6.069391965866088867e-01,9.442846493588265844e+01,-3.791286945343017717e-02
9.952099999999999835e-02,-1.183565292673815356e-02,1.186600720238397133e-01,9.806302189826965332e-01,2.887664241709856500e-02,-4.015724093821226859e-03,1.503274629114507294e-02,1.665096471926469715e-02,-1.211811714411438782e-03,-1.628592424094676971e-02,-1.715780923644034395e-01,4.543775672679756239e-02,5.812508554342593614e-02,-2.075576901435852162e-01,3.273429520840628881e-02,-1.086738584224785503e-02,-1.075576901435851968e-01,5.306296348571776927e-02,-5.314121246337890486e-02,5.209818960597686344e-01,3.372031450271606445e-01,-1.106855988502502441e+00,8.489823368507215662e+01,-3.791286945343017717e-02
1.230129999999999973e-01,-1.198407704851507660e-02,1.184212280246179499e-01,9.801462292671203613e-01,2.577102316022782114e-02,-2.691027281170876861e-03,1.529605547655453479e-02,1.634105601564465882e-02,-6.798984456645274649e-03,-2.080939151346683502e-02,-1.555795694699253773e-01,4.975697161311842809e-02,-4.065341979392550010e-04,-2.012216250393911998e-01,6.560517996189312029e-02,-1.071860924916233360e-02,-1.042728066444396917e-01,7.840315103530882956e-02,-5.365229845046996793e-02,5.231283243218299850e-01,4.317141771316528320e-01,-1.163501381874084473e+00,1.029440442647310761e+02,-3.791286945343017717e-02
1.489920000000000133e-01,-1.212881656259497988e-02,1.180529181869978961e-01,9.789960980415344238e-01,1.910113212395485316e-02,3.007415111961897480e-04,1.614447834687972663e-02,1.553497073937655341e-02,-2.733893621205212097e-03,-3.941498696804046631e-02,-2.496643890226435125e-01,1.268754148763673040e-01,7.596013337186140538e-03,-1.235253676622488361e-01,1.404860213784272782e-01,-1.332022363401127313e-02,-7.389589548110961359e-02,1.345491528511047197e-01,-5.848935842514037947e-02,5.271570980630306824e-01,5.695457458496093750e-01,-9.491273164749145508e-01,1.197781861158188832e+02,-6.155383586883544922e-02
1.727960000000000051e-01,-1.203472296767544615e-02,1.173611415832872956e-01,9.779690504074096680e-01,1.460207380097438071e-02,1.206722770669355072e-03,1.715231607494334398e-02,1.805111603344493679e-02,1.252326680174592434e-03,-5.583579838275909424e-02,-2.205316213658525537e-01,2.566332288138900228e-02,8.361199749522087166e-02,-9.454564999227763056e-02,1.573309064434634807e-01,-9.779840383284041372e-03,-7.640014886856079379e-02,1.433158099651336559e-01,-5.773015022277831754e-02,5.290565854972469895e-01,6.003656387329101562e-01,-4.916597604751586914e-01,-1.277252375736283696e+01,-6.845924854278565008e-02
2.002009999999999901e-01,-1.167326115264340214e-02,1.157653134206260009e-01,9.761291742324829102e-01,7.860233782668177988e-03,9.170905336621792969e-04,1.824127810455167600e-02,6.389579502697654602e-03,-3.653160323673097787e-03,-5.857715383172035217e-02,-2.022468442932456034e-01,-3.796963329155117473e-02,1.353136225778470494e-02,-7.192232250374699931e-02,6.664316791691682340e-02,-4.596487146903624477e-03,-9.257290363311766745e-02,6.406188011169433594e-02,-5.566413402557372769e-02,5.287809442760219580e-01,5.632407665252685547e-01,-7.166000604629516602e-01,-1.051778644629729058e+02,-3.239705562591552873e-02
2.247079999999999911e-01,-1.146998820097542594e-02,1.147374887920065700e-01,9.747710824012756348e-01,3.571622439632849647e-03,-7.219006260226201732e-04,1.922891667440778177e-02,1.863158667259945042e-02,1.537680353573920612e-03,-6.838633120059967041e-02,-2.085367190341532451e-01,-8.081446790255260304e-02,6.422623970639780577e-02,-1.975632561568509832e-02,7.859360379267005259e-02,1.509298554229426825e-02,-7.244714498519896906e-02,7.513986825942993442e-02,-3.873896598815917969e-02,5.305043439491411439e-01,6.086142063140869141e-01,-1.332519888877868652e+00,1.140439486094588801e+02,-3.239705562591552873e-02
2.517690000000000206e-01,-1.121086070715922658e-02,1.133028009759023125e-01,9.725930690765380859e-01,-1.835965910610770765e-03,-4.657302289453602029e-03,2.062236757483938698e-02,3.822039363211356556e-03,-7.619191793842689485e-03,-6.883759796619415283e-02,-2.033846503695454222e-01,-1.498888230923018650e-01,6.683951594090718762e-02,3.668264259541399036e-02,-4.869419732018324259e-03,3.121663895468316380e-02,-4.269796013832092424e-02,3.077443242073059013e-02,-2.659270763397216658e-02,5.306412692680287924e-01,6.011822223663330078e-01,-1.353556036949157715e+00,9.744794813397271582e+01,-3.239705562591552873e-02
2.728180000000000049e-01,-1.131820630117376381e-02,1.124147495064546504e-01,9.710394740104675293e-01,-4.400905331912720493e-03,-7.254547802068689322e-03,2.128955992667808106e-02,1.942216509272336536e-02,9.434661858801285730e-03,-8.193605393171310425e-02,-9.623357716248814864e-02,-1.026569082225613772e-01,2.470624090377586748e-02,8.691253662109375833e-02,-4.860353797432076517e-03,4.198505534049098986e-02,-1.308746337890624896e-02,3.309493660926818986e-02,-1.769360303878783972e-02,5.320411832051621381e-01,6.140946149826049805e-01,-1.943594217300415039e-01,-5.564434905479996019e+01,-3.239705562591552873e-02
2.992699999999999805e-01,-1.177814323719030172e-02,1.112457267424666330e-01,9.686359763145446777e-01,-7.638139243239595519e-03,-1.055430502298326800e-02,2.210292951693136609e-02,1.520060163198391594e-03,-9.948683381674885973e-03,-7.474055141210556030e-02,-7.550695464727592843e-02,-1.136519785981057878e-01,7.915344997370310845e-03,2.020726799964904785e-01,-9.756207300549792072e-02,6.971845143812525902e-02,1.020726799964904730e-01,-2.116380929946899345e-02,7.794839143753051584e-03,5.324384911298116752e-01,6.501035690307617188e-01,-1.236732840538024902e+00,1.771193727265034568e+01,-3.239705562591552873e-02
3.241950000000000109e-01,-1.203138777993995392e-02,1.105922144298075033e-01,9.669826030731201172e-01,-9.090115703912764189e-03,-1.157972933336703925e-02,2.268385867513809245e-02,1.789469841812787662e-02,1.111289618928134465e-02,-9.879427403211593628e-02,-9.206516208338486051e-02,4.741598697376555455e-03,1.919203738476209231e-02,2.535559654235839955e-01,-1.277567870581515774e-01,8.235760277410381081e-02,1.535559654235839899e-01,-6.028450727462768277e-02,1.879066228866577148e-02,5.346559084759998637e-01,6.634188890457153320e-01,-1.098366618156433105e+00,9.788062012732551409e+01,-3.239705562591552873e-02
3.504809999999999870e-01,-1.240265056779904333e-02,1.097518808159243381e-01,9.642803072929382324e-01,-9.567116507206870762e-03,-1.274653841917894326e-02,2.333152660391549574e-02,-3.889327364945406509e-03,-2.334799618871166748e-04,-9.569483995437622070e-02,-8.603113187233420514e-03,-6.503301750473639009e-02,3.243464131415941393e-02,2.576177597045898326e-01,-1.902944325639993883e-01,8.931405178271986656e-02,1.576177597045898271e-01,-9.539033174514770230e-02,2.396003007888793807e-02,5.347912098495378741e-01,6.662467718124389648e-01,-1.161692500114440918e+00,5.731325796716838283e+01,-3.239705562591552873e-02
3.759819999999999829e-01,-1.259633436401749913e-02,1.090609841930966217e-01,9.615375995635986328e-01,-7.160006558436446400e-03,-1.227107679859296141e-02,2.354411590599032530e-02,1.907652031829091405e-02,1.602594993902701354e-02,-9.778219461441040039e-02,1.433334056626595632e-01,4.937362911011551614e-02,1.137526132788145908e-04,2.090395927429199441e-01,-1.052030470259102957e-01,7.869058658744494672e-02,1.090395927429199247e-01,-3.469580411911010742e-02,1.267783641815185477e-02,5.349391372147621615e-01,6.480574607849121094e-01,-1.320954442024230957e+00,9.683668718439160727e+01,-3.239705562591552873e-02
4.008059999999999956e-01,-1.246572346504529194e-02,1.086449358476181265e-01,9.597433805465698242e-01,-3.656119603713346451e-03,-1.088958240568005387e-02,2.324283632155528176e-02,9.042417589555686031e-03,1.022031938075474745e-02,-8.805511891841888428e-02,2.079100650705671405e-01,7.949422391521242248e-02,-4.195175008585604742e-02,-6.252993941307066761e-02,5.500014914308685998e-02,6.717416212969029576e-02,-1.625299394130706732e-01,1.275901436805725042e-01,1.962393522262573242e-03,5.359313056561282318e-01,7.279803752899169922e-01,-7.390421628952026367e-01,1.339668112862531757e+02,5.398142337799072266e-02
4.275939999999999741e-01,-1.228653600315533431e-02,1.082751223847119026e-01,9.579190015792846680e-01,5.826387423577244606e-04,-8.326940313866604271e-03,2.301648396519303738e-02,7.527640142876914665e-03,1.803856304901365823e-02,-9.444269537925720215e-02,1.963850701296661339e-01,1.358045967569218859e-01,1.787063372941598977e-02,-1.272420859347803135e-01,1.519471481108454203e-01,2.803970341502284164e-02,-2.084855318069457897e-01,2.072817921638488714e-01,-3.657206296920776506e-02,5.368418440641060663e-01,7.387914657592773438e-01,-1.451071143150329590e+00,6.965053987250320233e+01,5.398142337799072266e-02
4.473940000000000139e-01,-1.210282333518014099e-02,1.079935067293910783e-01,9.561262130737304688e-01,5.531237133429948126e-03,-5.234031457362897655e-03,2.255468264648627028e-02,2.106418810649380441e-02,1.445836242147181469e-02,-8.667983859777450562e-02,2.779420238526132403e-01,1.617177989167237484e-01,-3.060781466014282984e-02,-1.687579773799832983e-01,1.852258623204051102e-01,-2.138679946664924503e-02,-2.141631782054901068e-01,2.094718158245086614e-01,-8.463757038116455356e-02,5.365011835359386749e-01,7.371282577514648438e-01,-1.192327380180358887e+00,-1.342807677616419824e+02,5.398142337799072266e-02
4.741330000000000267e-01,-1.186146101642566140e-02,1.077665185188667191e-01,9.533782601356506348e-01,1.096267709799842414e-02,-1.086785644091703418e-03,2.221573760637847450e-02,-2.037349895558469761e-03,2.030494025630436711e-02,-9.641096740961074829e-02,1.055629854577870147e-01,1.102361722917262477e-01,-2.218153369348822151e-02,-1.959300544783340037e-01,1.837862553398179610e-01,1.812631812712946211e-02,-2.116151869297027421e-01,2.006688416004180908e-01,-4.417104721069335660e-02,5.373978849628483490e-01,7.300772666931152344e-01,-1.586382508277893066e+00,8.088441154761163432e+01,5.398142337799072266e-02
5.002220000000000555e-01,-1.163818634925973053e-02,1.074812505221744430e-01,9.515036940574645996e-01,1.260969718958973584e-02,3.214341004496024112e-04,2.269817083704674457e-02,8.968549379549302716e-03,2.976233700477665459e-02,-9.920509904623031616e-02,5.166548750740206086e-02,4.599024042405223250e-02,5.778162947788623161e-02,-2.022955835731151675e-01,2.119187160583556051e-01,3.427141842270699235e-03,-2.138010442256927379e-01,2.074633240699768066e-01,-6.010780334472656111e-02,5.379221622755789856e-01,7.330455780029296875e-01,-1.590662121772766113e+00,1.202216293174927984e+02,5.398142337799072266e-02
5.291040000000000187e-01,-1.144338640550194609e-02,1.073037374710501812e-01,9.486806392669677734e-01,1.212752559535209933e-02,-5.399145117823689333e-04,2.346687046483126107e-02,5.722834424635135642e-03,4.199208964612086148e-02,-9.702461212873458862e-02,-2.520033145201448777e-02,-9.084124244442627616e-02,3.754659543764179291e-02,-1.896723657078750735e-01,1.981119138968188975e-01,2.176512178649536722e-02,-2.128631293773650957e-01,2.030262529850005992e-01,-4.397857189178466797e-02,5.380583170762101020e-01,7.302680015563964844e-01,-1.497144937515258789e+00,1.305189727743657500e+02,5.398142337799072266e-02
5.518110000000000515e-01,-1.136480910979080841e-02,1.073271182737998986e-01,9.468603134155273438e-01,1.021572786854005148e-02,-2.591492190104682791e-03,2.390902116989855955e-02,-5.752705948743555391e-03,3.034909644599935452e-02,-9.136073291301727295e-02,-1.091891225272492855e-01,-1.441302259071562397e-01,3.787717698665447191e-02,-1.496056510312453181e-01,5.023977051859315063e-02,7.642165085893976029e-02,-1.750621676445007213e-01,7.716904878616333285e-02,9.329706430435180664e-03,5.374857392634408981e-01,7.069189548492431641e-01,-3.093239068984985352e-01,-3.519713275542378028e+01,5.398142337799072266e-02
5.757449999999999513e-01,-1.133078557093018454e-02,1.074309623721298179e-01,9.450451731681823730e-01,7.072486971197948676e-03,-5.294756282179013951e-03,2.459749615534602418e-02,-5.011530099042590253e-03,4.258762829575448577e-02,-1.068988293409347534e-01,-1.771678820995404857e-01,-1.394258876911472489e-01,3.882477726415400898e-02,-1.107826524820847147e-01,3.933808130401456743e-02,1.010054245347056234e-01,-1.678405880928039440e-01,8.145672082901000977e-02,3.191839456558227123e-02,5.389031331527271984e-01,7.083461284637451172e-01,-6.277955770492553711e-01,1.011355416536532204e+01,5.398142337799072266e-02
5.985660000000000425e-01,-1.147184287424361966e-02,1.081900612427123959e-01,9.432713985443115234e-01,3.396532563536731452e-03,-8.866720606371725211e-03,2.526451693049739169e-02,-1.055852747660436953e-03,4.879629654638009684e-02,-8.926004916429519653e-02,-2.058170465976892072e-01,-1.841710776229975588e-01,-1.612842503574956135e-02,-5.751823318374060801e-02,-1.117552973362640895e-01,1.021376024849990627e-01,-1.426743507385253851e-01,-4.924578666687011441e-02,3.112342357635497839e-02,5.378165354253677810e-01,7.033045291900634766e-01,-4.479039907455444336e-01,1.805735633143189887e+02,5.398142337799072266e-02
6.248810000000000198e-01,-1.195105580167455696e-02,1.102116673992360046e-01,9.407114982604980469e-01,-3.135828884997302231e-03,-1.478940092482816659e-02,2.594201278267061969e-02,-5.185779374435820627e-03,5.000435959814256148e-02,-8.931364119052886963e-02,-1.969871937531172679e-01,-2.237626379705915380e-01,-1.316589819576873682e-02,8.921651840209961215e-02,-2.371622681617736872e-01,9.837829910455542226e-02,-1.078348159790038993e-02,-1.371622681617736816e-01,2.542850375175476074e-02,5.382300838054573378e-01,7.083616256713867188e-01,-1.189654707908630371e+00,1.224934595184657553e+02,5.398142337799072266e-02
6.480909999999999727e-01,-1.229458493232858315e-02,1.115916953399759964e-01,9.389787316322326660e-01,-7.400125364368885343e-03,-1.801118029003401233e-02,2.614125237999338422e-02,-1.299110148914370787e-02,5.712234246521534498e-02,-9.385857731103897095e-02,-1.923984800891057612e-01,-1.480391341255134774e-01,1.938890103908801760e-02,2.580079317092895397e-01,-2.878409624099731445e-01,1.219705608753156867e-01,1.580079317092895341e-01,-1.878409624099731390e-01,4.847838878631591936e-02,5.387022795783422691e-01,7.016363143920898438e-01,-1.241080641746520996e+00,1.227984138045284936e+02,5.398142337799072266e-02
6.750810000000000421e-01,-1.275623426592484462e-02,1.138013186910207808e-01,9.365836977958679199e-01,-1.204311410517709853e-02,-2.090924807794913853e-02,2.567681619916565086e-02,5.460702556515893702e-04,6.071993302458061903e-02,-8.923158794641494751e-02,-1.057711858668597404e-01,-5.756673922259633591e-02,-5.916610306051617958e-04,3.096281528472900613e-01,-3.034824252128601185e-01,9.386074206154919330e-02,2.096281528472900280e-01,-2.034824252128601130e-01,2.177701592445373605e-02,5.388508475642879159e-01,7.109255790710449219e-01,-1.369490981101989746e+00,1.108043352446084668e+02,5.398142337799072266e-02
6.982260000000000133e-01,-1.297378391088296196e-02,1.154118085741012434e-01,9.350572824478149414e-01,-1.402455653879864164e-02,-2.054338698183211243e-02,2.500836344476560849e-02,-1.032525666921109767e-02,5.894308221027361877e-02,-9.048005938529968262e-02,-7.273580433657055033e-02,3.716574087051858349e-02,-5.310973836326417924e-02,3.170093059539794700e-01,-3.066304445266723744e-01,2.936049218041132669e-02,2.170093059539794922e-01,-2.066304445266723688e-01,-4.079754352569579801e-02,5.389462523995716126e-01,6.974551677703857422e-01,-1.251474261283874512e+00,1.031809288855254607e+02,5.398142337799072266e-02
7.284180000000000099e-01,-1.308943942046438859e-02,1.179485700161139738e-01,9.328328967094421387e-01,-1.452229248365015900e-02,-1.670768463908745005e-02,2.431949357304664591e-02,-2.471428531934328956e-03,7.034555735425079837e-02,-9.257479757070541382e-02,-1.730151698440566058e-02,2.130420547839799172e-01,-1.002720857881665185e-02,3.172182321548461803e-01,-3.059365749359130859e-01,4.014290785241784315e-02,2.172182321548461748e-01,-2.059365749359130804e-01,-2.808759212493896346e-02,5.394440882189227571e-01,6.994700431823730469e-01,-6.795524358749389648e-01,-1.165579158466979521e+02,5.398142337799072266e-02
7.586450000000000138e-01,-1.313098261434144862e-02,1.187801229175793200e-01,9.321326613426208496e-01,-1.342628512797034400e-02,-1.498205873559776968e-02,2.383205886901796841e-02,5.808630939194805651e-03,6.644583759930244860e-02,-8.442731201648712158e-02,1.096801625828167648e-01,1.951154606606859965e-01,-3.615307982940375170e-02,3.169214725494384766e-01,-3.029383333604005468e-01,3.259590734579526083e-02,2.169214725494384710e-01,-2.039863228797912653e-01,-3.426325321197509766e-02,5.390330334877434515e-01,6.986647844314575195e-01,-1.501212477684020996e+00,1.282836157835606627e+02,5.398142337799072266e-02
7.863850000000000007e-01,-1.313437227376964764e-02,1.196342597521391909e-01,9.314180612564086914e-01,-1.171401664745004394e-02,-1.285513580815522694e-02,2.353120325323375742e-02,9.365936404298884788e-04,6.693110161450588347e-02,-8.355082571506500244e-02,2.442254539017283399e-01,1.963171083394845418e-01,-5.256924878852331506e-02,3.145580887794494629e-01,-2.894145952807957722e-01,4.083702554486014213e-02,2.145580887794494573e-01,-1.993824005126953181e-01,-2.520872354507446358e-02,5.391291687019666989e-01,6.969044208526611328e-01,-1.568036317825317383e+00,6.090250871563174684e+01,5.398142337799072266e-02
8.036140000000000505e-01,-1.315680853228601635e-02,1.204781685025658744e-01,9.307205677032470703e-01,-9.941394741920931907e-03,-1.026357622179485674e-02,2.320111221134849716e-02,-1.154787567753408871e-02,6.294175708787341783e-02,-8.142484724521636963e-02,2.116266222531648089e-01,2.230576511011959639e-01,-1.330428916492698045e-02,3.077565431594848633e-01,-2.688244102213849240e-01,5.162575769425011007e-02,2.077565431594848577e-01,-1.865733861923217773e-01,-1.350910663604736224e-02,5.389553661469526080e-01,6.854304075241088867e-01,-1.138168692588806152e+00,9.928009856750445294e+01,5.398142337799072266e-02
8.267949999999999466e-01,-1.318368016047596035e-02,1.222155243361311566e-01,9.295934438705444336e-01,-4.950601103848207597e-03,-4.539955701003295374e-03,2.278041609665529613e-02,-6.952192429125494955e-03,7.507627996469186382e-02,-6.964373588562011719e-02,2.564707509632612181e-01,3.354392332133771526e-01,-5.476993285153887447e-02,2.774525165557861217e-01,-1.900098719615135878e-01,7.092422996969913185e-02,1.774525165557861162e-01,-1.505017518997192327e-01,6.994003057479858051e-03,5.377326379097403519e-01,6.520942449569702148e-01,-1.418434262275695801e+00,9.061864688855207817e+01,5.398142337799072266e-02
8.482739999999999725e-01,-1.320106003575910111e-02,1.239292690387022999e-01,9.284147024154663086e-01,9.411038246956968155e-04,1.856348084408043775e-03,2.270603200309793956e-02,1.275845855391883645e-02,7.712325301601322125e-02,-8.671806007623672485e-02,2.762507796482720490e-01,3.512821446418917248e-01,5.912531838281333968e-02,1.888357281684875377e-01,-3.566215665908630678e-02,6.446421472048259604e-02,8.883572816848754605e-02,-5.251071453094482283e-02,9.607851505279540582e-04,5.391305709567240090e-01,6.495236158370971680e-01,-1.228006720542907715e+00,1.174638857985867872e+02,5.398142337799072266e-02
8.747810000000000308e-01,-1.277849054488583609e-02,1.259827091679034949e-01,9.268788695335388184e-01,1.101413398566953097e-02,1.209069936000695122e-02,2.242894329279122162e-02,-4.644914983129755544e-03,7.208642407664496432e-02,-6.990971416234970093e-02,3.219265166384422394e-01,3.448113989073154362e-01,2.597620263190367207e-02,3.231629203589916205e-02,1.120099533685884607e-01,6.838014396722871813e-02,-3.439818620681762279e-02,4.443186521530151367e-02,6.038582324981688933e-03,5.386703732664850364e-01,6.772565841674804688e-01,-1.056708931922912598e+00,9.481868730354382535e+01,5.398142337799072266e-02
9.017399999999999860e-01,-1.226800518619964100e-02,1.280615808257999089e-01,9.254526495933532715e-01,2.126363124222747925e-02,2.205733880180971163e-02,2.275667443995233949e-02,2.123886868238966663e-02,7.792722905035155689e-02,-7.742836326360702515e-02,3.462526273819685474e-01,3.117771165479398254e-01,2.713441323611049186e-02,-9.551776067778058876e-02,2.625465154647826926e-01,8.647086356767366699e-02,-1.023895740509033203e-01,1.625465154647827148e-01,2.419856786727905135e-02,5.398911438870787061e-01,7.016707658767700195e-01,-1.370763182640075684e+00,1.124780867610984245e+02,5.398142337799072266e-02
9.223959999999999937e-01,-1.181704372226454781e-02,1.294283704853332884e-01,9.246014952659606934e-01,2.846171040863769430e-02,2.839016404303840169e-02,2.265734811163595472e-02,7.295090573143507215e-03,6.782094111487568799e-02,-6.349012255668640137e-02,3.648334804069802151e-01,2.578306542863313400e-01,-5.622806410927513876e-02,-1.896181690684425047e-01,2.924939692020416260e-01,9.062639903285510390e-02,-1.433822393417358287e-01,1.924939692020416204e-01,2.913070321083068709e-02,5.392299519901032623e-01,7.101500034332275391e-01,-1.172546505928039551e+00,1.025345539334212930e+02,5.398142337799072266e-02
9.504949999999999788e-01,-1.108317483916381775e-02,1.316119628025623489e-01,9.233639240264892578e-01,3.842546535983470957e-02,3.750709288344911130e-02,2.272124985682781248e-02,3.208993463282733966e-02,6.521096659510958182e-02,-6.421284377574920654e-02,2.782576744271459401e-01,2.950594398834959775e-01,-2.970459969826704308e-02,-2.843121230602264626e-01,3.117226362228393555e-01,9.740583273010253174e-02,-1.843121230602264293e-01,2.117226362228393499e-01,3.717750906944274764e-02,5.396497932609710668e-01,7.185368537902832031e-01,-1.453922390937805176e+00,1.109333438576516642e+02,5.398142337799072266e-02
9.764230000000000409e-01,-1.046718660943067244e-02,1.341456695730270099e-01,9.223262667655944824e-01,4.708631316505695885e-02,4.383240934236543040e-02,2.278955713643545170e-02,2.854787382982139354e-02,6.531306207012438358e-02,-6.931497901678085327e-02,2.288092859671379820e-01,1.449077760663536052e-01,1.315092493452619388e-02,-2.865103721618652566e-01,3.162211835384368674e-01,9.777802382875613874e-02,-1.865103721618652233e-01,2.162211835384368896e-01,3.840140104293823103e-02,5.403182415091577484e-01,7.239520549774169922e-01,-1.553745746612548828e+00,1.084825353796676950e+02,5.398142337799072266e-02
9.983980000000000077e-01,-9.935141598855178752e-03,1.357883592286438512e-01,9.216526746749877930e-01,5.129067325648489079e-02,4.587219665778219380e-02,2.266798844858576231e-02,2.748588819357934698e-02,5.560092023500258496e-02,-6.122412160038948059e-02,2.038472534963059746e-01,5.476984521859239174e-02,-1.202279497252618443e-02,-2.875650167465210183e-01,3.163108944892883412e-01,9.850550872877848751e-02,-1.875650167465209850e-01,2.163108944892883356e-01,3.989292383193969449e-02,5.397759596240765401e-01,7.164914608001708984e-01,-9.588981866836547852e-01,-7.227105123060532321e+01,5.398142337799072266e-02
1.025838000000000028e+00,-8.967531935220197231e-03,1.380507050282510362e-01,9.208123087882995605e-01,5.397729903905695847e-02,4.465088250079451981e-02,2.237371553766572679e-02,4.726360630027123116e-02,5.944783901021702399e-02,-6.648871302604675293e-02,4.122773962849429069e-02,-9.212021881362826570e-02,-6.145816583095473074e-02,-2.877684891223907249e-01,3.153734445571899636e-01,9.902502403452914659e-02,-1.877684891223907471e-01,2.153734445571899303e-01,4.161173701286315779e-02,5.403077049809015264e-01,7.141268253326416016e-01,-1.388070464134216309e+00,1.033633017665539597e+02,5.398142337799072266e-02
1.058024000000000076e+00,-8.639128055403380926e-03,1.400311982223002294e-01,9.202755689620971680e-01,5.305502364174399799e-02,4.112976199338591599e-02,2.206725361382899653e-02,4.431376054482167454e-02,5.351352802915992218e-02,-6.627034395933151245e-02,-1.224022429171854609e-01,-1.893195345159173204e-01,-5.699934044935720326e-03,-2.889279723167419434e-01,3.137147843837738148e-01,9.463364739518345670e-02,-1.889279723167419378e-01,2.137147843837738093e-01,3.753397464752197127e-02,5.403894415623734515e-01,7.103662490844726562e-01,-1.111825346946716309e+00,1.507785842678092081e+02,5.398142337799072266e-02
1.077580999999999900e+00,-8.666239040152186324e-03,1.412190676272219170e-01,9.199675321578979492e-01,5.206640017104004897e-02,3.880290075867942612e-02,2.162893017830319273e-02,5.138133902334709319e-02,5.147002688695471312e-02,-6.194884702563285828e-02,-1.233703954311107104e-01,-2.419910137584584675e-01,-4.659947128669771760e-02,-2.895191311836242676e-01,3.119697391986847035e-01,9.311194160254826491e-02,-1.895191311836242620e-01,2.119697391986846979e-01,3.703656792640686035e-02,5.401678211894446191e-01,7.066967487335205078e-01,-1.261517882347106934e+00,1.339288217740895561e+02,5.398142337799072266e-02
1.104301999999999895e+00,-8.597631834377544163e-03,1.435643963443707649e-01,9.195931553840637207e-01,4.832884439458289688e-02,3.331249532173830019e-02,2.121901683915175876e-02,5.783893167319287959e-02,5.705751238345730530e-02,-6.889527291059494019e-02,-1.928645199160523849e-01,-3.102314804781234892e-01,8.545991570709387045e-03,-2.837519884109497292e-01,3.067216575145721436e-01,8.885600939810231469e-02,-1.837519884109496959e-01,2.067216575145721380e-01,3.327498435974120955e-02,5.407622466550650042e-01,7.028999328613281250e-01,-3.293007612228393555e-01,-3.998041668402125737e+01,5.398142337799072266e-02
1.122873999999999928e+00,-8.406439904045402700e-03,1.458405528281765395e-01,9.190813899040222168e-01,4.316103489754735678e-02,2.723497152032372526e-02,2.044255165118327722e-02,4.688550773088925178e-02,4.845038448623686933e-02,-6.097083166241645813e-02,-2.461799655945949572e-01,-3.286229326170070353e-01,-4.603927379990338520e-02,-2.700250327587127575e-01,2.973510026931762695e-01,7.995049423817943146e-02,-1.700250327587127519e-01,1.973510026931762640e-01,2.553763389587402136e-02,5.402465823307754933e-01,6.968574523925781250e-01,-1.213197827339172363e+00,8.245708309457458540e+01,5.398142337799072266e-02
1.152206999999999981e+00,-8.074712410092966045e-03,1.479873547741599182e-01,9.185808897018432617e-01,3.653294119545850982e-02,2.076112758227366406e-02,2.006906199461143403e-02,6.172287225987705545e-02,5.314162372747702201e-02,-7.859121263027191162e-02,-3.774070199248465984e-01,-2.994670793352385840e-01,1.545353227121514829e-02,-2.465379762734718205e-01,2.810251116752624512e-01,7.408930299615053283e-02,-1.556488037109375056e-01,1.810251116752624456e-01,2.010210156440734794e-02,5.415536128739065758e-01,6.894104480743408203e-01,-1.041316390037536621e+00,9.727892827277158005e+01,5.398142337799072266e-02
1.176546000000000092e+00,-7.397298050249295244e-03,1.510927416235983700e-01,9.177958965301513672e-01,2.626853034901596023e-02,9.912616220804304490e-03,1.915143769153996103e-02,6.609377933654433934e-02,4.749738660286208919e-02,-7.712907344102859497e-02,-3.436032934915350667e-01,-3.921924626955661797e-01,-1.271553497330590041e-03,-8.695396947671273080e-02,1.498476386070251576e-01,3.090028265943519856e-02,-5.992174744606017928e-02,4.984763860702514510e-02,-2.163662910461425573e-02,5.408235763263364859e-01,6.436171531677246094e-01,-1.257849097251892090e+00,1.067648247656795206e+02,5.398142337799072266e-02
1.199953999999999965e+00,-6.738977764784887491e-03,1.525112126453285477e-01,9.173693060874938965e-01,1.941511369129578571e-02,2.685126498917389526e-03,1.865474571098270709e-02,6.113318718562104487e-02,4.771548788502904398e-02,-5.933347716927528381e-02,-3.132776640487257569e-01,-3.758616488702002933e-01,-6.297667418622475421e-02,-1.165503225440834428e-03,6.313359616022194698e-02,6.150842719664609271e-03,-2.150691747665405343e-02,8.480948209762572201e-03,-4.559994935989379605e-02,5.379019152111906843e-01,5.428409576416015625e-01,-1.544664859771728516e+00,1.488733439799691780e+02,5.398142337799072266e-02
1.226618999999999904e+00,-5.323476178085909463e-03,1.551924947979451685e-01,9.165511131286621094e-01,6.076039058550576806e-03,-1.128986160565781383e-02,1.735955804971112820e-02,6.625985193499624171e-02,5.197811496050262076e-02,-6.767348945140838623e-02,-3.160809366700366163e-01,-3.382784819054051595e-01,-8.558523121546911250e-02,1.889518857002258356e-01,-1.519983032393587563e-01,-2.134211678714523219e-02,8.895188570022583008e-02,-1.210015654563903753e-01,-7.015260457992553156e-02,5.340293458340519273e-01,2.847706079483032227e-01,-8.683284521102905273e-01,1.346555675621572732e+02,5.398142337799072266e-02
1.247034999999999894e+00,-4.601097094509285987e-03,1.565417927275626064e-01,9.161471128463745117e-01,-7.719530126075742999e-04,-1.821236349418464684e-02,1.725373242769705218e-02,6.261785076038421660e-02,5.463353168710798069e-02,-6.748252362012863159e-02,-3.702706428286661744e-01,-3.378293638701080348e-01,2.275387503090424771e-02,2.726059436798095592e-01,-2.687017017627596482e-01,-5.113866315785170480e-02,1.726059436798095537e-01,-1.896795988082885798e-01,-9.984558820724487305e-02,5.347799233954571019e-01,3.175768852233886719e-01,-1.279982447624206543e+00,1.041460755963832696e+02,5.398142337799072266e-02
1.274496999999999991e+00,-3.141471135961300658e-03,1.587535546703899014e-01,9.155318140983581543e-01,-1.084537851761816808e-02,-2.835275248865842812e-02,1.664950685629919269e-02,5.230284637806698056e-02,5.549158231550022080e-02,-7.008661329746246338e-02,-3.362151550444992809e-01,-3.620158100189062589e-01,6.835739728765680796e-04,3.201303243637084739e-01,-3.149978637695312611e-01,-8.737547690806751755e-02,2.201303243637084961e-01,-2.149978637695312556e-01,-1.344274163246154674e-01,5.389996794581618511e-01,5.304594039916992188e-01,-1.139662146568298340e+00,9.987778793120476450e+01,5.398142337799072266e-02
1.301584999999999992e+00,-9.747898942984860619e-04,1.612504858525330431e-01,9.149788618087768555e-01,-2.045990980216067998e-02,-3.794992936957530816e-02,1.651410723292293103e-02,4.956635259319489700e-02,6.774344111284470726e-02,-6.617391109466552734e-02,-3.054239310177163103e-01,-3.057473436472498141e-01,-6.987216496480329157e-03,3.257668972015380637e-01,-3.227226972579956277e-01,-1.193004220097368395e-01,2.257668972015380859e-01,-2.227226972579955944e-01,-1.657840490341186412e-01,5.403943583695717257e-01,6.127834320068359375e-01,-1.198992609977722168e+00,-1.338885953749727697e+01,5.398142337799072266e-02
1.322805000000000009e+00,3.126889825984666073e-04,1.629868092864779350e-01,9.146718382835388184e-01,-2.482948916892688609e-02,-4.359899482385376501e-02,1.646336037443606182e-02,4.513663347333230630e-02,6.958400884827982413e-02,-4.659412056207656860e-02,-1.464609609180441141e-01,-3.086765332744461632e-01,-2.233243264175639731e-02,3.262455821037292258e-01,-3.243749737739562988e-01,-1.351633687121567562e-01,2.262455821037292480e-01,-2.243749737739562933e-01,-1.813275575637817438e-01,5.386169466724227695e-01,5.835263729095458984e-01,-1.157480120658874512e+00,1.188667383522157053e+02,5.398142337799072266e-02
1.349283000000000010e+00,2.070435999041792246e-03,1.657007582704336512e-01,9.144977331161499023e-01,-2.885453333031721274e-02,-4.918540703979923379e-02,1.653727525101768986e-02,3.565309355926927354e-02,8.159645520114493233e-02,-4.966609925031661987e-02,-9.183812430585001907e-02,-1.003168217821699265e-01,-3.056370753599309958e-02,3.267083525657653587e-01,-3.254305124282836914e-01,-1.368904251509043546e-01,2.267083525657653809e-01,-2.254305124282836859e-01,-1.831259250640868974e-01,5.390823351490322546e-01,5.889463424682617188e-01,-6.828945875167846680e-01,-4.159770644173730858e+01,5.398142337799072266e-02
1.375475000000000003e+00,4.199706059697128416e-03,1.671471039410530324e-01,9.145112633705139160e-01,-2.812787043321984468e-02,-5.066534270810585383e-02,1.697383605404897619e-02,2.790115398291927173e-02,7.379638848932183748e-02,-4.387772455811500549e-02,7.842773683620310465e-02,-1.828395341988621123e-02,3.841364484117903988e-02,3.264779329299926647e-01,-3.252812385559081809e-01,-1.412757611960505921e-01,2.264779329299926591e-01,-2.252812385559082031e-01,-1.887188673019409013e-01,5.377851780299431894e-01,5.339888334274291992e-01,-1.060371279716491699e+00,-1.053421851540250742e+02,5.398142337799072266e-02
1.402422000000000057e+00,6.405921487590445634e-03,1.680905314448725152e-01,9.145388007164001465e-01,-2.304128853433419846e-02,-4.687043501794851963e-02,1.786129841958540576e-02,2.632470038470066664e-02,9.181627892456931117e-02,-6.087569147348403931e-02,1.370085138309066197e-01,2.420554361304929070e-01,8.278129907664920351e-02,3.260567545890807883e-01,-3.244493961334228294e-01,-1.317662295729418176e-01,2.260567545890808105e-01,-2.244493961334228516e-01,-1.821566104888915905e-01,5.392395588951210961e-01,5.389621257781982422e-01,-1.688520848751068115e+00,9.640661066292341275e+01,5.398142337799072266e-02
1.424496999999999902e+00,7.721168816817148249e-03,1.688559694613667173e-01,9.145843982696533203e-01,-1.702262717811381734e-02,-4.270395800787074592e-02,1.852139763822242477e-02,2.019699285392126398e-02,8.264950376965943257e-02,-3.332975134253501892e-02,3.505407035316892572e-01,1.863894860633597272e-01,4.963134519581761245e-02,3.244265437126159779e-01,-3.224868416786194070e-01,-1.403321916723261065e-01,2.244265437126159723e-01,-2.224868416786193737e-01,-1.928133487701415849e-01,5.330998624958382948e-01,3.034658432006835938e-01,-8.982218503952026367e-01,9.729583982115653384e+01,5.398142337799072266e-02
1.450932000000000111e+00,9.449678579629710098e-03,1.701035843792990943e-01,9.148297905921936035e-01,-6.548646758589163688e-03,-3.384566138938516211e-02,2.020632072968689755e-02,7.853850653326006903e-03,9.755598414684420183e-02,-4.042920842766761780e-02,3.877688910042212944e-01,3.539472277782523824e-01,8.337881840840932757e-02,3.153591394424438699e-01,-3.172696232795715332e-01,-1.190253402270003702e-01,2.153591394424438366e-01,-2.172696232795715277e-01,-1.766712427139282282e-01,5.291043034158444680e-01,4.984271526336669922e-02,-1.296694874763488770e+00,9.522460544591767473e+01,5.398142337799072266e-02
1.475921000000000038e+00,1.158597118792862798e-02,1.697462987748604157e-01,9.152459502220153809e-01,5.026767516407238713e-03,-2.350113482946736276e-02,2.195860927352090083e-02,7.349506668646304565e-03,9.698732477882425485e-02,-2.129584550857543945e-02,3.941086889176600994e-01,3.783678364433389341e-01,2.686810582141183068e-02,2.855515003204345814e-01,-2.138574123382568359e-01,-7.228089138867682673e-02,1.855515003204345759e-01,-1.138574123382568304e-01,-1.348105072975158691e-01,5.268603794710742250e-01,-6.246566772460937500e-04,-9.937299489974975586e-01,1.627891713949531436e+02,-4.956936836242676128e-03
1.498801999999999968e+00,1.285166726319687119e-02,1.695683061763197108e-01,9.156331419944763184e-01,1.262201361682284244e-02,-1.667970613581437611e-02,2.382760041933975823e-02,1.518875648656934849e-03,9.236296235442677249e-02,-3.568933159112930298e-02,3.495867046660145472e-01,3.706392256629811865e-01,1.487207775459040704e-01,2.414479732513427623e-01,-1.002783247508916842e-01,2.395975472823982932e-03,1.414479732513427568e-01,-6.152272224426269531e-03,-6.520274877548216941e-02,5.290753434132564603e-01,5.923926830291748047e-02,-8.553415536880493164e-01,7.205876895120132986e+01,-4.956936836242676128e-03
1.524521000000000015e+00,1.460227473297199055e-02,1.694186999683258144e-01,9.160832166671752930e-01,2.399388024481932669e-02,-6.397717681600800788e-03,2.630469478899448779e-02,6.288135293109493309e-04,9.059458478394000203e-02,-3.773084282875061035e-02,2.939092922096940841e-01,4.039043611442765802e-01,9.555935334906688616e-02,1.546920636099847479e-01,4.313906561706654097e-02,5.551602804030404681e-02,1.168027281761169350e-01,6.839135885238646628e-02,-1.845939159393310616e-02,5.347100265004622877e-01,3.562374114990234375e-01,-7.237230539321899414e-01,1.019878997431993213e+02,-4.956936836242676128e-03
1.550410999999999984e+00,1.626265622312572309e-02,1.692422471909495463e-01,9.167710542678833008e-01,3.557736185913140670e-02,2.926250777942840386e-03,2.921426039105976674e-02,3.047416053455915316e-03,7.192332091605056765e-02,-1.485192775726318359e-02,3.923830530298504371e-01,2.861339362337617098e-01,1.430905166662810590e-01,2.760513607273848424e-03,1.723844514013690432e-01,8.517359448450494142e-02,5.243082046508788785e-02,1.332215309143066351e-01,3.874790668487548655e-03,5.369068212668417495e-01,5.667800903320312500e-01,-1.172122836112976074e+00,4.885031549115867477e+01,-4.956936836242676128e-03
1.573231000000000046e+00,1.701129139395467574e-02,1.693750701369044487e-01,9.171435832977294922e-01,4.296291736832311831e-02,9.165512400881148380e-03,3.063193963698847971e-02,5.104494033346685007e-03,7.595351141086838231e-02,-2.897089347243309021e-02,3.488420069205723228e-01,3.606999325681088941e-01,3.361890785894416922e-02,-1.737054861338738765e-01,2.584898659041734992e-01,1.092876402110664891e-01,-8.229957818984985629e-02,1.763430833816528320e-01,2.474825978279113561e-02,5.399260421978685498e-01,6.737229824066162109e-01,-1.076085686683654785e+00,1.277575955948213107e+02,-4.956936836242676128e-03
1.599012000000000100e+00,1.821975786618762819e-02,1.693908655229305338e-01,9.174777865409851074e-01,5.422334334524131494e-02,1.721024417284966468e-02,3.260025150642219954e-02,1.390899424732200060e-02,5.185584940999739267e-02,-1.236464641988277435e-02,4.203521122189657344e-01,2.042367276778253027e-01,4.606395953006653388e-02,-2.651674091815948708e-01,2.963204622268676980e-01,1.004151269214285103e-01,-1.651674091815948375e-01,1.963204622268676647e-01,1.155701279640197754e-02,5.385474033512819281e-01,6.607339382171630859e-01,-1.366904616355895996e+00,6.092060188674310695e+01,-4.956936836242676128e-03
1.625747000000000053e+00,1.942778679649325921e-02,1.692230997707634410e-01,9.175517559051513672e-01,6.310408304065108498e-02,2.288249054623414658e-02,3.360782079410887246e-02,1.683181348736055918e-02,5.453506268251857164e-02,-3.242002055048942566e-02,2.197223099178240713e-01,1.752422009907664835e-01,-3.207945351756321685e-04,-2.894609093666076771e-01,3.019189476966858132e-01,1.032302623032211597e-01,-1.894609093666076716e-01,2.019189476966857799e-01,1.260677576065063511e-02,5.396903468218030575e-01,6.390315294265747070e-01,-8.987072706222534180e-01,1.202861746051494123e+02,-4.956936836242676128e-03
1.651764999999999928e+00,2.016752764504265230e-02,1.691495483121420451e-01,9.173263311386108398e-01,6.943836673888019451e-02,2.385010755131244942e-02,3.390813469374624745e-02,1.495376705585324366e-02,3.362734502195650899e-02,-4.186408221721649170e-02,1.078624125186120331e-01,-5.379764576251704761e-03,5.542739268842125644e-02,-2.970752000808715709e-01,3.026489198207855114e-01,1.149242742213969493e-01,-1.970752000808715654e-01,2.026489198207855058e-01,2.371358871459960938e-02,5.402753382146558980e-01,6.282987594604492188e-01,-1.204412579536437988e+00,1.045465500779886270e+02,-4.956936836242676128e-03
1.673288000000000109e+00,2.005224061938331095e-02,1.693864843665243147e-01,9.170030951499938965e-01,7.173263979994273787e-02,2.178275076883995354e-02,3.339850535114606556e-02,1.140250320984393870e-02,3.435666276259951440e-02,-4.622423276305198669e-02,1.407162688296648978e-01,-1.376246881075104955e-01,-5.127319913005669305e-02,-2.980271339416503684e-01,3.004121899604797474e-01,1.142395066984709245e-01,-1.980271339416503906e-01,2.004121899604797419e-01,2.424116134643554757e-02,5.403786050530875462e-01,6.088049411773681641e-01,-1.114633202552795410e+00,1.114702240471713424e+02,-4.956936836242676128e-03
1.699092999999999964e+00,1.986576504617933864e-02,1.695339922842848956e-01,9.161525964736938477e-01,7.028138394029528890e-02,1.587595144649056600e-02,3.253158516078245854e-02,9.505493916667457494e-03,1.172883043070748095e-02,-4.082509875297546387e-02,-9.578085958677264034e-02,-2.130108706785781014e-01,-5.180568422733533573e-02,-2.944445788860320934e-01,2.873716115951537864e-01,1.039380367265316379e-01,-1.944445788860320878e-01,1.873716115951538086e-01,1.542593836784362724e-02,5.391612737148469003e-01,5.540752410888671875e-01,-1.360271811485290527e+00,9.065803658949553778e+01,-4.956936836242676128e-03
1.724928999999999935e+00,1.974052939813322402e-02,1.695408433625467948e-01,9.149072766304016113e-01,6.415378820781202085e-02,7.721911659602342937e-03,3.140856045355020637e-02,2.404292795885398099e-02,1.626463554590566393e-02,-5.680333077907562256e-02,-2.525344517911125575e-01,-2.820791131891752235e-01,-3.523223488804869130e-02,-2.846965193748474121e-01,2.528715870360629947e-01,7.368462069096468059e-02,-1.846965193748474066e-01,1.641179502010345348e-01,-1.262100934982299770e-02,5.395334551527665168e-01,4.990140199661254883e-01,-9.084066152572631836e-01,1.037313328496017562e+02,-4.956936836242676128e-03
1.749994000000000050e+00,1.944009359418777741e-02,1.688308746558276618e-01,9.133692383766174316e-01,5.484179029178488929e-02,-2.077352650448727189e-03,3.055616282615622112e-02,6.011191847016057049e-03,1.892018349752648803e-03,-5.831526964902877808e-02,-3.350676720803504316e-01,-3.375694455938705318e-01,4.826895506350350855e-03,-2.524457812309265359e-01,1.074509858425385656e-01,6.152709561928514093e-02,-1.524457812309265026e-01,9.911509752273559015e-02,-2.392362356185913017e-02,5.385789231112444453e-01,4.276795387268066406e-01,-8.854573965072631836e-01,8.493170161200522728e+01,-4.956936836242676128e-03
1.775708999999999982e+00,1.899755604179369228e-02,1.676460933049690183e-01,9.116584062576293945e-01,4.454325925531484043e-02,-1.279756570512935454e-02,2.917511654811531449e-02,1.522607909441101373e-02,-2.966844958925718943e-03,-6.477723270654678345e-02,-3.182494233420742891e-01,-3.550287996043132721e-01,-4.885997158854454153e-02,-1.882346630096435602e-01,-1.075679436828751306e-01,6.379462039631179915e-02,-8.823466300964355469e-02,-5.485568046569824080e-02,-1.866860389709472726e-02,5.373890457980753377e-01,3.218657970428466797e-01,-1.462030291557312012e+00,-2.570452901675088775e+00,-4.956936836242676128e-03
1.798207000000000111e+00,1.867786070363103290e-02,1.667737350268392316e-01,9.105272293090820312e-01,3.745351379195972774e-02,-2.001240913585355941e-02,2.836170328682981190e-02,1.296419452354732015e-02,-1.385894466700345398e-02,-5.584526062011718750e-02,-3.681331229837725427e-01,-3.683574758029481422e-01,-7.033953305862973571e-02,-1.535924851894378551e-01,-1.948115825653076172e-01,5.137902625070470131e-02,-5.359248518943786344e-02,-9.481158256530761164e-02,-2.933456897735595495e-02,5.337348709949103487e-01,1.441856622695922852e-01,-9.875398874282836914e-01,9.856049032711942459e+01,-4.956936836242676128e-03
1.823539999999999939e+00,1.812446910898574473e-02,1.653067166035407098e-01,9.088075757026672363e-01,2.748125102615506937e-02,-2.999892363653833272e-02,2.750102535564198647e-02,5.358304728099161623e-04,-2.209090627511933053e-02,-6.176809966564178467e-02,-3.342387285810253794e-01,-3.096349503253688074e-01,-2.487715374797304368e-02,-7.527779428438746701e-02,-2.113280177116393932e-01,3.001946052029776796e-02,-2.190828323364257812e-02,-1.113280177116394015e-01,-4.879345893859863420e-02,5.294760645997992343e-01,-1.270067691802978516e-01,-1.583036065101623535e+00,1.014707656305701562e+02,-4.956936836242676128e-03
1.849523000000000028e+00,1.802874810456112087e-02,1.637098717178645801e-01,9.070265889167785645e-01,1.778696119891472194e-02,-3.697736768512704941e-02,2.673976665175392328e-02,3.891711403096131082e-03,-1.612371025059340657e-02,-6.270996481180191040e-02,-3.360477349474966791e-01,-1.652972988362193252e-01,-2.364137370831718640e-02,4.890941236653995050e-02,-2.201971173286438044e-01,3.587694474348257501e-03,3.448598384857177318e-02,-1.201971173286437988e-01,-7.308393716812133789e-02,5.276664958653861648e-01,-2.447411417961120605e-01,-9.652560949325561523e-01,-2.228050395940472050e+00,-4.956936836242676128e-03
1.876109999999999944e+00,1.783196013913502728e-02,1.621138932589507031e-01,9.051752090454101562e-01,9.178673675636492973e-03,-3.912904321850918521e-02,2.599725372170409374e-02,-8.398081804529276481e-03,-2.923983697794978187e-02,-6.332050263881683350e-02,-2.203461375088952012e-01,-5.816548269424155759e-02,-4.956987015714570816e-02,1.444573877661626538e-01,-2.471821069717407282e-01,-8.600162798502453132e-04,8.533297777175903598e-02,-1.471821069717407227e-01,-7.510360479354857843e-02,5.307912049132974541e-01,-9.079116582870483398e-02,-1.007899641990661621e+00,9.530438205542343155e+01,-4.956936836242676128e-03
1.898419000000000079e+00,1.768953502660794083e-02,1.610617027268567980e-01,9.038773775100708008e-01,3.921630540902182153e-03,-3.777463889352805637e-02,2.596602086502313930e-02,-1.077613106631899326e-02,-2.222098300718385391e-02,-6.190655007958412170e-02,-2.847819669026110945e-01,1.199211951137564430e-01,-1.645799823114650270e-02,2.294909715652465876e-01,-2.596833825111389271e-01,-1.405336122491053497e-02,1.294909715652465820e-01,-1.596833825111389216e-01,-8.794580698013305942e-02,5.365906833757239092e-01,2.206463813781738281e-01,-1.098647236824035645e+00,1.871998781677960366e+01,-4.956936836242676128e-03
1.924304999999999932e+00,1.725795743392084802e-02,1.594971855486113921e-01,9.017190933227539062e-01,-9.987677025128265714e-04,-3.472509716086613629e-02,2.604503482623320501e-02,-1.187839085575941207e-02,-3.225924318227320342e-02,-7.175411283969879150e-02,-1.405722961980608032e-01,9.222054991714902228e-02,1.824500118850500702e-02,2.533747911453246848e-01,-2.610538840293884499e-01,1.239205971787793459e-02,1.533747911453247070e-01,-1.610538840293884166e-01,-6.132853031158447266e-02,5.429600113883409351e-01,5.189816951751708984e-01,-1.118773818016052246e+00,1.128634733548272351e+02,-4.956936836242676128e-03
1.950836000000000015e+00,1.771677561004528223e-02,1.569997273425986772e-01,8.995320200920104980e-01,-1.827150668966094583e-03,-3.002738645395330863e-02,2.648098979486469828e-02,-1.341531687140021765e-02,-2.504352582694077678e-02,-7.768755406141281128e-02,-2.348138340306504378e-03,1.781285466025243902e-01,4.416925524521848195e-02,2.547646760940551758e-01,-2.578525066375732533e-01,3.111595250517298211e-02,1.547646760940551702e-01,-1.578525066375732477e-01,-4.371907711029052873e-02,5.441043658378901249e-01,5.415986776351928711e-01,-1.299512505531311035e+00,6.715313584400141167e+01,-4.956936836242676128e-03
1.972026000000000057e+00,1.790978602887191226e-02,1.553396793206745508e-01,8.981012105941772461e-01,4.117493622496746922e-04,-2.652895998668314270e-02,2.650493743652367409e-02,-2.132513377914948757e-02,-4.618739536127661194e-02,-5.653589591383934021e-02,1.647067379450033731e-01,1.355750835788853137e-01,-1.342736909600374812e-02,2.179913759231567327e-01,-2.387941241264343317e-01,2.058833956243103641e-02,1.179913759231567272e-01,-1.387941241264343262e-01,-5.423805713653564314e-02,5.424628400675778339e-01,5.208369493484497070e-01,-1.177778124809265137e+00,7.552220078496388567e+01,-4.956936836242676128e-03
1.998758000000000035e+00,1.815499436216972198e-02,1.528339113424965479e-01,8.959472179412841797e-01,5.655123743354115856e-03,-1.951123347662941931e-02,2.672484597865990713e-02,-1.110415427652482363e-02,-2.915240180138351997e-02,-7.158038765192031860e-02,1.758451747502435825e-01,2.768931183235052162e-01,2.891881295179677368e-03,7.597157462259850058e-02,-1.832256197929382213e-01,3.699780332777360264e-02,-6.789314746856689627e-03,-8.322561979293822965e-02,-3.843584060668945451e-02,5.436874212165963005e-01,5.117099285125732422e-01,-1.054646611213684082e+00,9.780520800869940956e+01,-4.956936836242676128e-03
2.023912000000000155e+00,1.823038138342665190e-02,1.500369377227837586e-01,8.937884569168090820e-01,1.280627446168266376e-02,-1.216556596828288761e-02,2.677141215996758569e-02,-2.897112108166175620e-02,-4.523575736700020250e-02,-7.385935634374618530e-02,1.886983088628294836e-01,2.511380493637161426e-01,4.324632915479157541e-02,-2.300383066121192144e-02,-9.357810129635786567e-02,2.788087507241639174e-02,-4.393726587295532227e-02,-1.125515699386596576e-02,-4.759855270385741910e-02,5.448456645545965982e-01,5.507320165634155273e-01,-8.112097978591918945e-01,9.365903729569154734e+01,-4.956936836242676128e-03
2.050910000000000011e+00,1.805750010551331053e-02,1.466839406659982969e-01,8.917232751846313477e-01,2.008703801430437863e-02,-4.866436627815051708e-03,2.704788337543102480e-02,-1.850601063365521493e-02,-3.909138550966449049e-02,-6.586178392171859741e-02,2.326111900147760092e-01,2.271683514678811688e-01,5.703587217399423703e-02,-7.997389213206765324e-02,-8.762925017333590694e-03,1.708109946061067697e-02,-5.894671082496642789e-02,1.546261310577392439e-02,-5.885692834854125421e-02,5.449324785237870117e-01,5.700666904449462891e-01,-1.199423193931579590e+00,1.200247559448563521e+02,-4.956936836242676128e-03
2.075896000000000186e+00,1.792107065078487466e-02,1.445486574674904601e-01,8.903234601020812988e-01,2.408333821806761532e-02,-5.345484447525361560e-04,2.693410250115742949e-02,-2.650329667741159120e-02,-4.818437470788546756e-02,-5.436398461461067200e-02,1.672140364384547273e-01,1.554938299909368882e-01,-3.035953665702493046e-02,-1.171717411226630423e-01,4.184791929920287507e-02,2.141123932470376939e-02,-6.201787590980529369e-02,4.555301070213317594e-02,-5.404672622680663924e-02,5.450686027409117340e-01,6.097748279571533203e-01,-8.531614542007446289e-01,9.659230301588854672e+01,-4.956936836242676128e-03
2.101029000000000035e+00,1.768947035520001404e-02,1.413798411085916140e-01,8.882134556770324707e-01,2.717679315314852281e-02,4.814655230484632398e-03,2.727282336677289143e-02,-2.321488952822679808e-02,-3.896568502541875034e-02,-5.847121030092239380e-02,3.677900969929883551e-02,1.821140455267439284e-01,-2.480445895213840429e-02,-1.396735646205743420e-01,1.090435068629685561e-01,2.815327911430378499e-02,-7.104361653327941062e-02,7.426058650016784113e-02,-4.789527654647827287e-02,5.464181742064239122e-01,6.520023345947265625e-01,-9.261938333511352539e-01,1.025472444248991764e+02,-4.956936836242676128e-03
2.125855000000000050e+00,1.740905629128550527e-02,1.394012216678580385e-01,8.867325186729431152e-01,2.773874809572069236e-02,6.825577642763702713e-03,2.753219163004315406e-02,-1.454673723174165594e-02,-4.296572837849129550e-02,-5.907379463315010071e-02,2.370363338799784739e-02,4.705098116696059679e-02,5.869064150776378413e-02,-1.495391135731164445e-01,1.400340789556786536e-01,3.204371143351190249e-02,-7.198196053504943293e-02,8.632106781005859097e-02,-4.455456733703613142e-02,5.469187101345006630e-01,6.634684801101684570e-01,-1.161212086677551270e+00,-5.047626251364771832e+01,-4.956936836242676128e-03
2.156775999999999804e+00,1.691089203035289062e-02,1.367012671663813961e-01,8.847164511680603027e-01,2.643185585596525417e-02,8.259104665356620245e-03,2.775220026882715268e-02,-3.120828946005233667e-02,-4.679714978042661538e-02,-5.606404691934585571e-02,-6.208869678367438805e-02,-8.834935455767722531e-03,1.367504780175500881e-02,-1.411265602704328270e-01,1.355815453317032460e-01,3.231162375520370972e-02,-6.877264380455017090e-02,8.674278259277343195e-02,-4.496666193008422990e-02,5.470923745811496763e-01,6.687306165695190430e-01,-9.009391069412231445e-01,9.526996473219573147e+01,-4.956936836242676128e-03
2.177862000000000187e+00,1.675207273620224480e-02,1.357776511771338346e-01,8.840803503990173340e-01,2.548048986809790112e-02,8.156211627406317888e-03,2.788906273865655872e-02,-3.427843551932529403e-02,-4.932187583219712484e-02,-5.659063905477523804e-02,-1.561218972380872538e-01,2.629574741286416772e-02,4.809130151470589892e-02,-1.355480704020233240e-01,1.318940072917067219e-01,3.121942631291556997e-02,-6.767098903656006137e-02,8.395307064056396762e-02,-4.646222591400146068e-02,5.473313616679320592e-01,6.690018177032470703e-01,-5.782610177993774414e-01,7.634929571231739942e+01,-4.956936836242676128e-03
2.211428000000000171e+00,1.640616467580815682e-02,1.340396732078777964e-01,8.828876018524169922e-01,2.359953426010621275e-02,6.981867291627974481e-03,2.779086078257598028e-02,-1.827933693951691585e-02,-4.051124576098390911e-02,-5.120784416794776917e-02,-1.101177032703798409e-01,-8.687908417781567416e-02,-2.660644157561663226e-02,-1.196318236838233018e-01,1.235124001181134856e-01,2.777466276308458021e-02,-6.997169852256775180e-02,7.089580893516540805e-02,-4.960266351699828963e-02,5.470661554397663329e-01,6.619772911071777344e-01,-1.310980677604675293e+00,9.813692980611941152e+01,-4.956936836242676128e-03
2.236123000000000083e+00,1.620669777554853419e-02,1.331525545476449079e-01,8.822845220565795898e-01,2.214785155638020891e-02,5.867287049668767906e-03,2.789399017859698487e-02,-1.959396449825381512e-02,-4.240580192847420021e-02,-5.347647145390510559e-02,-1.250083366031270182e-01,-1.183412215698632641e-01,1.947442907008515092e-02,-1.125094374496730387e-01,1.044629578726217478e-01,2.510185299737081183e-02,-6.934007406234740656e-02,6.252161264419554831e-02,-5.267164707183837752e-02,5.473547797195782438e-01,6.584144830703735352e-01,-1.039301037788391113e+00,9.046763140600309328e+01,-4.956936836242676128e-03
2.257648000000000099e+00,1.601336622085372183e-02,1.322616713907401598e-01,8.816781044006347656e-01,2.053952199046517671e-02,4.797253490508746054e-03,2.808596944722045394e-02,-2.294788929446053491e-02,-4.587746462997816660e-02,-3.851421549916267395e-02,-1.598335521121016234e-01,-1.171143820254974405e-01,3.281653636220422526e-02,-1.035795912888072406e-01,7.582518154625883522e-02,1.902196539216582938e-02,-6.853373050689696988e-02,4.341766834259033064e-02,-5.937945842742919922e-02,5.462435237526933607e-01,6.450399160385131836e-01,-1.022733092308044434e+00,7.303826588950533960e+01,-4.956936836242676128e-03
2.279894999999999783e+00,1.585639911794399157e-02,1.314153993636477669e-01,8.811133503913879395e-01,1.916466344133934199e-02,3.108440918619281845e-03,2.818655682109131796e-02,-2.787708343856558357e-02,-4.872996128401643756e-02,-2.613911963999271393e-02,-1.081896756016516858e-01,-2.029783756686141805e-01,-1.909295926363430845e-02,-8.415987314557088483e-02,4.575169135449611013e-02,2.053858028003970049e-02,-5.635419487953186035e-02,2.780324220657348633e-02,-5.826140642166137418e-02,5.449544984877857656e-01,6.123157739639282227e-01,-1.386772513389587402e+00,1.035468494401197148e+02,-4.956936836242676128e-03
2.300800999999999874e+00,1.564647879835477998e-02,1.305670541771949689e-01,8.804976940155029297e-01,1.742707546389455145e-02,1.682645247006231415e-03,2.830029932514881510e-02,-3.410428397980896920e-02,-5.222549363536145572e-02,-3.852431848645210266e-02,-1.440681496536635742e-01,-1.849111331059581087e-01,2.161010268132451673e-02,-7.325920286345057042e-02,2.003607683016113764e-02,1.693881928032834466e-02,-5.399183034896850447e-02,1.565918326377868652e-02,-6.228039264678954939e-02,5.460726887740635638e-01,6.157808303833007812e-01,-9.524430036544799805e-01,-4.414970758736961187e+01,-4.956936836242676128e-03
2.327789000000000108e+00,1.520260747560419831e-02,1.285374143788205470e-01,8.794845938682556152e-01,1.430812685474261263e-02,-1.493597243218403037e-03,2.820846348521493380e-02,-2.099628294745179216e-02,-5.211865485705560047e-02,-3.210835531353950500e-02,-1.547349187716712260e-01,-1.403752323778457711e-01,-4.059496572516944207e-02,-3.991595279274430530e-02,1.441414522651325233e-03,1.715384528483737681e-02,-4.024668931961059709e-02,7.395654916763305664e-03,-6.187427043914794922e-02,5.451941325545092143e-01,5.803153514862060547e-01,-8.693851232528686523e-01,8.849433511327305268e+01,-4.956936836242676128e-03
2.355036999999999825e+00,1.451703680417695819e-02,1.255775075832145649e-01,8.779820799827575684e-01,9.968643837444167086e-03,-6.719643494530469496e-03,2.842487086897948351e-02,-2.181201882092414363e-02,-5.027294028596437231e-02,-2.187259122729301453e-02,-1.472023292358789481e-01,-1.698984706962178570e-01,4.022296719255771119e-02,2.780517627942366565e-02,-4.830830461567286321e-02,2.322590360522731878e-02,-6.039440631866455078e-04,-5.384695529937743967e-03,-5.659503936767577847e-02,5.443159580351406568e-01,5.584928989410400391e-01,-7.803426980972290039e-01,9.017968429097369665e+01,-4.956936836242676128e-03
2.378775999999999780e+00,1.407099845914067636e-02,1.236723807702522077e-01,8.771317601203918457e-01,7.534691516162568027e-03,-9.681732201288983930e-03,2.835846836380635783e-02,-2.761353244758067357e-02,-5.474833559119121618e-02,-2.189991623163223267e-02,-9.160549119405629603e-02,-1.846519827619949317e-01,-1.189566895534746420e-02,5.667079319455450848e-02,-8.094384379860158907e-02,2.739408045964363686e-02,1.704007387161254883e-02,-1.398854255676269462e-02,-5.232017040252685131e-02,5.447275028715984346e-01,5.709795951843261719e-01,-1.324021220207214355e+00,6.690824624149976785e+01,-4.956936836242676128e-03
2.403335999999999917e+00,1.339494008489720660e-02,1.208954036031773260e-01,8.760810494422912598e-01,3.727611247716672294e-03,-1.348114861849425417e-02,2.849110073105649496e-02,-2.844464478124750575e-02,-4.606810416823844956e-02,-1.685867644846439362e-02,-1.292946370651487653e-01,-8.380614795052872268e-02,-1.706883325219430911e-02,1.402919861693623926e-01,-1.550582908869028997e-01,3.300520293438134051e-02,7.024244070053099753e-02,-6.311717033386229914e-02,-4.713574647903442244e-02,5.443205164459735679e-01,5.567052364349365234e-01,-1.168933272361755371e+00,1.337545973087408697e+02,-4.956936836242676128e-03
2.424309000000000047e+00,1.292377545247278339e-02,1.191602120044202434e-01,8.754916787147521973e-01,1.186210779215197833e-03,-1.607923626751039947e-02,2.884341902670412364e-02,-1.949018153125913616e-02,-4.578201146759437040e-02,-7.901092059910297394e-03,-9.808553672397754553e-02,-1.447257581189013986e-01,4.154837728207978059e-02,1.874849933179621453e-01,-1.937448501586914174e-01,2.291382621988521939e-02,1.028117895126342690e-01,-9.374485015869139792e-02,-5.819120407104491632e-02,5.433117534680625971e-01,5.268651247024536133e-01,-1.208998084068298340e+00,9.676031200909251595e+01,-4.956936836242676128e-03
