timestamp,x,y,z,roll,pitch,yaw,vx,vy,vz,p,q,r,psp,qsp,rsp,pres,qres,rres,thrust_sp, thrust_res
0.000000000000000000e+00,8.698407011225522262e-03,1.717234415861560934e-02,9.920788407325744629e-01,2.673482766995323792e-02,-2.506763478193518857e-02,-7.397864962991098844e-03,-8.997584566537479567e-03,-2.021713351237624037e-02,-7.066125399433076382e-04,2.379946014259184603e-02,4.296278464856203433e-02,5.555683779520817316e-03,-3.140434801578521617e-01,-4.966368079185486811e-02,1.760674788421242309e-01,-2.140434801578521562e-01,5.033631920814513744e-02,1.958598911762237382e-01,5.050684499642056347e-01,-3.995141386985778809e-01,-1.825872659683227539e-01,7.252044875795915857e+01,1.907510042190551647e-01
5.678699999999999720e-02,8.667155415900965748e-03,1.584585571839132803e-02,9.913307428359985352e-01,2.725441153559579957e-02,-2.512715633462114795e-02,-7.440872127954027866e-03,-7.639366601715499340e-03,-2.158021789352286557e-02,-1.683467417024075985e-06,1.351392946649454530e-02,-1.604833020645919303e-02,9.000814513387911386e-03,-2.463852584362030140e-01,-2.892499446868896373e-01,-2.075384910937740912e-01,-1.463852584362030085e-01,-1.892499446868896318e-01,-1.876383304595947155e-01,5.035860616936669309e-01,-4.782160520553588867e-01,2.112902402877807617e-01,1.049093628965105438e+02,1.907510042190551647e-01
6.923700000000000687e-02,8.667155415900965748e-03,1.584585571839132803e-02,9.913307428359985352e-01,2.725441153559579957e-02,-2.512715633462114795e-02,-7.440872127954027866e-03,-7.639366601715499340e-03,-2.158021789352286557e-02,-1.683467417024075985e-06,1.351392946649454530e-02,-1.604833020645919303e-02,9.000814513387911386e-03,-2.463852584362030140e-01,-2.892499446868896373e-01,-2.075364076737950536e-01,-1.463852584362030085e-01,-1.892499446868896318e-01,-1.876383304595947155e-01,5.035942928966502530e-01,-4.782160520553588867e-01,-9.826672077178955078e-02,1.002166814272532775e+02,1.907510042190551647e-01
8.398999999999999522e-02,8.662594824731889576e-03,1.542803745676945421e-02,9.910883307456970215e-01,2.733099187634603633e-02,-2.489810988763241362e-02,-7.510048392163633235e-03,-3.561430538390268109e-03,-2.298509744382910835e-02,-7.934861059766262770e-05,-4.252160717021122652e-03,3.880728224808117910e-02,1.506129768053655719e-02,-3.168052434921264648e-01,-8.115202784538269598e-02,1.660537890623213775e-01,-2.168052434921264593e-01,1.884797215461730957e-02,1.861777603626251221e-01,5.126193502264005941e-01,-1.697838306427001953e-03,3.974007368087768555e-01,7.091463030295415138e+01,1.907510042190551647e-01
9.812300000000000189e-02,8.642273606419883722e-03,1.498169399891653188e-02,9.908511042594909668e-01,2.741000828921497795e-02,-2.472443925856837588e-02,-7.488456943785865537e-03,3.876876739998884238e-03,-2.062624993420393571e-02,-5.198145750910043716e-03,-1.172531377631543491e-02,1.849344293567197275e-02,2.409036680961106416e-02,-3.135670661926269753e-01,-1.629957556724548340e-01,1.684925396007808385e-01,-2.135670661926269420e-01,-6.299575567245482843e-02,1.885815024375915583e-01,5.163700992661692801e-01,1.770992279052734375e-01,1.315271854400634766e-02,1.047564896025073153e+02,1.907510042190551647e-01
1.273700000000000110e-01,8.585647679715003103e-03,1.329210556226254232e-02,9.898483753204345703e-01,2.718748230306430869e-02,-2.394145822345761232e-02,-7.583591679009462141e-03,-4.557850205400088874e-03,-1.824902759833624266e-02,-1.453187898732721806e-03,-3.853611246267876073e-02,4.090845975406826041e-02,-1.398605653420548212e-02,-3.154884576797485352e-01,-1.413908123970031849e-01,1.251636658396085011e-01,-2.154884576797485296e-01,-4.139081239700317244e-02,1.455079436302184892e-01,5.088314582996953384e-01,-2.148320674896240234e-01,-2.592877149581909180e-01,8.825624837918473986e+01,1.907510042190551647e-01
1.514240000000000030e-01,8.562531648452253660e-03,1.208259245085249213e-02,9.890525341033935547e-01,2.603156435828767740e-02,-2.311568041824640929e-02,-6.708795316146137083e-03,-1.020751190874887547e-02,-1.981148640047846257e-02,-3.301091026514768600e-03,-3.649315367619619666e-02,9.440676201859908578e-02,5.586677892078546065e-02,-3.145372569561004639e-01,-9.482312202453613281e-02,1.673190936402546569e-01,-2.145372569561004583e-01,5.176877975463866667e-03,1.852763772010803112e-01,5.156630022821978576e-01,1.382886171340942383e-01,-5.225670337677001953e-02,9.678861631301305124e+01,1.907510042190551647e-01
1.736620000000000108e-01,8.619986647867745183e-03,1.094380394531136239e-02,9.878538250923156738e-01,2.167030225946308189e-02,-2.023455408543584078e-02,-6.124125172157423094e-03,2.443837770556089341e-03,-1.790811444776089362e-02,-2.356687001883983612e-02,-2.090242664619091639e-01,8.287454207339861600e-02,7.917336287537546369e-03,-3.124068319797516091e-01,-1.815855026245117299e-01,1.385660889755992720e-01,-2.124068319797515758e-01,-8.158550262451171042e-02,1.551590502262115423e-01,5.085917399611508127e-01,-3.252907991409301758e-01,1.477801799774169922e-02,8.987242823116066859e+01,1.907510042190551647e-01
1.993139999999999912e-01,8.894138879432687481e-03,1.000042804611988440e-02,9.862621426582336426e-01,1.506921024749315052e-02,-1.645033518268568251e-02,-7.550664410871414482e-03,1.600244027067207822e-02,-6.760943424520032136e-03,-3.848670050501823425e-02,-2.656400469893527294e-01,1.032311400140323993e-01,-6.039694323395784770e-02,-2.993953949991667307e-01,-1.327615877862700078e-01,-3.763927264437456899e-02,-2.049574434757232555e-01,-4.376095533370971680e-02,-1.679681539535522392e-02,5.088267815441802622e-01,-3.807060718536376953e-01,5.372643470764160156e-03,1.159533894636384730e+02,1.907510042190551647e-01
2.283020000000000049e-01,9.220291793315885456e-03,9.197417249728940050e-03,9.841886162757873535e-01,6.949213177285105091e-03,-1.220817652996508684e-02,-9.636668090502757342e-03,1.438396764501995335e-02,-3.073159645360830101e-03,-5.943901836872100830e-02,-3.280780174620248069e-01,1.710820665846917998e-01,-1.153411991745927068e-01,-2.493192189114091240e-01,-1.288208358396789599e-01,-1.688468471589057440e-01,-2.084729611873626653e-01,-6.438953876495361051e-02,-1.419699668884277233e-01,5.116869869178704011e-01,-3.233432769775390625e-01,-5.044615268707275391e-02,3.310777447322229250e+01,1.229629278182983454e-01
2.483029999999999959e-01,9.526164195185839872e-03,8.740201946649296671e-03,9.826724529266357422e-01,1.274457867934616212e-03,-9.950903093160601287e-03,-1.108255887997704713e-02,7.124461708776448458e-03,-7.660489413164598598e-04,-5.623738840222358704e-02,-2.953005188558650573e-01,1.261940764292976969e-01,-1.131580157874816361e-01,-1.737354436143094538e-01,-9.440346403707014500e-02,-2.244500959492899683e-01,-1.707768559455871415e-01,-3.943043947219848633e-02,-1.934438109397888239e-01,5.090723969344262967e-01,-4.593638181686401367e-01,3.867542743682861328e-02,9.958966323125693521e+01,1.091243028640747070e-01
2.759650000000000158e-01,1.032605074167654118e-02,8.111739233888169004e-03,9.788443446159362793e-01,-1.021496061101205034e-02,-4.963863032339865811e-03,-1.392915763162111582e-02,1.640110756026646327e-02,1.266311224588783681e-02,-7.714181393384933472e-02,-2.923533120791370066e-01,1.533742614999339116e-01,-4.849049963492256532e-02,2.364924137136263926e-01,1.798593741140377955e-01,-2.489911123423052819e-01,1.547915339469909668e-01,1.934276103973388561e-01,-2.099669694900512529e-01,5.088688649876574877e-01,-5.728682279586791992e-01,4.213241338729858398e-01,2.201185554387519261e+01,1.091243028640747070e-01
2.988040000000000140e-01,1.106256805195759280e-02,8.028319814118367245e-03,9.756315350532531738e-01,-1.836184441989684862e-02,-7.301319408057338478e-04,-1.460765040115477413e-02,2.728130865054550699e-02,2.018318310854436831e-02,-9.445905685424804688e-02,-3.284993750618392383e-01,1.563403127441477802e-01,2.468181953043143209e-02,3.078456282615661399e-01,2.332300969179368633e-01,-2.592498869594078714e-01,2.078456282615661621e-01,2.114516437053680364e-01,-2.184217929840087946e-01,5.102769552385868490e-01,-5.852262377738952637e-01,5.595024824142456055e-01,-5.694581428038920734e+01,1.119004964828491239e-01
3.243659999999999877e-01,1.186254680988569309e-02,8.276790099593197420e-03,9.721177220344543457e-01,-2.589087170138349228e-02,3.675961846721476078e-03,-1.346592525739961736e-02,2.890459441108342645e-02,3.334924200753346113e-02,-9.912118315696716309e-02,-2.767617832576093617e-01,1.246089282825794120e-01,3.860618666830585577e-02,3.146356582641601785e-01,2.682730210324329456e-01,-2.593067746148410846e-01,2.146356582641601451e-01,2.175352513790130560e-01,-2.218386411666870006e-01,5.102813383179690687e-01,-6.237389445304870605e-01,-1.164804697036743164e-01,1.308453055525306183e+02,1.119004964828491239e-01
3.473570000000000269e-01,1.253049464385786425e-02,9.104161666059514338e-03,9.683625102043151855e-01,-3.152751427640987369e-02,6.971731333418551557e-03,-1.099854124131871384e-02,1.472058907255889386e-02,3.928618322646323241e-02,-1.011331602931022644e-01,-1.405351186386229467e-01,8.971377069558794659e-02,1.022134277089970233e-01,3.149553418159484752e-01,2.816447148039393777e-01,-2.523995629212049119e-01,2.149553418159484697e-01,2.203249633312225342e-01,-2.219569444656372126e-01,5.111300003982384155e-01,-6.079548597335815430e-01,4.758552312850952148e-01,-2.052914954111236145e+00,1.119004964828491239e-01
3.752489999999999992e-01,1.322578962109293051e-02,1.062130951178513055e-02,9.637525081634521484e-01,-3.157974618436793640e-02,4.567362957269338608e-03,-6.248632735730784947e-03,2.206817376283327220e-02,5.511334443418419021e-02,-9.502274543046951294e-02,8.864633178491676535e-02,-1.777122337284236797e-01,1.326020377612670553e-01,2.408974766731262207e-01,-1.260784053113692404e-01,-2.127200201776387745e-01,1.408974766731262152e-01,-1.799340963363647294e-01,-1.955117225646972601e-01,5.240697425612581561e-01,8.669650554656982422e-02,-8.966028690338134766e-02,9.812199901259377555e+01,1.119004964828491239e-01
3.970540000000000180e-01,1.373317467844486009e-02,1.190173547823352405e-02,9.602428078651428223e-01,-2.665580635321347994e-02,-1.680078919171323903e-03,-1.961471287120152094e-03,1.993648378155319853e-02,5.695932905657832834e-02,-1.035864725708961487e-01,2.069066623110092373e-01,-2.693914284595060327e-01,1.757435419128601795e-01,2.578196406364440807e-01,-1.695241941357678306e-01,-1.962762445910339326e-01,1.578196406364440751e-01,-1.803599596023559570e-01,-1.908305883407592773e-01,5.241149867094200276e-01,3.431534767150878906e-02,-9.973776340484619141e-02,9.278598202541300566e+01,1.119004964828491239e-01
4.263819999999999832e-01,1.426685890374335478e-02,1.392599962272660606e-02,9.552776813507080078e-01,-1.592054332455384441e-02,-1.183976019495514009e-02,3.533892999297174806e-03,3.690286983407341931e-02,7.374226918985823942e-02,-1.096282154321670532e-01,2.911565153654677163e-01,-2.563214937527126813e-01,1.241609924955742461e-01,2.799120664596557728e-01,-2.101593403697781803e-01,-1.713491699001044588e-01,1.799120664596557673e-01,-1.689684391021728516e-01,-1.811825037002563477e-01,5.233916494541677178e-01,-5.661308765411376953e-02,1.566795110702514648e-01,6.809158334539364432e+01,1.119004964828491239e-01
4.483909999999999840e-01,1.466838237754901353e-02,1.553718422218396643e-02,9.512383341789245605e-01,-8.085310543227836044e-03,-1.554138658793746686e-02,7.098686390123501964e-03,3.861168119639177970e-02,8.112001266290207180e-02,-1.163316071033477783e-01,3.030963702373331015e-01,-3.669685522091950536e-02,1.050924528583213335e-01,2.214813232421875000e-01,-1.520927918311782978e-01,-1.426690667499259935e-01,1.214813232421874944e-01,-8.628165721893310547e-02,-1.625677585601806585e-01,5.287362605411566330e-01,1.835271120071411133e-01,-1.007333993911743164e-01,9.503403633788515492e+01,1.119004964828491239e-01
4.733020000000000005e-01,1.533498193899397212e-02,1.739826763680358754e-02,9.469190835952758789e-01,-8.019637696461318120e-04,-1.476384926865326186e-02,1.031094175946530717e-02,4.368465877617226656e-02,8.238304019139731926e-02,-1.243180558085441589e-01,2.612656746690588672e-01,1.097535196640458954e-01,1.575385505075825587e-01,-7.297001492161923897e-02,-8.344743142841375139e-02,1.284165035836358770e-01,-1.421261787414550837e-01,-2.710450887680053780e-02,9.943610429763793945e-02,5.268955068673147890e-01,2.548229694366455078e-02,-1.771098375320434570e-01,9.439581663164999270e+01,1.729017972946166881e-01
4.975490000000000190e-01,1.595688062287036260e-02,1.877830898451383901e-02,9.438949227333068848e-01,4.256431158030911897e-03,-1.254270673780477630e-02,1.207387318808961392e-02,6.484112922879405050e-02,9.096532959346094460e-02,-1.307582259178161621e-01,2.754803173934232130e-01,1.282412185882533806e-01,1.172024795112329293e-01,-9.294137910004812708e-02,-3.611998742217227554e-02,1.546147731974936157e-01,-1.364932894706726019e-01,-1.060574054718017509e-02,1.207241177558898843e-01,5.271819260608578972e-01,-6.190299987792968750e-03,2.524923086166381836e-01,8.401058230053730824e+01,1.729017972946166881e-01
5.240810000000000191e-01,1.755608674790613832e-02,2.114773382249845318e-02,9.394055604934692383e-01,1.109091763567754581e-02,-7.843468027364242090e-03,1.341595941685062854e-02,6.950526694572992104e-02,9.500787582411210352e-02,-1.387368440628051758e-01,1.943690617287127109e-01,1.932366302762761612e-01,-6.045300779075808185e-03,-1.818825083054606828e-01,1.042438872698931984e-01,2.258619373700390398e-01,-1.844868957996368408e-01,9.727199077606200894e-02,1.883302152156829667e-01,5.289121836246428732e-01,2.889895439147949219e-02,2.680445909500122070e-01,8.215491552569322664e+01,1.729017972946166881e-01
5.486590000000000078e-01,1.969160890254103083e-02,2.394058087240293412e-02,9.344410300254821777e-01,1.435852800518599461e-02,-3.748560582171878153e-03,1.302401189075478964e-02,5.924702136764751353e-02,1.031986859836579867e-01,-1.477651149034500122e-01,9.344962794699682163e-02,1.671656799572207031e-01,-1.880871316001621676e-02,-2.039816617116840536e-01,1.753942219591634322e-01,2.395650560977905241e-01,-1.930556058883667048e-01,1.488658547401428278e-01,2.032503426074981634e-01,5.287204977952175700e-01,-4.761737585067749023e-02,2.955058813095092773e-01,1.403272883470441457e+02,1.729017972946166881e-01
5.748780000000000001e-01,2.181660034949692642e-02,2.689906676340408573e-02,9.294099807739257812e-01,1.422138723713699086e-02,-1.748992526077408627e-03,1.156000530920945311e-02,7.157089823430304310e-02,1.117801383937310905e-01,-1.511421650648117065e-01,-4.239398050502186932e-02,1.741899515891093611e-02,-2.779635843354304886e-02,-3.644663934265036237e-02,1.416063802989272480e-01,-2.190087239036781624e-02,-3.384536504745483398e-02,8.983472585678099753e-02,-5.395774841308593334e-02,5.311235356144377029e-01,3.904879093170166016e-02,-4.847300052642822266e-02,7.892922208637129700e+01,1.729017972946166881e-01
5.990269999999999762e-01,2.401718476839356797e-02,2.998311152607220989e-02,9.242555499076843262e-01,1.149350845577806410e-02,-2.452732386764022721e-03,9.068694628680293995e-03,7.964587413349986933e-02,1.180632037619669811e-01,-1.581843495368957520e-01,-1.580094784689623222e-01,-1.056501900075555861e-01,-8.780547280173736646e-02,-2.432875424878858800e-02,-8.730907096399054268e-02,-8.941909363412400835e-02,-4.516795277595520020e-02,-1.401786804199218750e-01,-1.145141959190368597e-01,5.306394150482038885e-01,-4.777622222900390625e-02,-2.637723684310913086e-01,9.345275192237882322e+01,1.729017972946166881e-01
6.249369999999999647e-01,2.540820514017088153e-02,3.221974688024199784e-02,9.207655191421508789e-01,8.990012691142907145e-03,-4.285991723950832721e-03,7.812450363091644721e-03,7.062661764043777490e-02,1.160776772743888768e-01,-1.525973379611968994e-01,-1.617281790692638443e-01,-1.492255456793450952e-01,-4.458331360148212741e-02,1.955102072736823737e-03,-1.004318423166950941e-01,-1.776026016850012490e-01,-3.468064069747924666e-02,-1.343934416770934948e-01,-1.993056535720825195e-01,5.249838904753262314e-01,-3.595253229141235352e-01,1.706707477569580078e-02,1.039328849018196621e+02,1.729017972946166881e-01
6.479340000000000099e-01,2.759587263460066761e-02,3.571923476060243074e-02,9.157360196113586426e-01,6.160013131424674736e-03,-7.990849334584382291e-03,7.513551949685119864e-03,8.173867447594262980e-02,1.271730526402123918e-01,-1.463668346405029297e-01,-6.212692001488307608e-02,-1.465925756360773602e-01,-1.380732323216155900e-04,1.631164264426432642e-01,-1.362770713718804982e-01,-1.908494605031576530e-01,9.686822891235351285e-02,-1.575235605239868053e-01,-2.117850780487060547e-01,5.202133033671086926e-01,-6.255167722702026367e-01,-2.953883409500122070e-01,1.234445360396333484e+02,1.729017972946166881e-01
6.779479999999999951e-01,2.985097560380626722e-02,3.929752686400362488e-02,9.109346866607666016e-01,4.012741639640207345e-03,-9.812044751086101968e-03,8.528738593881630622e-03,8.168958894614090915e-02,1.367384955544764524e-01,-1.422574371099472046e-01,-4.439991226337592495e-02,6.349614515513156421e-03,5.527042809671431356e-02,2.930419979795866325e-01,2.023129329156553580e-01,-1.918995100712723723e-01,2.045634269714355358e-01,1.927016973495483398e-01,-2.157360792160034069e-01,5.257727071701193688e-01,-3.389760255813598633e-01,6.647785902023315430e-01,3.726904331939046955e+01,1.729017972946166881e-01
7.006999999999999895e-01,3.147214957033014904e-02,4.180783747445407372e-02,9.077342748641967773e-01,3.313215838447867989e-03,-9.870925962531362785e-03,9.803337028254444432e-03,8.122573819784943694e-02,1.357708923495682118e-01,-1.396058797836303711e-01,-4.449368839561285149e-02,9.084738280508118657e-03,8.363336051097491897e-02,2.927538126334184865e-01,1.968592708596381413e-01,-1.827626183240337043e-01,1.998849749565124456e-01,1.865759789943695068e-01,-2.101665258407592607e-01,5.258409117361507734e-01,-3.490568399429321289e-01,2.448035478591918945e-01,4.511116599607562705e+01,1.729017972946166881e-01
7.258809999999999985e-01,3.315181040902660109e-02,4.435402187843326405e-02,9.045681953430175781e-01,3.423991794089510654e-03,-9.111308008847185391e-03,1.146102633688719438e-02,9.441237481273996590e-02,1.344100295317427474e-01,-1.354900598526000977e-01,2.453294904718903921e-03,4.995785748161146039e-02,9.979308160614654144e-02,2.569633206179501861e-01,2.148323567385793109e-01,1.091713566820413234e-01,1.638614058494567705e-01,1.879691720008850042e-01,7.720259428024291160e-02,5.331208742104452947e-01,4.097843170166015625e-02,6.874636411666870117e-01,-1.526548133271496077e+00,1.729017972946166881e-01
7.536389999999999478e-01,3.586502119699271074e-02,4.776532505636682524e-02,9.002682566642761230e-01,6.660258672474965967e-03,-8.595489487474905488e-03,1.427154956363744197e-02,8.776370055278556737e-02,1.322081121754120348e-01,-1.250937432050704956e-01,2.022229014771822209e-01,-1.907144962422000975e-02,1.186586416462177274e-01,1.802378280198689287e-01,4.835553080881700716e-02,-5.137336762705010940e-02,1.071075797080993652e-01,2.259414196014404227e-02,-9.119882583618163507e-02,5.380001863486468805e-01,3.232746124267578125e-01,-1.639307737350463867e-01,9.895000918529608214e+01,1.729017972946166881e-01
7.749169999999999670e-01,3.771831840461854074e-02,5.003189825339587893e-02,8.973934054374694824e-01,1.077239079901756540e-02,-1.003377487375689547e-02,1.615460980244241840e-02,8.711790494870300106e-02,1.389932524579578499e-01,-1.260452568531036377e-01,2.624874075780199711e-01,-9.307039382370892178e-02,9.669222544906515282e-02,2.150816487847158620e-01,-6.227340196624635282e-02,-6.556602974150524399e-02,1.616116762161254883e-01,-8.089721202850341797e-02,-1.106823921203613226e-01,5.348611362168438355e-01,1.227668523788452148e-01,6.188857555389404297e-02,5.967667417472204505e+01,1.729017972946166881e-01
8.003449999999999731e-01,4.042511461241598408e-02,5.323462152221150601e-02,8.934527039527893066e-01,1.837315418701531214e-02,-1.446497314618233609e-02,1.761144164886129307e-02,8.862577015118609791e-02,1.272242706482573371e-01,-1.093429028987884521e-01,3.113341264087177152e-01,-2.027956733796327238e-01,5.925064948571704543e-03,1.802544148886907338e-01,-1.629207019420627067e-01,2.133613234790036201e-02,1.835802555084228571e-01,-1.564473867416381891e-01,-2.803001403808593611e-02,5.322985862269918877e-01,2.159988880157470703e-02,3.492549657821655273e-01,9.918336259828956258e+01,1.729017972946166881e-01
8.259060000000000290e-01,4.316494945608580214e-02,5.642783231185140302e-02,8.896564841270446777e-01,2.606846672656601069e-02,-2.018852526905789979e-02,1.834208150569047527e-02,8.929653783194095584e-02,1.282981147815345779e-01,-1.091584637761116028e-01,2.677490685173671281e-01,-2.019472149259888827e-01,7.592113267028825774e-02,1.099304752513980410e-01,-2.178067082866775306e-01,9.815385981599419885e-02,1.587162494659423717e-01,-1.767427682876586970e-01,4.639572501182556014e-02,5.324360866519758373e-01,3.564357757568359375e-03,-1.225577592849731445e-01,9.731341389789098173e+01,1.729017972946166881e-01
8.481250000000000178e-01,4.613483455033496466e-02,6.009549188049018859e-02,8.858746290206909180e-01,3.324602472527609515e-02,-2.361642335438185469e-02,1.913244865915549389e-02,9.710777274517952418e-02,1.335749044641378336e-01,-1.147110462188720703e-01,2.215423434559892213e-01,-8.731623254438304615e-02,3.619129024923592713e-03,1.586655219083978052e-02,-2.009709674339603402e-01,1.845810601310428622e-01,1.052442312240600558e-01,-1.458549141883850042e-01,1.303769052028656006e-01,5.368969724652629116e-01,2.004872560501098633e-01,-3.215504884719848633e-01,9.703500855713208750e+01,1.729017972946166881e-01
8.749949999999999672e-01,5.014782637634115914e-02,6.477195515979726481e-02,8.811116218566894531e-01,4.172584701126126616e-02,-2.255743282939426386e-02,1.917967505122136762e-02,1.062849497950796862e-01,1.275522112441910272e-01,-1.079559996724128723e-01,2.356679821310675160e-01,1.187730540982379485e-01,-2.600131051301449864e-02,-2.604144632816314808e-01,-3.490558424973908003e-03,2.463210671124891338e-01,-1.604144632816314753e-01,3.579617142677306990e-02,1.920951783657073864e-01,5.273193431182926494e-01,-3.292964696884155273e-01,1.751962900161743164e-01,8.142779407722117924e+01,1.729017972946166881e-01
8.987990000000000146e-01,5.335297633766027808e-02,6.822885644485646162e-02,8.775170445442199707e-01,4.656693075586375991e-02,-1.832525575738008783e-02,1.819271582397422385e-02,1.126101504437452550e-01,1.214619786431783005e-01,-1.182160750031471252e-01,1.569723615169928976e-01,1.779784016935034296e-01,-2.028612284170018543e-02,-2.830142199993133656e-01,1.851425649423121128e-02,2.485609003812029039e-01,-1.830142199993133600e-01,2.477535009384155065e-02,1.975260794162750078e-01,5.319618741019408459e-01,-1.422004699707031250e-01,3.182877302169799805e-01,9.337368565254675445e+01,1.729017972946166881e-01
9.266959999999999642e-01,5.675025312391925036e-02,7.195166527418533908e-02,8.739366531372070312e-01,4.935170841445796902e-02,-1.310808323944434584e-02,1.591779013833953885e-02,1.184809364660891901e-01,1.181614664870231923e-01,-1.155956313014030457e-01,5.355414870417397194e-02,1.481551688444726067e-01,-9.434370057141001908e-02,-3.139985978603362926e-01,1.379816326448669028e-01,2.533646771508364370e-01,-2.139985978603362871e-01,1.045922756195068332e-01,2.092818975448608454e-01,5.298321943239406862e-01,-2.752053737640380859e-01,-4.499908685684204102e-01,1.877507260941683853e+02,1.729017972946166881e-01
9.487919999999999687e-01,5.910812660397984919e-02,7.488640946006037968e-02,8.715497851371765137e-01,4.915604155498110028e-02,-1.018580452573747408e-02,1.384626246456202234e-02,1.161867796492076360e-01,1.202879857881270359e-01,-1.218191161751747131e-01,-5.172563279794639007e-02,1.579736074545284030e-01,-1.272364520378205799e-01,-3.092279851436615101e-01,2.174244834504868995e-01,2.405184801791091231e-01,-2.092279851436615046e-01,1.662000596523284801e-01,2.025046885013580267e-01,5.323173582538226478e-01,-1.856536865234375000e-01,7.170283794403076172e-02,1.853724405647916171e+02,1.729017972946166881e-01
9.734220000000000095e-01,6.250120924926814980e-02,7.926576175813813963e-02,8.679040670394897461e-01,4.524692018909570734e-02,-7.722982396348276879e-03,1.069243215670472556e-02,1.101480108794458540e-01,1.251921349901826686e-01,-1.237097829580307007e-01,-1.794052304946048559e-01,6.108310750562223612e-02,-1.366271841343356663e-01,-2.894474983215332142e-01,-2.987614156910751995e-02,1.501218445612697017e-01,-1.894474983215332087e-01,-9.469145536422729492e-02,1.211016654968261608e-01,5.376346222224218652e-01,7.265341281890869141e-02,-4.051629304885864258e-01,1.385327244445149972e+02,1.729017972946166881e-01
9.983750000000000124e-01,6.607858020177001523e-02,8.380385195889229755e-02,8.640121221542358398e-01,3.862598412421936606e-02,-8.881813442264352432e-03,7.135721046797303263e-03,1.139990410730488402e-01,1.271420355587184747e-01,-1.232787668704986572e-01,-2.438593289677615794e-01,-9.850209744285171043e-02,-1.306003732325249911e-01,-2.613212823867797630e-01,-1.027123173358013841e-01,1.127485699079326525e-01,-1.613212823867797852e-01,-1.655897140502929632e-01,9.358094930648803988e-02,5.362759163886163805e-01,-2.971726655960083008e-02,7.226693630218505859e-02,1.150188420002623104e+02,1.729017972946166881e-01
1.024669999999999970e+00,6.940783631428276701e-02,8.810833741302952216e-02,8.603612184524536133e-01,3.056780045310658264e-02,-1.233655883935513842e-02,3.874988513744557529e-03,1.188548466117858859e-01,1.263961451747948606e-01,-1.181490942835807800e-01,-3.175986593894990495e-01,-1.545444625592473642e-01,-1.064550484763559512e-01,-1.328006988212865336e-01,-9.148225422512754057e-02,-1.132592992768176737e-01,-7.685295939445495328e-02,-1.369752645492553766e-01,-1.235955119132995522e-01,5.352944349296447912e-01,-9.142410755157470703e-02,1.576687097549438477e-01,1.147038746568763372e+02,1.729017972946166881e-01
1.051290000000000058e+00,7.270115298492899059e-02,9.317898695798329523e-02,8.569289445877075195e-01,2.258467639781945244e-02,-1.493051609134177227e-02,1.019364606114773857e-03,1.216259629508408963e-01,1.192946029262442753e-01,-1.118614822626113892e-01,-2.984728450175839765e-01,-8.502512361579471489e-02,-8.986190255023716877e-02,3.066086045708899671e-02,-1.017947665976492305e-01,-1.570400388418161930e-01,3.596706390380859097e-02,-1.339476227760314775e-01,-1.595871806144714411e-01,5.371489438476200196e-01,9.449720382690429688e-03,-1.525751352310180664e-01,9.639570968100807136e+01,1.729017972946166881e-01
1.077058000000000071e+00,7.499875686745233194e-02,9.662568611246337424e-02,8.546645045280456543e-01,1.771479279488276382e-02,-1.511142271874632570e-02,-9.170964398394531106e-05,1.251882930583274878e-01,1.341127975724859533e-01,-1.147914975881576538e-01,-2.583640707973183792e-01,-1.277935720246933717e-03,-7.332249869673511389e-02,1.982364194794537238e-01,-4.142583533640945698e-02,-1.968165548672688447e-01,1.571818828582763616e-01,-7.630641460418700894e-02,-1.962460756301879772e-01,5.366901688841639873e-01,-5.068176984786987305e-02,9.873436689376831055e-01,-3.303209683099219696e+00,1.974687337875366266e-01
1.102495000000000003e+00,7.843557297595264710e-02,1.016719132839296463e-01,8.516083955764770508e-01,1.162417319730074672e-02,-1.403270199461337242e-02,-3.880137874862932561e-05,1.214644387332281250e-01,1.323305137473099746e-01,-9.391370415687561035e-02,-1.560478925278276641e-01,1.040344244859703060e-01,3.131356445708064623e-02,2.859651763266514157e-01,2.354451737143035406e-01,-1.859625598498475252e-01,2.044928669929504395e-01,1.937447369098663219e-01,-1.855324745178222601e-01,5.304056655591369296e-01,-3.383095264434814453e-01,-6.690633296966552734e-02,2.720100980352233933e+01,1.974687337875366266e-01
1.126859000000000055e+00,8.187442925551546846e-02,1.066505279686041363e-01,8.488906621932983398e-01,8.811991270684068830e-03,-1.241810700050094418e-02,9.539068905698116054e-04,1.225674421546231740e-01,1.257103652292128615e-01,-8.388384431600570679e-02,-4.424432282759540452e-02,-9.370121263346681620e-03,6.163333212995440041e-02,3.086806063441988601e-01,2.488782950396122573e-01,-2.164798409791170719e-01,2.099582791328430120e-01,1.924002170562744141e-01,-2.187515258789062556e-01,5.281028482006997482e-01,-4.473032951354980469e-01,1.029434800148010254e+00,1.399741129254411192e+02,2.058869600296020508e-01
1.153051999999999966e+00,8.443013494989516643e-02,1.097135638436924354e-01,8.472815155982971191e-01,9.082154683496651906e-03,-1.150077179556130424e-02,2.087671710643361576e-03,1.320938172962022594e-01,1.328832484537952330e-01,-7.081978768110275269e-02,5.205600007502310389e-02,1.994041442013423301e-02,4.644336600403944221e-02,2.234875440597534069e-01,2.446266848875919553e-01,6.523177405490712677e-02,1.234875440597534152e-01,1.725392282009124700e-01,5.992176532745360773e-02,5.394014830744595645e-01,2.075674533843994141e-01,-4.005564451217651367e-01,1.146228822736983233e+02,2.058869600296020508e-01
1.174695999999999962e+00,8.690703501222495075e-02,1.127631099637765866e-01,8.458415865898132324e-01,1.092181708260400730e-02,-1.184667561807506431e-02,3.650532482149975496e-03,1.138057371341281848e-01,1.295403297531000364e-01,-6.762471050024032593e-02,1.629354350791075712e-01,-3.128114395639190748e-02,9.204041142519181484e-02,2.645036468420775555e-01,2.186727214505906347e-01,-1.206654163456591378e-01,1.715726137161254772e-01,1.615753948688506969e-01,-1.304426193237304688e-01,5.402757067524961432e-01,2.528510093688964844e-01,-3.000005483627319336e-01,9.960501066632195943e+01,2.058869600296020508e-01
1.199176999999999937e+00,9.050021692145601704e-02,1.171066950706634302e-01,8.441835045814514160e-01,1.687643756551615234e-02,-1.543542605145487023e-02,5.900167005174249482e-03,1.216891712524850455e-01,1.314143144180925926e-01,-5.627646669745445251e-02,2.422672611649418772e-01,-1.678798035651021536e-01,6.791798524386677416e-02,2.580999175902604637e-01,6.474417808238333572e-02,-1.354715857802591683e-01,1.987521171569824052e-01,1.911047101020812988e-02,-1.515710592269897405e-01,5.374485674699547300e-01,1.226012706756591797e-01,-6.276909112930297852e-01,1.195485961370580839e+02,2.058869600296020508e-01
1.225691000000000086e+00,9.535565313428333301e-02,1.228434148485870736e-01,8.422951102256774902e-01,2.632161048604400241e-02,-2.376711774388140519e-02,6.739358365126636372e-03,1.255160247493032066e-01,1.295925889666756647e-01,-4.386345297098159790e-02,2.683589710270282702e-01,-2.514993429867526942e-01,4.734425252358184788e-02,2.015067870675164019e-01,-1.313722288953404482e-01,-7.974922497709041602e-02,2.009212017059326116e-01,-1.287307977676391546e-01,-9.865093231201171875e-02,5.338044306976119646e-01,-4.765492677688598633e-02,-2.705729007720947266e-02,1.125738186925053270e+02,2.058869600296020508e-01
1.250837999999999894e+00,9.878157872768923708e-02,1.272322779166190354e-01,8.412159085273742676e-01,3.344274147531890035e-02,-3.049181294898528627e-02,7.779953639444695153e-03,1.227516998864573994e-01,1.324758964943515416e-01,-3.515853732824325562e-02,2.580264628208260302e-01,-2.004318227779336437e-01,4.013219434570867300e-02,1.301106334240689777e-01,-2.338312010230017557e-01,1.635382290927107352e-01,1.699826359748840277e-01,-1.880941629409789984e-01,1.411527514457702470e-01,5.323846714864730600e-01,-1.058032512664794922e-01,-1.129208803176879883e-01,1.036011494440213170e+02,2.058869600296020508e-01
1.275371999999999950e+00,1.022085792157255563e-01,1.316738222330583463e-01,8.401242494583129883e-01,4.003895354934791651e-02,-3.471511242366576155e-02,9.024788332473325514e-03,1.165306843982428647e-01,1.276113845668609137e-01,-3.025962971150875092e-02,2.279996792888628332e-01,-7.299867513963723131e-02,6.739070671262852030e-02,-1.675044829223093501e-01,-2.458162219753517452e-01,2.048029522088173071e-01,-8.397817611694335938e-02,-1.714272737503051702e-01,1.784517288208007646e-01,5.268454880639473759e-01,-4.032371044158935547e-01,-4.149401187896728516e-02,1.117182691970695316e+02,2.058869600296020508e-01
1.298583999999999961e+00,1.046241670945358831e-01,1.346132988380224216e-01,8.394090533256530762e-01,4.404119089005418403e-02,-3.549284920223128026e-02,8.866929744699608359e-03,1.383903131956232546e-01,1.273437482050488734e-01,-4.025628045201301575e-02,1.967698042122987823e-01,-2.256724308079762972e-02,-2.664151046358488942e-02,-1.513950765132903997e-01,-2.094786418099897352e-01,2.004489177508341768e-01,-5.139507651329040111e-02,-1.492047071456909235e-01,1.746883571147918590e-01,5.294517514127182745e-01,-3.148798942565917969e-01,3.706597089767456055e-01,4.534506923929729538e+01,2.058869600296020508e-01
1.323275999999999897e+00,1.083728315937265985e-01,1.387897006801144806e-01,8.382118344306945801e-01,4.868781523065435907e-02,-3.250623311088074452e-02,7.007527481666157854e-03,1.354826681989229897e-01,1.217994516827572704e-01,-3.601912781596183777e-02,1.254757706765578240e-01,1.945759552012818749e-01,-7.705658920376690091e-02,-2.746608734130859264e-01,1.491325494557482756e-02,2.184604381798461170e-01,-1.746608734130859208e-01,5.828336477279662947e-02,1.981242299079895020e-01,5.325350696605575251e-01,-1.434665918350219727e-01,-2.686142921447753906e-03,1.211962016894052425e+02,2.058869600296020508e-01
1.349131999999999998e+00,1.124004793693390847e-01,1.431101212789499533e-01,8.369917869567871094e-01,4.997072775763503755e-02,-2.694711591422405128e-02,4.441433855088171116e-03,1.286047345380470219e-01,1.255433053090848072e-01,-4.050912708044052124e-02,-1.201502146209245010e-02,2.431609481149955287e-01,-8.584194333063555060e-02,-3.076643109321594016e-01,1.113036427204692341e-01,2.196654560467838357e-01,-2.076643109321594238e-01,1.209611892700195312e-01,2.070633172988891602e-01,5.278054478301521524e-01,-4.356541037559509277e-01,-4.490829706192016602e-01,1.242887337606685918e+02,2.058869600296020508e-01
1.374103999999999992e+00,1.167502596831030276e-01,1.477497289451570051e-01,8.352597951889038086e-01,4.781785335971026202e-02,-2.060455808575456516e-02,1.407446865157869521e-03,1.403368340385214297e-01,1.228505265640260358e-01,-4.570217058062553406e-02,-1.371987731699613189e-01,1.666662484552617618e-01,-1.226263041566866968e-01,-2.756464242935180442e-01,2.150884293426612304e-01,1.682369648757721659e-01,-1.756464242935180664e-01,1.713922441005706621e-01,1.650166690349578746e-01,5.309972458026672726e-01,-2.999930381774902344e-01,2.620643377304077148e-01,1.103481469099433099e+02,2.125331640243530162e-01
1.400903000000000009e+00,1.194949030898104780e-01,1.507009098452352647e-01,8.341936469078063965e-01,4.465331924275298819e-02,-1.765789941845752331e-02,-8.629543170018193037e-04,1.307658817406423812e-01,1.221878290046713583e-01,-4.617177322506904602e-02,-1.920427628288338406e-01,9.817135405228705203e-02,-1.285676116420668424e-01,-2.093651056289672907e-01,1.414452319143928438e-01,2.529667391282050884e-02,-1.093651056289672852e-01,8.558971881866454801e-02,2.860214710235595495e-02,5.366948038622775252e-01,-2.637982368469238281e-03,-5.326402187347412109e-02,7.637418492165292605e+01,2.125331640243530162e-01
1.426018000000000008e+00,1.233896474671368759e-01,1.550017025492928247e-01,8.326028585433959961e-01,3.770582125761689357e-02,-1.662748621639864588e-02,-3.970297499279066243e-03,1.284593693590371788e-01,1.276681733118841255e-01,-5.296719819307327271e-02,-2.610006042671422222e-01,-9.855783945286427164e-03,-1.132557719411090152e-01,2.195516072541767172e-02,-4.794271386355368481e-02,-1.270604616316413638e-01,6.954052448272704523e-02,-1.121383666992187417e-01,-1.150001764297485241e-01,5.376181936468746869e-01,3.471970558166503906e-03,2.535444498062133789e-01,5.581893210508007286e+01,2.125331640243530162e-01
1.447473999999999927e+00,1.270762151297797904e-01,1.592095752197318637e-01,8.310541510581970215e-01,2.995475264392740908e-02,-1.961668651570946942e-02,-6.526271792701925957e-03,1.143174201328319567e-01,1.297211951972781496e-01,-4.575576633214950562e-02,-2.853293615022005070e-01,-1.498152376555836884e-01,-8.440800926361330392e-02,1.571658033083319361e-01,-6.539423814443459659e-03,-2.196394243678290725e-01,1.496615052223205511e-01,-4.361972808837890486e-02,-2.008752822875976562e-01,5.328851778393813854e-01,-2.458697557449340820e-01,2.777456045150756836e-01,8.200998574169472022e+01,2.125331640243530162e-01
1.475295000000000023e+00,1.306728538518628913e-01,1.632791767999006716e-01,8.295258283615112305e-01,2.257684988126607700e-02,-2.435276593161606051e-02,-7.326027522044867117e-03,1.133141250635607000e-01,1.233700188505642142e-01,-3.423289582133293152e-02,-2.458115988756209846e-01,-1.579854738174117923e-01,1.641738589781195244e-03,2.551201504471052317e-01,-1.036307149011564746e-02,-2.380358189843803651e-01,2.008752107620239147e-01,-2.094215154647827148e-02,-2.173994064331054576e-01,5.285104160089513226e-01,-4.565809965133666992e-01,-7.706034183502197266e-02,9.293966128173829588e+01,2.125331640243530162e-01
1.497312999999999894e+00,1.330760033945369014e-01,1.660004333141900656e-01,8.285957574844360352e-01,1.881707927680554074e-02,-2.714860379913797139e-02,-6.850940042336064149e-03,1.206196653665366353e-01,1.262970619677118989e-01,-3.834256157279014587e-02,-2.115437162974475038e-01,-1.545663323909031994e-01,4.334691311385543977e-02,2.946281792993320492e-01,-1.197078243980237433e-02,-2.411938350592770508e-01,2.106749296188354381e-01,-1.205273866653442348e-02,-2.220095872879028209e-01,5.271188646698565794e-01,-5.640218257904052734e-01,9.083068370819091797e-02,1.002282039563830978e+02,2.125331640243530162e-01
1.523638999999999966e+00,1.365611116201938535e-01,1.698461184745319041e-01,8.273971676826477051e-01,1.715793576798630218e-02,-3.008764340351355315e-02,-5.165162669853337780e-03,1.117740038186966073e-01,1.178551953025647608e-01,-1.781371980905532837e-02,4.966055617706259008e-03,-8.195779794142395158e-02,7.361317322505597782e-02,2.866345741125699287e-01,-4.082921265517028969e-02,-2.357056613152370972e-01,1.950031757354736273e-01,-1.799833774566650391e-02,-2.214808702468872015e-01,5.247211210553440752e-01,-6.270405650138854980e-01,2.941890954971313477e-01,4.298484956027520099e+01,2.125331640243530162e-01
1.549709999999999921e+00,1.399209008853454783e-01,1.734551782013008803e-01,8.264730572700500488e-01,1.986599670522436190e-02,-3.204872813496484341e-02,-2.628893496712144274e-03,1.073226324401873183e-01,1.118119869685580831e-01,2.293369499966502190e-03,1.779287030781820100e-01,-4.352168400610730709e-02,1.202228870105050557e-01,2.790733929562372873e-01,1.027767617117051335e-01,-8.704806978179767396e-02,2.050944328308105524e-01,1.366220355033874456e-01,-8.005954027175903043e-02,5.330760557638650754e-01,-1.031914949417114258e-01,8.004820346832275391e-02,9.829494623256766772e+01,2.125331640243530162e-01
1.574009999999999909e+00,1.433336272655695576e-01,1.768698551783382256e-01,8.257223367691040039e-01,2.583049990997681594e-02,-3.293275981914933759e-02,8.632223477864700838e-05,1.213085941359078046e-01,1.111560309707132349e-01,-3.208333218935877085e-04,2.487743984326464819e-01,-6.140611945548295203e-02,1.181803851613670714e-01,2.415146291669693634e-01,1.057387410848748960e-01,-3.883141192781823514e-02,2.037570476531982422e-01,1.310060977935791071e-01,-3.938598632812499722e-02,5.332767208241213641e-01,-1.155963540077209473e-01,1.085857152938842773e-01,9.417313197414006254e+01,2.125331640243530162e-01
1.599690000000000056e+00,1.465837563025565726e-01,1.799778479751047988e-01,8.250404000282287598e-01,3.352540832659647863e-02,-3.246992520344305078e-02,2.278722268034612686e-03,1.154464296403196200e-01,1.109621185815875544e-01,8.935829624533653259e-03,3.116078382861676155e-01,1.936037751175694391e-02,5.442197074465800199e-02,1.753573189018809431e-01,1.236295306702496766e-01,1.091299528028487759e-01,1.850212097167968639e-01,1.487342476844787653e-01,1.023941516876220731e-01,5.359993999974407286e-01,6.008541584014892578e-02,-2.839672565460205078e-02,9.737971454416430106e+01,2.125331640243530162e-01
1.624033000000000060e+00,1.487188206524695799e-01,1.820209417575134603e-01,8.246097564697265625e-01,3.887751737805398428e-02,-3.279341133327262625e-02,3.244358550274687933e-03,9.880121808306152609e-02,1.018576837822209452e-01,1.204974390566349030e-02,3.043289592347413475e-01,-1.949440168504256235e-02,6.272295461539845185e-02,1.251313626073026763e-01,6.806250510867359327e-02,1.272873955565861637e-01,1.744015574455261286e-01,1.046900510787963784e-01,1.176478207111358587e-01,5.356453824579652245e-01,4.417836666107177734e-02,1.788331270217895508e-01,1.074389507763814464e+02,2.125331640243530162e-01
1.649264999999999981e+00,1.517825181873800611e-01,1.848663880111362512e-01,8.239848613739013672e-01,4.643432851690153934e-02,-3.422236175455362073e-02,3.435578992174714678e-03,1.087938863824375740e-01,9.629464075282284652e-02,6.056086160242557526e-03,2.515427117388521761e-01,-9.963218139281405927e-02,6.499312012450884218e-03,-2.480661953371807726e-01,-2.068058496418515024e-01,2.112809632903655255e-01,-1.488806605339050293e-01,-1.731115221977233831e-01,2.010963320732116755e-01,5.240325865900017366e-01,-6.271000504493713379e-01,-1.632014513015747070e-01,9.286564935189203140e+01,2.125331640243530162e-01
1.674021999999999899e+00,1.550116724394810797e-01,1.879250541144654452e-01,8.232375979423522949e-01,5.239823791070574027e-02,-3.664144995636520186e-02,2.379203320696127080e-03,1.124938292280602964e-01,9.455513338914797727e-02,5.889213178306818008e-03,1.859933921674464252e-01,-1.066608687002859740e-01,-4.799889896654698646e-02,-3.005745351314544900e-01,-2.417363185655900248e-01,2.262954005088574638e-01,-2.005745351314544567e-01,-1.961808085441589244e-01,2.188086748123168890e-01,5.228212835721812723e-01,-7.054803371429443359e-01,8.031129837036132812e-04,8.706192833110547724e+01,2.125331640243530162e-01
1.700404000000000027e+00,1.581637735981971382e-01,1.908529745642421338e-01,8.223233222961425781e-01,5.580527248947108471e-02,-3.793962065847322762e-02,4.799371724511777913e-04,1.014277979832093335e-01,9.308221781659289928e-02,-5.317184608429670334e-03,6.075610077036745771e-02,3.573456615442700823e-02,-9.963790536488005556e-02,-3.059696018695831077e-01,7.250957916831601846e-02,2.194798568075836120e-01,-2.059696018695831299e-01,1.336180329322814997e-01,2.169828236103057695e-01,5.278003568996403327e-01,-4.913623332977294922e-01,-2.274858951568603516e-02,9.658200992080934100e+01,2.125331640243530162e-01
1.721991999999999967e+00,1.603258076945687227e-01,1.928522565018895019e-01,8.215225338935852051e-01,5.503206558626044104e-02,-3.713003768898404111e-02,-1.148835083507515533e-03,1.140856061947745914e-01,1.016032314969441963e-01,-1.936516538262367249e-02,-7.616944366184658088e-02,1.055413095770867810e-01,-9.246769794536606468e-02,-2.984983086585998313e-01,-1.090593835171485282e-01,1.600874763947323920e-01,-1.984983086585998535e-01,-6.526858806610107144e-02,1.624740600585937444e-01,5.315791787231046728e-01,-3.549934625625610352e-01,-2.115362882614135742e-01,1.579121841011322545e+02,2.125331640243530162e-01
1.748302000000000023e+00,1.637272070564511905e-01,1.959001687473250208e-01,8.200921416282653809e-01,5.032410218387742273e-02,-3.356065035921962370e-02,-3.785599724659768558e-03,1.085025719533068977e-01,9.688546477428656989e-02,-2.319484017789363861e-02,-2.410239446850158396e-01,1.246720677871472061e-01,-9.509357030072904116e-02,-2.702476382255554199e-01,-1.741654256410447854e-01,9.649473366701249999e-02,-1.702476382255554144e-01,-1.496055364608764593e-01,1.066569685935974121e-01,5.389838014959517087e-01,2.313387393951416016e-02,-1.494050025939941406e-03,6.189279052263521663e+01,2.125331640243530162e-01
1.774507000000000057e+00,1.672241344104232197e-01,1.989112546856122155e-01,8.185164928436279297e-01,4.372251642003915223e-02,-3.051962116368378553e-02,-6.569341904922114048e-03,1.047965293535418618e-01,9.422283452756755051e-02,-2.584870718419551849e-02,-2.687369314562058631e-01,7.129368783763756490e-02,-9.756600689222996725e-02,4.225912727988570539e-03,-1.572787850136322108e-01,-4.403198821785161976e-02,7.391617298126219870e-02,-1.525093317031860352e-01,-2.571358680725097448e-02,5.407166134331293783e-01,9.212625026702880859e-02,-2.167948484420776367e-01,1.649226083029633116e+02,2.125331640243530162e-01
1.799889000000000072e+00,1.706753490348833779e-01,2.017944133308909593e-01,8.168903589248657227e-01,3.590443500692908074e-02,-2.752478058767948710e-02,-8.948418886823510110e-03,1.140747444054718007e-01,9.114234338675537839e-02,-3.103487379848957062e-02,-2.927998405569229856e-01,1.254240982560041739e-01,-1.225815144766515263e-01,1.667710754625133796e-01,4.767714256386569593e-02,-1.626790269854869186e-01,1.848810195922851451e-01,2.350090742111205985e-02,-1.372621536254882701e-01,5.405337175788796911e-01,4.337453842163085938e-02,1.099539995193481445e-01,1.170544159578445260e+02,2.125331640243530162e-01
1.826373000000000024e+00,1.729935986525413805e-01,2.036962634240293557e-01,8.158491253852844238e-01,3.122544168709375650e-02,-2.501230491212425022e-02,-1.002991982350861198e-02,1.000670167719866638e-01,9.257600204799215637e-02,-1.961867697536945343e-02,-2.186350278120966772e-01,1.698975973081505442e-01,-7.887642941255543216e-02,1.999034522364149802e-01,1.954143139543874641e-01,-1.764896817381819971e-01,1.835831165313720759e-01,1.642329633235931341e-01,-1.479667782783508356e-01,5.340130155745864693e-01,-2.862007617950439453e-01,-6.497263908386230469e-03,1.088434152546544880e+02,2.125331640243530162e-01
1.851633000000000084e+00,1.763461912723721936e-01,2.063921047608617276e-01,8.145403265953063965e-01,2.595632933307153237e-02,-2.133627456923825605e-02,-1.022418111548555920e-02,1.060213578457793321e-01,8.819359485797879927e-02,-7.807463873177766800e-03,-1.360980417370900863e-01,1.062360583183113577e-01,4.537268273426395965e-02,2.459942592355109370e-01,2.701930187567557207e-01,-2.063338773833241768e-01,1.959421634674072266e-01,2.055476725101470781e-01,-1.768756270408630427e-01,5.279552587565861099e-01,-5.873163342475891113e-01,-2.656565904617309570e-01,6.376994507260815936e+01,2.125331640243530162e-01
1.874182000000000015e+00,1.795531457799989516e-01,2.088123845938262002e-01,8.137781023979187012e-01,2.557951456085663655e-02,-1.951262227068828459e-02,-9.137502887730264770e-03,9.828840517496081897e-02,7.542002688902589569e-02,1.733761280775070190e-02,2.872260304548463969e-02,-7.355752162267318629e-03,5.528070215739641635e-02,2.292552659947069693e-01,2.815116136838794469e-01,-6.904033426563142839e-02,1.826180219650268555e-01,2.076170325279235729e-01,-4.252667427062988004e-02,5.334491251843304083e-01,-1.974352002143859863e-01,-1.831887960433959961e-01,1.327400546698055166e+02,2.125331640243530162e-01
1.899088000000000109e+00,1.823630620859903739e-01,2.107160651128771878e-01,8.135483860969543457e-01,2.879456554469862414e-02,-2.059626810534043173e-02,-7.143531108443449372e-03,8.394877217991197904e-02,6.782734295220731180e-02,2.629176527261734009e-02,1.781643652591386184e-01,-8.890964124387353007e-02,8.093757875678472824e-02,2.269190073137523911e-01,2.675219329136431790e-01,-1.315351554291714076e-01,2.031946420669555609e-01,2.071825325489044245e-01,-1.107362151145935003e-01,5.273623344691492631e-01,-5.036532878875732422e-01,2.975841760635375977e-01,1.001533587434580852e+02,2.125331640243530162e-01
1.923486999999999947e+00,1.842018606116581636e-01,2.119749955619579240e-01,8.135608434677124023e-01,3.225558958865770015e-02,-2.319284882226990696e-02,-5.768754599672056872e-03,9.377680116254062670e-02,7.258624881709474508e-02,3.159837797284126282e-02,2.047953577692461502e-01,-1.512657429760170813e-01,6.057221397136081792e-02,2.080136209352577148e-01,2.467399543599502754e-01,-9.370367320601698247e-02,2.005447626113891491e-01,1.915780305862426758e-01,-7.677011489868164340e-02,5.273593010056960573e-01,-4.921885132789611816e-01,-1.619255542755126953e-02,1.042407829994146766e+02,2.125331640243530162e-01
1.948441000000000090e+00,1.867874042973552695e-01,2.137007994141382483e-01,8.137298822402954102e-01,3.845565015181625496e-02,-2.895928963362393027e-02,-4.105896637535283618e-03,8.027736073987962184e-02,6.557605517642815796e-02,3.987749293446540833e-02,2.378085546187881927e-01,-2.105658747444877077e-01,7.037310620994532973e-02,1.453719870754670851e-01,-7.034420691189421926e-02,-1.759821740038891233e-03,1.822115063667297252e-01,-7.956465482711791437e-02,9.879505634307861675e-03,5.258035328124851526e-01,-5.497092604637145996e-01,-9.136188030242919922e-02,8.878545143607732371e+01,2.125331640243530162e-01
1.973754000000000008e+00,1.891327561545060876e-01,2.153579078095621269e-01,8.139463663101196289e-01,4.398101843834975599e-02,-3.634966178598331155e-02,-2.486210186489632747e-03,7.528990448749674214e-02,5.418756625048534031e-02,3.694889694452285767e-02,1.833706577274214489e-01,-3.102885730943453768e-01,8.296952540552328392e-02,-2.696529942532819302e-01,-2.141127299268906770e-01,3.871187355082902209e-02,-1.906720697879791260e-01,-1.758315324783325251e-01,4.504880905151367049e-02,5.241778890142527736e-01,-6.557046771049499512e-01,-5.240527391433715820e-01,7.933975743662408320e+01,2.125331640243530162e-01
1.998347000000000095e+00,1.913023357109392419e-01,2.168653380434531208e-01,8.141636252403259277e-01,4.945694614695034935e-02,-4.326749543801189368e-02,-1.437830588380414670e-03,7.639688276672414180e-02,5.282572029668118618e-02,3.297054022550582886e-02,2.208518439695662805e-01,-2.433825060212727320e-01,2.970528566020784987e-03,-2.977188229560852051e-01,-2.859827358739561731e-01,2.133094445802807548e-01,-1.977188229560851995e-01,-2.064112901687621959e-01,2.159374415874481257e-01,5.240697905376761057e-01,-6.845933794975280762e-01,-1.080523729324340820e-01,1.351658646554272423e+02,2.125331640243530162e-01
2.022250999999999799e+00,1.936972155483093483e-01,2.183229137852661372e-01,8.142524957656860352e-01,5.312259779600739251e-02,-4.667775261619033778e-02,-1.109896802097073629e-03,9.161949035848625245e-02,5.621898517797849909e-02,1.382452528923749924e-02,7.392706111255106793e-02,-1.003539200785365931e-02,2.504062181733348810e-02,-2.981525540351867565e-01,-2.773033623609477694e-01,2.087959530153091214e-01,-1.981525540351867509e-01,-1.882997989654540960e-01,2.102591872215270885e-01,5.259779307302886453e-01,-6.663619875907897949e-01,8.546411991119384766e-02,7.010477477306574201e+01,1.466580629348754883e-01
2.050025999999999904e+00,1.952063620530311849e-01,2.191661560509592377e-01,8.140052556991577148e-01,5.276166668850470337e-02,-4.578925789073862163e-02,-1.676837308176801168e-03,8.416276108175564652e-02,4.891790686246560299e-02,1.042346004396677017e-02,-7.382190897123341866e-02,6.600939984801607041e-02,-2.251482190881279322e-02,-2.879845499992370605e-01,-2.561684509030195400e-01,1.590368877324125352e-01,-1.879845499992370550e-01,-1.667046189308166448e-01,1.621001064777374268e-01,5.404364061713953227e-01,1.068387031555175781e-01,-9.309566020965576172e-02,9.457571015400978354e+01,1.466580629348754883e-01
2.072043999999999997e+00,1.978240698374546247e-01,2.205845087653361125e-01,8.133761286735534668e-01,4.927971394044912412e-02,-4.059228823663119101e-02,-3.827400646586482606e-03,9.639751074150992860e-02,5.959430249861929346e-02,-8.745526894927024841e-03,-1.537712752622668877e-01,2.218806191605015299e-01,-1.073309012530721251e-01,-2.943639338016509899e-01,-1.403679053009030397e-01,1.587744404021307620e-01,-1.943639338016509843e-01,-9.574713706970214289e-02,1.686963558197021318e-01,5.357221869285635485e-01,-2.444675564765930176e-01,-5.459007024765014648e-01,1.550507173294904248e+02,1.466580629348754883e-01
2.099171000000000120e+00,2.003282155149267996e-01,2.218629356712837897e-01,8.124364018440246582e-01,4.302181724602235219e-02,-3.305093655743029935e-02,-6.256757590179772184e-03,8.756733367904748211e-02,5.447055423330559448e-02,-8.548937737941741943e-03,-2.530944951240151619e-01,3.435353671158850597e-01,-9.597596140899379569e-02,-2.434696176033455395e-01,1.169523476071662876e-01,1.460121344245416952e-01,-1.782671391963958629e-01,1.190636515617370522e-01,1.634977161884307861e-01,5.330118967814125863e-01,-4.056172370910644531e-01,4.963862895965576172e-02,9.351899792713876991e+01,1.466580629348754883e-01
2.124960000000000182e+00,2.027676102992168605e-01,2.230170530461056122e-01,8.114666342735290527e-01,3.542079773708368268e-02,-2.522539138440560436e-02,-8.395592262732816738e-03,8.068259553546554275e-02,4.433862203699612259e-02,-1.086356025189161301e-02,-2.943662416949920368e-01,2.682680501267949991e-01,-7.354740700836233380e-02,-1.091991806854138158e-01,2.253106784301947552e-01,3.388538087005775468e-02,-8.822500705718994141e-02,1.787791371345519853e-01,5.807105898857116422e-02,5.308051403808486945e-01,-5.490434765815734863e-01,7.353341579437255859e-02,1.014930798585885867e+02,1.466580629348754883e-01
2.150533999999999946e+00,2.050802045795802331e-01,2.241135012617532785e-01,8.103622198104858398e-01,2.763971054170746150e-02,-1.929602586134726572e-02,-1.056626622644792415e-02,8.852345831637244145e-02,4.642165574383079474e-02,-8.433366194367408752e-03,-2.875774403339549368e-01,1.385602359676183504e-01,-8.097048504267179148e-02,2.282910483535133261e-01,2.431319137679606723e-01,-2.346894116615835524e-01,1.938985705375671220e-01,1.494893431663513184e-01,-2.038841485977172796e-01,5.336056181485012706e-01,-4.011849164962768555e-01,8.386075496673583984e-02,9.897943364024048662e+01,1.466580629348754883e-01
2.178315000000000001e+00,2.064787728160837055e-01,2.247308452720838956e-01,8.097670078277587891e-01,2.291012887211346660e-02,-1.775048663996692255e-02,-1.151998431427123278e-02,7.296284360049068440e-02,4.201805285164493531e-02,-3.272845642641186714e-04,-2.435638029474792576e-01,4.159478540430237847e-02,-3.155883760808506772e-02,2.707130868004850033e-01,2.063247225908481086e-01,-2.470686395984224848e-01,2.076036930084228516e-01,1.133866488933563121e-01,-2.137029290199279619e-01,5.325537652442546843e-01,-4.376294016838073730e-01,2.544343471527099609e-02,6.511817660344448200e+01,1.466580629348754883e-01
2.199837000000000042e+00,2.077159937556594116e-01,2.251713855360499006e-01,8.091112375259399414e-01,1.889330375541857510e-02,-1.850122219826455527e-02,-1.203961838468520056e-02,7.299933606664912866e-02,4.481301554402998544e-02,1.540214288979768753e-03,-2.282461206148035937e-01,-9.669703600384937925e-02,-2.937282103328962488e-02,2.928029729988682606e-01,-9.120052435333259044e-04,-2.494779212667118107e-01,1.996996164321899470e-01,-9.261242151260375144e-02,-2.147408723831176758e-01,5.342109375310604147e-01,-3.518474698066711426e-01,2.947437763214111328e-02,1.023003535769707355e+02,1.466580629348754883e-01
2.227494999999999781e+00,2.092445085572706420e-01,2.257491201113643875e-01,8.084146976470947266e-01,1.581918409868895634e-02,-2.292081292673109338e-02,-1.052755650580190251e-02,5.568713895384225232e-02,4.139169360054670288e-02,1.556301582604646683e-02,-2.317704383520585026e-02,-1.980099670684286328e-01,6.975224181053456263e-02,2.238615512847900446e-01,-1.214708415777496914e-01,-2.463764378242728204e-01,1.238615512847900391e-01,-1.741795063018798662e-01,-2.163473367691040039e-01,5.282611662555222187e-01,-6.331959366798400879e-01,1.114763021469116211e-01,9.192539185036973493e+01,1.466580629348754883e-01
2.247649000000000008e+00,2.101798732189421870e-01,2.260825609892819499e-01,8.081850409507751465e-01,1.637273991324193767e-02,-2.749400496276610539e-02,-8.487079570364852374e-03,5.069246896042437639e-02,3.682774960349370630e-02,2.569149062037467957e-02,8.045835300415173086e-02,-2.422360840818620353e-01,1.269292719348659448e-01,2.541292786598205455e-01,-1.188114698961767884e-01,-2.313747994348184234e-01,1.541292786598205400e-01,-1.425534009933471513e-01,-2.073618650436401256e-01,5.293429386145636073e-01,-5.431295037269592285e-01,-7.956421375274658203e-02,-8.585667315016503665e+01,1.466580629348754883e-01
2.273972999999999800e+00,2.114986254393398657e-01,2.264339409793985902e-01,8.080225586891174316e-01,2.018415891022819902e-02,-3.419913316055045449e-02,-5.380101105377701337e-03,6.137888141236100964e-02,3.224610728186115549e-02,3.276308625936508179e-02,1.719174421663184071e-01,-2.340188674590879814e-01,1.235301807637616128e-01,2.379812078463363068e-01,-1.757266078334293602e-01,-2.006163648889536522e-01,1.587465405464172363e-01,-1.669692277908325084e-01,-1.856528878211975153e-01,5.304664876766328474e-01,-4.631183743476867676e-01,1.146565675735473633e-01,9.463586363003008728e+01,1.466580629348754883e-01
2.300921000000000216e+00,2.128682248149513512e-01,2.264717259783659842e-01,8.080050945281982422e-01,2.603647639654585455e-02,-3.674146397943189868e-02,-1.955890024902416126e-03,5.499468260913433632e-02,3.217038560689593207e-02,3.043442592024803162e-02,2.416982213064438889e-01,-7.499223308719764336e-03,1.202889505203945802e-01,1.814220794723548358e-01,-4.696948320340087191e-03,-9.356476765277743635e-02,1.397216320037841797e-01,2.466732859611511092e-02,-8.845853805541992188e-02,5.437766169752239476e-01,2.562557458877563477e-01,-7.773697376251220703e-02,9.020556387773886797e+01,1.466580629348754883e-01
2.327182999999999780e+00,2.144107075498739301e-01,2.264541399680050360e-01,8.079667687416076660e-01,3.261383855295457712e-02,-3.577172910146719786e-02,1.536414540861852970e-03,5.557821949744942702e-02,2.265570931536078220e-02,3.130823001265525818e-02,2.534633298323821227e-01,8.877683920032174159e-02,1.544660014662980752e-01,9.217578419846918225e-02,-2.701312951184753688e-02,-1.623425481253656238e-02,1.003101110458373968e-01,-7.681059837341307900e-03,-2.080253362655639510e-02,5.441948556314271102e-01,2.751901149749755859e-01,-1.502188444137573242e-01,-1.318740310792775183e+01,1.466580629348754883e-01
2.351404000000000050e+00,2.158724550219657812e-01,2.263350479309301777e-01,8.079163432121276855e-01,3.935641730279799966e-02,-3.198408218321313612e-02,4.574230446347581601e-03,6.846075713491589498e-02,2.256358883931926934e-02,3.399877250194549561e-02,2.386542918331404084e-01,1.194691997357749669e-01,1.018087219804164056e-01,2.035524394626814226e-02,2.639674521357366493e-02,1.192561218595174638e-01,7.101527452468871238e-02,9.141826629638671528e-03,1.067125082015991239e-01,5.427822629250442787e-01,1.975361108779907227e-01,1.263617277145385742e-01,9.631294827883502307e+01,1.466580629348754883e-01
2.374245000000000161e+00,2.173019458081739963e-01,2.261146857588501036e-01,8.079750537872314453e-01,4.538649268112166651e-02,-2.814884473839018852e-02,6.844183238604004821e-03,6.340507415261797952e-02,2.480437987497180821e-02,3.277302160859107971e-02,2.225046814680432250e-01,1.561781552893606317e-01,7.650890127758758208e-02,-1.294233092719161426e-01,6.150104818635716841e-02,1.767152132592498537e-01,-4.135975241661071777e-02,2.268632054328918388e-02,1.581969201564788763e-01,5.386839585200157154e-01,-4.280173778533935547e-02,9.473264217376708984e-02,1.679281237642007056e+02,1.466580629348754883e-01
2.399293999999999816e+00,2.191810614794843792e-01,2.256445319363860891e-01,8.081192970275878906e-01,5.006350714338553970e-02,-2.555102641737971858e-02,7.846979882511177437e-03,5.063106985209862160e-02,1.359371653421233977e-02,4.055581614375114441e-02,1.314144945921980057e-01,1.023791776027997841e-01,1.084254675683932190e-02,-2.072019219398498757e-01,1.251354791654817333e-01,2.016743060588747360e-01,-1.072019219398498563e-01,7.579650878906249445e-02,1.805592119693756048e-01,5.336983307708733637e-01,-2.931177616119384766e-01,1.028496026992797852e-01,-6.621140302161838065e+01,1.466580629348754883e-01
2.422858000000000178e+00,2.204212769857651633e-01,2.252643183358481183e-01,8.082883358001708984e-01,5.199138816475713104e-02,-2.492481555839076712e-02,7.650341148597908890e-03,6.485898357300896866e-02,1.251885859093248600e-02,3.992947936058044434e-02,7.515922284367403117e-02,-3.642353276099136693e-03,-1.465495032835080653e-02,-2.628834187984466775e-01,2.134366365640837648e-01,2.190158956977246441e-01,-1.628834187984466442e-01,1.461846113204955944e-01,1.987944066524505449e-01,5.303025683558766357e-01,-4.904888272285461426e-01,3.869043588638305664e-01,-7.415350600737419029e+01,1.466580629348754883e-01
