timestamp,x,y,z,roll,pitch,yaw,vx,vy,vz,p,q,r,psp,qsp,rsp,pres,qres,rres,thrust_sp, thrust_res
0.000000000000000000e+00,5.836433220776022709e-03,-2.546118763046013173e-02,9.993999600410461426e-01,8.692477322030430636e-03,-7.172617205990050593e-03,1.005359470691757906e-02,5.547947269648152019e-03,-1.201952531447650699e-02,-3.097133710980415344e-03,-1.762055851114018371e-02,-2.817543699321490083e-03,-2.112013931970828026e-02,-2.470083185950134874e-01,1.388327427095031874e-01,-1.655672863385077853e-01,-1.645787231862185229e-01,1.773677756825306207e-01,-1.937561648305095308e-01,5.239174145932571358e-01,6.285623311996459961e-01
2.362799999999999970e-02,5.905699332538613330e-03,-2.600846428747499370e-02,9.993036985397338867e-01,8.977592104732989159e-03,-7.173375664017100917e-03,9.649756168486511854e-03,4.153373142255725563e-03,-3.769034346932413019e-03,-5.808399291709065437e-04,5.379219358560392503e-03,5.564122156032747651e-02,-3.278720839926371061e-02,-2.717009410618775322e-01,1.701041892430339153e-01,-1.934359004224969758e-01,-1.954037552359195185e-01,2.104354453747669385e-01,-2.205090223581379627e-01,5.183774896444958147e-01,3.387577533721923828e-01
4.689999999999999725e-02,5.967152588915526461e-03,-2.676107970017913007e-02,9.990872144699096680e-01,8.697458730247433628e-03,-7.414277848527550674e-03,9.374567272044442845e-03,8.320717797155924647e-03,-2.093249813348923519e-03,-5.615871399641036987e-03,-1.291464622600408708e-02,-3.853473853021827794e-02,1.215618121368513237e-03,-2.274942089858792427e-01,-9.642138485456758223e-02,-1.121273495494849171e-01,-1.525770838612880154e-01,-5.816339116016821381e-02,-1.384242945346258191e-01,5.251807742660020706e-01,6.856683492660522461e-01
7.085900000000000531e-02,5.958025296073075384e-03,-2.714428877412174840e-02,9.990268349647521973e-01,8.264123736023542416e-03,-7.644446282154548911e-03,9.700520667458745194e-03,-4.326156084739092751e-03,-1.994251520042827051e-04,-1.405861694365739822e-03,-1.378308302535419423e-02,-2.225666109481284904e-02,3.551496518144135750e-02,-1.692024068311974716e-01,-1.406605826713143714e-01,-1.625277946600559020e-01,-9.810346241918550814e-02,-9.010197061920860451e-02,-1.897499428029880142e-01,5.236936136045999834e-01,6.212077140808105469e-01
9.749399999999999733e-02,5.897550903586234149e-03,-2.762038326143530925e-02,9.988541007041931152e-01,5.721020080066316696e-03,-8.429537459257341325e-03,1.129182350939772483e-02,1.225786112840169043e-03,7.784229020085914851e-03,-1.099444646388292313e-02,-1.344282811366137864e-01,-8.502263011561596653e-03,1.981846661874691468e-02,-8.507158383142623959e-02,5.323621263895116779e-02,9.268631906985763669e-03,-3.623712843289776664e-02,1.025739595714460772e-01,-2.239007768588766045e-02,5.259410113383060636e-01,7.041859626770019531e-01
1.234159999999999979e-01,5.744671673430729389e-03,-2.788692233211992680e-02,9.986121058464050293e-01,2.545096815319165644e-03,-8.416870344182258989e-03,1.273654573604043883e-02,-4.048412914861560896e-04,9.507122142112004251e-03,-1.262283883988857269e-02,-1.632325153203194601e-01,1.270245466435583224e-03,8.809669695680201473e-02,2.817081178804042157e-02,8.324831342767867459e-02,1.182449506985039506e-01,5.637376290184359373e-02,1.347683817157988018e-01,8.257438812976965192e-02,5.262496469619084571e-01,7.129030227661132812e-01
1.456389999999999907e-01,5.624900486372716793e-03,-2.805138124778263145e-02,9.983088970184326172e-01,-1.282057197380332206e-03,-7.287087876201026049e-03,1.411150785542836239e-02,-5.937845467694223382e-03,8.877619174045291855e-03,-1.502786669880151749e-02,-1.765263311706642690e-01,4.826310900063571219e-02,4.197497136499185599e-02,7.361366106185482372e-02,1.222088210704778827e-01,1.364810590052753514e-01,7.780974759397293883e-02,1.707655323201955622e-01,9.700244127824166063e-02,5.264412705184778885e-01,7.118024826049804688e-01
1.735589999999999911e-01,5.449818909963215392e-03,-2.824882551473158199e-02,9.977568387985229492e-01,-6.374383278762674361e-03,-6.155300126030605057e-03,1.487657533728703463e-02,8.156089752878733362e-03,1.081150111419836718e-02,-2.025267481803894043e-02,-1.468595273597046447e-01,9.401174273985830540e-03,1.093189774042251788e-02,7.342780625446501674e-02,4.659055658637194230e-02,1.993289340739257398e-01,4.316887780632776284e-02,7.582289512054668501e-02,1.577255120772461938e-01,5.269050830086821069e-01,7.131117582321166992e-01
1.975109999999999921e-01,5.276190732900386260e-03,-2.837680416612789122e-02,9.971746802330017090e-01,-7.984119925236749654e-03,-6.685283505549755034e-03,1.379192833200382218e-02,-5.719120800202832228e-03,7.586249452402622079e-03,-1.431726943701505661e-02,2.767079098097317835e-02,-4.696760772546555024e-02,-6.655465595338663776e-02,-5.887910684401651690e-02,2.019977657768225882e-02,5.955261438156404102e-02,-9.671413889762681126e-02,6.623913471987417922e-02,2.103575711189973468e-02,5.270181914428316849e-01,7.395739555358886719e-01
2.223019999999999996e-01,5.017854931435048425e-03,-2.804512204423063870e-02,9.968128800392150879e-01,-7.806920119700438976e-03,-8.365013280290600761e-03,1.255887442305536617e-02,-3.861947152159235096e-04,9.338668974058980665e-03,-1.412745192646980286e-02,1.631331296205369014e-02,-8.910902105139881235e-02,-5.295206695468548941e-02,-8.786965133393734306e-02,-3.001754064564626789e-02,1.314709334608425428e-01,-1.264977966593345549e-01,2.071285089245157585e-02,9.641171661037040153e-02,5.269295765449090174e-01,7.332074642181396484e-01
2.487119999999999886e-01,4.574651530268493069e-03,-2.739000461366061789e-02,9.963020682334899902e-01,-5.874428538393074162e-03,-1.065487927609964913e-02,1.016931351667182959e-02,-3.564547723491254694e-03,1.874919285437505814e-02,-2.356683276593685150e-02,5.456389112476683206e-02,-4.681619715550884575e-02,-6.820780906058297732e-02,4.671480165162193721e-02,-1.886991302742477838e-01,1.215263052625420448e-01,1.292013590644131710e-02,-1.196110247862794546e-01,9.314975188551177787e-02,5.280746127869258011e-01,7.550339698791503906e-01
2.707089999999999774e-01,4.321860280357352202e-03,-2.687038575159937312e-02,9.958330392837524414e-01,-5.466229133311794296e-03,-1.168034067973033885e-02,9.171143102602696828e-03,-5.049665064052839478e-03,2.179895750562098680e-02,-2.608009986579418182e-02,-1.935877395225814226e-03,-5.447014944926459323e-02,-4.527608040230296504e-02,-1.575933131592326814e-02,-2.498405692193250704e-01,1.651570948684095708e-01,-4.828789663567065876e-02,-1.732281088860282980e-01,1.395757857122629786e-01,5.283576849863528269e-01,7.572019100189208984e-01
2.967690000000000050e-01,3.948221235191408905e-03,-2.582809061955903748e-02,9.949977397918701172e-01,-5.972594402353235271e-03,-1.126417287458769678e-02,7.171990810089790003e-03,-3.429987353122428660e-03,3.031080273876771841e-02,-3.387274220585823059e-02,-1.552014600899512785e-02,8.166888455122094104e-02,-7.165253904621532444e-02,1.155898282091407658e-01,-6.098699977958338403e-02,1.308981150925006276e-01,7.270718663134123627e-02,1.158408373478623035e-02,1.109002068559120924e-01,5.289801061947226879e-01,7.551884651184082031e-01
3.205520000000000036e-01,3.920605630872033183e-03,-2.527281756812937985e-02,9.943162202835083008e-01,-6.258367587991257169e-03,-9.864390959115398871e-03,5.518175692988069869e-03,4.736552674298124058e-03,3.064919025541532754e-02,-3.280125558376312256e-02,-4.346123511327456418e-02,1.002034887377261096e-01,-7.240640901338556146e-02,1.415101990987353286e-01,-9.955401745564619598e-03,1.435101989208198148e-01,9.736264042119836815e-02,4.720726831142788710e-02,1.281298424383150170e-01,5.289138213447927006e-01,7.511717081069946289e-01
3.457810000000000050e-01,4.128106693486498571e-03,-2.457476880928739435e-02,9.931739568710327148e-01,-6.133275794613775485e-03,-5.098070099810891875e-03,2.573864091961475253e-03,1.351392583121132631e-03,3.918803160666171903e-02,-4.386541992425918579e-02,4.020421980213405994e-02,1.805954161251197010e-01,-8.579387975716931680e-02,7.642172214683162768e-02,1.068136320094306840e-01,1.494288337573387339e-02,2.576716542493856510e-02,1.367229366209431751e-01,7.764903210360519017e-03,5.299482849148449137e-01,7.570003271102905273e-01
3.732449999999999934e-01,4.281338133241826410e-03,-2.407703278044149436e-02,9.924022555351257324e-01,-5.260116986088971339e-03,-2.268855733696284460e-03,8.854787558585375251e-04,-3.496169535638905769e-04,3.641693106489204967e-02,-4.042309895157814026e-02,4.036819992758677172e-02,1.136608377727942182e-01,-7.604487300027301666e-02,7.650922709282685641e-02,1.152789953978733545e-01,-1.716175940484850060e-03,3.460125894336874008e-02,1.275529392591530087e-01,-4.184745083474057659e-03,5.298026612044686168e-01,7.571893930435180664e-01
3.982780000000000209e-01,4.462968404387031122e-03,-2.323193678959233760e-02,9.912877082824707031e-01,-1.744549900513414674e-03,3.740049457772176567e-04,-1.327732659327285347e-03,-8.626977083607252714e-04,3.737408014724109828e-02,-3.284194320440292358e-02,1.262122700354905702e-01,7.317714777545653027e-02,-5.547091872563550408e-02,9.610927741220709475e-02,-4.381550326802258893e-02,7.485982621226674669e-03,7.528729813611284571e-02,-4.868126205378243282e-02,1.120333393528920828e-02,5.293855069680276637e-01,7.578216791152954102e-01
4.207299999999999929e-01,4.485983782934807075e-03,-2.254057817497267732e-02,9.906141161918640137e-01,1.285426106674665949e-03,6.490677664297006544e-04,-2.176904698421466833e-03,5.522456944707244963e-03,3.970330150536220681e-02,-3.163893148303031921e-02,1.317188399804108678e-01,-8.296894890004272508e-03,-3.018948303526968260e-02,7.198977845342788284e-02,-1.357549577282518849e-01,4.498903343914863878e-02,6.863727595074382848e-02,-1.476157222374850919e-01,5.109225629995686052e-02,5.294009272006613420e-01,7.586841583251953125e-01
4.466579999999999995e-01,4.446079896259634567e-03,-2.120912727210761892e-02,9.896454215049743652e-01,5.465997083513157544e-03,-3.145890417743935075e-04,-3.071748543288066458e-03,-8.046427617338067911e-03,4.602618470880290996e-02,-3.245669230818748474e-02,1.303742337827923370e-01,-2.533011746673215908e-02,-3.313776615564283795e-02,4.582369420992662978e-02,-1.509156850172132525e-01,5.331531932949910846e-02,6.404347497308181258e-02,-1.446664616698440098e-01,6.190531496961625135e-02,5.295592251275472728e-01,7.581220865249633789e-01
4.713800000000000212e-01,4.467380036624927012e-03,-2.028870258804534032e-02,9.889320731163024902e-01,7.516534834834370099e-03,-8.973760118449192191e-04,-3.624213277897414542e-03,-5.813256181609073852e-04,4.087821607673646634e-02,-3.480415046215057373e-02,6.770160178014070218e-02,3.596116318998201448e-03,-5.799967304079984773e-03,-5.036626707170654971e-02,-6.890033753495586333e-02,2.154974220792029577e-02,-1.444968051785873800e-02,-6.681412825615570816e-02,3.169330377132974913e-02,5.298218972086844447e-01,7.581423521041870117e-01
4.981459999999999777e-01,4.651729438764818161e-03,-1.881097536316386071e-02,9.878410696983337402e-01,1.030096207545659094e-02,4.454363490922208513e-04,-4.916145705441188341e-03,1.731496576104292473e-02,4.849797339122242229e-02,-3.700933977961540222e-02,6.561064432250930667e-02,9.169605031109150095e-02,-4.933622327806261310e-02,-5.042072285320742947e-02,9.821818272396580507e-02,5.013765540230075840e-03,-4.289470371943812643e-03,7.828744125763090200e-02,1.883701947622678022e-02,5.300388694383469934e-01,7.544274330139160156e-01
5.216950000000000198e-01,4.847765619984065362e-03,-1.782246913849306821e-02,9.870593547821044922e-01,1.174114952286452879e-02,2.570844536841754291e-03,-5.659307300728499968e-03,1.675931757148313439e-02,4.668328971666255156e-02,-3.452920168638229370e-02,5.832051312213822059e-02,8.492860269159324682e-02,-2.980968529380798385e-02,-9.457067739531480055e-02,1.489752893820700252e-01,-4.020407537920832330e-02,-3.722799334230834228e-02,1.181007838284657552e-01,-2.426043915329754996e-02,5.299500116313601294e-01,7.539318799972534180e-01
5.492179999999999840e-01,5.067496730760016194e-03,-1.678919644784546833e-02,9.862622618675231934e-01,1.272874137689553042e-02,5.214887370506904318e-03,-6.465482381592613237e-03,1.021174378059707018e-02,4.631064863507913798e-02,-3.501424565911293030e-02,6.921796798208358636e-02,1.416719902426339939e-01,-4.138148496343671545e-02,-1.389851284793485742e-01,1.956259731496335919e-01,-7.187192319776511407e-02,-7.588973775886595496e-02,1.525546162393795480e-01,-5.362232916117374432e-02,5.300981907203218269e-01,7.545623779296875000e-01
5.754770000000000163e-01,5.449110466380108209e-03,-1.524116745954519000e-02,9.851244091987609863e-01,1.329157202447687862e-02,7.327897064930199988e-03,-7.301282724079483089e-03,2.065765836203212538e-02,4.587473679334108656e-02,-3.348612412810325623e-02,1.327089815313158006e-02,-1.206313688958264747e-02,-4.461784491000449215e-02,2.180967321970592177e-02,-4.465229302037668213e-02,3.944173325205430763e-02,8.775074528893885006e-02,-1.110245570255919828e-01,6.012038801521130821e-02,5.301892571004725996e-01,7.586088180541992188e-01
5.991009999999999946e-01,5.763623742510807883e-03,-1.361176781498531219e-02,9.839789271354675293e-01,1.254428624558612780e-02,6.629023063241534786e-03,-6.980216526332627680e-03,6.825874971746703074e-03,4.788800575781069352e-02,-2.821878157556056976e-02,-5.338299296587907528e-02,-8.968507684901090571e-02,5.264437696902887764e-02,-1.924287029585074749e-01,-1.723608445715544418e-02,9.751822066165885539e-02,-1.341027402744384978e-01,-6.677336425261844177e-02,1.172349645719549527e-01,5.298670457320788785e-01,7.550762891769409180e-01
6.222820000000000018e-01,5.964991788784468514e-03,-1.251235543597734728e-02,9.832410216331481934e-01,1.158336414017350699e-02,4.768678385236757578e-03,-6.967550052247695191e-03,1.722163961317157987e-02,5.464412334681111039e-02,-2.747066877782344818e-02,-4.454768740016257916e-02,-1.035179796586162687e-01,-2.843481364297648431e-02,-1.405147539213055796e-01,-5.513944303069561598e-02,9.151918050169409458e-02,-9.443658358136949871e-02,-1.030711087947619869e-01,1.111945247352249949e-01,5.298892400414706438e-01,7.540013790130615234e-01
6.486340000000000439e-01,6.923131255960690913e-03,-1.043029462061131722e-02,9.821869730949401855e-01,9.838890437751008494e-03,1.937065896157053047e-03,-7.836360076441728495e-03,2.008012742612729287e-02,4.574379074558999198e-02,-2.831975743174552917e-02,-6.186911018217263608e-02,-1.216358219535709773e-01,-4.574616132644850064e-02,-1.107311080212004528e-01,-7.237980352520706484e-02,9.754276483785379037e-02,-6.936452903310630358e-02,-1.033777125914893541e-01,1.195735738909906032e-01,5.300799770159633217e-01,7.546823024749755859e-01
6.728060000000000151e-01,7.635979547546455429e-03,-9.044858595080713243e-03,9.814688563346862793e-01,8.106838327968043240e-03,1.562902903591956161e-03,-8.916112996417924208e-03,2.079628444122988765e-02,5.356639293536769042e-02,-2.945100516080856323e-02,-7.601039681152950422e-02,4.096742062331424315e-03,-7.540333873059974767e-02,-1.297247340905631208e-01,3.480131851215778616e-02,6.945710000672160322e-02,-1.081707736134743525e-01,5.620462031605623181e-03,9.450351403303795805e-02,5.302751713289181046e-01,7.555662393569946289e-01
6.976099999999999524e-01,8.846279760402890255e-03,-6.833998146472738434e-03,9.803200364112854004e-01,4.201143866754797340e-03,2.064704269035155804e-03,-1.045993312507431661e-02,3.960254921963643482e-02,5.585733906414591665e-02,-3.895498067140579224e-02,-1.763340158516903677e-01,4.456940801570327682e-02,-6.865597836887657457e-02,4.009008834703477880e-02,1.792137716141731507e-01,6.871492855203614747e-02,3.396631103863728685e-02,1.310801788085574626e-01,9.809949980679716353e-02,5.310687292253625236e-01,7.538373470306396484e-01
7.230210000000000248e-01,9.726515588838855961e-03,-5.368122648348541866e-03,9.795204401016235352e-01,1.779060716582982248e-03,2.872858322840787793e-03,-1.152435916733196564e-02,3.579996166255259432e-02,6.219283262045362942e-02,-3.533395007252693176e-02,-1.108888011222251974e-01,6.571065896299108089e-02,-5.651379400818725557e-02,8.724484910731303278e-02,2.287092054604030755e-01,5.602328090242778003e-02,5.958074891319772859e-02,1.803992953482589368e-01,8.837278995710154406e-02,5.309174700808028113e-01,7.538777589797973633e-01
7.458780000000000410e-01,1.100082670562709149e-02,-3.274160073734024446e-03,9.783843755722045898e-01,-1.077370888546886262e-03,3.445190775942519323e-03,-1.334077843515779627e-02,3.689882655139159473e-02,5.422852031460329014e-02,-3.026984818279743195e-02,-6.740358553399214414e-02,-4.914203903520621836e-02,-6.973609872571720492e-02,-3.698921059196266792e-03,-1.079933272503996733e-02,5.955833012610486921e-02,-4.423164397407611942e-02,-6.528937171729412570e-02,9.696006159596423646e-02,5.307271427851669721e-01,7.564221620559692383e-01
7.733700000000000019e-01,1.181872459078909567e-02,-1.890264019304869342e-03,9.777421951293945312e-01,-1.751998104501497136e-03,2.328534001110993401e-03,-1.417253810034835304e-02,3.062275335160959122e-02,6.215399090796949050e-02,-2.324978820979595184e-02,-1.102278880847220970e-02,-4.112268002565220432e-02,-2.171424170652257526e-02,1.035119899583697711e-01,6.386579044887508161e-02,6.835367700400624136e-02,5.001777349382201948e-02,2.119470504578555708e-02,1.080800937456655175e-01,5.302941309909170453e-01,7.555340528488159180e-01
7.981930000000000414e-01,1.302992010345349269e-02,2.194020561071332871e-04,9.768009185791015625e-01,-1.299309022426522672e-03,-1.871058144548021218e-03,-1.543654737690136614e-02,3.962095078882676980e-02,6.172514693104190486e-02,-2.242379076778888702e-02,3.110532474277630591e-02,-1.610634961761847339e-01,-5.165757091448324595e-02,9.078466685364094957e-02,3.293108375812925370e-03,8.387970570091959899e-02,3.998105559865013092e-02,-2.104229065001191404e-02,1.271289997541027172e-01,5.303400251703316304e-01,7.551871538162231445e-01
8.206999999999999851e-01,1.385867411548401956e-02,1.669023575204258304e-03,9.762234687805175781e-01,-5.259194788976973402e-04,-3.964858912127500190e-03,-1.641283338519183843e-02,3.371973914189811683e-02,5.986979489931416182e-02,-1.783181168138980865e-02,5.881139235839796114e-02,-8.792068319087710526e-02,-5.866626287949775614e-02,1.404946571107637543e-02,8.499475501903726304e-02,3.528714475368018022e-02,-3.147457729027628576e-02,7.961335512429669470e-02,8.124981533210935691e-02,5.300586642098390477e-01,7.536363601684570312e-01
8.503110000000000390e-01,1.549634694046234454e-02,3.485098534775883574e-03,9.752773046493530273e-01,1.434465160591155176e-03,-5.876481926806009781e-03,-1.818016436951230830e-02,4.060987881248476206e-02,6.471722713212745004e-02,-2.517947368323802948e-02,1.005431428947012595e-01,-4.534265576626053673e-02,-6.393977862313310334e-02,4.143955759874062839e-02,1.691070697138017179e-02,-2.499634878602275886e-02,3.039529008005038922e-03,1.665308296148185555e-02,2.590841349199989388e-02,5.306994220595009359e-01,7.532684803009033203e-01
8.767340000000000133e-01,1.659356142529210681e-02,4.703040357388497614e-03,9.746839404106140137e-01,2.781420183219816215e-03,-6.795816416842459518e-03,-1.932096592809795510e-02,4.245073783303380394e-02,6.698807039078265302e-02,-2.891705185174942017e-02,6.766447874370971893e-02,-4.661072854465806575e-02,-4.881336298427820658e-02,5.759775167505010174e-02,-2.729752690249132030e-02,-1.196579060917676851e-03,2.580567880799847572e-02,-2.277423737969429610e-02,5.289186562427235228e-02,5.310386708269200229e-01,7.519832849502563477e-01
8.974879999999999525e-01,1.768153720423332881e-02,5.992579028599188604e-03,9.740881919860839844e-01,4.205947978381397410e-03,-7.675776188874605666e-03,-2.009974676706849372e-02,4.124874046759665486e-02,6.868396416431066243e-02,-2.586156688630580902e-02,4.986431983386076239e-02,-5.073231192493610209e-02,-3.558206755330475118e-02,3.112149318333622475e-02,-7.168275856523109377e-03,-1.502744629436857798e-02,6.434479633325958410e-03,3.505431962151212260e-03,4.122394049935285826e-02,5.309212690978650784e-01,7.526344060897827148e-01
9.258309999999999595e-01,1.928403768348731923e-02,7.982893571811755518e-03,9.732429981231689453e-01,6.135372809401518947e-03,-9.094290224805456901e-03,-2.088847479660937978e-02,4.306466633365617358e-02,7.062343107514540419e-02,-1.945732347667217255e-02,6.949979744841042195e-02,-6.880427236558978726e-03,-1.071692357519706505e-02,-5.458945422380484525e-03,5.438408444203977898e-02,-1.038423790118971624e-01,-2.059201462791298426e-02,7.154188583718182337e-02,-4.540825123053712775e-02,5.305238171684120152e-01,7.503836154937744141e-01
9.466280000000000250e-01,2.047333885796998043e-02,9.539911938376152700e-03,9.727169871330261230e-01,7.223425869976201653e-03,-9.492206803893177280e-03,-2.139191932403949892e-02,4.936978906631100256e-02,7.299472664651186771e-02,-2.760320715606212616e-02,3.613255398572710192e-02,-3.919897364634957609e-02,-2.420616852385687814e-02,1.547521865425186688e-02,1.217186206839127559e-02,-2.643524850282574779e-02,4.538573954230515524e-03,2.638528411093583187e-02,3.341302958801167788e-02,5.312246556731998748e-01,7.516312599182128906e-01
9.748010000000000286e-01,2.226610971432015432e-02,1.189560429605007047e-02,9.720485210418701172e-01,8.803648091906972339e-03,-9.321230255035617418e-03,-2.164129484462540276e-02,3.767554258606048423e-02,7.251682870932628366e-02,-1.883431337773799896e-02,1.261193510771207831e-02,1.334102238944162924e-02,2.174470994565318172e-02,-9.744495674475200236e-03,-5.650658000469648695e-02,-2.076369397533429917e-02,-1.139665394452635955e-02,-3.451115330665086023e-02,3.974838936686707347e-02,5.306938466162596235e-01,7.523241043090820312e-01
1.005281000000000091e+00,2.400672806876165064e-02,1.432711437591847360e-02,9.715347886085510254e-01,1.026964542595712286e-02,-9.130165701907166920e-03,-2.143176492882870043e-02,5.038013938470060210e-02,7.762978023246631942e-02,-1.621264778077602386e-02,5.212917084890884845e-02,3.691097474700408276e-02,-5.196469718778748761e-03,1.575428930488458057e-02,6.711144494107405822e-02,-7.502323522082807172e-02,1.743703707818564791e-02,7.483966740705172427e-02,-1.504722254673721178e-02,5.304701607387585227e-01,7.457456588745117188e-01
1.025898999999999894e+00,2.400672806876165064e-02,1.432711437591847360e-02,9.715347886085510254e-01,1.026964542595712286e-02,-9.130165701907166920e-03,-2.143176492882870043e-02,5.038013938470060210e-02,7.762978023246631942e-02,-1.621264778077602386e-02,5.212917084890884845e-02,3.691097474700408276e-02,-5.196469718778748761e-03,1.530844630790196420e-02,6.553231007873708269e-02,-7.501655869615472816e-02,1.743703707818564791e-02,7.483966740705172427e-02,-1.504722254673721178e-02,5.305100872928503186e-01,7.457456588745117188e-01
1.051593999999999918e+00,2.517753617845261763e-02,1.593333119385290791e-02,9.712185859680175781e-01,1.099424785158747454e-02,-9.193109468488502856e-03,-2.133680491539458046e-02,4.899328944306074324e-02,7.515285871036937737e-02,-1.825490407645702362e-02,2.927195740083038747e-02,-2.084526967589896834e-02,1.878775978873228891e-02,-6.064841007414453755e-02,4.856254669301732912e-02,-6.833487158266472739e-02,-5.311340778125352158e-02,5.843150433368739238e-02,-8.635132478247887697e-03,5.307790098592467531e-01,7.488369941711425781e-01
1.079390000000000072e+00,2.649034522020390914e-02,1.757116484624238195e-02,9.709474444389343262e-01,1.158807963283857607e-02,-8.484131689983742675e-03,-2.142860888346698189e-02,4.099732340540173520e-02,7.454414558239000343e-02,-1.363016758114099503e-02,3.800534439445250184e-02,5.487665642434030877e-02,-7.210703062536665681e-03,-8.100243096768763168e-03,2.452997081264103943e-02,-1.066478548226772044e-01,2.124448728530489543e-03,3.490020987000719971e-02,-4.669452631410854482e-02,5.303341272432827713e-01,7.395925521850585938e-01
1.099375999999999909e+00,2.725349002844521668e-02,1.836452250793995170e-02,9.708073735237121582e-01,1.172150537404396432e-02,-8.204962656219061401e-03,-2.130876043367302408e-02,4.138035564439127706e-02,7.356924947440483809e-02,-1.341340970247983932e-02,1.595518387162442320e-02,8.173062145164551595e-02,3.027402701400661728e-02,-1.490936848678788354e-02,1.653318931517891721e-01,-9.266569346048737776e-02,-3.966623202346800624e-03,1.717087115320367618e-01,-3.302969208333635109e-02,5.299537189656362557e-01,7.168850898742675781e-01
1.124805999999999973e+00,2.869022719264240767e-02,1.999971713771138068e-02,9.705848693847656250e-01,1.222199592103370702e-02,-7.905803942119593586e-03,-2.112932846583470692e-02,5.393446216643296015e-02,7.387877239691620357e-02,-1.242560893297195435e-02,-1.285472667223024057e-02,-1.702734934342100669e-03,-1.722467631079624070e-02,6.415834425127386886e-02,9.574388489759989851e-02,-1.459027037813031835e-01,7.645020959114602610e-02,8.909402131388442780e-02,-8.670755951057276811e-02,5.301425900584206818e-01,7.278561592102050781e-01
1.150687000000000015e+00,3.078858505848768717e-02,2.243266123581218879e-02,9.702803492546081543e-01,1.324052257093324102e-02,-8.150870175959612496e-03,-2.018517656040197394e-02,4.037675958721409497e-02,7.391590762744884580e-02,-4.247154574841260910e-03,-1.419614850427250788e-02,-3.966004294750982012e-02,6.475194691063000663e-02,1.019711855576563297e-01,7.229258476451048965e-02,-2.310138681520184506e-02,1.191588020694863415e-01,7.820780669204263624e-02,3.338849158522656096e-02,5.295527353740959731e-01,7.251693010330200195e-01
1.173481999999999914e+00,3.219001661112565194e-02,2.406807413528142328e-02,9.700975418090820312e-01,1.354025105016816964e-02,-8.319389426531875742e-03,-1.946243317427720498e-02,4.465849634659302403e-02,8.330365273312895225e-02,-2.267628908157348633e-03,8.080077877287733523e-03,7.979353315805567254e-03,2.999751420208584402e-02,2.527522809744261328e-02,9.502727779232227057e-02,-1.406337321757584746e-01,3.544772225454619757e-02,9.558808636137786086e-02,-8.613998866890872075e-02,5.294599124610492868e-01,7.251644134521484375e-01
1.200866999999999907e+00,3.405491729114534794e-02,2.649445915833828838e-02,9.699547290802001953e-01,1.330208003680524026e-02,-8.945654703170546895e-03,-1.808273346178701502e-02,4.914142780277086509e-02,7.285753085958400488e-02,-6.369287148118019104e-04,-2.375010848528186572e-02,-5.038274562368964815e-02,4.137209309365066229e-02,1.115818314383526799e-01,1.462003153127867661e-01,-5.049669107019535974e-02,1.280186820992766095e-01,1.461903014641563192e-01,1.359994726429489861e-04,5.292509401516203305e-01,7.182108163833618164e-01
1.223392999999999953e+00,3.523353844503183951e-02,2.808648320084593600e-02,9.699652194976806641e-01,1.340342615846156979e-02,-9.662947847866920625e-03,-1.686057237738536330e-02,3.650111031426651886e-02,7.518792607267847650e-02,4.729487001895904541e-03,2.926782621942479110e-02,-6.637252502053348283e-03,7.409502047263183400e-02,2.927093948061279538e-02,1.227687544314813028e-01,-1.284535070545239632e-01,4.173121698850788125e-02,1.370858993888440236e-01,-8.131882123660921780e-02,5.285285811658283484e-01,6.987779140472412109e-01
1.247049999999999992e+00,3.636253075753010516e-02,2.965909551767309180e-02,9.700419902801513672e-01,1.387530302482927955e-02,-1.156736684253512060e-02,-1.559208312996296364e-02,5.354577583641534355e-02,7.720211541532499833e-02,5.171248689293861389e-03,9.084145407868180269e-03,-1.138114954179760413e-01,6.535754263848234102e-02,9.832098737538610966e-02,7.226494539242069026e-02,-9.328840336774907316e-02,1.110434924017156821e-01,8.243670180977522022e-02,-4.968611765416042908e-02,5.289255725794586027e-01,7.207958698272705078e-01
1.275992000000000015e+00,3.807411942420577122e-02,3.197906783473415671e-02,9.700940847396850586e-01,1.536195207321659068e-02,-1.403525220129830942e-02,-1.366845016234274901e-02,4.585399062496562511e-02,6.835235440828056619e-02,1.501745451241731644e-02,5.798079467938762471e-02,-9.643284436899413059e-02,7.688307992522872003e-02,-6.072716099084428387e-02,-1.146491767413185259e-02,-1.794937843181674264e-01,-3.277771206185270403e-02,2.169989790410346148e-02,-1.414098221738759875e-01,5.242613963476878691e-01,5.054128170013427734e-01
1.297846999999999973e+00,3.930854357092525286e-02,3.367713200590762707e-02,9.701334238052368164e-01,1.641717879417704112e-02,-1.497030511032870770e-02,-1.232316834147773044e-02,5.939537602095348867e-02,6.831502806557622487e-02,1.714997552335262299e-02,8.001613911924618239e-02,-5.426347631244963360e-02,6.363340384047681819e-02,-1.558410037527167002e-01,7.315298572731421256e-02,-1.954054904892631173e-01,-1.238022118724596415e-01,9.922937269316275954e-02,-1.610568512134423480e-01,5.235667715570347935e-01,4.752191305160522461e-01
1.328427000000000024e+00,4.140134112952293527e-02,3.642346061355593995e-02,9.703509807586669922e-01,1.847140259214046301e-02,-1.624031739697739951e-02,-1.061643150688951209e-02,5.473432313524147913e-02,7.570842842851684129e-02,1.351149752736091614e-02,1.074167260223273385e-01,-5.732910791228050529e-02,6.330989740942942479e-02,-1.911956800721472671e-01,2.501767235325018379e-03,-2.023326153060636956e-01,-1.536230870189529696e-01,4.090930096563397123e-02,-1.728632392012627583e-01,5.245754845530705701e-01,5.155072212219238281e-01
1.349258000000000068e+00,4.276884412769473703e-02,3.823672399509563113e-02,9.704884290695190430e-01,1.984978403098118516e-02,-1.776557785440147086e-02,-9.166851111063856195e-03,5.205835131129026017e-02,6.416622925159122526e-02,1.214927155524492264e-02,8.555191032348476166e-02,-1.169714262327580939e-01,8.229515159085762366e-02,-1.895116360253620291e-01,-1.321064549872973393e-01,-1.957602243505334461e-01,-1.340499986648954756e-01,-8.366875152170327734e-02,-1.704175047808774435e-01,5.253577498083515929e-01,5.526109933853149414e-01
1.374419999999999975e+00,4.412805563920371016e-02,4.007451057627473695e-02,9.707114100456237793e-01,2.122792714682025100e-02,-1.937805756934296575e-02,-7.505506456345623079e-03,6.816203020944275326e-02,7.516114454162411973e-02,1.605892553925514221e-02,5.457785041324038355e-02,-8.148982846769156629e-02,7.866011772852160577e-02,-1.520232183880300680e-01,-1.370768919825197107e-01,-1.863559849154827197e-01,-9.967563843198867790e-02,-9.279455584815986258e-02,-1.656681398967336794e-01,5.249929783823891194e-01,5.475814342498779297e-01
1.402598000000000011e+00,4.629393816213510371e-02,4.323918785865476372e-02,9.709181189537048340e-01,2.240058171450530836e-02,-2.068094833624578577e-02,-4.633434827134408351e-03,5.496540599224648133e-02,8.136497687152102753e-02,4.140395671129226685e-03,-4.158761378828815247e-02,-1.788068034228043612e-02,9.324761948035244219e-02,7.479496792772863389e-02,-1.116162608507756393e-02,-6.293111990476324413e-02,1.295292242678030559e-01,5.272943046893217856e-02,-5.045738347534411278e-02,5.288930115403777110e-01,7.128071784973144531e-01
1.430627000000000093e+00,4.788528336978434274e-02,4.597626122792844439e-02,9.710026979446411133e-01,2.078624208290719491e-02,-1.970644601473758861e-02,-2.075348943459287554e-03,6.274305419883971502e-02,9.239049206867640252e-02,8.809929713606834412e-03,-1.328140864113915298e-01,1.100255754655932589e-01,1.436030145001594149e-01,1.220203366462641464e-01,1.624865372234272909e-01,-8.646815368058505258e-02,1.562854020367304975e-01,2.102053193323993596e-01,-8.102995474962845779e-02,5.284408656649179914e-01,7.051544189453125000e-01
1.451710999999999974e+00,4.866788223683037734e-02,4.742737765801349065e-02,9.710589647293090820e-01,1.929959419134177206e-02,-1.901871174081359861e-02,-8.099527867004852055e-04,9.053416628615781891e-02,8.663148087021593780e-02,-1.997011015191674232e-03,-1.599119870911645813e-01,8.450094989533536716e-02,1.332278707084377234e-01,1.313402634746002606e-01,1.575130844860472834e-01,-8.581919998312120823e-03,1.611129749552855928e-01,1.788328340797499527e-01,-6.470279972360520881e-03,5.295049113532107610e-01,7.186723947525024414e-01
1.479038000000000075e+00,5.034310959016610049e-02,5.022836606580614177e-02,9.711092710494995117e-01,1.625671281900466225e-02,-1.752021718232343872e-02,2.151732754966939609e-03,8.733610496458843464e-02,9.183548678698798262e-02,1.009167823940515518e-02,-1.268260392459193142e-01,1.107689658170618041e-01,1.498159416126590149e-01,1.720097139211859139e-01,1.974968751278511903e-01,-6.455087123888607337e-02,1.748129413232081264e-01,2.135781246166419123e-01,-7.068693783089184668e-02,5.279355611389485725e-01,6.798162460327148438e-01
1.499376000000000042e+00,5.214035037177946336e-02,5.312630658481195395e-02,9.713000059127807617e-01,1.226432862295306382e-02,-1.599873538972529374e-02,5.160812978538098506e-03,7.973115134305236440e-02,9.027211906313865886e-02,3.215446369722485542e-03,-1.924275538175431732e-01,1.127569079466990004e-01,1.816722075272646786e-01,1.937926390471555460e-01,2.010903845370287102e-01,-4.461102259411195425e-04,1.707791752188230205e-01,2.111666583239262818e-01,-1.495744303903353417e-02,5.291894148087492589e-01,7.207965850830078125e-01
1.529859999999999998e+00,5.512202748877942371e-02,5.742422877744669113e-02,9.716123342514038086e-01,5.672940920910049187e-03,-1.156034757615564956e-02,1.005667316051872540e-02,9.835299789600687737e-02,1.027306744172082759e-01,-2.636696444824337959e-03,-1.933137667707323371e-01,2.111980686078057945e-01,1.584763571395387816e-01,2.744472612794878752e-01,2.457423957072101262e-01,6.450575643092057443e-02,1.959050708589651635e-01,2.082782027411600734e-01,3.653726969559376730e-02,5.297933450059862936e-01,7.289950847625732422e-01
1.550645999999999969e+00,5.841403530267676864e-02,6.201161454691098834e-02,9.719539880752563477e-01,2.352966469689749505e-03,-7.489701219999034265e-03,1.388114487821168197e-02,1.010007883637074333e-01,9.657522196681610216e-02,2.190401079133152962e-03,-2.700231986257401948e-02,9.795499299781662561e-02,1.172657994408818349e-01,2.609010246442435843e-01,2.783901937431628726e-01,1.047924382091270229e-01,1.643141705807797115e-01,2.120651218504266133e-01,6.620737699380006835e-02,5.292504746632126222e-01,7.184755802154541016e-01
1.575965000000000060e+00,6.072934424627816213e-02,6.503786833984791238e-02,9.723463654518127441e-01,2.275990212244009998e-03,-5.821444476130865908e-03,1.639631644353189976e-02,1.110662299177405526e-01,9.924472213826139588e-02,2.283953316509723663e-02,1.860884342263014607e-02,4.875734170388486277e-02,1.121198567533041729e-01,2.739421010514321297e-01,3.119567363419183392e-01,-1.545843651448514100e-02,1.739421010514321519e-01,2.242250882983703453e-01,-6.097916371018813342e-02,5.258958970938542032e-01,6.175483465194702148e-01
1.598530000000000006e+00,6.307528941901918706e-02,6.804656879184552143e-02,9.727378487586975098e-01,2.638217740560204732e-03,-6.900536850352301244e-03,1.846489905378834173e-02,1.159976035219125873e-01,1.012681302702588826e-01,2.455650456249713898e-02,6.803519905802433987e-02,-1.172866976841831776e-01,1.192823188718932642e-01,2.804780234105352377e-01,2.979020075104346077e-01,1.196576597258506292e-01,1.804780234105352321e-01,2.122852483629641407e-01,6.835297757120700757e-02,5.239651319755562753e-01,5.203793048858642578e-01
1.625941999999999998e+00,6.666495746345305062e-02,7.261087471455260345e-02,9.736059308052062988e-01,3.347673678311040811e-03,-1.126735752484631092e-02,2.240450640414359817e-02,1.206181837090212067e-01,1.143728874545718588e-01,2.971970103681087494e-02,2.719230426342877927e-02,-2.053986043769675252e-01,1.349854354065103401e-01,2.899941183693685032e-01,2.816049582786716576e-01,1.540953006945273429e-01,1.899941183693685254e-01,2.176483694073680364e-01,9.169892596865450440e-02,5.230551879847772367e-01,4.939372539520263672e-01
1.649238999999999900e+00,6.929863283925136175e-02,7.536452065509824383e-02,9.742817878723144531e-01,3.662642913502199039e-03,-1.569897381473661646e-02,2.478398472090326266e-02,1.127737166386723472e-01,1.198113334561966420e-01,3.777538985013961792e-02,-1.951802196769774830e-03,-2.118045128751389616e-01,1.290623926812143607e-01,3.004451020166505337e-01,2.517838991792232806e-01,1.610130308271851551e-01,2.004451020166505559e-01,2.206721354100430466e-01,9.179023530421755173e-02,5.226445494314269080e-01,5.067424774169921875e-01
1.677378999999999953e+00,7.331109879870979784e-02,7.945204800896209230e-02,9.756246209144592285e-01,4.888272506034985546e-03,-2.202299946071617498e-02,2.765311547851645457e-02,1.324213689304118979e-01,1.275751701012132755e-01,4.674886167049407959e-02,7.435818002377682367e-02,-2.565652160313613428e-01,8.569158114597562326e-02,2.982189394025117068e-01,1.971765492822386001e-01,5.398521029546408945e-02,1.982189394025117013e-01,1.860505988966842106e-01,-2.336896513530219155e-02,5.213485253682265119e-01,4.767379760742187500e-01
1.698812999999999906e+00,7.619606630847682027e-02,8.235751246118416802e-02,9.767578244209289551e-01,6.979086782809184458e-03,-2.763196108508658710e-02,2.959828841842049307e-02,1.367990582746476114e-01,1.286513286262588873e-01,5.397791415452957153e-02,1.644343757480861423e-01,-3.218644787819124331e-01,1.072292758957102965e-01,2.957192545968168607e-01,-3.236141202809378337e-04,-7.826533561950421714e-02,1.957192545968168551e-01,2.110474346043566402e-02,-1.612695617972946804e-01,5.177036469057973989e-01,3.144413232803344727e-01
1.725988999999999995e+00,8.009110899827490138e-02,8.648617032177634278e-02,9.787694215774536133e-01,1.502858778562090117e-02,-3.878977211277789827e-02,3.340991337680554452e-02,1.242951483663439216e-01,1.101142442985208331e-01,6.219471991062164307e-02,3.483929354279221569e-01,-4.324264387781889818e-01,1.524309707725006180e-01,3.451810316956094304e-02,-3.008475503666220296e-01,-1.262233353797912183e-01,-4.398428663383887119e-03,-2.008475503666219963e-01,-2.205450603057489689e-01,5.063813139367183691e-01,-2.454832792282104492e-01
1.747455999999999898e+00,8.308783255233093135e-02,8.766658511032314471e-02,9.801380038261413574e-01,2.384496741448690824e-02,-4.886786586549218825e-02,3.586403396647619424e-02,1.223307135421790176e-01,1.192206488652248625e-01,6.396677345037460327e-02,4.476511313331809627e-01,-4.800507947596003300e-01,1.293853948409716681e-01,-1.944636530275791753e-01,-3.356513227617472506e-01,-1.314420536145345653e-01,-1.868001805401465210e-01,-2.356513227617472173e-01,-2.314420536145345708e-01,5.004528631914771930e-01,-5.436840653419494629e-01
1.774725000000000108e+00,8.765039171778263305e-02,8.964530666662551273e-02,9.820557236671447754e-01,3.814850384464725519e-02,-6.155157957918366840e-02,3.920332820130356666e-02,1.265449503787780816e-01,1.123522313258096123e-01,6.107296794652938843e-02,4.793661489508638796e-01,-3.707326210927769927e-01,1.496202366095384928e-01,-3.036805838262048862e-01,-3.451867783561885505e-01,-1.318977299599774500e-01,-2.036805838262048529e-01,-2.451867783561885450e-01,-2.318977299599774555e-01,5.012237066244165096e-01,-5.051453709602355957e-01
1.802019000000000037e+00,9.201548422649316605e-02,9.131025264411854470e-02,9.837044477462768555e-01,5.153237733142249088e-02,-7.119170603787305929e-02,4.220075684638913138e-02,1.223313071304067551e-01,1.006626686314904678e-01,3.748127073049545288e-02,3.823438003708529154e-01,-2.721236430827905228e-01,1.423804122528469218e-01,-3.017044297658438845e-01,-3.498665179667599379e-01,-1.305835074552069985e-01,-2.017044297658439067e-01,-2.498665179667599601e-01,-2.305835074552070041e-01,5.168722107080854222e-01,2.401252985000610352e-01
1.824916999999999900e+00,9.492401677129846949e-02,9.227475131824212917e-02,9.845673441886901855e-01,5.952488904129654007e-02,-7.637768455970994630e-02,4.495048647204535897e-02,1.203801890266214258e-01,8.869159141219931652e-02,2.187641710042953491e-02,3.945277953898101431e-01,-1.989975863729992467e-01,1.746183581805935692e-01,-2.998480879163308854e-01,-3.523710775206589929e-01,-1.292410065725220214e-01,-1.998480879163309076e-01,-2.523710775206589596e-01,-2.292410065725220270e-01,5.228776785787143666e-01,5.064450502395629883e-01
1.847191000000000027e+00,9.825999794101022977e-02,9.274468098936042293e-02,9.853677153587341309e-01,6.642915424053164042e-02,-7.932729212773503846e-02,4.858559389735317424e-02,1.340887252830996745e-01,7.473621435980384864e-02,3.328714147210121155e-02,3.190659718206103057e-01,-1.165884946637844449e-01,2.099303791400704278e-01,-2.982903193946048193e-01,-3.549083465114618585e-01,-1.281166521938218450e-01,-1.982903193946047860e-01,-2.549083465114618252e-01,-2.281166521938218505e-01,5.182634427816933398e-01,3.059337139129638672e-01
1.873520000000000074e+00,1.033346249413564372e-01,9.335908250979645107e-02,9.861503243446350098e-01,7.351739967703574408e-02,-7.937759734541383061e-02,5.561873651116178152e-02,1.202514661164698906e-01,7.245250703767570910e-02,5.121893715113401413e-03,1.416525225802152677e-01,1.012735106522451162e-01,2.798476764508162629e-01,-2.976444230948457337e-01,-3.567196073160437964e-01,-1.129014456616737605e-01,-1.976444230948457281e-01,-2.567196073160438186e-01,-2.129014456616737661e-01,5.232937731091197309e-01,4.696605205535888672e-01
1.899286000000000030e+00,1.082161149267732020e-01,9.389369141589980206e-02,9.862180352210998535e-01,7.362890147139732056e-02,-7.401538967073717501e-02,6.389319935571902143e-02,1.159363543050172668e-01,7.045767992866909524e-02,-3.305416926741600037e-02,-1.020095038623154426e-01,2.220434123380106428e-01,2.656740498362971659e-01,-3.025823642511813460e-01,-3.339528319550767455e-01,-3.492392866570578902e-02,-2.025823642511813683e-01,-2.339528319550767121e-01,-1.349239286657057946e-01,5.265581929625798852e-01,4.941241741180419922e-01
1.926088000000000022e+00,1.130490740911101882e-01,9.428915088564326918e-02,9.856286644935607910e-01,6.731721758386255416e-02,-6.381222116163232094e-02,7.351719806720402595e-02,1.131658338601284758e-01,5.729634019750772661e-02,-5.678930133581161499e-02,-3.029988576167877978e-01,3.447226001949607044e-01,3.306275033163832977e-01,-3.079338705142908306e-01,-1.297390107180448893e-01,2.291742573952701423e-02,-2.079338705142908250e-01,-2.973901071804488372e-02,-7.708257426047299132e-02,5.119002204042116810e-01,-3.949948549270629883e-01
1.947673999999999905e+00,1.162792654928789249e-01,9.571863297680502369e-02,9.849256873130798340e-01,6.066028335550641831e-02,-5.403082045575891001e-02,8.018939562859461745e-02,1.327203248338890695e-01,4.822326775445788527e-02,-7.073124498128890991e-02,-4.199510021454332387e-01,4.830521312592389593e-01,3.054292844953629960e-01,-2.815594068677974571e-01,-1.644116226595792041e-01,9.455266915826673890e-02,-1.815594068677974793e-01,-6.441162265957921240e-02,-5.447330841733264047e-03,5.099763469942274474e-01,-5.606793761253356934e-01
1.974807999999999897e+00,1.210406399255387760e-01,9.743478350513143371e-02,9.833395481109619141e-01,4.934065879481291939e-02,-3.872159248804885046e-02,9.005092274956094656e-02,1.250753648972801335e-01,4.470678423530372730e-02,-8.402285724878311157e-02,-4.294589737193088008e-01,4.923860948694661621e-01,3.297216263244132084e-01,-2.047839765556607183e-01,-5.135543053451407242e-02,1.521391622106390562e-01,-1.047839765556607267e-01,1.014846231650692703e-02,5.213916221063905065e-02,5.129339080528876327e-01,-4.665441513061523438e-01
2.001700000000000035e+00,1.257255389334330509e-01,9.880349142013190866e-02,9.816791415214538574e-01,3.959494463511866597e-02,-2.486060651758159601e-02,9.958338457697424317e-02,1.217694125017425577e-01,3.195404786793883123e-02,-9.982015192508697510e-02,-3.391753285015117747e-01,3.868196770534214624e-01,3.409442279097368300e-01,-9.033040772666606211e-02,1.484460047050313036e-01,1.409007014985827477e-01,9.669592273333948648e-03,1.190473060892987267e-01,4.090070149858272830e-02,5.198138886289260796e-01,-1.720145344734191895e-01
2.023865999999999943e+00,1.290167564640927467e-01,9.959647074392438681e-02,9.804434776306152344e-01,3.416644496734390357e-02,-1.562923846311226050e-02,1.056218692522807867e-01,1.315480097989931152e-01,2.079485189484284180e-02,-1.076676622033119202e-01,-3.057321341352427502e-01,4.779139985568423565e-01,2.836780139223837871e-01,-9.196770562858988529e-02,2.400871423288431505e-01,1.789576849282127624e-01,8.032294371410125464e-03,1.407432170151827200e-01,7.895768492821275686e-02,5.233075317407717142e-01,-2.593368291854858398e-02
2.051486999999999838e+00,1.342973465487383444e-01,1.008608593158763361e-01,9.783511757850646973e-01,2.453886616456364342e-02,-2.461180937029849858e-03,1.139137894641477633e-01,1.504199137676556219e-01,2.518390428694727845e-02,-1.139465719461441040e-01,-3.673191257926301523e-01,3.631891565847387149e-01,2.566755662982508901e-01,-7.160386130966411855e-02,2.710399354058354859e-01,2.475923205397164428e-01,5.114023899884086177e-03,1.710399354058354526e-01,1.475923205397164373e-01,5.353914707674184426e-01,5.934851169586181641e-01
2.076236000000000193e+00,1.379799942101508914e-01,1.015560148767582216e-01,9.767236709594726562e-01,1.821515903585898405e-02,5.146501859607077733e-03,1.182664772062731462e-01,1.516409005941019017e-01,2.132702867760821394e-02,-1.249914541840553284e-01,-3.626206332062666404e-01,2.936327042421120193e-01,2.135977611629621686e-01,-3.370779838866211353e-02,2.850750374365500495e-01,2.758950608306223184e-01,4.553953320112765629e-03,1.850750374365500717e-01,1.758950608306223407e-01,5.383877974631958718e-01,7.017588615417480469e-01
2.097655000000000047e+00,1.418270110301842746e-01,1.023339512542927598e-01,9.749535322189331055e-01,1.108551390380857656e-02,1.225110412745022970e-02,1.220634253089578625e-01,1.665428483705746199e-01,2.622288849351286574e-02,-1.270096749067306519e-01,-3.954508951556628404e-01,2.559808349298597907e-01,1.905675982005472502e-01,1.682879519999957302e-02,2.982390437171973385e-01,2.989894132774339464e-01,4.462505117626987435e-03,1.982390437171973052e-01,1.989894132774339408e-01,5.396145399908184315e-01,7.456622123718261719e-01
2.128490999999999911e+00,1.482659893431170217e-01,1.035992466927657951e-01,9.722635149955749512e-01,-4.726589350905404676e-04,1.778307444235549539e-02,1.273446849403958581e-01,1.899134933713988171e-01,3.047816364108409809e-02,-1.311994045972824097e-01,-3.775642491700812453e-01,6.731708334218311496e-02,1.999576949122810754e-01,9.359597003867406451e-02,2.993593879589501183e-01,3.055778481493259813e-01,4.519465306353128917e-03,1.993593879589501405e-01,2.055778481493259757e-01,5.403626141081401268e-01,7.498376369476318359e-01
2.150313000000000141e+00,1.525194229436842575e-01,1.043923768798939999e-01,9.704384207725524902e-01,-8.544449223346432462e-03,1.856169130600071604e-02,1.309769111203964442e-01,1.917996325929376966e-01,3.977824030941102401e-02,-1.282354742288589478e-01,-3.861664168716956724e-01,-2.875549910555922489e-02,2.009266091359248607e-01,1.041464918379811783e-01,2.935016776651847570e-01,3.014512907264845776e-01,4.146491837981170110e-03,1.935016776651847514e-01,2.014512907264845720e-01,5.402892319705560054e-01,7.418032884597778320e-01
2.176540000000000141e+00,1.586770051101277224e-01,1.057053489678464464e-01,9.677872657775878906e-01,-1.846032919417715454e-02,1.523649236109436700e-02,1.355293404300672577e-01,2.009284928043240381e-01,5.516735011705029001e-02,-1.239385381340980530e-01,-2.452873927212322891e-01,-1.919344076982837932e-01,1.432366345094526761e-01,1.045353478656649154e-01,2.732701331675668754e-01,2.682755764570685653e-01,4.535347865664909883e-03,1.732701331675668699e-01,1.682755764570685320e-01,5.363017099739613158e-01,5.176043510437011719e-01
2.197313999999999989e+00,1.631498073173036634e-01,1.067473169125045251e-01,9.660512208938598633e-01,-2.327882793219544430e-02,1.097208966323215407e-02,1.376065396133117069e-01,2.210453013236169939e-01,5.492944767399105671e-02,-1.134971007704734802e-01,-1.709859831574017941e-01,-2.461115920288018122e-01,9.736797208017891614e-02,1.045200315413489373e-01,2.630564520549519836e-01,2.463251342520428044e-01,4.520031541348935172e-03,1.630564520549519503e-01,1.463251342520427989e-01,5.296794701962235230e-01,1.783698797225952148e-01
2.224915000000000198e+00,1.706614687191100876e-01,1.085002092313122612e-01,9.637207388877868652e-01,-2.900383129499713858e-02,3.873963294915405697e-03,1.397923662307478665e-01,2.496602376592908512e-01,5.859944128374349609e-02,-9.465820342302322388e-02,-1.251737329187637138e-01,-2.161683887691189243e-01,7.717283038690148089e-02,1.021995794777549038e-01,2.683540291192499927e-01,2.633423946507122970e-01,2.199579477754897826e-03,1.683540291192500149e-01,1.633423946507122915e-01,5.337914625809889735e-01,4.592769145965576172e-01
2.251838999999999924e+00,1.779951922517755136e-01,1.104163096078387973e-01,9.615612030029296875e-01,-3.250840297375970356e-02,-2.811841106541423940e-03,1.412826037259131695e-01,2.542033265567436029e-01,7.853403544891476851e-02,-8.398286998271942139e-02,-4.112847351762545511e-02,-2.062992369296411943e-01,6.307697499256646745e-02,1.008935269033643667e-01,2.684963327995701365e-01,2.650987751139777249e-01,8.935269033643553896e-04,1.684963327995701310e-01,1.650987751139776916e-01,5.331346053259867768e-01,4.488886594772338867e-01
2.273033999999999999e+00,1.829242099853589931e-01,1.118962934154496269e-01,9.602579474449157715e-01,-3.281404776131214424e-02,-7.325264988973678726e-03,1.421284851715134412e-01,2.673983723918562094e-01,8.413846815911575627e-02,-8.365011215209960938e-02,4.145075298663772334e-02,-1.958998888896065216e-01,7.280288388532039912e-02,1.013399713322882811e-01,2.619809866662584641e-01,2.474580258166843849e-01,1.339971332288276452e-03,1.619809866662584863e-01,1.474580258166843794e-01,5.268582989418925111e-01,9.313881397247314453e-02
2.298580999999999985e+00,1.910386426356044387e-01,1.143486565501288243e-01,9.584630727767944336e-01,-3.072779837670118822e-02,-1.391256005471053214e-02,1.437740089914902875e-01,2.953562835427103739e-01,9.167767822465687499e-02,-6.140829250216484070e-02,1.592599155574885850e-01,-1.904864660534879850e-01,5.989081307549381367e-02,9.749188494018604101e-02,2.775268085542450525e-01,2.832159799095807506e-01,-2.508115059813969313e-03,1.775268085542450747e-01,1.832159799095807451e-01,5.349196692278189724e-01,6.062902212142944336e-01
2.325638999999999790e+00,1.994923101679470234e-01,1.172940341943782827e-01,9.568056464195251465e-01,-2.688564749161924047e-02,-1.817511609962552122e-02,1.457805353918242286e-01,3.022256608230856623e-01,1.179139947119418608e-01,-6.884862482547760010e-02,1.593328788799570628e-01,-4.061193220977210583e-02,7.195107561686310549e-02,9.622717294978971880e-02,2.741032833819135872e-01,2.769251726629367027e-01,-3.772827050210288483e-03,1.741032833819135817e-01,1.769251726629366972e-01,5.364685545125446042e-01,6.474850177764892578e-01
2.349321000000000215e+00,2.055634047722954549e-01,1.200667037415595190e-01,9.557057023048400879e-01,-2.339066319888357184e-02,-2.039293051215929076e-02,1.471501305772424661e-01,3.236672499668357683e-01,1.319783915071138791e-01,-6.087018176913261414e-02,1.816725342771959295e-01,-8.347359465140478940e-02,6.345788152349834954e-02,9.541373595660433693e-02,2.808692181054909809e-01,2.857725657429546207e-01,-4.586264043395662550e-03,1.808692181054909753e-01,1.857725657429545874e-01,5.359109324999881130e-01,6.344056129455566406e-01
2.376090000000000035e+00,2.147438470797665422e-01,1.244331495896848078e-01,9.538951516151428223e-01,-1.904655493704182634e-02,-2.372690284469292088e-02,1.485716173250450911e-01,3.092369756325532015e-01,1.350017211536812811e-01,-6.869128346443176270e-02,1.370504604731084819e-01,-1.087397340692312919e-01,5.838609864688149020e-02,9.633282150869627858e-02,2.784788975321682569e-01,2.742737881578912185e-01,-3.667178491303733478e-03,1.784788975321682791e-01,1.742737881578912129e-01,5.298854515998282499e-01,2.601826190948486328e-01
2.397307000000000077e+00,2.207336033737945236e-01,1.276416721145690880e-01,9.525460004806518555e-01,-1.701608677421287408e-02,-2.709491948124909122e-02,1.493162096719722332e-01,3.173195820531390376e-01,1.503039674879580734e-01,-6.931318342685699463e-02,1.310354062545774911e-01,-2.353767933124153167e-01,4.345853646739968046e-02,9.572062123836455605e-02,2.834424350707375195e-01,2.805684773768302165e-01,-4.279378761635448634e-03,1.834424350707374862e-01,1.805684773768302387e-01,5.274364416609418349e-01,1.092671155929565430e-01
2.424669000000000185e+00,2.302572840840891866e-01,1.326299723401252739e-01,9.505154490470886230e-01,-1.373461589743077936e-02,-3.546255506308115812e-02,1.491216497102334504e-01,3.367997728977341620e-01,1.630378352255268948e-01,-7.679536938667297363e-02,1.685293498927630529e-01,-3.176406002557444208e-01,-1.531197443822517046e-02,9.493435237495082002e-02,2.823766527662318615e-01,2.752618550759992067e-01,-5.065647625049183797e-03,1.823766527662318560e-01,1.752618550759991733e-01,5.242141467579111147e-01,-1.146419048309326172e-01
2.451887000000000150e+00,2.399105689778557315e-01,1.386328967753849839e-01,9.482996463775634766e-01,-1.384461979089613229e-02,-4.656363684163955519e-02,1.476141937863217901e-01,3.270537555852301992e-01,1.872246581995921644e-01,-8.312849700450897217e-02,6.498881324724153571e-03,-4.312562435481398504e-01,-5.378232067024602686e-02,9.380974705260863855e-02,2.783797933744030506e-01,2.676167084461608114e-01,-6.190252947391360061e-03,1.783797933744030451e-01,1.676167084461608059e-01,5.242152414897897073e-01,-1.567090749740600586e-01
2.473211000000000048e+00,2.464125585893572057e-01,1.429558382781588588e-01,9.469907283782958984e-01,-1.537205019374465048e-02,-5.448041731195774062e-02,1.466083607154371471e-01,3.292817509081315541e-01,1.951511356402654829e-01,-7.711191475391387939e-02,-4.964581636216439803e-02,-3.751432301655681645e-01,-4.806703796617493168e-02,9.337861610897039977e-02,2.511659241601852388e-01,2.595953573827152194e-01,-6.621383891029606651e-03,1.741160424953854535e-01,1.595953573827152139e-01,5.229011918555546146e-01,-2.181849479675292969e-01
2.500122000000000178e+00,2.561589957662471773e-01,1.497345784598765606e-01,9.448525309562683105e-01,-1.767005301670420553e-02,-6.467890714860580204e-02,1.446123850567628821e-01,3.306568086182952171e-01,2.141487901693316376e-01,-8.821328729391098022e-02,-6.419341333971761987e-02,-2.922550800400154358e-01,-4.805950738765222413e-02,9.489532495814680113e-02,1.804878939444657104e-01,2.318390876027881797e-01,-5.104675041853210492e-03,1.611846770561869702e-01,1.318390876027881742e-01,5.209826866385685040e-01,-3.849331140518188477e-01
2.521711999999999954e+00,2.627587749137398343e-01,1.545157035364352061e-01,9.434645771980285645e-01,-1.844304204719132700e-02,-7.074544824149620048e-02,1.432907501492051150e-01,3.386611703807010376e-01,2.186467895020524077e-01,-8.055973798036575317e-02,-8.946959621014593037e-03,-2.832626016789245860e-01,-6.301824867209646075e-02,1.010075067211193417e-01,1.277290448655652166e-01,1.701620337702161589e-01,1.007506721119338965e-03,1.353216312548082279e-01,7.016203377021616727e-02,5.175167682530937840e-01,-5.566465854644775391e-01
2.548941000000000123e+00,2.727575768976560067e-01,1.630609011998188640e-01,9.412264227867126465e-01,-1.900489797474130479e-02,-7.949179608453027512e-02,1.410320337053874162e-01,3.186675211732495350e-01,2.385741869924379865e-01,-9.601987898349761963e-02,6.226772341451101977e-03,-2.793919159712674460e-01,-6.380679240231841576e-02,1.157792977102930082e-01,5.491120252236358912e-03,5.171634629065252620e-02,1.577929771029299919e-02,7.833047703409475038e-02,-4.828365370934747935e-02,5.170200585460680287e-01,-6.617653965950012207e-01
2.574872000000000050e+00,2.823811479828918225e-01,1.724616358620553735e-01,9.385927915573120117e-01,-1.929067398840018932e-02,-8.692825173373086578e-02,1.392832090957993874e-01,3.143277564637341204e-01,2.466389831401766541e-01,-1.007043197751045227e-01,6.294880907493474731e-02,-2.472496660499911847e-01,-3.731140879314004399e-02,1.267834083095620012e-01,-2.469641842077213711e-02,1.105112535569725829e-02,2.678340830956199917e-02,7.530358157922786844e-02,-8.894887464430274726e-02,5.164909802471123745e-01,-7.297527194023132324e-01
2.596773000000000220e+00,2.887033743333292102e-01,1.786698499317806998e-01,9.367952942848205566e-01,-1.805671627509140495e-02,-9.179328703455857941e-02,1.384404812796751205e-01,2.984631464478736396e-01,2.410449012921702383e-01,-1.129973605275154114e-01,6.565291588288602043e-02,-1.912594988123358930e-01,-2.531071637354411624e-02,1.317908452542244091e-01,-1.809076466685702322e-02,5.302949288631814140e-04,3.179084525422440355e-02,8.190923533314298233e-02,-9.946970507113682414e-02,5.174301254093243152e-01,-7.424772381782531738e-01
2.622758999999999840e+00,2.975845364990385988e-01,1.881345111746273169e-01,9.334348440170288086e-01,-1.637718660643491114e-02,-9.666078626026575193e-02,1.377963938810351507e-01,2.915483659357571700e-01,2.577314686565663204e-01,-1.317692995071411133e-01,8.853074523316714628e-02,-1.079336923247023045e-01,6.498936918889448335e-03,1.284574935211393598e-01,-4.530894089910340178e-02,-8.522280369507126419e-03,2.845749352113935080e-02,5.469105910089660377e-02,-1.085222803695071320e-01,5.190126327035429199e-01,-7.579362392425537109e-01
2.649300000000000210e+00,3.059722815763508685e-01,1.962213094792620016e-01,9.297523498535156250e-01,-1.156182803372689770e-02,-1.007748299321880037e-01,1.379802344229279498e-01,2.852087803028389157e-01,2.554746169708381753e-01,-1.460771113634109497e-01,2.218745914080550719e-01,-4.671815292777987960e-02,4.332093563965952465e-02,1.279758969417482406e-01,-4.456335122477173005e-02,-4.560229118667422088e-03,2.797589694174823852e-02,5.543664877522827550e-02,-1.045602291186674276e-01,5.205715247225312092e-01,-7.563674449920654297e-01
2.675301000000000151e+00,3.141509778259283792e-01,2.047273634163968570e-01,9.254339933395385742e-01,-7.293672295660563049e-03,-9.999639303449625594e-02,1.398879890207331833e-01,2.869446574371112280e-01,2.800771296642813879e-01,-1.591747850179672241e-01,8.695444987650673141e-02,1.154531221712369327e-01,1.140291792057351039e-01,9.214864198426980790e-02,6.562527250005845136e-02,2.295425686831032708e-01,-7.851358015730202852e-03,1.656252725000584569e-01,1.295425686831032652e-01,5.244852760447500373e-01,-6.300909519195556641e-01
2.696797999999999806e+00,3.195033027140721238e-01,2.106352146075357867e-01,9.224414825439453125e-01,-4.813526676929896081e-03,-9.761132538004435588e-02,1.412450570105001635e-01,2.615057481126101813e-01,2.819236145449171005e-01,-1.687129735946655273e-01,5.937052488264579764e-02,1.430829281604203140e-01,9.636659731245270089e-02,8.948595050442696708e-02,7.312515921265694274e-02,2.477809853517246308e-01,-1.051404949557303327e-02,1.731251592126569483e-01,1.477809853517246252e-01,5.276677470157417060e-01,-5.162359476089477539e-01
2.724019999999999886e+00,3.271631289772754525e-01,2.195372015115697184e-01,9.177901148796081543e-01,-2.248914982645441006e-03,-9.410812391013867462e-02,1.444150580616614388e-01,2.648266690592393502e-01,2.779301149166443219e-01,-1.788415461778640747e-01,4.484490448266630763e-02,1.000875325984949687e-01,1.230392431014497717e-01,9.533058974735601765e-02,6.217823717011627949e-02,2.109544477790502581e-01,-4.669410252643993106e-03,1.621782371701162850e-01,1.109544477790502526e-01,5.252164067352114163e-01,-7.238168120384216309e-01
2.749998000000000165e+00,3.340802326214239448e-01,2.289049541664313625e-01,9.133403301239013672e-01,-5.515161599603718217e-04,-9.050189470304648154e-02,1.486013243093728953e-01,2.437456319843640529e-01,2.962523546357010429e-01,-1.746896058320999146e-01,4.696964322854176033e-02,1.263583420424054249e-01,1.406115945657300803e-01,9.316508354186865681e-02,6.879803327267633439e-02,2.261135630426141796e-01,-6.834916458131354809e-03,1.687980332726763399e-01,1.261135630426141740e-01,5.256127045798553166e-01,-7.179714441299438477e-01
2.776219000000000214e+00,3.411001840654997452e-01,2.383809921248813690e-01,9.090507626533508301e-01,1.741421694051603674e-03,-8.900728171198646343e-02,1.515588091273867288e-01,2.428774583268790144e-01,2.892916180073644150e-01,-1.794619709253311157e-01,7.867962462150307479e-02,9.263761667547490419e-02,1.075487970360396173e-01,1.017826808405877942e-01,4.807837415563001593e-02,1.621462103664133847e-01,1.782680840587793627e-03,1.480783741556300215e-01,6.214621036641337221e-02,5.258709811044786075e-01,-7.545217275619506836e-01
