timestamp,x,y,z,roll,pitch,yaw,vx,vy,vz,p,q,r,psp,qsp,rsp,pres,qres,rres,thrust_sp, thrust_res
0.000000000000000000e+00,1.393128500644826018e-02,5.810455447430172733e-03,9.850752353668212891e-01,1.483152803122702104e-02,-8.428986188080411779e-03,-4.236334869107924971e-03,-6.043358961725840868e-03,4.070643865780500118e-04,-4.003739915788173676e-03,-7.363869655689614900e-03,-3.516602730879474746e-03,3.367691984941228751e-03,-2.397889100448218347e-01,-5.041080653181959081e-02,1.113316092723718592e-01,-1.474232912063598577e-01,6.162643432617186849e-04,1.230234861373901284e-01,5.033128789705937356e-01,-5.331904888153076172e-01,-3.064054250717163086e-01,-3.851851031482841137e+01,-2.141954898834228654e-02
2.378699999999999912e-02,1.392380919956910483e-02,5.298149355330126695e-03,9.853358864784240723e-01,1.519174028891917896e-02,-8.426276902176788042e-03,-4.305027936011365970e-03,7.064310671015043737e-03,3.855206004139908813e-03,7.929687388241291046e-03,-9.695091767818742046e-03,-1.141763203538334256e-04,-1.983207718399263540e-03,3.396062519572293215e-03,1.063194318875127081e-01,1.663375795328859985e-01,9.562253952026367188e-02,1.458104252815246582e-01,1.782538712024688554e-01,5.028720509572494057e-01,-5.085937976837158203e-01,-9.042214155197143555e-01,9.286627089910651023e+01,-2.141954898834228654e-02
4.915499999999999731e-02,1.391548836988465779e-02,4.551432385147691738e-03,9.857169389724731445e-01,1.487972544918756551e-02,-8.217354278319932703e-03,-4.297765186251206564e-03,-1.046198175509115667e-02,-7.949259872791629086e-03,1.197372656315565109e-02,-1.122201531912169099e-02,1.292080612971535430e-03,-8.151578398061885139e-04,-3.456532955169679122e-02,9.167476783277286878e-02,1.784804731036718495e-01,6.543467044830321433e-02,1.458159327507018987e-01,1.903478622436523271e-01,5.024866545866293333e-01,-5.114293098449707031e-01,-7.014743089675903320e-01,8.567460762764916637e+01,-2.141954898834228654e-02
7.438100000000000267e-02,1.389839384943816758e-02,4.057000664041667849e-03,9.859250783920288086e-01,1.453662464601378386e-02,-7.801668345048140552e-03,-4.186853212652661901e-03,5.125109239527681632e-03,6.403037676624121627e-03,4.908325499854981899e-04,-1.023966128839120908e-02,1.835867885521372950e-03,-1.557304224203408900e-03,1.594975412621237043e-02,1.407658084799680021e-01,1.765445293315373310e-01,1.014113545417785617e-01,1.770714819431304932e-01,1.881431758403777910e-01,5.034583960061154162e-01,-5.056102275848388672e-01,-1.507317900657653809e+00,-2.454491999003363034e+01,-2.141954898834228654e-02
9.884900000000000631e-02,1.383958027517119549e-02,4.240867162736842826e-03,9.860214591026306152e-01,1.432278660445639347e-02,-8.344999723628232502e-03,-5.978519861242540673e-03,-6.393088492281585183e-03,-4.805397750941375369e-03,-1.382607384584844112e-03,-8.291295906842461108e-03,1.315188236551411175e-03,-6.479161360859195598e-03,-1.783896713570225501e-01,9.031395006135370385e-02,1.845863993411424320e-01,-8.329714536666869840e-02,1.417159795761108454e-01,2.011709868907928522e-01,5.025621336633214753e-01,-5.604646801948547363e-01,-7.747100591659545898e-01,9.154895963464282715e+01,-2.141954898834228654e-02
1.235959999999999975e-01,1.375256656329939230e-02,4.372197004933575659e-03,9.856151938438415527e-01,1.393497141321069395e-02,-1.005300567639433318e-02,-8.432990588401445206e-03,3.364923938793866563e-03,-9.373154208992232235e-04,-2.876666001975536346e-02,-8.619961091623142002e-03,-2.547681101517635001e-03,-1.326382592924986968e-02,-2.343258233078142905e-01,-5.157646904902429830e-02,1.683727488114535598e-01,-1.467038691043853760e-01,1.534938812255859375e-03,1.918203949928283525e-01,5.043420528660138569e-01,-5.787745714187622070e-01,-7.346004247665405273e-01,1.206516990087718142e+02,-2.141954898834228654e-02
1.504520000000000024e-01,1.363936470272177418e-02,4.447004745404214976e-03,9.849340319633483887e-01,1.393042111737612804e-02,-1.207061990965341280e-02,-1.009768119445834077e-02,-2.178831319019937634e-03,-4.002954839279975786e-03,-4.747244715690612793e-02,-7.718823856989441741e-03,-8.448198772022661590e-03,-2.050003106018184057e-02,-2.615426702699464867e-01,-1.970363484669808707e-01,1.676927852771571414e-01,-1.710073113441467341e-01,-1.248844742774963268e-01,1.957495987415313610e-01,5.045345248676735839e-01,-6.483125686645507812e-01,-1.044090867042541504e+00,8.065165236107594637e+01,-2.141954898834228654e-02
1.753210000000000046e-01,1.345046899934859708e-02,4.643633168546383756e-03,9.832035899162292480e-01,1.189114124398611520e-02,-1.459378185131177119e-02,-1.303722827535590788e-02,-6.589592402486432222e-03,4.319396445862049190e-03,-8.046911656856536865e-02,-9.480253848375211345e-03,-1.645340205597644462e-02,-2.876220022706765800e-02,-1.795572451315063378e-01,-2.717532687928592150e-01,1.676165433614017208e-01,-1.095230340957641518e-01,-1.802823543548583984e-01,2.038643896579742376e-01,5.075028146725840683e-01,-6.335615515708923340e-01,-7.483881711959838867e-01,-4.208966447708581882e+01,-2.141954898834228654e-02
1.993900000000000117e-01,1.315292210099667201e-02,4.542854965447834341e-03,9.815400242805480957e-01,8.865142548183022747e-03,-1.540829352299910582e-02,-1.480931222527546130e-02,3.581238443531547903e-03,1.810454112462015581e-03,-9.915824979543685913e-02,-1.525618204349963973e-02,-2.215991085986165204e-02,-3.542396390191421274e-02,-5.054035341556855493e-02,-2.718616069768149401e-01,1.679477007552675760e-01,2.906620502471923828e-03,-1.836369752883910966e-01,2.092328488826751542e-01,5.091749303836867746e-01,-6.312204003334045410e-01,-8.012024164199829102e-01,9.870926550762064267e+01,-2.141954898834228654e-02
2.252810000000000090e-01,1.281467841015695650e-02,4.550442995073534017e-03,9.782609343528747559e-01,1.727614562513918187e-03,-1.382592613073230225e-02,-1.772725728055234845e-02,-4.263032360232764557e-03,1.539002597598512941e-02,-1.361773908138275146e-01,-2.606826944586923545e-02,-2.321211550533532758e-02,-4.145177756061009522e-02,1.155890101892934063e-01,-2.523463196958691812e-01,1.568470514020430806e-01,1.117374300956726074e-01,-1.665495872497558538e-01,2.064084112644195557e-01,5.125360832292755742e-01,-6.194587945938110352e-01,-6.293698549270629883e-01,4.354757177051962458e+01,-2.141954898834228654e-02
2.484810000000000074e-01,1.264710920848217436e-02,4.606226478145599226e-03,9.755402207374572754e-01,-2.968200485222060279e-03,-1.103930068811465048e-02,-1.989245555817917288e-02,3.275743108571606364e-03,9.625745248924530081e-03,-1.505640149116516113e-01,-4.294865440540951429e-02,-2.046917680162802303e-02,-5.188228869818126837e-02,1.826857530219599401e-01,-1.588520442308364866e-01,1.248115710279703305e-01,1.546008110046386552e-01,-9.825536012649535578e-02,1.805311560630798173e-01,5.167843737421741190e-01,-4.684168100357055664e-01,-5.715972185134887695e-01,1.171717312870286634e+02,-2.141954898834228654e-02
2.759570000000000078e-01,1.249048111552404638e-02,4.750033396988542593e-03,9.708286523818969727e-01,-8.101244669857305541e-03,-4.809257087627027971e-03,-2.322444174709933570e-02,1.025247402673595820e-03,1.819707110997365734e-02,-1.753560751676559448e-01,-6.149648555070939132e-02,-9.968050442528813074e-03,-6.152028801274459641e-02,2.672496544234224669e-01,4.306600338948419343e-02,9.895265627359775551e-02,1.984602570533752497e-01,6.606314778327941617e-02,1.640083014965057207e-01,5.213654186355539677e-01,-3.484145402908325195e-01,-7.418588399887084961e-01,-2.326115263835752955e+00,-2.141954898834228654e-02
3.009399999999999853e-01,1.249588960171761805e-02,5.158486960538844965e-03,9.673541188240051270e-01,-9.113854403115621838e-03,-4.750573527059209766e-04,-2.524123965234643940e-02,3.249911400950714329e-03,1.213738578656419799e-02,-1.810984015464782715e-01,-7.682087299148449011e-02,5.403303708080743270e-03,-7.254794642979650598e-02,2.757730454950808041e-01,1.122060536346833476e-01,9.911194907399947795e-02,2.060781955718994085e-01,1.048286318778991616e-01,1.697747468948364313e-01,5.254653307842540588e-01,-1.731766462326049805e-01,-7.190805673599243164e-01,5.243510612609401278e+01,-2.141954898834228654e-02
3.279139999999999833e-01,1.251644980733279851e-02,5.768522488802430709e-03,9.617808461189270020e-01,-7.098030440014913359e-03,5.219041451451467140e-03,-2.834646485202741220e-02,7.811460817042737391e-03,1.288183899517762222e-02,-1.894529014825820923e-01,-8.389150348392038214e-02,2.445355989345367534e-02,-8.279456725607510503e-02,2.650795983938795120e-01,1.932591446800616397e-01,1.039461685955075931e-01,2.068098306655883623e-01,1.457545816898346003e-01,1.832617521286010742e-01,5.289680110969668947e-01,-4.860401153564453125e-02,-8.500112295150756836e-01,7.224727534210450131e+01,-2.141954898834228654e-02
3.500210000000000266e-01,1.249403504073733941e-02,5.921903470769354118e-03,9.598602056503295898e-01,-5.264056929182644486e-03,6.423005936227577095e-03,-2.912190649550279106e-02,9.973817684405205525e-03,1.763153964754400616e-02,-2.002599239349365234e-01,-8.645789047057904353e-02,4.310130821442063193e-02,-9.054462202834621942e-02,2.550374431687753574e-01,2.091419143848335938e-01,1.083183560201900208e-01,2.050628900527954046e-01,1.529391288757324108e-01,1.898243129253387451e-01,5.303816937331641279e-01,-3.356105089187622070e-02,-8.309482336044311523e-01,8.971012244591365459e+01,-2.141954898834228654e-02
3.748040000000000260e-01,1.244971354520658241e-02,6.479859363981513472e-03,9.539602994918823242e-01,1.699561653460483247e-03,7.736059890952828866e-03,-3.182563704560919388e-02,-9.168965653992548759e-03,3.393868623628733695e-03,-1.953711360692977905e-01,-7.488819460650873727e-02,5.901661732176166630e-02,-9.574886206980988412e-02,1.761743725762628943e-01,2.147245174523749467e-01,1.006477475165378221e-01,1.830405950546264704e-01,1.649422109127044733e-01,1.897839009761810303e-01,5.298085868351681826e-01,-8.091223239898681641e-02,-7.995010614395141602e-01,3.655637796629675051e+01,-2.141954898834228654e-02
4.007549999999999724e-01,1.242125560102089188e-02,6.100163241491065452e-03,9.479314088821411133e-01,1.009408378204073448e-02,5.764308951676566650e-03,-3.439636562879343218e-02,6.483913232136762073e-03,1.112200033244697267e-02,-2.134546637535095215e-01,-5.403114205928065406e-02,6.776857646263689805e-02,-9.777399663708996602e-02,7.685213530804770043e-02,2.388556470754418237e-01,9.487183220132652806e-02,1.301918864250183050e-01,1.879681169986724687e-01,1.913121700286865290e-01,5.312312518150765772e-01,-1.115512847900390625e-01,-1.135926842689514160e+00,9.847987360434575521e+01,-2.141954898834228654e-02
4.249930000000000097e-01,1.242509671655721466e-02,5.329064855522851023e-03,9.417304396629333496e-01,1.821482758072400648e-02,1.358886714209139868e-03,-3.696068806810039881e-02,-2.467497119547966498e-03,1.609906926803003624e-02,-2.163697332143783569e-01,-2.513330463870686732e-02,6.878630125109949645e-02,-9.799822708872504839e-02,-2.150134086608886663e-01,1.684134005655987254e-01,6.849088072776793323e-02,-1.150134086608886608e-01,1.556291878223419189e-01,1.684908807277679388e-01,5.338111685103233972e-01,-1.948469877243041992e-02,-1.196423411369323730e+00,9.317494080807772150e+01,-6.128108501434326172e-02
4.477059999999999929e-01,1.238650277768288573e-02,4.786993273519594798e-03,9.375141859054565430e-01,2.336054631414929278e-02,-2.523205856193477814e-03,-3.895036355727015537e-02,1.250989129415612348e-02,8.622049423213538552e-03,-2.140665203332901001e-01,6.945347027182841200e-03,6.399610860807306012e-02,-9.810973113958151859e-02,-2.782936751842498557e-01,1.191743928939213715e-01,-4.521196484565735696e-02,-1.782936751842498779e-01,1.191905558109283420e-01,5.478803515434264859e-02,5.317576020363594669e-01,-1.538004279136657715e-01,-1.356637358665466309e+00,9.892427303250346426e+01,-6.128108501434326172e-02
4.767290000000000139e-01,1.241983720287015598e-02,4.071240928869220531e-03,9.312035441398620605e-01,2.789242710387883004e-02,-8.227983364289759294e-03,-4.166029682288512059e-02,-4.475885604854045949e-03,9.769732067554232763e-03,-2.305160015821456909e-01,4.215004899505356978e-02,4.961598768938872694e-02,-9.729751940088618434e-02,-3.106873929500579834e-01,5.460281310678556654e-03,-5.113503336906433799e-02,-2.106873929500579778e-01,5.782012939453124584e-02,4.886496663093566756e-02,5.331591278442854298e-01,-1.815897226333618164e-01,-9.140623807907104492e-01,8.771042747204151624e+01,-6.128108501434326172e-02
5.003689999999999527e-01,1.229636317632304236e-02,3.726682834723755219e-03,9.267889261245727539e-01,2.813929401728781227e-02,-1.187234717993979061e-02,-4.286392750815825464e-02,1.712995861641419815e-02,1.886152539254561805e-02,-2.352395355701446533e-01,7.585677056731415790e-02,2.865640768258306131e-02,-9.645045848835079316e-02,-3.177004575729370228e-01,-1.156597793629329796e-01,4.909380674362182062e-02,-2.177004575729370173e-01,-5.782270431518554688e-02,1.490938067436218262e-01,5.294662994464357508e-01,-4.358307719230651855e-01,-1.241084694862365723e+00,7.465204151489342621e+01,-5.634448528289794783e-02
5.257309999999999484e-01,1.204648276963436911e-02,3.416149357043670506e-03,9.200123548507690430e-01,2.328157751835344819e-02,-1.590501769212138150e-02,-4.405615891062653056e-02,-1.345746318308221369e-02,1.119715179699401660e-02,-2.433862388134002686e-01,9.861835091509740803e-02,4.774268953555982353e-04,-9.316521956045462072e-02,-3.189666569232940674e-01,-2.477512717247009333e-01,1.048124253749847246e-01,-2.189666569232940618e-01,-1.477512717247009277e-01,2.048124253749847301e-01,5.312825045886506725e-01,-4.113095998764038086e-01,-6.937340497970581055e-01,1.162573055609473585e+02,-5.634448528289794783e-02
5.492989999999999817e-01,1.186157453048366540e-02,3.272231690717807180e-03,9.153459072113037109e-01,1.811783167135806380e-02,-1.745987612860044891e-02,-4.465648875790417111e-02,1.194624000145682458e-02,2.796268522091662975e-02,-2.534055709838867188e-01,1.082757656559073800e-01,-2.961898950873196809e-02,-8.870703251732782457e-02,-3.112002802381544919e-01,-2.509585759952415174e-01,1.070244431495666337e-01,-2.173118233680725042e-01,-1.541404366493225042e-01,2.070244431495666393e-01,5.340912908971904294e-01,-3.319926261901855469e-01,-1.374792218208312988e+00,9.537764266446099271e+01,-5.634448528289794783e-02
5.725149999999999961e-01,1.173551265295677548e-02,3.182205635856265227e-03,9.106338024139404297e-01,1.164747086870300541e-02,-1.783978778881634142e-02,-4.578258083357748809e-02,-5.887443701942608222e-03,9.575956708093224731e-03,-2.469962239265441895e-01,9.860858053388532607e-02,-5.857672989180316703e-02,-8.375297652395888304e-02,-2.633227620138290925e-01,-2.374653577804565485e-01,-2.150817513465881625e-02,-1.950270652770995927e-01,-1.374653577804565430e-01,7.849182486534118930e-02,5.499197389534157265e-01,5.400288105010986328e-01,3.092216253280639648e-01,-2.762211145642113763e+01,6.184432506561279158e-02
5.994810000000000416e-01,1.174788574527382834e-02,3.110124814035065619e-03,9.033070206642150879e-01,6.483341802206377602e-04,-1.512182491708990995e-02,-4.813272704724071843e-02,1.093080862810816983e-02,3.184274821457943466e-02,-2.705771327018737793e-01,7.323359012595978546e-02,-7.846274218182773541e-02,-7.934091606418268439e-02,2.014071419214907288e-01,-1.488625814068966213e-01,7.754301428794860285e-02,1.788831353187561035e-01,-6.627198457717894953e-02,1.775430142879486084e-01,5.533051847116398081e-01,5.906362533569335938e-01,-5.505787134170532227e-01,-2.340486921000470844e+01,6.184432506561279158e-02
6.255359999999999809e-01,1.208335100539546271e-02,3.146233378500380359e-03,8.960950374603271484e-01,-1.013603161669066575e-02,-9.799139370403553428e-03,-5.029660225583772876e-02,-3.441372988811011637e-03,1.715576860122013450e-02,-2.607776522636413574e-01,2.967176825424292994e-02,-8.368489669978766698e-02,-7.654422574757467623e-02,2.840178358119265223e-01,-1.286368762138986876e-01,9.882889986038206898e-02,2.059243440628051591e-01,-6.927237510681151511e-02,1.988288998603820745e-01,5.416079705948111389e-01,-7.410162687301635742e-02,-1.264103055000305176e+00,1.013105293926416550e+02,6.184432506561279158e-02
6.485290000000000221e-01,1.233547485980899215e-02,3.253712241796607226e-03,8.914361596107482910e-01,-1.612822118772365074e-02,-5.215842928234737386e-03,-5.184955577146729833e-02,1.308498391424317564e-02,3.360641412917841214e-02,-2.559581100940704346e-01,-2.489919811833425298e-02,-7.322977743700248565e-02,-7.585964522619097206e-02,3.197474479675292969e-01,-1.025142259899241293e-01,1.033996880054473821e-01,2.197474479675292913e-01,-8.710505962371825617e-02,2.033996880054473877e-01,5.372847449809867726e-01,-3.318850994110107422e-01,-7.530049085617065430e-01,8.857119523200320543e+01,6.184432506561279158e-02
6.754099999999999548e-01,1.266427576149068042e-02,3.395057325528864651e-03,8.849755525588989258e-01,-1.989827866466641754e-02,2.966235862271737744e-04,-5.436451108383462405e-02,-2.070233996814382655e-03,9.400704259759740805e-03,-2.339930534362792969e-01,-7.800704077938631908e-02,-4.736134129390291714e-02,-7.495959049933090257e-02,3.196035742759704701e-01,1.291676302383383546e-01,9.176381826400756281e-02,2.196035742759704645e-01,1.207341849803924561e-01,1.917638182640075684e-01,5.399478878700827433e-01,-1.402169466018676758e-01,-3.303250074386596680e-01,5.124668053126847411e+01,6.184432506561279158e-02
6.987100000000000533e-01,1.278446367074562683e-02,3.566275415760611963e-03,8.809709548950195312e-01,-1.804582552759866412e-02,2.961373258698829503e-03,-5.611244600097611140e-02,5.252775208732918429e-03,3.046040277028681451e-02,-2.280535995960235596e-01,-1.208110043938722955e-01,-1.674545405775305917e-02,-7.437937240690900564e-02,3.217955827713012695e-01,1.069256146980893246e-01,9.327679872512817383e-02,2.217955827713012640e-01,7.455793619155882956e-02,1.932767987251281794e-01,5.450597468109099619e-01,1.349442005157470703e-01,-1.396342635154724121e+00,7.192245203574620405e+01,6.184432506561279158e-02
7.250299999999999523e-01,1.280917705449321695e-02,4.013192277947953343e-03,8.754095435142517090e-01,-1.134791256575853023e-02,5.278041118955245636e-03,-5.907754209850680366e-02,9.152458046905091824e-05,2.045898441869177173e-02,-2.057145535945892334e-01,-1.430667913812914693e-01,1.583023233796973517e-02,-7.474505307586501446e-02,3.013225762216137360e-01,1.237693723725733497e-01,7.335166931152342640e-02,2.127461671829223577e-01,8.113596439361571433e-02,1.733516693115234319e-01,5.524187041897284933e-01,5.988409519195556641e-01,-9.556676149368286133e-01,7.660311920225342419e+01,6.184432506561279158e-02
7.496779999999999555e-01,1.286712069525376527e-02,4.349568918563442160e-03,8.719010949134826660e-01,-5.016430674515954917e-03,6.121736492097129556e-03,-6.132107416846888787e-02,1.178810979877810590e-02,2.594943493792544603e-02,-2.096540927886962891e-01,-1.461150397221734343e-01,4.443148595902886300e-02,-7.503516455859823853e-02,2.619718721422264474e-01,1.733830175124181916e-01,7.875009775161742609e-02,2.085241198539733720e-01,1.166721582412719727e-01,1.787500977516174316e-01,5.525218829118607733e-01,5.582687854766845703e-01,-1.261748671531677246e+00,9.351895011581459016e+01,6.184432506561279158e-02
7.735419999999999519e-01,1.288427330366980622e-02,4.725779031857038105e-03,8.686106204986572266e-01,1.851169142242681991e-03,5.620556873516147078e-03,-6.298201741415926369e-02,9.386883326590713186e-03,2.878045025748117783e-02,-1.989774405956268311e-01,-1.267984948379561050e-01,6.696629554304853182e-02,-7.793274155604287823e-02,2.158791969488723372e-01,1.747385585456919244e-01,7.900163531303405762e-02,2.054876089096069336e-01,1.252397775650024303e-01,1.790016353130340632e-01,5.512926504994608568e-01,5.014605522155761719e-01,-1.266203045845031738e+00,8.783552238669030032e+01,6.184432506561279158e-02
7.992629999999999457e-01,1.258436837049423801e-02,5.365581569113747791e-03,8.640767335891723633e-01,1.197654428594957000e-02,3.060558666871049383e-03,-6.577517327300975991e-02,7.607263120040998368e-03,3.455535283184680423e-02,-1.869240999221801758e-01,-8.919358003304266036e-02,7.909920848166449026e-02,-8.146721939677925572e-02,1.191490740416904504e-01,1.591174763394456182e-01,5.335111618041990522e-02,1.699875354766845759e-01,1.285585641860961803e-01,1.533511161804199108e-01,5.504810895398978277e-01,4.691776037216186523e-01,-1.314393401145935059e+00,9.636952273573024286e+01,6.184432506561279158e-02
8.282450000000000090e-01,1.162383808730219591e-02,5.980897563180420477e-03,8.600873351097106934e-01,2.116182327443266384e-02,-1.249174303501465744e-03,-6.865999989619224475e-02,4.904826407280246138e-03,2.533581205802650990e-02,-1.656984835863113403e-01,-3.958873524729348420e-02,8.009260972552902091e-02,-8.560869572817214612e-02,-3.050990819931030384e-01,7.438366461317241773e-02,-1.141844153404235895e-01,-2.050990819931030329e-01,7.466536760330200195e-02,-1.418441534042358398e-02,5.501313615811186386e-01,5.023467540740966797e-01,-9.005924463272094727e-01,5.890265664740869056e+01,6.184432506561279158e-02
8.474249999999999838e-01,1.132050003471492781e-02,6.205501417351392580e-03,8.588648438453674316e-01,2.392258767410953418e-02,-2.772787568563250815e-03,-6.958666368412291803e-02,7.420475115934367302e-03,2.690266900004262968e-02,-1.721921563148498535e-01,2.032475483325415014e-02,7.053223885526790915e-02,-8.953541679332935321e-02,-3.230704367160797119e-01,-1.472742748333752405e-01,-1.566956043243408203e-01,-2.230704367160797064e-01,-1.387179851531982477e-01,-5.669560432434081476e-02,5.446673765777625409e-01,1.493407487869262695e-01,-1.261602282524108887e+00,8.958483628596810888e+01,6.184432506561279158e-02
8.726859999999999618e-01,1.040925123799596452e-02,6.806758335051818314e-03,8.554669022560119629e-01,3.090264758265736517e-02,-7.521718177332159527e-03,-7.218784813710202308e-02,2.164696620265068282e-03,3.526327507897525360e-02,-1.613814532756805420e-01,8.088964296801377796e-02,4.719571235279779176e-02,-9.205878737096967468e-02,-3.227341234683990256e-01,-3.035156390474452043e-02,1.130712509155273326e-01,-2.227341234683990479e-01,1.496177315711975063e-02,2.130712509155273382e-01,5.439917840346104594e-01,1.255033016204833984e-01,-9.000903367996215820e-01,4.233909615538551918e+01,6.184432506561279158e-02
8.973830000000000418e-01,9.776674368196677095e-03,7.290728456804723180e-03,8.534668684005737305e-01,3.262048140075496372e-02,-1.027310521199442661e-02,-7.290779553715757977e-02,2.633532731134398744e-03,3.347766566961599133e-02,-1.599022448062896729e-01,1.373575674095895427e-01,1.704239715490942289e-02,-9.223901700996006703e-02,-3.229712486267090066e-01,-1.952797745552255770e-01,1.000843882560729925e-01,-2.229712486267089733e-01,-1.327036499977111705e-01,2.000843882560729980e-01,5.333045659079277412e-01,-4.844515919685363770e-01,-6.810921430587768555e-01,1.871686642032890546e+01,6.184432506561279158e-02
9.271230000000000304e-01,9.167058165727340335e-03,9.244598099280448150e-03,8.496777415275573730e-01,2.686204675780031609e-02,-1.081298267373553834e-02,-7.405563334733929193e-02,7.736997528100909155e-03,3.630349073367371282e-02,-1.483176499605178833e-01,1.673107295963058572e-01,-1.172077091243839755e-02,-8.996199818158438777e-02,-3.221404790878296120e-01,-2.245195562188984639e-01,9.667446017265318714e-02,-2.221404790878295787e-01,-1.621600985527038574e-01,1.966744601726531927e-01,5.336532133332848593e-01,-4.494678974151611328e-01,-6.831012964248657227e-01,9.455154494472628812e+01,6.184432506561279158e-02
9.506900000000000350e-01,9.024204902629116495e-03,1.032446118525854641e-02,8.479831218719482422e-01,2.100730693410987268e-02,-9.646055040577028450e-03,-7.550887698965362549e-02,1.680401241709985130e-02,4.425212425533246036e-02,-1.522453725337982178e-01,1.771031552583295365e-01,-3.456326308163919919e-02,-8.716738044772459615e-02,-3.171145657717780453e-01,-1.938164314587223491e-01,7.526810765266417347e-02,-2.190525412559509166e-01,-1.451699495315551813e-01,1.752681076526641790e-01,5.344943465643927638e-01,-4.406962394714355469e-01,-1.550635814666748047e+00,6.251964479409147657e+01,6.184432506561279158e-02
9.751419999999999533e-01,8.912887181905269907e-03,1.197671912278958778e-02,8.455343246459960938e-01,1.094815451917560169e-02,-5.959411568334127551e-03,-7.857775647256451390e-02,1.065593779447927478e-02,3.630597729043234800e-02,-1.422715932130813599e-01,1.543043789619991113e-01,-4.439046521709390930e-02,-8.533295694706641288e-02,-2.339604056121591391e-01,-1.195790376520945997e-01,-1.091564893722535290e-02,-1.948043525218963457e-01,-9.044137001037597101e-02,8.908435106277465265e-02,5.379215383695277186e-01,-2.363175749778747559e-01,-8.145922422409057617e-01,8.870650810965032917e+01,6.184432506561279158e-02
1.004504000000000064e+00,8.882584861576390753e-03,1.308580713704031277e-02,8.439641594886779785e-01,3.520149204218484765e-03,-2.633136225527188401e-03,-8.034985626124463431e-02,2.348626114583922744e-02,4.109582249796282089e-02,-1.574504673480987549e-01,1.116605326435300000e-01,-4.276879027325412863e-02,-8.358330192646966361e-02,-6.729465417849472830e-02,-1.589274934922155214e-02,-4.009815454483033059e-02,-8.197664022445678988e-02,-1.907540559768676827e-02,5.990184545516967496e-02,5.417913951111970050e-01,-1.033588647842407227e-01,-7.847617864608764648e-01,7.673046807932830404e+01,6.184432506561279158e-02
1.032073999999999936e+00,9.073243944058966351e-03,1.388545437050091313e-02,8.431753516197204590e-01,5.227537386272578819e-05,-1.076790732035481923e-03,-8.136923060015260889e-02,2.172201595107848757e-02,4.345714883131513578e-02,-1.466991752386093140e-01,5.775426693856351712e-02,-3.455121340747586284e-02,-8.252924019461496674e-02,1.818670017226640123e-01,-6.601605972652954679e-03,-1.628915429115295466e-01,1.431995630264282227e-01,-1.736791133880615304e-02,-6.289154291152954102e-02,5.422704078356381796e-01,-5.249387025833129883e-02,-8.016227483749389648e-01,1.381474744545695899e+02,6.184432506561279158e-02
1.050570000000000004e+00,9.234814245432931834e-03,1.469900123119796155e-02,8.423765897750854492e-01,-3.493344473487547570e-03,7.765021114649606204e-04,-8.221154306417467750e-02,1.082360010091510186e-02,4.090587366882564996e-02,-1.419849842786788940e-01,-4.995759932814686395e-03,-1.741978471006657217e-02,-8.244761949697214376e-02,2.545974828146450042e-01,-6.125689316191185174e-02,-9.362070560455322543e-02,1.951202630996703991e-01,-7.694156169891357144e-02,6.379294395446777517e-03,5.429281758647400702e-01,-1.524293422698974609e-02,-9.421414136886596680e-01,6.850475514866606375e+01,6.184432506561279158e-02
1.079849000000000059e+00,9.799985122680082011e-03,1.712110468153205112e-02,8.405342698097229004e-01,-1.276302869788746228e-02,5.920318942756574998e-03,-8.407971087958665546e-02,2.316122388558336520e-02,4.187494362805151832e-02,-1.292491555213928223e-01,-6.955272643379140085e-02,9.250960513051761577e-03,-8.140147411932409371e-02,3.164484024047851674e-01,2.125730457077461555e-01,5.566305518150327369e-02,2.164484024047851618e-01,1.516033351421356146e-01,1.556630551815032792e-01,5.413186261068868577e-01,-7.648485898971557617e-02,-7.360690832138061523e-01,7.317699386173747200e+01,6.184432506561279158e-02
1.096959999999999935e+00,9.991091835647850083e-03,1.794480823120804189e-02,8.399430513381958008e-01,-1.517500878599114741e-02,7.283910949368532783e-03,-8.450115447706782468e-02,1.898177461645750297e-02,5.284237482942266695e-02,-1.269319802522659302e-01,-1.323102415790705644e-01,3.838176188326582194e-02,-8.014246183879314422e-02,3.180890560150146373e-01,2.434905613482397646e-01,6.279213428497312788e-02,2.180890560150146318e-01,1.784846127033233587e-01,1.627921342849731334e-01,5.396407493412128664e-01,-1.774276494979858398e-01,-9.741727113723754883e-01,6.902571416723044706e+01,6.184432506561279158e-02
1.127226000000000061e+00,1.073947863492935584e-02,2.133769236916903747e-02,8.382557034492492676e-01,-2.086810339605019160e-02,1.004351796695046595e-02,-8.460922384359688408e-02,2.333597047550623610e-02,5.408550644049706091e-02,-1.136674806475639343e-01,-1.815992552109325642e-01,6.670960649608984050e-02,-7.487365955843786058e-02,3.220890522003173606e-01,2.847257567822133462e-01,9.061438441276548073e-02,2.220890522003173828e-01,1.968853354454040416e-01,1.906143844127654863e-01,5.392662998233468397e-01,-1.663346886634826660e-01,-9.104031324386596680e-01,1.531088399069424497e+02,6.184432506561279158e-02
1.148647999999999891e+00,1.115486617770714006e-02,2.303715748543173208e-02,8.377028703689575195e-01,-2.004491262818182407e-02,1.000090578116985540e-02,-8.485068196504888527e-02,1.589594841268063621e-02,5.096740370794218544e-02,-9.397781640291213989e-02,-2.184062413292093829e-01,9.172944985879676050e-02,-6.970803303612045643e-02,3.219841957092285378e-01,2.762782364908947796e-01,9.846200942993163507e-02,2.219841957092285045e-01,1.944218516349792425e-01,1.984620094299316406e-01,5.367296106700372160e-01,-2.440031170845031738e-01,-8.757091760635375977e-01,9.068558957260736975e+01,6.184432506561279158e-02
1.176414999999999988e+00,1.191143539281025975e-02,2.552968597393509217e-02,8.372983932495117188e-01,-1.428266454104101107e-02,8.012429408376764428e-03,-8.619724227828279295e-02,3.348029975641126504e-02,5.381024740188333072e-02,-7.262375205755233765e-02,-2.220100045983479098e-01,1.024726600508318458e-01,-6.659880280184110601e-02,3.188696503639221191e-01,2.603381627210394900e-01,6.159295439720152698e-02,2.188696503639221136e-01,1.777181625366210938e-01,1.615929543972015325e-01,5.331193512311797056e-01,-3.723883628845214844e-01,-6.618129014968872070e-01,7.916006198975021846e+01,6.184432506561279158e-02
1.199117999999999906e+00,1.240051542644141948e-02,2.721813914701189802e-02,8.371917605400085449e-01,-9.046465294471466370e-03,5.420677442105503729e-03,-8.740219331866597163e-02,1.203353204767954390e-02,5.377251358436579975e-02,-7.733973860740661621e-02,-2.059691955262135110e-01,1.021032572908621150e-01,-6.394300043661803323e-02,3.159399628639221191e-01,2.123327612355771499e-01,5.999330282211301490e-02,2.159399628639221136e-01,1.652165114879608210e-01,1.599933028221130205e-01,5.330767099954120125e-01,-4.056181907653808594e-01,-8.386465311050415039e-01,9.277206893007368649e+01,6.184432506561279158e-02
1.230515000000000025e+00,1.315621942506603297e-02,2.982007124533199785e-02,8.372466564178466797e-01,6.563357179781242976e-04,-1.160697067165372687e-03,-8.943478053407868944e-02,3.679775570975935689e-02,6.539683784693477164e-02,-6.633061915636062622e-02,-1.627663037552267711e-01,8.387568194596500826e-02,-6.212492974859872008e-02,2.747385504849433890e-01,1.662787011117642100e-01,9.811854362487784642e-03,2.126737117767333873e-01,1.420634150505065973e-01,1.098118543624877902e-01,5.309253789158042691e-01,-4.920396208763122559e-01,-1.318542122840881348e+00,1.003185127175890017e+02,6.184432506561279158e-02
1.250863999999999976e+00,1.342108765980453734e-02,3.069969010790165112e-02,8.372855782508850098e-01,4.035409686682586011e-03,-3.986755152600274243e-03,-9.051514824423244343e-02,2.006354190612540112e-02,5.581199299409337483e-02,-5.840801447629928589e-02,-1.089899209693138138e-01,5.578585314064332668e-02,-6.057547156442900926e-02,2.355614892935029847e-01,1.083790384949815944e-01,3.206780552864074707e-02,2.039934396743774414e-01,1.179275929927825900e-01,1.320678055286407526e-01,5.301780067257229057e-01,-5.121864676475524902e-01,-5.923801660537719727e-01,1.381749454754113913e+02,6.184432506561279158e-02
1.275627000000000066e+00,1.416565061048795544e-02,3.244536068511306298e-02,8.374319672584533691e-01,1.399993272721052930e-02,-1.219354573940401032e-02,-9.284671171108802024e-02,2.504651448503557309e-02,7.286614441442225421e-02,-6.422070413827896118e-02,-4.805477671834285786e-02,1.792353311622330719e-02,-5.948389855211534682e-02,1.454178173264376595e-01,-1.382676778568088793e-01,2.280890941619871659e-02,1.618394136428832897e-01,-7.934439182281494141e-02,1.228089094161987221e-01,5.308764061668894696e-01,-5.081502795219421387e-01,-8.810149431228637695e-01,8.418979280398009735e+01,6.184432506561279158e-02
1.299479999999999968e+00,1.481423804219947175e-02,3.418296935638591438e-02,8.376212120056152344e-01,2.432382134984561323e-02,-2.037228293838166948e-02,-9.512955315638987885e-02,9.376143984755325872e-03,5.973504725974241453e-02,-5.649402737617492676e-02,1.556247094038546927e-02,-2.591440167003081219e-02,-5.789392796918139961e-02,-2.757959272557293784e-01,-3.117292165756225808e-01,1.195729792118072343e-01,-1.819289624691009521e-01,-2.117292165756225475e-01,2.195729792118072399e-01,5.267233809623897978e-01,-7.143795490264892578e-01,-7.640808820724487305e-01,4.346951636868472235e+01,6.184432506561279158e-02
1.324473000000000011e+00,1.539305481420066499e-02,3.583052076198724872e-02,8.377059102058410645e-01,3.406383390931068400e-02,-2.737154148905296402e-02,-9.705227730464875691e-02,2.934361773238451654e-02,6.490974754873907182e-02,-6.126921251416206360e-02,7.786853043677630093e-02,-7.244821573480185462e-02,-5.697209851950602033e-02,-3.264119684696197288e-01,-3.193002700805663840e-01,1.283438026905059648e-01,-2.264119684696197510e-01,-2.193002700805664062e-01,2.283438026905059703e-01,5.268798034411079634e-01,-7.359513044357299805e-01,-1.276766657829284668e+00,5.068459011352227606e+01,6.184432506561279158e-02
1.348896000000000095e+00,1.610439654361299142e-02,3.759174987477743868e-02,8.375505208969116211e-01,4.249181522198462041e-02,-3.261166578113239289e-02,-9.886578396368729538e-02,1.398327020913637511e-04,4.567860192862489149e-02,-5.629330128431320190e-02,1.370024282023748763e-01,-1.155634986113344975e-01,-5.481338679445008077e-02,-3.278061091899872048e-01,-3.238514065742492676e-01,1.284306526184081920e-01,-2.278061091899871715e-01,-2.238514065742492620e-01,2.284306526184081976e-01,5.267397703762166650e-01,-7.348755002021789551e-01,-1.120992064476013184e+00,9.693487798389971033e+01,6.184432506561279158e-02
1.372867999999999977e+00,1.694150594611892532e-02,3.933301567023037015e-02,8.373522162437438965e-01,4.723471533775935871e-02,-3.234263939323023251e-02,-1.011394276081766380e-01,2.358748039146105549e-02,6.132819358868698417e-02,-8.198893815279006958e-02,1.817130503414049747e-01,-1.446705774843928816e-01,-5.662706080249999691e-02,-3.278985559940338357e-01,-3.231266021728515514e-01,1.284057617187499833e-01,-2.278985559940338024e-01,-2.231266021728515458e-01,2.284057617187499889e-01,5.287991264861426899e-01,-7.376284003257751465e-01,-7.808202505111694336e-01,1.148355743644525262e+02,6.184432506561279158e-02
1.397987000000000091e+00,1.794448990105828104e-02,4.113190174095524704e-02,8.365787863731384277e-01,4.471043331071800769e-02,-2.560494605086982567e-02,-1.040427784916355125e-01,1.633662684016290098e-02,5.369288868865123437e-02,-8.737484365701675415e-02,2.084190344280736351e-01,-1.551051149708744525e-01,-6.178789507121563995e-02,-3.276914894580841286e-01,-3.166932344436645397e-01,1.281781494617461881e-01,-2.276914894580840953e-01,-2.166932344436645341e-01,2.281781494617461936e-01,5.293953338281337517e-01,-7.416070699691772461e-01,-5.679069757461547852e-01,8.783699087736185618e+01,6.184432506561279158e-02
1.422552000000000039e+00,1.905310253723496369e-02,4.300090905414247211e-02,8.354151844978332520e-01,3.714544119163251668e-02,-1.585518913227268456e-02,-1.068937793487810400e-01,1.786081101340620397e-02,5.138777648234549994e-02,-1.042029261589050293e-01,2.058483479751482825e-01,-1.398511194503873345e-01,-6.846606004173431959e-02,-3.261492013931274192e-01,-2.689943045074133510e-01,1.219353973865509033e-01,-2.261492013931274414e-01,-1.807773113250732422e-01,2.219353973865509089e-01,5.312590068691117606e-01,-7.240704894065856934e-01,-1.185940146446228027e+00,2.212045213658381115e+01,6.184432506561279158e-02
1.447389999999999954e+00,2.043080856327670475e-02,4.497904968412862886e-02,8.340162634849548340e-01,2.797583525408584015e-02,-4.997899695688534649e-03,-1.100032865617560363e-01,1.985955345767803637e-02,5.028498681111536611e-02,-1.141294166445732117e-01,1.803747408954447795e-01,-1.050216265961793349e-01,-7.592448220504667555e-02,-3.205539882183074951e-01,6.084654658912475034e-02,4.918834567070007324e-02,-2.205539882183074896e-01,7.540290355682373324e-02,1.491883456707000788e-01,5.337431739073182912e-01,-6.463465094566345215e-01,-1.154564738273620605e+00,9.732287370989145359e+01,6.184432506561279158e-02
1.474123999999999990e+00,2.177518353337030282e-02,4.683789918226210353e-02,8.324355483055114746e-01,1.828924311092797531e-02,5.517637054962998278e-03,-1.130253374149879364e-01,1.991878274996286211e-02,4.331554859626823156e-02,-1.087753549218177795e-01,1.347375901878327398e-01,-5.484074654240833624e-02,-8.085611954609517316e-02,-2.728020832865268863e-01,2.363526441685796231e-01,-1.505850315093994196e-01,-2.152269959449767955e-01,1.803310096263885387e-01,-5.058503150939941406e-02,5.348205407534913913e-01,-5.858048796653747559e-01,-2.136958837509155273e-01,1.115971289619501903e+02,2.560131549835205009e-02
1.499090000000000034e+00,2.267242146167561603e-02,4.807229481318366082e-02,8.314087986946105957e-01,1.176607880057345575e-02,1.188689436233025809e-02,-1.149619502166152468e-01,1.728991769611345347e-02,4.523185764340485054e-02,-1.112402454018592834e-01,8.296362146898514367e-02,-7.147876644577278111e-04,-8.469604099028636701e-02,-1.867460542099494414e-01,2.829522365244758197e-01,-1.505116105079650768e-01,-1.736704051494598333e-01,1.862571358680724931e-01,-5.051161050796508512e-02,5.348754350613813546e-01,-6.106378436088562012e-01,-1.205614924430847168e+00,1.363888458848111895e+01,2.560131549835205009e-02
1.525112000000000023e+00,2.368038823943838592e-02,4.992156214259182989e-02,8.298893570899963379e-01,2.473079954571443147e-03,1.666139066520622158e-02,-1.160120517947345470e-01,1.099287474816718242e-02,4.742686460789521941e-02,-1.041636914014816284e-01,2.478495641467838920e-02,5.601036496883009252e-02,-8.440472696710757394e-02,2.119088101784769307e-01,3.101914346218109242e-01,2.264663577079771561e-02,1.629711627960205023e-01,2.101914346218109186e-01,1.226466357707977212e-01,5.355216759531049586e-01,-5.667862892150878906e-01,-7.485450506210327148e-01,3.847242702849833051e+01,2.560131549835205009e-02
1.550540999999999947e+00,2.420604264108925513e-02,5.120126169682932826e-02,8.290110826492309570e-01,-2.745905705941341715e-03,1.629494441035084229e-02,-1.157639559820284325e-01,7.615707108665382453e-03,5.423536480771711660e-02,-9.006284922361373901e-02,-3.492328119819705645e-02,1.082210017998916501e-01,-8.185306250993341914e-02,2.955228554228250815e-01,3.133678138256072998e-01,5.296711325645445112e-02,2.068518877029418834e-01,2.133678138256072943e-01,1.529671132564544567e-01,5.370686806790938572e-01,-4.422943592071533203e-01,-6.862109899520874023e-01,-1.275855704503853616e+02,2.560131549835205009e-02
1.573841999999999963e+00,2.493678564221338961e-02,5.311744272470424189e-02,8.279952406883239746e-01,-8.764306217784848668e-03,1.109441732353522170e-02,-1.154924649883521531e-01,1.163188260889908357e-02,5.142852796253646885e-02,-7.380611449480056763e-02,-9.073268367659112488e-02,1.438881235916527057e-01,-7.631888058716977674e-02,3.074147224426269642e-01,3.036218564076432758e-01,6.129136681556701660e-02,2.074147224426269587e-01,2.101898074150085338e-01,1.612913668155670222e-01,5.352625981914200803e-01,-4.941654205322265625e-01,-1.201763272285461426e+00,-1.294711671141724310e+02,2.560131549835205009e-02
1.599269000000000052e+00,2.544361664987518715e-02,5.436581639574070146e-02,8.274832367897033691e-01,-1.025129090613280565e-02,5.385897314800658364e-03,-1.162311870239581962e-01,9.534810774831144892e-03,4.522649719532598200e-02,-6.934852153062820435e-02,-1.407849735542532899e-01,1.630154929408436648e-01,-7.098014813141903523e-02,3.121618032455444336e-01,2.483332170075502887e-01,5.794223546981810968e-02,2.121618032455444280e-01,1.931643068790435680e-01,1.579422354698181152e-01,5.354036137975932697e-01,-4.827734231948852539e-01,-9.552534818649291992e-01,1.066630959281813489e+02,2.560131549835205009e-02
1.622778999999999971e+00,2.587792334647040851e-02,5.553905670769340025e-02,8.270957469940185547e-01,-9.020460619776599076e-03,-1.469100854167848524e-03,-1.166104998456863467e-01,2.230150082680062637e-02,6.201204149499366103e-02,-7.211329787969589233e-02,-1.788213934234580971e-01,1.614796160203872399e-01,-6.583317150268583329e-02,3.154947161674499512e-01,1.884708496128078281e-01,5.052079558372496448e-02,2.154947161674499456e-01,1.693795859813690130e-01,1.505207955837249700e-01,5.360795528246572461e-01,-4.707734584808349609e-01,-7.869836091995239258e-01,1.233609345241924018e+02,2.560131549835205009e-02
1.647183000000000064e+00,2.589931340008456637e-02,5.713730091250947968e-02,8.266388177871704102e-01,-3.128694651809693032e-03,-1.271370631751778113e-02,-1.180457632476590857e-01,8.039875373417312843e-03,4.780126154396681371e-02,-5.250161513686180115e-02,-1.933188439837497385e-01,1.326264480086922215e-01,-6.070186233737118187e-02,2.989103853279827527e-01,6.605065648802269096e-03,1.123164951801299827e-01,2.045093536376953181e-01,7.250983715057372769e-02,2.123164951801299882e-01,5.356738119350783478e-01,-4.282612204551696777e-01,-1.062739253044128418e+00,8.897460669495166030e+01,-4.273917675018310686e-02
1.674371999999999971e+00,2.589906275556638771e-02,5.813848173597032515e-02,8.263462781906127930e-01,2.332013936626242245e-03,-1.960181681926198571e-02,-1.194041120380751747e-01,2.034221098681838688e-02,5.221976178457032186e-02,-6.327395141124725342e-02,-1.832441436309336091e-01,8.124910805738985720e-02,-5.559088185994474907e-02,2.747288090816364381e-01,-2.947092056274414062e-01,9.399614930152891401e-02,2.077388763427734375e-01,-1.947092056274414007e-01,1.939961493015289196e-01,5.347493279221416929e-01,-5.351639986038208008e-01,-1.145871758460998535e+00,9.596724508418400035e+01,3.468277454376220842e-02
1.698171000000000097e+00,2.594990698818869929e-02,5.969917380318066208e-02,8.259008526802062988e-01,1.123013083535644163e-02,-2.776878338974642091e-02,-1.213679099037244385e-01,1.644278591576101359e-02,4.746998981441839099e-02,-5.937246605753898621e-02,-1.483178323006601740e-01,1.574057420377851166e-02,-5.065352082588905208e-02,1.861367173167741973e-01,-3.103452682495116965e-01,1.066384017467498779e-01,1.787002801895141435e-01,-2.103452682495117188e-01,2.066384017467498835e-01,5.322531254368585429e-01,-6.704040765762329102e-01,-9.326945543289184570e-01,9.881472362840563051e+01,3.468277454376220842e-02
1.724452000000000096e+00,2.603847478229005113e-02,6.096135360063482250e-02,8.253270983695983887e-01,2.024794377408796822e-02,-3.183201599844154295e-02,-1.239834560496114041e-01,6.137063026123458324e-03,4.139775097010466726e-02,-6.044586747884750366e-02,-9.886461536200562283e-02,-4.988847369766794687e-02,-4.730569394173837761e-02,3.071925348147609008e-02,-3.185829401016235241e-01,1.145520448684692327e-01,8.449323177337646207e-02,-2.185829401016235185e-01,2.145520448684692383e-01,5.316516814481391240e-01,-7.215169668197631836e-01,-6.167422533035278320e-01,1.190785698391344880e+02,3.468277454376220842e-02
1.750529999999999919e+00,2.624361749109521344e-02,6.145382188591535372e-02,8.247643709182739258e-01,2.588681363471925095e-02,-3.120182604465471243e-02,-1.259243778246487977e-01,2.174071377478612940e-02,4.957277345622514847e-02,-6.790938973426818848e-02,-4.523361038050985328e-02,-1.072256934397295414e-01,-4.457947011758968403e-02,-2.001581002711022572e-01,-3.171011447906494363e-01,1.191939651966094915e-01,-1.182633519172668346e-01,-2.171011447906494030e-01,2.191939651966094971e-01,5.323904518893435300e-01,-7.252327203750610352e-01,-6.737335920333862305e-01,1.187645997033673382e+02,3.468277454376220842e-02
1.777530000000000054e+00,2.644595438443453697e-02,6.191728144654571470e-02,8.240790963172912598e-01,3.101389336523473553e-02,-2.819068812164227111e-02,-1.278022342755477381e-01,1.130950070184304906e-02,4.380958671877827754e-02,-6.521764397621154785e-02,1.106249267085271902e-02,-1.500560368415836954e-01,-4.573740525264447659e-02,-2.969956815242767445e-01,-3.188863873481750377e-01,1.237497866153716986e-01,-1.969956815242767389e-01,-2.188863873481750322e-01,2.237497866153717041e-01,5.324961126075399287e-01,-7.232601642608642578e-01,-9.671951532363891602e-01,9.329989228875393792e+01,3.468277454376220842e-02
1.802510999999999974e+00,2.670762977412920874e-02,6.236996202449258259e-02,8.232613205909729004e-01,3.465761345157459400e-02,-2.269407684747548615e-02,-1.296439356311160640e-01,1.057784406049226862e-02,3.928868393772612377e-02,-7.435111701488494873e-02,6.529936196926684755e-02,-1.725214086547633141e-01,-4.860997866854853411e-02,-3.210364103317260853e-01,-3.145391702651977317e-01,1.257081925868987760e-01,-2.210364103317260798e-01,-2.145391702651977539e-01,2.257081925868987815e-01,5.335541986488929744e-01,-7.168766856193542480e-01,-1.025715231895446777e+00,-1.024421619645185331e+02,3.468277454376220842e-02
1.825155000000000083e+00,2.694981425408929376e-02,6.280576525551137546e-02,8.223294615745544434e-01,3.679113737193694805e-02,-1.624137619094256912e-02,-1.316441751044696851e-01,2.558370065221595574e-02,5.091046371959265932e-02,-8.469467610120773315e-02,1.147990858247702056e-01,-1.677571543327675552e-01,-5.598673626165536626e-02,-3.239299595355987771e-01,-2.782410315966469261e-01,1.235750138759612871e-01,-2.239299595355987438e-01,-1.958317279815673662e-01,2.235750138759612926e-01,5.346797179805586886e-01,-7.130395174026489258e-01,-9.994825124740600586e-01,1.049617436172553653e+02,3.468277454376220842e-02
1.849177000000000071e+00,2.741725860415555188e-02,6.335313728118383003e-02,8.212442398071289062e-01,3.658018598531656562e-02,-9.194630857892294173e-03,-1.336146193140635707e-01,1.171228301763747696e-02,3.131724390947124986e-02,-8.682531118392944336e-02,1.547612997688165293e-01,-1.405513351274803591e-01,-6.409321514221769100e-02,-3.256868958473205788e-01,-1.455372574139061903e-01,1.189976811408996471e-01,-2.256868958473205455e-01,-9.865511655807494840e-02,2.189976811408996527e-01,5.350971431697491010e-01,-7.153130173683166504e-01,-7.806080579757690430e-01,3.919192940095123134e+01,3.468277454376220842e-02
1.875456000000000012e+00,2.845586611455641277e-02,6.428449399654588559e-02,8.194115161895751953e-01,3.257257543449550846e-02,1.847169178660124089e-03,-1.365230262008431394e-01,2.673241471370977826e-02,4.944284307852354898e-02,-8.792721480131149292e-02,1.765432767940902370e-01,-9.176303958004483619e-02,-7.328373146247453562e-02,-3.228729724884032981e-01,2.218414599666374831e-01,4.247593879699695929e-03,-2.228729724884033203e-01,1.849196076393127275e-01,1.042475938796997015e-01,5.360665164536021488e-01,-6.875921487808227539e-01,-6.058102846145629883e-01,2.952222227219449380e+01,3.468277454376220842e-02
1.899156000000000066e+00,2.916910117956096962e-02,6.487950527582499183e-02,8.180537223815917969e-01,2.796179001848654241e-02,9.051530629072157552e-03,-1.384865098567108210e-01,2.171474403000711942e-02,3.796245130932341533e-02,-8.790696412324905396e-02,1.764668631986254232e-01,-2.618858850230405128e-02,-8.039433785719722614e-02,-3.206322371959686168e-01,2.831532283383381143e-01,-7.399360537528992809e-02,-2.206322371959686113e-01,2.027213573455810547e-01,2.600639462471008093e-02,5.363993693506980964e-01,-6.875290274620056152e-01,-7.275210618972778320e-01,8.657018886181040784e+01,3.468277454376220842e-02
1.927197000000000049e+00,3.029187304278738169e-02,6.578061906374631229e-02,8.158922791481018066e-01,1.889739822747307438e-02,1.900635754811919043e-02,-1.414705535099761158e-01,2.302520114092509312e-02,4.882526286772619073e-02,-8.978029340505599976e-02,1.550062489788686659e-01,4.518184277893745604e-02,-8.627701054337595654e-02,-2.565709606280949240e-01,3.210173666477203480e-01,5.804966688156126819e-02,-2.152251899242401123e-01,2.210173666477203425e-01,1.580496668815612737e-01,5.373641499243141384e-01,-6.642047762870788574e-01,-9.601255655288696289e-01,5.490594754891363749e+01,3.468277454376220842e-02
1.951332000000000066e+00,3.080287897555138849e-02,6.643665679179761030e-02,8.143981695175170898e-01,1.267786120895567255e-02,2.294887345097063047e-02,-1.429522021493977169e-01,3.287207745853950452e-02,3.671339044833897558e-02,-7.948882877826690674e-02,1.160936473761353949e-01,1.147699209566201139e-01,-9.056826434514259061e-02,-2.044909942933755553e-01,3.230426311492919922e-01,9.782409071922301691e-02,-1.942398548126220703e-01,2.230426311492919866e-01,1.978240907192230225e-01,5.372200161006021046e-01,-6.504906415939331055e-01,1.984935998916625977e-01,-1.650843915787388028e+01,3.969871997833251953e-02
1.974156000000000022e+00,3.108901504780954908e-02,6.722248096997644751e-02,8.130333423614501953e-01,6.292694459663739949e-03,2.422633178039523827e-02,-1.438681392419436378e-01,3.312152911610773479e-03,3.077730932343109016e-02,-7.923355698585510254e-02,6.712434931750618783e-02,1.716435379715285925e-01,-9.106027295398848309e-02,1.633453315786617399e-01,3.212591588497161754e-01,2.650681734085080787e-02,1.369028091430664062e-01,2.212591588497161699e-01,1.265068173408508134e-01,5.388673138585201583e-01,-5.765055418014526367e-01,-9.271017313003540039e-01,8.640532175562464090e+01,3.969871997833251953e-02
2.003541999999999934e+00,3.150049200359914675e-02,6.842527039951419587e-02,8.110216856002807617e-01,-2.628102880299908704e-03,2.086832130005533692e-02,-1.445923443103169503e-01,3.307369864017870725e-02,4.234461583594018030e-02,-7.540880888700485229e-02,1.252515160695764559e-02,2.058940128422581117e-01,-8.987063273915404937e-02,3.060006741521743567e-01,3.162695348262786754e-01,-7.348266243934631348e-02,2.079334259033203125e-01,2.162695348262786699e-01,2.651733756065368514e-02,5.403188188770724487e-01,-5.027496218681335449e-01,-9.400466680526733398e-01,8.526653114549759493e+01,3.969871997833251953e-02
2.026483999999999952e+00,3.181220669220721081e-02,6.929795646141176380e-02,8.097605705261230469e-01,-8.252391202207762233e-03,1.590662007216758767e-02,-1.458282576201963554e-01,1.653698161826954241e-02,4.130447838427246665e-02,-5.609966069459915161e-02,-4.498823063056648502e-02,2.195968061788994563e-01,-8.601840909160728132e-02,3.109226942062378041e-01,3.132179141044616477e-01,-3.455343842506410079e-02,2.109226942062377985e-01,2.132179141044616699e-01,6.544656157493590476e-02,5.396520472884189790e-01,-4.804791212081909180e-01,-1.617316126823425293e+00,9.819997245215863302e+01,3.969871997833251953e-02
2.049236000000000057e+00,3.214135759839301804e-02,7.020692043501575164e-02,8.084764480590820312e-01,-1.387677410446456344e-02,9.857967884254970059e-03,-1.467072990234657981e-01,1.897710102400034307e-02,4.884245401091251437e-02,-6.757114082574844360e-02,-1.009310691927360892e-01,2.097127208559111389e-01,-8.144914584866325136e-02,3.116448879241943137e-01,3.001871116606020795e-01,3.741933107376096967e-02,2.116448879241943359e-01,2.063513517379760576e-01,1.374193310737609752e-01,5.406531196433422837e-01,-4.885004758834838867e-01,-8.562520742416381836e-01,4.934205496045373707e+01,3.969871997833251953e-02
2.077812000000000214e+00,3.225755026493827560e-02,7.156252292252884839e-02,8.068188428878784180e-01,-1.777233599484451948e-02,-1.560491085284443358e-03,-1.477346493577248177e-01,2.109455671877859956e-02,4.663948989852519100e-02,-5.358083173632621765e-02,-1.512437124096532304e-01,1.752434265846383177e-01,-7.565462904595757210e-02,3.167239904403686412e-01,1.924113850382891400e-01,7.137409448623655006e-02,2.167239904403686357e-01,1.703484892845153753e-01,1.713740944862365556e-01,5.401256048617892880e-01,-4.814206361770629883e-01,-1.056091189384460449e+00,3.824308635164222636e+01,3.969871997833251953e-02
2.101625999999999994e+00,3.222009900283034217e-02,7.243070092809032745e-02,8.058232665061950684e-01,-1.703232810093013513e-02,-1.003577600052918406e-02,-1.480589376127947887e-01,1.131511342772217009e-02,4.592874244407039314e-02,-3.756589069962501526e-02,-1.901952119955628295e-01,1.233803943343291659e-01,-7.011663590587315087e-02,3.186537504196166881e-01,8.051320827415839321e-02,1.120430707931518444e-01,2.186537504196166826e-01,1.209000706672668374e-01,2.120430707931518499e-01,5.376176179889406992e-01,-5.727048516273498535e-01,-7.473047971725463867e-01,1.099533073344032204e+02,3.969871997833251953e-02
2.125217999999999829e+00,3.211804786073718665e-02,7.330030035614325257e-02,8.050346970558166504e-01,-1.401328208255325433e-02,-1.819473614901334635e-02,-1.481003038023800400e-01,2.583417468998766564e-02,4.716603177372433175e-02,-4.104185476899147034e-02,-2.095634517878650627e-01,5.634242442903480974e-02,-6.296004178355356362e-02,3.211025714874267689e-01,-2.647402303165863890e-01,1.211376726627349798e-01,2.211025714874267634e-01,-1.823429346084594616e-01,2.211376726627349854e-01,5.371351473627584694e-01,-6.283318400382995605e-01,-1.050323247909545898e-01,1.237416082873938876e+02,3.969871997833251953e-02
2.152928999999999871e+00,3.198802065752912038e-02,7.468245211032678577e-02,8.038283586502075195e-01,-6.840627200283055064e-03,-2.941023788506202941e-02,-1.486885141841274571e-01,6.537744814911385614e-03,4.987190646778398573e-02,-3.185946866869926453e-02,-2.044652128646158307e-01,-1.969097567297541790e-02,-5.532957013714077943e-02,3.148949384689331277e-01,-3.091631650924682728e-01,1.251513481140136552e-01,2.148949384689330944e-01,-2.091631650924682673e-01,2.251513481140136608e-01,5.351039650288845761e-01,-7.203057408332824707e-01,-6.603738069534301758e-01,9.415030548193388427e+01,3.969871997833251953e-02
2.175879000000000119e+00,3.196449381118010580e-02,7.533001725006857607e-02,8.030261397361755371e-01,-8.391052308093105037e-04,-3.641350370523066537e-02,-1.497222885754317390e-01,2.112675148790894158e-02,5.684166822366635424e-02,-2.554554119706153870e-02,-1.791036195319077595e-01,-9.687818824066776746e-02,-4.764224398922954629e-02,3.065557718276977761e-01,-3.146708846092224343e-01,1.187715709209442028e-01,2.065557718276977428e-01,-2.146708846092224010e-01,2.187715709209442083e-01,5.346803617067974468e-01,-7.334679961204528809e-01,-1.179569125175476074e+00,1.069096384364621315e+02,3.969871997833251953e-02
2.198923000000000183e+00,3.197874889375271201e-02,7.571750388906355045e-02,8.022785186767578125e-01,5.187181372490717000e-03,-4.184165554767971251e-02,-1.510906807140317276e-01,5.521335565171907501e-05,4.688174590664726665e-02,-2.580855786800384521e-02,-1.402321449118683616e-01,-1.703790405607762126e-01,-4.105277481660320194e-02,2.322839477976436640e-01,-3.170632362365722878e-01,-1.237528562545776450e-01,1.673463106155395341e-01,-2.170632362365722545e-01,-2.375285625457763602e-02,5.346785525392250271e-01,-7.481591701507568359e-01,-9.558316469192504883e-01,2.327343929490073648e+01,3.969871997833251953e-02
2.228193000000000090e+00,3.195200777023159133e-02,7.636534065242797653e-02,8.010431528091430664e-01,1.514727336692009256e-02,-4.558294175534793879e-02,-1.535981837886806201e-01,1.396358579937678410e-02,5.768601457578075020e-02,-3.529912233352661133e-02,-9.105435787127943992e-02,-2.290614935040112266e-01,-3.910662833671389726e-02,2.331962257169833269e-02,-3.181203126907348744e-01,-1.449501395225524791e-01,1.090961694717407227e-02,-2.181203126907348688e-01,-4.495013952255248746e-02,5.356519380662355667e-01,-7.491416931152343750e-01,-1.161869883537292480e+00,9.609867841438254743e+01,3.969871997833251953e-02
2.253429999999999822e+00,3.198242638064344862e-02,7.680221700917319594e-02,8.001336455345153809e-01,2.101882176947169473e-02,-4.428127637778889181e-02,-1.556267946441994843e-01,3.094208074738110975e-04,4.448564103771047301e-02,-3.252142667770385742e-02,-3.601125576887746760e-02,-2.640851184479827141e-01,-3.948658790454947359e-02,-2.112399345550511343e-01,-3.151022911071777455e-01,-1.839829683303833008e-01,-1.737128019332885576e-01,-2.151022911071777399e-01,-8.398296833038329523e-02,5.359768283836363612e-01,-7.348310351371765137e-01,-1.002906680107116699e+00,9.471003948441642706e+01,3.969871997833251953e-02
2.278596999999999984e+00,3.198355793611586811e-02,7.703522820471871146e-02,7.996411919593811035e-01,2.423935415255964662e-02,-4.273911031925825554e-02,-1.565923936426246998e-01,3.597200506504001551e-03,4.869684868837049346e-02,-2.462610788643360138e-02,2.192316514795562138e-02,-2.829549735570792146e-01,-4.227373535784684222e-02,-2.560657191065505156e-01,-3.197726964950561301e-01,7.021868824958799049e-02,-2.032498419284820557e-01,-2.197726964950561523e-01,1.702186882495879960e-01,5.355895509325294679e-01,-7.385020852088928223e-01,-9.197684526443481445e-01,-1.085278810055674086e+02,3.969871997833251953e-02
2.303259000000000167e+00,3.202464187555791736e-02,7.757301273302129319e-02,7.986494302749633789e-01,3.045693137482584009e-02,-3.839844243368961685e-02,-1.581512533820932931e-01,6.329842408249398283e-03,5.088306662145859749e-02,-3.825560584664344788e-02,8.247776850583514452e-02,-2.791947681556808947e-01,-4.581089686900263053e-02,-3.094504088562817223e-01,-3.197500586509704479e-01,1.123303174972534180e-01,-2.169911921024322565e-01,-2.197500586509704423e-01,2.123303174972534235e-01,5.369156769388629957e-01,-7.350504398345947266e-01,4.041302204132080078e-02,-9.831055833746301431e+00,3.969871997833251953e-02
2.329076999999999842e+00,3.212409089915978927e-02,7.824888221246636966e-02,7.976843714714050293e-01,3.678041863684608503e-02,-3.277340694869534943e-02,-1.588423094180560768e-01,-1.601370841913462087e-02,3.555001870715576717e-02,-2.394704334437847137e-02,1.413204589936344902e-01,-2.509460856748819135e-01,-4.895338233095138103e-02,-3.257677018642425315e-01,-3.209558367729187234e-01,1.252833485603332409e-01,-2.257677018642425537e-01,-2.209558367729186901e-01,2.252833485603332464e-01,5.360318947366536912e-01,-7.418996095657348633e-01,-1.002655625343322754e+00,1.224113060031288427e+02,3.969871997833251953e-02
2.351738999999999802e+00,3.210279759084101736e-02,7.885723132848888872e-02,7.966014146804809570e-01,4.272789617058845441e-02,-2.621369245969296102e-02,-1.585110644260005197e-01,2.172144759543451556e-03,5.010075537154899672e-02,-5.004116147756576538e-02,1.952644122156181050e-01,-2.054222311269225387e-01,-4.967721924288867608e-02,-3.269249856472015159e-01,-3.181821465492248313e-01,1.254111289978027122e-01,-2.269249856472015381e-01,-2.181821465492248535e-01,2.254111289978027177e-01,5.382129054595783391e-01,-7.419665455818176270e-01,-1.749459803104400635e+00,1.027419116464337208e+02,3.969871997833251953e-02
2.374134999999999884e+00,3.202726744584272200e-02,7.946285372851971673e-02,7.955471873283386230e-01,4.714316309571311980e-02,-1.931096318805014533e-02,-1.577853665466230071e-01,-2.124364674200294664e-02,3.130985268993229098e-02,-3.401241824030876160e-02,2.400212435330512650e-01,-1.482899686035785980e-01,-4.903403217829398891e-02,-3.277486562728881836e-01,-3.047407746315002330e-01,1.250176489353179710e-01,-2.277486562728881780e-01,-2.047407746315002275e-01,2.250176489353179765e-01,5.372437405521467424e-01,-7.476121187210083008e-01,-1.261609911918640137e+00,1.062236688777394136e+02,3.969871997833251953e-02
2.403557999999999861e+00,3.186240916733954626e-02,8.031346537090480742e-02,7.937725782394409180e-01,4.927568447389874678e-02,-8.108505318013436991e-03,-1.564447683861993621e-01,-8.408930624473020393e-03,4.711260791045451812e-02,-3.880699723958969116e-02,2.626110270428763660e-01,-7.883070249303596178e-02,-4.498785786114924135e-02,-3.278102040290832297e-01,-3.606883749817560436e-02,1.148655235767364335e-01,-2.278102040290832520e-01,1.581012010574340751e-02,2.148655235767364391e-01,5.380275108496960224e-01,-7.431247234344482422e-01,-2.657915353775024414e-01,-4.413706149212133312e+01,3.969871997833251953e-02
2.427144000000000190e+00,3.181159630725880622e-02,8.096002089894371867e-02,7.924899458885192871e-01,4.745631150106817409e-02,-7.859517673693972029e-04,-1.567177813582560919e-01,-1.641815009021813793e-02,2.370900837163008798e-02,-3.832606226205825806e-02,2.692576790751392002e-01,-6.372014944722975693e-03,-4.060561036829789944e-02,-3.271405100822448730e-01,1.755149898621303495e-01,9.589717388153073951e-02,-2.271405100822448675e-01,1.846164107322692816e-01,1.958971738815307451e-01,5.387047568328809932e-01,-7.202339172363281250e-01,-1.187602162361145020e+00,-4.921627019669878678e+01,3.969871997833251953e-02
