timestamp,x,y,z,roll,pitch,yaw,vx,vy,vz,p,q,r,psp,qsp,rsp,pres,qres,rres,thrust_sp, thrust_res
0.000000000000000000e+00,1.636009926361963948e-02,3.787463171231040659e-03,1.002572417259216309e+00,1.870415008565274109e-02,-1.912712832646512595e-02,-5.598561896726575319e-04,4.114419290950984028e-03,-1.018848514650008176e-02,1.165773370303213596e-03,2.756087700179418731e-03,1.155420296789383405e-02,1.761656324235023538e-02,-3.135957837104797474e-01,1.251404225826263372e-01,-2.084606135313050446e-01,-2.135957837104797419e-01,2.251404225826263428e-01,-2.073174476623535212e-01,5.230471316838123386e-01,6.112165451049804688e-01,9.006692171096801758e-01,-1.267229073129290029e+01,0.000000000000000000e+00
2.587000000000000063e-02,1.617498363908859496e-02,3.820788426347013992e-03,1.003159165382385254e+00,1.863326305783400555e-02,-1.854519269812349158e-02,-7.132957866718220514e-04,-5.912920254407623769e-03,-7.835136436589184433e-03,-1.208130852319300175e-04,5.560379991549956567e-03,2.058784494716558305e-02,-8.853476739266509868e-03,1.033783197402954046e-01,1.221724331378936657e-01,2.250325320842788135e-01,2.033783197402954102e-01,2.221724331378936712e-01,2.265748143196105735e-01,4.981679727497887455e-01,-7.147127985954284668e-01,-5.330979824066162109e-02,9.933349015624644096e+01,0.000000000000000000e+00
4.969500000000000306e-02,1.579740873743272836e-02,3.687647149464065317e-03,1.003776311874389648e+00,1.820832822771881188e-02,-1.819335989582437918e-02,-5.421377294110144886e-04,-6.759171392662894837e-03,-1.745350671844225548e-03,-2.255300525575876236e-03,-3.305155678905137128e-03,4.143116027649465689e-03,-2.760948801640543057e-03,1.221733093261718750e-01,5.758661031723022461e-02,1.664557456336291652e-01,2.221733093261718806e-01,1.575866103172302302e-01,1.675236582756042536e-01,5.066276173152397533e-01,-2.762433886528015137e-01,1.470974683761596680e-01,-7.986970498413620589e+01,0.000000000000000000e+00
7.411299999999999832e-02,1.555942290018730474e-02,3.507089157576387829e-03,1.004175305366516113e+00,1.795537561806405391e-02,-1.835722689073460145e-02,-1.166122865392737193e-03,-4.646347889054409409e-03,-8.207254329211046209e-03,2.447209320962429047e-03,-2.852306607709702204e-03,1.762561729796817758e-02,-5.841295899066249048e-02,-1.948552131652832309e-02,9.729916453361509010e-02,2.038925477699111422e-01,8.051447868347168246e-02,1.972991645336150957e-01,2.067394495010375921e-01,5.003012586390050975e-01,-5.886376500129699707e-01,-3.089416027069091797e-02,9.677164329292557454e+01,0.000000000000000000e+00
9.919400000000000439e-02,1.510180599064084306e-02,3.160370914567636486e-03,1.004713177680969238e+00,1.887485579828472940e-02,-1.989594838317021441e-02,-3.492662685570096896e-03,-1.098374680004806335e-02,-1.613710475338769532e-02,-4.838171415030956268e-03,4.893603726380423707e-02,-9.394962215820952534e-02,-8.196364841106687504e-02,1.529911756515502097e-02,-2.313969135284423828e-01,1.950695140494625168e-01,1.152991175651550265e-01,-1.313969135284423773e-01,2.043704330921173040e-01,5.021370592364742258e-01,-5.190421938896179199e-01,1.480923891067504883e-01,9.865172799405245030e+01,0.000000000000000000e+00
1.233759999999999996e-01,1.465242375882891933e-02,2.724403499483927984e-03,1.004962086677551270e+00,2.073779702069552047e-02,-2.168837338825735372e-02,-6.115435358069804504e-03,-6.653302094342733919e-05,-1.168682248924718739e-02,-2.322055213153362274e-02,4.626905405354614365e-02,-9.441320299211598821e-02,-8.438942209918040560e-02,-4.985456466674805659e-02,-2.560627222061157005e-01,1.873162639905628368e-01,5.014543533325194896e-02,-1.560627222061157227e-01,2.038801789283752330e-01,5.033619123876320600e-01,-5.272160172462463379e-01,3.716729879379272461e-01,5.544594913488401744e+01,0.000000000000000000e+00
1.511679999999999968e-01,1.435414337715158577e-02,2.345183949450571799e-03,1.004738688468933105e+00,2.222632088508136317e-02,-2.255278044324748876e-02,-9.082011164983107981e-03,-8.817953464570805772e-04,-1.513986820865738381e-02,-3.881156817078590393e-02,2.860588703735288812e-02,7.225150733678553303e-03,-1.037918833473892993e-01,-2.185598611831665594e-02,-7.544657588005065918e-02,1.867093239660465309e-01,7.814401388168334961e-02,2.455342411994933943e-02,2.115165531635284368e-01,5.017964638622310902e-01,-6.736444234848022461e-01,7.388389110565185547e-02,9.549848920144602005e+01,0.000000000000000000e+00
1.742180000000000117e-01,1.433662094863375445e-02,2.163647424857111177e-03,1.004350423812866211e+00,2.251703879792524635e-02,-2.160914518293788333e-02,-1.098947574809144324e-02,3.877191420330726706e-03,-6.944745076233034206e-03,-6.136619299650192261e-02,2.038582346668212433e-02,5.772385766438845045e-02,-9.658275265491619854e-02,-2.649614870548248069e-01,1.054533302783965953e-01,1.855591637857730569e-01,-1.649614870548248291e-01,2.054533302783966009e-01,2.157140314579009954e-01,5.088112429304275652e-01,-3.969905376434326172e-01,-8.262956142425537109e-02,5.941356845770398820e+01,0.000000000000000000e+00
1.988489999999999980e-01,1.439330643088649817e-02,1.977965632195615234e-03,1.003230214118957520e+00,2.172780936708024538e-02,-1.746425647989591212e-02,-1.398140203225780621e-02,5.737034210583551695e-03,-2.531805385327117689e-03,-8.130158483982086182e-02,-3.293690266872403155e-02,2.006635829230830337e-01,-1.447676353789444093e-01,3.906613588333129883e-02,1.243192911148071067e-01,1.863830293076161326e-01,1.390661358833313044e-01,2.243192911148071123e-01,2.250574886798858421e-01,5.188383623769461384e-01,5.188655853271484375e-02,3.225463628768920898e-01,1.416843103313422887e+02,0.000000000000000000e+00
2.231289999999999940e-01,1.449013275869364022e-02,1.788045560853778826e-03,1.001770019531250000e+00,2.038491443334672359e-02,-1.327090591081558912e-02,-1.693362393624745985e-02,-3.399894079271406373e-03,-7.841973136791689433e-03,-9.363248199224472046e-02,-5.393941980821193027e-02,1.557444470679990312e-01,-1.111178294670705224e-01,-4.606835842132569331e-02,1.430978108863591725e-01,1.752998449710018447e-01,5.393164157867431224e-02,2.239506840705871582e-01,2.223704695701599066e-01,5.228967048795271078e-01,2.120652198791503906e-01,-1.283205747604370117e-01,9.628858499406558735e+01,0.000000000000000000e+00
2.473980000000000068e-01,1.453832112534620725e-02,1.671550035223596554e-03,9.999638199806213379e-01,1.829756255041945640e-02,-1.160408370802556988e-02,-2.008074182168778643e-02,-2.846849083541897613e-03,-7.569857546781287062e-03,-9.712381660938262939e-02,-5.856832174085851300e-02,7.897501848354551018e-03,-1.144433387610508390e-01,1.260499238967895397e-01,1.234424165177312321e-01,7.406545394921373870e-02,2.260499238967895452e-01,1.916803836822509599e-01,1.300299882888793779e-01,5.060710647026424036e-01,-7.139524221420288086e-01,-7.725596427917480469e-03,9.068453772347518793e+01,0.000000000000000000e+00
2.735139999999999794e-01,1.454717823024970560e-02,1.652294644778890334e-03,9.986248016357421875e-01,1.719517649320241592e-02,-1.214060434075836525e-02,-2.232712384268391650e-02,-8.833493608390474055e-04,-6.544273332315502997e-03,-1.060773506760597229e-01,-7.767882526102266871e-02,-4.272443143736906479e-02,-1.271693138464591311e-01,6.350324153900144264e-02,-9.947316253042165490e-02,-2.366438330853176120e-01,1.635032415390014482e-01,-2.921683788299560269e-02,-1.743824958801269420e-01,5.066841798519409190e-01,-7.275812625885009766e-01,-2.520536184310913086e-01,9.189908196168684640e+01,0.000000000000000000e+00
2.979499999999999926e-01,1.448950160058739070e-02,1.615303465407015235e-03,9.965525865554809570e-01,1.613178407681401666e-02,-1.453834920176899637e-02,-2.506038533885684635e-02,-8.864594558007952291e-03,-7.727786518709246939e-03,-1.034833565354347229e-01,-5.536878462486541363e-02,-1.198138876275381404e-01,-6.604998686348896586e-02,8.742668628692626398e-02,6.835573940233111156e-02,-2.850478736722658057e-01,1.874266862869262695e-01,1.607765614986419733e-01,-2.151891231536865179e-01,5.069185083228107125e-01,-7.184597253799438477e-01,-4.469192028045654297e-01,1.081726906781592277e+02,0.000000000000000000e+00
3.256580000000000030e-01,1.428261526551740865e-02,1.587683654674842655e-03,9.944146871566772461e-01,1.585675446423824575e-02,-1.803743746908303969e-02,-2.573777506082954025e-02,-1.388511859544620981e-02,-1.093334430008433694e-02,-1.139438897371292114e-01,-1.834836190466933997e-02,-1.210869196405369719e-01,3.167441527155990394e-02,1.070186853408813255e-01,7.799410820007318668e-03,-2.925735968207945348e-01,2.070186853408813310e-01,1.077994108200073242e-01,-2.208882093429565263e-01,5.080722277986717828e-01,-7.131255865097045898e-01,-1.888620853424072266e-02,1.015231941626391716e+02,0.000000000000000000e+00
3.489140000000000019e-01,1.411946053808601359e-02,1.585103945201985073e-03,9.927746057510375977e-01,1.622442830456669038e-02,-1.928849364887863516e-02,-2.478317573397056939e-02,-1.983741184005703706e-03,-1.543398145206898884e-03,-1.236051470041275024e-01,3.072249920931171760e-02,-7.677675079732323993e-02,4.699448246082681829e-02,1.023957371711730902e-01,-2.606547713279724343e-01,-2.886851772277827521e-01,2.023957371711730957e-01,-1.606547713279724010e-01,-2.197071075439453181e-01,5.090786358017058699e-01,-7.109498977661132812e-01,-4.713805913925170898e-01,8.697312904170614445e+01,0.000000000000000000e+00
3.738110000000000044e-01,1.389214810370004161e-02,1.582556666945886476e-03,9.903785586357116699e-01,1.771369044799710538e-02,-2.000516103517013811e-02,-2.215627890468627528e-02,-8.232988319802733018e-03,1.823612031254821710e-03,-1.244866773486137390e-01,7.209303400207148216e-02,1.863626141854827709e-02,1.103423379264667353e-01,-8.892923593521118164e-02,1.108509182929992565e-01,-2.207563132689309982e-01,1.107076406478881871e-02,2.108509182929992620e-01,-1.592195391654968317e-01,5.103804701276768441e-01,-6.614302992820739746e-01,-7.308540940284729004e-01,1.123795271313751414e+02,0.000000000000000000e+00
3.994500000000000273e-01,1.361121767303194625e-02,1.560024759322637452e-03,9.876357316970825195e-01,2.006460519530928535e-02,-2.035329089169213290e-02,-1.884274203940865949e-02,-1.368833417245230756e-02,-1.040513265496845370e-02,-1.301961690187454224e-01,7.355108591363965220e-02,-2.611507839652688415e-02,1.480803444167529404e-01,-1.640167653560638539e-01,1.066892564296722246e-01,-1.021364896322080884e-01,-6.401676535606383445e-02,2.066892564296722301e-01,-4.992238283157348494e-02,5.107359649164832094e-01,-6.830472946166992188e-01,8.853009939193725586e-01,-1.103132309829062052e+02,0.000000000000000000e+00
4.256670000000000176e-01,1.339922840143473355e-02,1.514464751780633927e-03,9.848239421844482422e-01,2.230869800199430930e-02,-1.844980644598193109e-02,-1.559982546717970757e-02,-1.440554212364989622e-02,-8.771567673667227116e-03,-1.395398229360580444e-01,6.753833049474847194e-02,6.816837737568050282e-02,9.743563662189455576e-02,-1.550257503986358643e-01,1.206535160541534202e-01,6.620909772163442730e-02,-5.502575039863586565e-02,2.206535160541534257e-01,1.093242824077606118e-01,5.121408589468643413e-01,-6.639667749404907227e-01,3.124648332595825195e-01,1.180861570131099683e+02,0.000000000000000000e+00
4.497389999999999999e-01,1.318438982768590020e-02,1.513378243183195054e-03,9.817302227020263672e-01,2.317645398380534932e-02,-1.695374570495933320e-02,-1.279726634392936054e-02,-1.839430414514415732e-02,-4.712711211742819963e-03,-1.499696969985961914e-01,3.495063224238281752e-02,6.696022985545622974e-02,9.288621246038220036e-02,-2.923301756381988525e-01,1.240901052951812744e-01,-2.387139675171359443e-01,-1.923301756381988470e-01,2.240901052951812800e-01,-2.034467697143554632e-01,5.157247208602667721e-01,-5.342054963111877441e-01,8.320447206497192383e-01,1.118828767560668354e+02,0.000000000000000000e+00
4.739749999999999797e-01,1.325650707606997741e-02,1.224627096467033631e-03,9.784762859344482422e-01,2.156584107755417368e-02,-1.754765217171483371e-02,-1.162573765051489599e-02,-1.776499411479025292e-02,-9.755408376642293877e-03,-1.596418023109436035e-01,-9.867650059511469396e-02,-7.924589976072889119e-02,4.348884097235879154e-02,6.684108972549437921e-02,4.193781614303587757e-02,-2.312037133158941493e-01,1.668410897254943848e-01,1.419378161430358831e-01,-1.991713285446166937e-01,5.135152528061875943e-01,-7.125672101974487305e-01,4.757798910140991211e-01,-1.082791801575089039e+02,0.000000000000000000e+00
5.000860000000000305e-01,1.318853180884181631e-02,9.972285488971551187e-04,9.749463200569152832e-01,1.783075629474510301e-02,-1.985191546150377739e-02,-9.994054617103009797e-03,-1.387542179962199772e-02,-1.951731965202858129e-03,-1.655243188142776489e-01,-1.929688396786108928e-01,-1.526125093243659303e-01,9.964972346557943172e-02,6.006504297256468061e-02,3.491793870925902210e-02,-2.105187345704218060e-01,1.600650429725646862e-01,1.349179387092590277e-01,-1.830327987670898326e-01,5.145196593963838883e-01,-7.055630683898925781e-01,-4.371504783630371094e-01,9.263564956178102250e+01,0.000000000000000000e+00
5.242989999999999595e-01,1.309073142250115514e-02,9.293379482191048207e-04,9.725559353828430176e-01,1.436483052360838265e-02,-2.144901578466762437e-02,-8.173038504265017420e-03,-1.422133303865133133e-02,8.318005821984591347e-03,-1.699263304471969604e-01,-1.595885628336002893e-01,-8.606783360581257702e-02,8.009794590868465902e-02,8.292189614946952891e-02,1.197754144668577991e-02,-1.586633785988305345e-01,1.691821575164794977e-01,1.119775414466857855e-01,-1.362459897994995062e-01,5.153060079043072506e-01,-7.001723647117614746e-01,-2.894127368927001953e-02,9.518621295259303849e+01,0.000000000000000000e+00
5.484970000000000123e-01,1.287885635952693182e-02,8.435646971073917661e-04,9.689886569976806641e-01,1.067854920972685466e-02,-2.402224745744208079e-02,-5.014471546306216790e-03,-2.306869515054658232e-02,7.014907813947810107e-03,-1.709773838520050049e-01,-9.102550284889984744e-02,-8.806714402308389589e-02,1.102807115996658899e-01,6.746431576898923033e-02,-1.699265122413635143e-01,-1.826763885799491949e-01,1.323402285575866755e-01,-6.992651224136352262e-02,-1.690372467041015569e-01,5.161167254795486770e-01,-6.850641369819641113e-01,-2.727030515670776367e-01,6.768250965562324950e+01,0.000000000000000000e+00
5.753019999999999801e-01,1.211815879781538013e-02,1.552093840769211463e-03,9.652869105339050293e-01,8.595883518321439931e-03,-2.672628525647402498e-02,-1.611332963251199983e-03,-2.478819695094582401e-02,-1.985590524054046003e-03,-1.695688962936401367e-01,-4.940546008301635594e-02,-9.279673424435504192e-02,1.480225085790509432e-01,6.497208325960181219e-02,-2.374806642532348577e-01,-1.911829322891858973e-01,1.227024435997009222e-01,-1.374806642532348522e-01,-1.869966745376586970e-01,5.163178144330974328e-01,-6.935481429100036621e-01,-3.153632879257202148e-01,1.278746513768169848e+02,0.000000000000000000e+00
6.005409999999999915e-01,1.132964045603182361e-02,2.193687423600141663e-03,9.618025422096252441e-01,8.438372836849242220e-03,-2.820802230068708560e-02,1.628687905575524047e-03,-1.678704740359195438e-02,-5.190763741927432832e-03,-1.695406734943389893e-01,1.245555207872621473e-02,-5.438130801675814668e-02,1.164115380307788883e-01,6.500516471108198913e-02,-2.457407593727111705e-01,-1.937111777763514120e-01,1.226453304290771457e-01,-1.457407593727111650e-01,-1.985914349555969183e-01,5.167858890021143070e-01,-6.924527287483215332e-01,-1.922174692153930664e-01,9.363871748291076358e+01,0.000000000000000000e+00
6.245899999999999785e-01,1.084384413159348096e-02,2.630963707571017021e-03,9.593408703804016113e-01,9.181077274289267676e-03,-2.749261763767352207e-02,3.803563513904640019e-03,-1.858988710254532925e-02,9.497295016517182803e-03,-1.832553893327713013e-01,6.055492794859689692e-02,8.299781314553329736e-02,1.110866046744521801e-01,-1.005220685451376772e-01,1.188901424407958762e-01,8.750006025085238504e-02,-4.994471669197082103e-02,2.188901424407958818e-01,7.643178105354309082e-02,5.190644976914831066e-01,-6.450217962265014648e-01,-3.903125524520874023e-01,7.137848210986805952e+01,0.000000000000000000e+00
6.493269999999999875e-01,1.016295982399838434e-02,3.325713411191804671e-03,9.555851221084594727e-01,1.064499572898971839e-02,-2.408706921533010359e-02,7.288982307335985927e-03,-2.453197507103056438e-02,5.594313085506544617e-03,-1.721355915069580078e-01,6.053650377287848883e-02,2.032875187688152063e-01,1.418557601353994946e-01,1.440247100730553953e-01,1.230236947536468284e-01,2.316529641559275099e-01,2.087525367736816351e-01,2.230236947536468339e-01,2.108385264873504639e-01,5.190832980927134743e-01,-6.257499456405639648e-01,-6.878411769866943359e-02,1.155698606813639060e+02,0.000000000000000000e+00
6.734120000000000106e-01,9.905888160392357228e-03,3.756127511062838913e-03,9.519504904747009277e-01,1.187038226981722636e-02,-1.896751311686983854e-02,9.333465518291403709e-03,-1.397052285610241897e-02,4.367972659300125259e-03,-1.792900860309600830e-01,9.851221309758007721e-03,1.326119548865928033e-01,5.881170462080803629e-02,1.478232166717370344e-01,1.235410213470458929e-01,2.387056856893088608e-01,2.206930518150329590e-01,2.235410213470458984e-01,2.122371912002563310e-01,5.224358540292857178e-01,-4.986452460289001465e-01,8.667017221450805664e-01,-9.087932959596207283e+00,0.000000000000000000e+00
7.033760000000000012e-01,9.795676368790737221e-03,4.146965753913761134e-03,9.482192397117614746e-01,1.218703705665936943e-02,-1.636037731482731239e-02,8.895312899560591652e-03,-1.414208317291664775e-02,6.916643405765195846e-03,-1.778668761253356934e-01,1.572611626910956281e-02,2.232159488410765183e-02,-5.583224018268234667e-02,-2.223713501958474725e-01,9.474657773971556507e-02,2.361629163135814669e-01,-1.498686254024505504e-01,1.947465777397155706e-01,2.109462261199951116e-01,5.211262693995214468e-01,-5.900886654853820801e-01,1.232908964157104492e-01,-1.104888880804332985e+01,0.000000000000000000e+00
7.290360000000000174e-01,9.648942255781172914e-03,4.386896680445769546e-03,9.457040429115295410e-01,1.282077202862440257e-02,-1.666243454991866990e-02,7.808470911645956289e-03,-1.746637182927684995e-02,4.771145260652427667e-03,-1.774768233299255371e-01,4.836596682779831929e-02,-3.783362193834613474e-02,-7.165442377967230769e-02,-2.207434044259505013e-01,-2.688831806182861439e-01,2.202517214605260454e-01,-1.423397541046142467e-01,-1.688831806182861384e-01,1.980563163757324274e-01,5.227144600004333119e-01,-5.241466760635375977e-01,9.725879430770874023e-01,-7.334180632640988051e+01,0.000000000000000000e+00
7.489470000000000294e-01,9.468947374594178720e-03,4.607589504241526614e-03,9.432620406150817871e-01,1.422520854114455412e-02,-1.839011938798540413e-02,6.318820159309864945e-03,-1.944281967976108083e-02,5.121262214643244708e-03,-1.818288117647171021e-01,1.196124594604579400e-01,-1.181343416509137573e-01,-8.507966599665449381e-02,-6.427659261151533188e-02,-2.906306743621825950e-01,2.220280570645551399e-01,2.251954078674316476e-02,-1.906306743621826172e-01,2.039262235164642223e-01,5.261837653877098342e-01,-3.745121955871582031e-01,7.638565301895141602e-01,-3.273422801241971314e+01,0.000000000000000000e+00
7.779270000000000351e-01,9.223962013417333697e-03,5.024389104207468808e-03,9.395593404769897461e-01,1.504270014716941641e-02,-2.118836801967627359e-02,3.699134361275808504e-03,-2.061546178334128232e-02,1.263661133205771364e-02,-1.893610954284667969e-01,-1.369795428563671397e-02,-7.202800029646962143e-02,-1.171357693710095849e-01,-1.435259173301531299e-01,-2.908139944076538197e-01,1.215936422395180044e-01,-5.737947821617125910e-02,-1.908139944076538141e-01,1.107109308242797824e-01,5.211102507122611360e-01,-7.066003084182739258e-01,-1.604350805282592773e-01,9.778731291307397555e+01,0.000000000000000000e+00
7.992979999999999530e-01,9.155168327085128066e-03,5.568001413385347161e-03,9.369691014289855957e-01,1.398451513444071842e-02,-2.169084239044360984e-02,1.881492014709588382e-03,-2.063861366370619774e-02,2.108768884350560938e-02,-1.949540674686431885e-01,-4.947116997334022326e-02,1.593458983632580622e-02,-1.147498973280391826e-01,1.513154622194761711e-01,-2.507888913154602273e-01,-7.888596703184269643e-02,2.248252272605895941e-01,-1.507888913154601940e-01,-8.468556404113769531e-02,5.223587283735269260e-01,-6.843334436416625977e-01,-2.516523599624633789e-01,7.605211418153014336e+01,0.000000000000000000e+00
8.268769999999999731e-01,9.354496402118604378e-03,6.772139284711997838e-03,9.317315816879272461e-01,9.650332500794197091e-03,-1.685863299523426839e-02,-2.039370777378142745e-03,-4.148755342309568342e-03,2.494559767502433495e-02,-2.036716490983963013e-01,-1.495080449293256508e-01,1.829668576650570755e-01,-7.560113889911626583e-02,1.647387244956022845e-01,-2.778557777404785378e-01,-2.317818063742266566e-01,2.074967622756958008e-01,-1.778557777404785045e-01,-2.263573050498962347e-01,5.265357387921735244e-01,-5.262331366539001465e-01,-1.922489404678344727e-01,9.489058870493654751e+01,0.000000000000000000e+00
8.485179999999999945e-01,9.538779000556451421e-03,7.830513652958193474e-03,9.276906251907348633e-01,6.044633209992904786e-03,-9.897619354722886342e-03,-3.544561069135485857e-03,-8.800462387926017913e-03,2.637752652244584189e-02,-2.006067782640457153e-01,-1.394729587822790273e-01,2.580442369809096692e-01,-1.174513543351087680e-02,7.207086158973433077e-03,5.741794780247271024e-02,-2.365553814408367650e-01,2.527996301651000768e-02,1.221370160579681313e-01,-2.267603158950805553e-01,5.283128133150142292e-01,-4.468083381652832031e-01,-2.192984819412231445e-01,1.023278314280016872e+02,0.000000000000000000e+00
8.769090000000000495e-01,9.609218040214627735e-03,8.806441158583450113e-03,9.235247373580932617e-01,5.174116715876656003e-03,-2.777762425934637847e-03,-3.060585447504306396e-03,-1.345765434379941720e-02,2.633855880979263722e-02,-1.978743523359298706e-01,2.463047337122526922e-02,2.581463677699638026e-01,3.635584066420183280e-02,2.098872025037060995e-01,2.042136706229068510e-01,2.137004393705090877e-01,2.219065904617309459e-01,2.254672944545745850e-01,2.222312271595001110e-01,5.247024591646286540e-01,-6.628566384315490723e-01,-3.713980913162231445e-01,1.015824733744457120e+02,0.000000000000000000e+00
8.986169999999999991e-01,9.647019747360121439e-03,9.440994731718390168e-03,9.200129508972167969e-01,7.513817719989707503e-03,3.381160958368267799e-03,-6.655056393224805271e-04,-2.953147116690457794e-03,3.314581875559067387e-02,-1.841889023780822754e-01,1.464150049066234582e-01,2.186678596338988423e-01,9.784415316755756820e-02,2.058417501096560520e-01,2.527594433604218871e-01,2.251841314050513632e-01,2.274131298065185380e-01,2.253643870353698730e-01,2.271166563034057451e-01,5.231492265999542202e-01,-7.202301621437072754e-01,-7.413947582244873047e-02,4.092039414778758299e+01,0.000000000000000000e+00
9.250639999999999974e-01,9.746994989311365612e-03,1.006782483506684679e-02,9.167605638504028320e-01,1.052697796114289951e-02,7.179922166544727702e-03,7.875628772057051072e-04,2.420308748553491249e-03,2.812142856322853018e-02,-1.753476560115814209e-01,7.355680004270720440e-02,9.960249468721518729e-02,-1.207759877846202243e-02,1.814425347222312634e-01,2.799335021573919335e-01,2.298793833427163480e-01,2.267946124076843095e-01,2.251039803028106467e-01,2.278404235839843750e-01,5.227642232235915065e-01,-7.319059371948242188e-01,-4.791091680526733398e-01,7.349220026174438658e+01,0.000000000000000000e+00
9.495670000000000499e-01,9.840722946828223128e-03,1.044334695681498754e-02,9.147913455963134766e-01,1.291449386437996602e-02,7.349343805498786963e-03,-1.027943049858270582e-04,-1.634586867280431437e-03,2.205503649680249159e-02,-1.648729890584945679e-01,1.498305943905936799e-01,-4.978869898467498667e-02,-6.597942921297747509e-02,-2.060726529561728582e-01,2.322821432038005285e-01,2.003886629767626659e-01,-1.416818618774413896e-01,1.800771832466125377e-01,2.008555233478546143e-01,5.288456308204385614e-01,-3.798488378524780273e-01,3.248120546340942383e-01,9.387315006579311216e+01,0.000000000000000000e+00
9.772100000000000231e-01,1.001396540315061846e-02,1.093477613790385522e-02,9.120833873748779297e-01,1.723054274380487680e-02,3.948251631193944178e-03,-2.727017523052014010e-03,6.619207635039672973e-03,2.362772700479699034e-02,-1.614175140857696533e-01,1.549857103091307198e-01,-2.155757930571778613e-01,-9.044034291691419036e-02,6.220669541806762848e-02,2.005704124722846038e-01,1.787949954177901757e-01,1.522336721420287919e-01,1.636679470539093018e-01,1.865945398807525579e-01,5.247435843446015546e-01,-6.129500269889831543e-01,-1.950827836990356445e-01,9.587462088884944933e+01,0.000000000000000000e+00
1.006915000000000004e+00,1.022995901305607733e-02,1.130302017176052290e-02,9.098581671714782715e-01,2.098365137373823033e-02,-2.301465734144692021e-03,-5.454734064605166848e-03,9.409410101788728484e-03,2.354008743826199734e-02,-1.598418653011322021e-01,7.716787963067928136e-02,-2.551859700014862953e-01,-1.120754891333435310e-01,-5.101878643035889088e-02,1.600346526535682823e-01,8.700556072236662053e-02,4.898121356964111467e-02,1.627507746219634954e-01,1.022647261619567816e-01,5.240655662817108595e-01,-6.648395657539367676e-01,8.018301725387573242e-01,2.885972465855452285e+01,0.000000000000000000e+00
1.028200999999999921e+00,1.029169364711215486e-02,1.145814786035046461e-02,9.089057445526123047e-01,2.141015734614558005e-02,-4.742931319247079003e-03,-6.481405019977658395e-03,9.079562152130090866e-03,2.573205045844568356e-02,-1.694373339414596558e-01,3.354565318907470201e-02,-2.810303451819288201e-01,-1.251406939914313510e-01,-1.873467087745666615e-01,1.486082728764287764e-01,-1.186348634364995658e-01,-8.734670877456664206e-02,1.678187727928161510e-01,-1.005904912948608343e-01,5.243178059766195886e-01,-7.058533430099487305e-01,-1.745582818984985352e-01,9.617174777812334696e+01,0.000000000000000000e+00
1.053881999999999985e+00,1.042453197288576924e-02,1.179981300859998979e-02,9.071495532989501953e-01,2.162478912868864497e-02,-9.295601893373195423e-03,-8.459000059311629766e-03,-8.128441521899040833e-04,3.161461864237091052e-02,-1.612953841686248779e-01,-4.800451880888583281e-03,-2.352466079918234809e-01,-1.382358807442703730e-01,-1.419916450977325439e-01,4.341341841454213202e-02,-2.190399129918934318e-01,-4.199164509773254533e-02,9.959424734115600308e-02,-1.956688284873962236e-01,5.237465095390481107e-01,-7.243676185607910156e-01,-1.892687082290649414e-01,9.178553689692455464e+01,0.000000000000000000e+00
1.082176999999999945e+00,1.058059410796914103e-02,1.215842709763480939e-02,9.058713316917419434e-01,2.135805453466149695e-02,-1.380033923013179731e-02,-1.041198801922455647e-02,1.095263412586732280e-02,3.745809976782490947e-02,-1.646340638399124146e-01,-5.634390048074866542e-03,-2.271455170865514794e-01,-1.273509762623590558e-01,-1.129966437816619929e-01,8.175054650913482490e-02,-2.198010160600691321e-01,-1.299664378166198730e-02,1.570344328880310114e-01,-1.910742402076721080e-01,5.244321691574559408e-01,-7.184259891510009766e-01,7.225574254989624023e-01,1.119462062700511922e+02,0.000000000000000000e+00
1.106986000000000026e+00,1.078782134653905565e-02,1.257903354832813451e-02,9.043046236038208008e-01,2.094682320409381807e-02,-1.809994568781281288e-02,-1.179667375821684752e-02,-2.444972284432884047e-03,3.254909430747912613e-02,-1.610075533390045166e-01,-1.631942902283688157e-02,-2.120599776345092058e-01,-5.592130100139241361e-02,5.817587375640867475e-02,7.399661540985105757e-02,-2.505078529796929132e-01,1.581758737564086803e-01,1.739966154098510631e-01,-2.181024312973022516e-01,5.244806001810300433e-01,-7.203916311264038086e-01,-1.151646375656127930e-01,9.887273242502655535e+01,0.000000000000000000e+00
1.135941000000000090e+00,1.092049916302496176e-02,1.357297584089715674e-02,9.028301835060119629e-01,1.995400301026692760e-02,-2.182413842999353371e-02,-1.210690074203089710e-02,2.731554386680821664e-03,3.410130205491218591e-02,-1.611982733011245728e-01,-1.040261893230239321e-01,-1.803460371063305423e-01,1.520016703491040323e-02,7.795124383272332425e-02,7.958782315254209205e-02,-2.479938130396250329e-01,1.765578746795654352e-01,1.795878231525420976e-01,-2.148034572601318359e-01,5.248491069089918915e-01,-7.199195027351379395e-01,-4.379113912582397461e-01,4.580288998917407817e+00,0.000000000000000000e+00
1.151877000000000040e+00,1.095685816475823124e-02,1.405328752271391493e-02,9.022524952888488770e-01,1.902348359845017559e-02,-2.350329361975855846e-02,-1.188877798746878003e-02,3.281185299320493135e-03,3.830858294859391944e-02,-1.631017178297042847e-01,-1.119749238119838591e-01,-2.050509330826834897e-01,4.735888013732355434e-02,6.637354162672981506e-02,7.425800561904905006e-02,-2.437555356748523638e-01,1.555674076080322266e-01,1.742580056190490556e-01,-2.112224578857421764e-01,5.253659056200633559e-01,-7.147178649902343750e-01,-1.565207242965698242e-01,1.042184072996937090e+02,0.000000000000000000e+00
1.177081000000000044e+00,1.107242289378605055e-02,1.569296757697886263e-02,9.000020027160644531e-01,1.561006264920778222e-02,-2.701218309215103197e-02,-1.035440394013707917e-02,-3.246959162604084819e-04,4.479342789368821048e-02,-1.550378799438476562e-01,-1.568944639457984236e-01,-1.098506240287575320e-01,3.968694108650049762e-02,1.060534870795499379e-01,7.910218238830565851e-02,-2.143026855387202556e-01,1.676503658294677679e-01,1.791021823883056641e-01,-1.861045002937316839e-01,5.253314007523202100e-01,-7.064638733863830566e-01,-3.844925165176391602e-01,6.397411991746734827e+01,0.000000000000000000e+00
1.203959000000000001e+00,1.107835067065775919e-02,1.735842952263205383e-02,8.980607390403747559e-01,1.199588255628292188e-02,-2.966189441594258014e-02,-7.605840950866702213e-03,-1.456090888034800718e-02,4.049352894727775709e-02,-1.475823968648910522e-01,-9.740601569638913937e-02,-5.422005605207881607e-02,1.228282518911326948e-01,-1.144642697086956096e-02,-7.145117521286011020e-02,-8.088719330141155850e-02,2.972424030303955078e-02,2.854882478713989188e-02,-6.033929586410521906e-02,5.259155783710393051e-01,-6.653229594230651855e-01,2.462717294692993164e-01,-1.857778327825993614e+01,0.000000000000000000e+00
1.225184999999999969e+00,1.100486589822434642e-02,1.844120094604536145e-02,8.968014121055603027e-01,1.018752989231219361e-02,-3.167931528600864688e-02,-5.635280374279653601e-03,-2.643822721907215312e-04,4.167971045022951515e-02,-1.438599973917007446e-01,-8.044629647123902050e-02,-1.033497355272105928e-01,1.488268443553356912e-01,-5.272378382115627815e-02,-1.416221618652343806e-01,-1.808588936742939746e-01,-2.559759020805358817e-02,-4.162216186523437500e-02,-1.657683134078979381e-01,5.258184785995266841e-01,-6.732846498489379883e-01,7.964254617691040039e-01,-5.133673059905956571e+00,0.000000000000000000e+00
1.250026000000000082e+00,1.123914401141138351e-02,1.914969905157755392e-02,8.952112793922424316e-01,9.275373337816885527e-03,-3.451708145804199823e-02,-2.491893466311881269e-03,-5.180359922624639714e-03,4.199786109362504960e-02,-1.365621536970138550e-01,-2.409655144164005169e-02,-1.143665893845219328e-01,8.969483257283578093e-02,9.930317431511637150e-02,-1.719731092453002930e-01,-2.121284881369773501e-01,1.199460268020629827e-01,-7.197310924530028742e-02,-2.058830022811889704e-01,5.252987483955197101e-01,-6.910748481750488281e-01,6.010115146636962891e-02,1.100925748915797726e+02,0.000000000000000000e+00
1.276755000000000084e+00,1.151501482584028555e-02,1.941322815564152163e-02,8.939461112022399902e-01,1.037246485944123137e-02,-3.704433453048250335e-02,1.202325659247415303e-03,-2.308946229867872568e-02,4.214799658483028844e-02,-1.222951784729957581e-01,4.622152560383378794e-02,-5.646384572497793741e-02,1.378034618035447745e-01,-1.919709517594377635e-01,-3.044333219528198020e-01,-1.892213164461976072e-01,-1.645368039608001709e-01,-2.044333219528198242e-01,-1.934770345687866211e-01,5.246639426871321232e-01,-6.856608986854553223e-01,-6.261885166168212891e-02,7.860172134585835124e+01,0.000000000000000000e+00
1.301460999999999979e+00,1.162846476490833787e-02,1.975382864702036542e-02,8.928229808807373047e-01,1.207231342708886893e-02,-3.947400342902107617e-02,4.526098523570774509e-03,-3.089758304176335596e-02,3.401593121045978080e-02,-1.208865791559219360e-01,5.163922001588394650e-02,-9.572885062543658174e-02,1.416932098206888924e-01,-1.185586148601695256e-01,-3.063829660415649525e-01,-1.755010832468277826e-01,-7.418289184570311945e-02,-2.063829660415649470e-01,-1.891768455505370983e-01,5.250482736232087166e-01,-6.749731302261352539e-01,2.854679822921752930e-01,5.288716902650048013e+01,0.000000000000000000e+00
1.326721000000000039e+00,1.164975669436382061e-02,2.015677508829286785e-02,8.918411731719970703e-01,1.292677883555318208e-02,-4.085754658289819652e-02,7.162953562218924743e-03,-2.120618997157825217e-02,3.758497866601639981e-02,-1.174819245934486389e-01,2.667313251538920918e-02,-5.371445633716723234e-02,9.213664406133373341e-02,-1.835565676836994342e-01,-3.092648386955261230e-01,-1.668392121678113071e-01,-1.376565456390380915e-01,-2.092648386955261175e-01,-1.879858016967773382e-01,5.251429454720327739e-01,-6.715761423110961914e-01,-2.657023668289184570e-01,9.734841861738729563e+01,0.000000000000000000e+00
1.351855000000000029e+00,1.137440624835766266e-02,2.163988175170596107e-02,8.907114863395690918e-01,1.252452262231524074e-02,-3.963085154949053113e-02,1.022283721862930067e-02,-2.192191452033187896e-02,4.940424740411168691e-02,-1.196602061390876770e-01,1.794853211974534526e-02,1.245873417951680467e-01,1.307141828359815461e-01,1.010156417477758584e-01,9.867866039276121382e-02,2.358210589706245253e-01,1.350391387939453014e-01,1.986786603927612194e-01,2.060733675956726019e-01,5.319847485931979980e-01,-3.224607706069946289e-01,-1.327964067459106445e-01,4.295243006737973701e+01,0.000000000000000000e+00
1.378093000000000012e+00,1.105250502889918926e-02,2.312272656002010984e-02,8.897861242294311523e-01,1.259463575173323628e-02,-3.651416923955919103e-02,1.354725153599467199e-02,-2.270475155481530005e-02,4.946810777052568914e-02,-1.185800433158874512e-01,-5.667445872567066639e-02,1.572922772577504680e-01,1.290376328439138687e-01,1.878312165048647286e-01,-7.277783155441285012e-02,2.614205222229351033e-01,2.229061603546142467e-01,2.722216844558715890e-02,2.224495410919189453e-01,5.363947945465369349e-01,-9.033024311065673828e-02,3.942021131515502930e-01,-7.955063952724823650e+01,0.000000000000000000e+00
1.398357999999999990e+00,1.077802874633864740e-02,2.412764367009201383e-02,8.891143202781677246e-01,1.194226502407340178e-02,-3.276425641974034519e-02,1.578505591296232302e-02,-2.603952176020350381e-02,4.887879673630541461e-02,-1.144121661782264709e-01,-6.424738341457182644e-02,1.724077309923974788e-01,1.072990419209273460e-01,1.935157264491973728e-01,-6.037163138389588235e-02,2.681768065811972468e-01,2.239597320556640514e-01,3.962836861610412320e-02,2.230613172054290716e-01,5.380246950503232428e-01,2.384424209594726562e-03,-1.929076910018920898e-01,9.478037677248921966e+01,0.000000000000000000e+00
1.425129000000000090e+00,1.037376674063401373e-02,2.574796268333313237e-02,8.881484270095825195e-01,9.026218908634883395e-03,-2.507764371323406571e-02,1.938538645482283662e-02,-2.409954583189171870e-02,5.891328882408152640e-02,-1.199327483773231506e-01,-1.008717771535389968e-01,3.431351549136901768e-01,1.215303755591352064e-01,2.196901413460440322e-01,8.883854746818542480e-02,2.746005169872902663e-01,2.224600553512573187e-01,1.888385474681854304e-01,2.196752250194549394e-01,5.364811778886463545e-01,-1.204390525817871094e-01,3.182638883590698242e-01,8.971164557809856888e+01,0.000000000000000000e+00
1.451394000000000073e+00,1.007120113163658195e-02,2.737177027575611946e-02,8.871108889579772949e-01,5.528998410019012912e-03,-1.703993939198000795e-02,2.194147772420882228e-02,-2.264137876851639655e-02,6.168479587764958555e-02,-1.161938607692718506e-01,-1.371242760712370612e-01,2.706663941721696442e-01,4.790051079272443502e-02,2.124780809205222831e-01,5.041062831878662109e-02,-1.549613832977559391e-01,1.904273629188537598e-01,1.504106283187866266e-01,-2.167630791664123535e-01,5.329280454762693742e-01,-3.171614408493041992e-01,1.341894865036010742e-01,-3.976461002700553138e+01,0.000000000000000000e+00
1.477178000000000102e+00,9.728336924454942039e-03,2.886445356008099719e-02,8.862746953964233398e-01,3.818789697980491497e-03,-1.220123159941066682e-02,2.131934041663334847e-02,-3.090747368910789356e-02,5.146624056184782164e-02,-9.702341258525848389e-02,-2.048253046255186713e-02,1.051822780391212242e-01,-4.915787498524508414e-02,1.880274070604793513e-01,1.324850811488432201e-01,2.834172243956474269e-01,1.612892389297485296e-01,2.248956620693206843e-01,2.234882712364196777e-01,5.366466711714342752e-01,-5.010324716567993164e-02,4.137736558914184570e-01,9.996589054130875240e+01,0.000000000000000000e+00
1.504734000000000016e+00,9.302283713107331597e-03,3.030881438061519204e-02,8.855957984924316406e-01,4.999222906330456212e-03,-1.011958571987192634e-02,1.894338050401968634e-02,-2.387361192359114398e-02,4.757335273770098294e-02,-8.005263656377792358e-02,9.903819010085396224e-02,5.210964328043766330e-02,-1.165129289181750238e-01,2.195463983664975582e-01,1.217479551990443692e-01,2.788556416708524721e-01,2.007688164710998424e-01,1.946427226066589355e-01,2.256107389926910178e-01,5.246237761031536939e-01,-6.543385386466979980e-01,1.127601861953735352e-01,-1.284343307377861549e+02,0.000000000000000000e+00
1.524629000000000012e+00,9.121649084934055352e-03,3.111267897331060003e-02,8.854924440383911133e-01,7.163435866599753010e-03,-9.157383742604219279e-03,1.702962406562932504e-02,-1.638403954237448515e-02,4.520340405471977990e-02,-7.140419632196426392e-02,1.475691494060496212e-01,6.326168364574269454e-02,-1.003627399083886762e-01,2.023189340358853006e-01,1.350159473247396491e-01,2.738415509875968268e-01,1.980842828750610241e-01,1.971838653087615856e-01,2.259568154811859020e-01,5.239955183867456290e-01,-6.639692187309265137e-01,-1.212388277053833008e-01,1.015137480110170429e+02,0.000000000000000000e+00
1.549090000000000078e+00,8.370505350413316725e-03,3.248774905409285152e-02,8.851907253265380859e-01,1.185883100866461266e-02,-9.079856897218130385e-03,1.501611327993592447e-02,-3.247466287587389561e-02,5.596517879505100851e-02,-7.112769037485122681e-02,2.121429112281959239e-01,-2.816102716452756512e-03,-1.342677621751604301e-02,1.908009276084763062e-01,1.133209480199800362e-01,2.527183355121120911e-01,2.074240207672119196e-01,1.885000705718994085e-01,2.103288531303405817e-01,5.248537326917291912e-01,-6.270615458488464355e-01,-2.534941434860229492e-01,-6.439791266489913824e+01,0.000000000000000000e+00
1.578238999999999947e+00,7.160522133038705814e-03,3.425369049103970526e-02,8.852277994155883789e-01,1.929941287917798232e-02,-1.044403299832064036e-02,1.404427721657565409e-02,-2.416903412238399773e-02,5.396630307666274579e-02,-5.590169131755828857e-02,2.132196446791704003e-01,-5.865648213226368896e-02,-1.012507369889061731e-01,9.829886249532351905e-02,2.002666225938830313e-02,2.639643418567733657e-01,1.648837924003601074e-01,9.635369181632995328e-02,2.241720736026763805e-01,5.332097296079778559e-01,-1.183546185493469238e-01,1.267956495285034180e-01,1.174208009653023481e+02,0.000000000000000000e+00
1.602754999999999930e+00,6.305738581595886003e-03,3.551982227326307834e-02,8.854182958602905273e-01,2.501986833571647958e-02,-1.315422647143038581e-02,1.099498734450567172e-02,-2.804007841357191583e-02,4.484476969211956265e-02,-4.302330315113067627e-02,2.005001647615909099e-01,-8.990740530870158786e-02,-1.094273415262959487e-01,-7.854930162429810125e-02,-6.769547114551509315e-02,2.539833701430889157e-01,2.145069837570190430e-02,3.109304308891296109e-02,2.224885761737823431e-01,5.421021728792365657e-01,4.178707599639892578e-01,-2.198697328567504883e-01,9.257365193468481834e+01,0.000000000000000000e+00
1.625609000000000082e+00,5.465315149478606679e-03,3.672758338517465720e-02,8.856620192527770996e-01,3.104757462904014428e-02,-1.637455091439354860e-02,7.240359712090947870e-03,-2.150314085045302789e-02,4.459871298584047739e-02,-4.567191004753112793e-02,2.191750506299748325e-01,-1.453280357918566579e-01,-1.245496199860638142e-01,-1.313100695610046331e-01,-1.687146544456482045e-01,2.433419070712761201e-01,-3.131006956100463451e-02,-6.871465444564818503e-02,2.220874607563018688e-01,5.447845581087584765e-01,5.501194000244140625e-01,8.861553668975830078e-02,4.691541510684785266e+01,0.000000000000000000e+00
1.651531000000000082e+00,4.327488993116815341e-03,3.790866094538952735e-02,8.858212828636169434e-01,3.692094851987402088e-02,-1.936003685970333343e-02,3.272502493003664418e-03,-2.273864728181101968e-02,3.831053375705284481e-02,-3.773251175880432129e-02,1.929563535167859722e-01,-1.324294951992665281e-01,-1.328745658949527231e-01,-2.905291616916656494e-01,-2.749948978424072155e-01,2.335282036161567265e-01,-1.905291616916656439e-01,-1.749948978424072099e-01,2.230372309684753307e-01,5.428921256526497707e-01,4.688658714294433594e-01,7.336250543594360352e-01,-8.637700379132577666e+01,0.000000000000000000e+00
1.678434999999999899e+00,3.153811065032359993e-03,3.897252584011513116e-02,8.857749104499816895e-01,4.190263914922513072e-02,-2.191590956516176192e-02,-7.376424576217165043e-04,-2.849098277352843378e-02,3.544807690179709037e-02,-4.826134070754051208e-02,1.868954889308576395e-01,-7.926925741950197057e-02,-1.766983697735345915e-01,-3.242292404174804688e-01,-2.892314195632934570e-01,2.254148411592303280e-01,-2.242292404174804632e-01,-1.892314195632934515e-01,2.257730841636657604e-01,5.291695897932900960e-01,-3.390634655952453613e-01,5.203044414520263672e-02,1.222073975356472886e+02,0.000000000000000000e+00
1.701283000000000101e+00,2.396417333261470582e-03,3.968633759433343178e-02,8.855840563774108887e-01,4.432951929370541888e-02,-2.301987626629320438e-02,-3.551437857378534225e-03,-2.553616367229406478e-02,3.975014229475011540e-02,-4.143302142620086670e-02,1.244604229298350989e-01,-4.728927025628441492e-04,-1.799264874711828666e-01,-3.259356081485748069e-01,-2.170404076576232799e-01,2.183751688910848254e-01,-2.259356081485748291e-01,-1.170404076576232882e-01,2.264490723609924316e-01,5.235876329158121179e-01,-6.247252821922302246e-01,5.786334276199340820e-01,-8.389530236772583294e+01,0.000000000000000000e+00
1.725483000000000100e+00,1.382668483379101594e-03,4.063581354063980355e-02,8.852970600128173828e-01,4.539011579742344149e-02,-2.253410118904275450e-02,-7.794891514765959865e-03,-2.553705699498484347e-02,3.563384017329728620e-02,-3.820978477597236633e-02,1.981202437300902397e-02,9.054300317354341265e-02,-1.529309441572015704e-01,-3.113006353378295898e-01,9.554197788238524836e-02,1.810203842651755546e-01,-2.113006353378295843e-01,1.955419778823852539e-01,2.009730756282806230e-01,5.246469058633743687e-01,-5.632137060165405273e-01,-5.538970232009887695e-01,1.396033019554011503e+02,0.000000000000000000e+00
1.751419999999999977e+00,3.017746460621019162e-04,4.172914158763754711e-02,8.849019408226013184e-01,4.340040405598071666e-02,-1.904117950387229641e-02,-1.212639422736987681e-02,-1.160867659847349131e-02,3.390367854799573172e-02,-4.116584360599517822e-02,-1.333652267707777783e-01,1.522369165044065442e-01,-1.684535541271190706e-01,1.003528594970702903e-01,1.058309137821197288e-01,1.918337419821980749e-01,2.003528594970702958e-01,2.058309137821197343e-01,2.243407130241394098e-01,5.286187715761641037e-01,-3.678270578384399414e-01,-3.344005346298217773e-01,7.831580962720163086e+01,0.000000000000000000e+00
1.775409000000000015e+00,-5.157260971966074132e-04,4.272485123310757610e-02,8.846362829208374023e-01,3.829132097668407758e-02,-1.228073417624786501e-02,-1.647235360941035412e-02,-1.598829781773480896e-02,3.337206714962781540e-02,-3.813366219401359558e-02,-2.233876175477428616e-01,2.897426061247801443e-01,-1.689951077667342094e-01,1.051187515258789062e-01,1.191324041790534360e-01,1.777603993074319544e-01,2.051187515258789118e-01,2.117423236370086503e-01,2.229574978351593073e-01,5.284810936038040197e-01,-3.721339702606201172e-01,-2.423322200775146484e-02,1.012280480282245776e+02,0.000000000000000000e+00
1.801717000000000013e+00,-1.327784397568772213e-03,4.367606123625625281e-02,8.843790292739868164e-01,3.062760333680055944e-02,-4.651820887052959819e-03,-2.060235132124235355e-02,-1.330908364141061492e-02,3.821996638295141469e-02,-3.757523000240325928e-02,-2.845319686816439875e-01,3.069452905332980541e-01,-1.552757899441518097e-01,9.148941040039060280e-02,1.778729095896484647e-01,1.258847149155151446e-01,1.914894104003906083e-01,2.190481603145599254e-01,1.832244157791137751e-01,5.320663779970522533e-01,-1.823242306709289551e-01,2.795976400375366211e-01,1.317800852423385720e+02,0.000000000000000000e+00
1.827218000000000009e+00,-1.846183583872151521e-03,4.426030446438913163e-02,8.842759132385253906e-01,2.511734898111908643e-02,-1.017845813841011804e-03,-2.305285766817026863e-02,-1.744800160223796900e-02,3.307566391883510343e-02,-2.744185924530029297e-02,-3.209206943801929390e-01,1.831063503841290352e-01,-1.308320201229682678e-01,1.201305389404296875e-01,1.969003919910729261e-01,7.730859851641033731e-02,2.201305389404296931e-01,2.183005571365356501e-01,1.417059659957885798e-01,5.262055346664702427e-01,-4.702748656272888184e-01,-6.190155744552612305e-01,-2.522110530277030804e+00,0.000000000000000000e+00
1.850141000000000036e+00,-2.421598899368683326e-03,4.472002240724268912e-02,8.841931223869323730e-01,2.047561116476830090e-02,4.510098849592747428e-04,-2.580566877195418149e-02,-1.789499553026215051e-02,2.647357077883616752e-02,-2.699932269752025604e-02,-2.379289632514565711e-01,4.114386530629011995e-02,-1.468333971186822073e-01,1.411697337498533655e-01,2.030324961033377340e-01,-2.732793728458628446e-01,2.241085767745971680e-01,2.150245249271392767e-01,-2.010933637619018444e-01,5.221939303872846772e-01,-6.936804056167602539e-01,4.737627506256103516e-02,1.016589373422039984e+02,0.000000000000000000e+00
1.876419999999999977e+00,-3.279549071877167071e-03,4.512801498154810076e-02,8.842482566833496094e-01,1.688481215863114199e-02,-8.950285562456805621e-04,-2.971234852335875865e-02,-1.893369138372242438e-02,1.229558299721846167e-02,-8.393094874918460846e-03,-9.871776533231321760e-02,-1.128154072998237140e-01,-1.230526048603924477e-01,-2.077318011184481894e-01,1.758386894064301875e-01,-2.883769909508002716e-01,-1.389117479324340765e-01,1.978325486183166448e-01,-2.052903413772582952e-01,5.206939812037270077e-01,-7.070867419242858887e-01,-4.229127168655395508e-01,1.122225693842482599e+02,0.000000000000000000e+00
1.906087000000000087e+00,-4.117145476618486871e-03,4.529309434725415501e-02,8.845595121383666992e-01,1.721941673990561722e-02,-4.372877107636119476e-03,-3.352433071573516360e-02,-2.057117727254295647e-02,7.413440896159032706e-03,1.648750388994812965e-03,1.400390221146738910e-02,-1.686370893753419697e-01,-1.491007998891195618e-01,3.071015127426877933e-02,1.377577138460215622e-01,-1.571610843228020693e-01,1.030145645141601479e-01,1.842493593692779430e-01,-6.352472305297851562e-02,5.205344864831690233e-01,-6.804796457290649414e-01,9.768307209014892578e-02,8.554165799545486948e+01,0.000000000000000000e+00
1.924400000000000110e+00,-4.616960297636521146e-03,4.534888632048802298e-02,8.848369121551513672e-01,1.861248663414458854e-02,-7.063311738273236884e-03,-3.574542358470626791e-02,-1.116577154189288441e-02,1.062574759246204432e-02,1.909476821310818195e-03,1.040608374650399404e-01,-1.557284335536728015e-01,-1.399144629683058694e-01,1.157400214803159522e-01,-4.320108757534590893e-02,9.310635665432021035e-02,1.934630513191223089e-01,1.405543684959411656e-02,1.928843736648559459e-01,5.222375722905640005e-01,-5.919708609580993652e-01,-2.772899866104125977e-01,1.531019550762590882e+02,0.000000000000000000e+00
1.950317000000000078e+00,-5.609386828716638775e-03,4.546100018355573452e-02,8.853257894515991211e-01,2.139339304419257334e-02,-1.143795870760211386e-02,-3.708129088001433510e-02,-3.061733620888212881e-02,1.425514755739662985e-02,9.457287378609180450e-03,1.246762541528750740e-01,-1.237044904017648578e-01,1.174863541890747327e-02,1.114523325281570609e-01,5.086860656738279030e-02,1.127829134464263805e-01,2.048686265945434404e-01,1.508686065673827958e-01,2.127829134464263861e-01,5.324970829791162430e-01,-6.106197834014892578e-03,-3.986517190933227539e-01,9.336455368962644741e+01,0.000000000000000000e+00
1.976312000000000069e+00,-6.881336039553959984e-03,4.544539143847347445e-02,8.859776854515075684e-01,2.388145056812409489e-02,-1.671283134879164578e-02,-3.564408086812802245e-02,-2.724987755609781584e-02,1.204033580837841552e-02,1.480980124324560165e-02,2.547597242626705588e-02,-2.510956801388663506e-01,8.349660080417298236e-02,1.131435990333556907e-01,8.385291099548339289e-02,-3.077007734925061855e-01,2.131435990333556962e-01,1.838529109954833984e-01,-2.087715268135070801e-01,5.190595221968252737e-01,-7.184414267539978027e-01,-1.963075399398803711e-01,1.132925048573524123e+02,0.000000000000000000e+00
2.001434000000000157e+00,-8.156250050982158037e-03,4.556033994005938975e-02,8.864310383796691895e-01,2.367111758171464714e-02,-2.077441473381091974e-02,-3.392111469621598985e-02,-2.635064301268073492e-02,2.168892837549403485e-02,6.006684619933366776e-03,-2.156804306316466649e-02,-1.616174037944627662e-01,3.608791428144166036e-02,9.370105266571043812e-02,9.425859451293944202e-02,-3.075362971543159629e-01,1.937010526657104437e-01,1.942585945129394476e-01,-2.136445283889770452e-01,5.196454730587065640e-01,-7.253940701484680176e-01,7.084220647811889648e-01,1.308115370972740834e+02,0.000000000000000000e+00
2.025624000000000091e+00,-9.290296731390271234e-03,4.564799029356468585e-02,8.869320154190063477e-01,2.343102980498930690e-02,-2.429753996323968934e-02,-3.424375481683106237e-02,-1.713751898518493105e-02,1.990431484609662960e-02,9.991683065891265869e-03,9.019885260760689139e-03,-8.440148973162021895e-02,-3.043801953440621391e-02,7.600212097167968750e-02,8.861141800880431574e-02,-1.701761863007826558e-02,1.760021209716796931e-01,1.886114180088043213e-01,7.768403291702270785e-02,5.200889264413769419e-01,-6.888038516044616699e-01,1.933687925338745117e-01,1.489301916444311757e+01,0.000000000000000000e+00
2.050006999999999913e+00,-1.019934255467365956e-02,4.560267464655184261e-02,8.873810768127441406e-01,2.448688498182370610e-02,-2.636128934350123743e-02,-3.614955476751122165e-02,-2.614960053154875841e-02,6.623014420241619266e-03,1.524964626878499985e-02,2.394233118759093656e-02,-6.936054650163789304e-02,-6.687289953330109726e-02,-1.924312114715576172e-01,-2.780906677246093861e-01,9.254128506466927084e-02,-9.243121147155761164e-02,-1.780906677246093806e-01,1.924477458000183050e-01,5.209809227799656606e-01,-6.228593587875366211e-01,-4.143124818801879883e-01,8.203191747911962750e+01,0.000000000000000000e+00
2.076500999999999930e+00,-1.086405778562588020e-02,4.543204775281472346e-02,8.877231478691101074e-01,2.629615796525974769e-02,-2.795922399863415286e-02,-3.553546782201939119e-02,-4.001981514061050266e-02,3.422805758924579115e-03,1.510309614241123199e-02,9.095282510228254458e-02,-7.110730437020813810e-02,8.721347064730225473e-02,-1.221846044063568115e-01,-2.909064054489135520e-01,-1.146331233427749785e-02,-2.218460440635680944e-02,-1.909064054489135742e-01,8.650892972946166992e-02,5.228119743757260185e-01,-5.280063152313232422e-01,2.925127744674682617e-01,8.779760800660756104e+01,0.000000000000000000e+00
2.102132999999999807e+00,-1.171065206951018949e-02,4.527788700243727538e-02,8.881756663322448730e-01,2.924737712863330341e-02,-3.002091791265826259e-02,-3.291384742684396597e-02,-3.775080227018139112e-02,7.779263533678823159e-03,1.767162978649139404e-02,1.194487490546278924e-01,-1.039836896154069934e-01,7.440521265442395782e-02,1.002893447875975730e-02,-2.944704532623291238e-01,1.081427083839411885e-01,1.100289344787597628e-01,-1.944704532623290905e-01,1.985260426998138317e-01,5.255715419727734483e-01,-3.710031509399414062e-01,3.702632188796997070e-01,9.024662014483982375e+01,0.000000000000000000e+00
2.128117000000000036e+00,-1.257170195336274922e-02,4.506498738045783964e-02,8.884432911872863770e-01,3.186103702190511144e-02,-3.215299450747166610e-02,-3.218331675498427302e-02,-3.101130288807358096e-02,3.835026158015523903e-03,1.284007169306278229e-02,6.652834662029115387e-02,-5.160369806504946227e-02,7.047675822563520542e-03,-9.552979469299324733e-03,-3.151397705078125000e-01,1.302396324169755870e-01,9.044702053070068082e-02,-2.151397705078124944e-01,2.183950603008270319e-01,5.289807999352932333e-01,-2.079269886016845703e-01,3.556239604949951172e-02,1.884305416524489374e+01,0.000000000000000000e+00
2.154326000000000185e+00,-1.312519787507377030e-02,4.453042212760837532e-02,8.884890079498291016e-01,3.145068174982719456e-02,-3.166856556021602209e-02,-3.302918472095671409e-02,-2.312803161723718179e-02,3.128275616545740483e-03,8.531878702342510223e-04,-9.362064412128566493e-02,6.996064781750728490e-02,-3.831392590330085640e-02,1.222297787666320745e-01,-2.752075791358947754e-01,1.337450293920300348e-01,2.222297787666320801e-01,-1.752075791358947698e-01,2.243543565273284912e-01,5.232081329385015467e-01,-5.748268365859985352e-01,1.576377153396606445e-01,1.084021440531366380e+02,0.000000000000000000e+00
2.180839000000000194e+00,-1.345070890639702213e-02,4.415382112117075680e-02,8.883574604988098145e-01,2.986001119354093555e-02,-2.883753558380419690e-02,-3.319970864366308949e-02,-3.212313235111778631e-02,2.575018173491130415e-03,-1.762261847034096718e-03,-8.944405839183731943e-02,1.809337936867814745e-01,-2.322883086701911515e-02,1.203381061553955023e-01,-1.615676760673522838e-01,1.330680153314643954e-01,2.203381061553955078e-01,-6.156767606735229215e-02,2.243187010288238414e-01,5.256421189969213703e-01,-4.592647552490234375e-01,5.146145820617675781e-03,1.018014492392363195e+02,0.000000000000000000e+00
2.201118000000000130e+00,-1.370775441289473658e-02,4.379994257662164076e-02,8.881452083587646484e-01,2.763248667612549364e-02,-2.462479855876309465e-02,-3.375055742511204326e-02,-2.766751088733208561e-02,5.775160340949016084e-03,-8.218996226787567139e-03,-1.010747257790007153e-01,2.832509999823527580e-01,-4.096361743621726448e-02,1.103370785713195801e-01,8.152173161506651167e-02,1.299833779245640752e-01,2.103370785713195856e-01,1.815217316150665172e-01,2.230991542339324785e-01,5.271995885234165291e-01,-4.067705869674682617e-01,-7.517540454864501953e-02,1.002394874288919482e+02,0.000000000000000000e+00
2.225385999999999864e+00,-1.405522072015160176e-02,4.320074810504182655e-02,8.876191973686218262e-01,2.504704157877167200e-02,-1.748975184128465088e-02,-3.527326784703511964e-02,-3.067231803414132221e-02,-3.830324515524569182e-03,-8.891644887626171112e-03,-7.403763516049012561e-02,2.791493988668447557e-01,-4.919607235540791185e-02,4.476164579391478382e-02,1.158810257911682129e-01,8.886403721240668241e-02,1.447616457939147894e-01,2.158810257911682184e-01,1.866819083690643144e-01,5.302067129013814384e-01,-2.531439065933227539e-01,5.424487590789794922e-02,8.835483532966470932e+01,0.000000000000000000e+00
2.250217000000000134e+00,-1.437664505039535495e-02,4.243147879403565831e-02,8.870738744735717773e-01,2.379338056353239028e-02,-9.650713190789916851e-03,-3.716121533412641148e-02,-2.133520360032839167e-02,-1.230636845765291539e-02,-5.695094354450702667e-03,-2.479367507504085747e-03,2.766937166103283774e-01,-7.405451606884652649e-02,1.069742679595947210e-01,1.366505824574625882e-01,1.256049096584319902e-01,2.069742679595947266e-01,2.243206679821014293e-01,2.256049096584319957e-01,5.228570050813424741e-01,-6.488099098205566406e-01,-3.769814968109130859e-02,9.637643488717029072e+01,0.000000000000000000e+00
2.274964999999999904e+00,-1.481267131660065663e-02,4.219093595068177521e-02,8.863875269889831543e-01,2.543629088229185445e-02,-1.831497194187292621e-03,-3.922193458062085691e-02,-2.012527665708225763e-02,-1.940426899591052648e-02,-3.205198328942060471e-03,1.228184140717068912e-01,2.654079488564685119e-01,-7.588941523163192371e-02,1.046030521392822266e-01,1.863842787802280354e-01,1.278635978698730302e-01,2.046030521392822321e-01,2.240525186061859131e-01,2.278635978698730358e-01,5.211219402871815065e-01,-7.413666248321533203e-01,-1.614147424697875977e-01,1.014640174036701836e+02,0.000000000000000000e+00
2.297903999999999947e+00,-1.520833282246275044e-02,4.183683459575772423e-02,8.857986330986022949e-01,2.869538704402699661e-02,3.771269581303471341e-03,-4.153762708805109477e-02,-2.346253296355209697e-02,-2.048906814076159946e-02,-5.550646455958485603e-04,1.389372223121489447e-01,1.547034680081581237e-01,-8.112317513465211460e-02,-2.457447648048400879e-01,2.177624288157507804e-01,1.277775526046752708e-01,-1.457447648048400823e-01,2.223763167858123779e-01,2.277775526046752763e-01,5.211569412800722834e-01,-7.371056079864501953e-01,-8.367836475372314453e-02,9.802304323189862600e+01,0.000000000000000000e+00
2.328133999999999926e+00,-1.564095043725626313e-02,4.141278198872771349e-02,8.852158188819885254e-01,3.183435875128259873e-02,6.017044896115653074e-03,-4.337610021724610382e-02,-2.291770694673890205e-02,-1.653259511671892681e-02,1.749459886923432350e-03,1.493680507909911082e-01,4.429006909018320254e-02,-8.410132110445461828e-02,-2.998122870922088623e-01,2.173929207970561051e-01,1.252617120742797741e-01,-1.998122870922088568e-01,2.073227941989898571e-01,2.252617120742797796e-01,5.219665027871347451e-01,-6.922081112861633301e-01,-7.716758847236633301e-01,1.245065621536786296e+02,0.000000000000000000e+00
2.351916000000000118e+00,-1.593285608862098079e-02,4.109093982917176591e-02,8.848946690559387207e-01,3.354140161875508036e-02,5.577291159502673068e-03,-4.469019741616016977e-02,-2.601858446496528587e-02,-2.276050127854879757e-02,5.289684981107711792e-03,1.112373571706315178e-01,-7.892919011471323867e-03,-6.449175093049494545e-02,-3.084682583808898704e-01,1.815391597480805475e-01,1.236877202987670676e-01,-2.084682583808898926e-01,1.770671546459197943e-01,2.236877202987670732e-01,5.229158292892717164e-01,-6.335596442222595215e-01,7.344830036163330078e-02,9.910468564924018153e+01,0.000000000000000000e+00
2.379944000000000059e+00,-1.679769385242636803e-02,4.091811743110852773e-02,8.841390609741210938e-01,3.615929400541250532e-02,2.381129730173014991e-03,-4.704472125086805318e-02,-2.684303653950474017e-02,-2.865216959022683779e-02,5.693120416253805161e-03,7.421325674853013199e-02,-1.782827113277377917e-01,-7.286029206734487285e-02,1.024568557739257701e-01,1.447814879081121275e-01,9.462518095970151588e-02,2.024568557739257757e-01,1.621059715747833196e-01,1.946251809597015214e-01,5.227296817068447510e-01,-6.505233049392700195e-01,-2.457940578460693359e-02,9.770380019009222394e+01,0.000000000000000000e+00
2.405355000000000132e+00,-1.733118160231614246e-02,4.072193497912488663e-02,8.835077285766601562e-01,3.716903350444612092e-02,-4.232972316764449516e-04,-4.869830239565634683e-02,-1.319822814556418158e-02,-2.794952680978550139e-02,-1.535155577585101128e-03,-2.116723601401980168e-02,-1.749416161211367615e-01,-8.644903162641000283e-02,-1.214663088321685791e-01,1.756408007426749907e-01,-2.731709241867065208e-01,-2.146630883216857702e-02,2.013898551464080866e-01,-1.731709241867065430e-01,5.220712851519384579e-01,-7.230155467987060547e-01,8.972728252410888672e-02,1.008767577388324810e+02,0.000000000000000000e+00
2.429291000000000089e+00,-1.784972028275226205e-02,4.051423584420379281e-02,8.828332424163818359e-01,3.649745619426596893e-02,-3.342837778767870915e-03,-5.045164261248045318e-02,-1.550841586663481188e-02,-2.763768217656947454e-02,-3.766763955354690552e-03,-1.026372003585438591e-01,-2.042209223634109672e-01,-1.024904881843349130e-01,-2.216784477233886830e-01,1.519239450871082697e-01,-3.073796749114990345e-01,-1.216784477233886635e-01,2.007238805294036810e-01,-2.073796749114990290e-01,5.224278259619337117e-01,-7.212817072868347168e-01,-3.078162670135498047e-02,9.143049000348895561e+01,0.000000000000000000e+00
