timestamp,x,y,z,roll,pitch,yaw,vx,vy,vz,p,q,r,psp,qsp,rsp,pres,qres,rres,thrust_sp, thrust_res
0.000000000000000000e+00,9.493466999933414599e-03,-1.170593322660624241e-02,9.876436591148376465e-01,1.974834551504443814e-02,-4.614976941066828431e-03,-2.682990514285764046e-04,-3.458581892251844092e-03,3.386794493754129859e-03,5.286931525915861130e-03,-3.009977373241873658e-02,-1.378638415985261774e-02,-3.640760890439621606e-03,-1.000000000000000056e-01,-2.683100742863045451e-02,-6.412148518552540644e-04,0.000000000000000000e+00,0.000000000000000000e+00,0.000000000000000000e+00,5.124826934814007418e-01,-0.000000000000000000e+00,2.555664777755737305e-01,8.956261768059806627e+01,2.061133146286010798e-01
3.188900000000000068e-02,9.206884045142620793e-03,-1.140671889222566460e-02,9.881890416145324707e-01,1.979379154517679415e-02,-4.728836003797143306e-03,-5.260075449314845870e-04,-1.335688817314829510e-02,2.127669060859420803e-03,1.412754599004983902e-02,-2.188920960335115351e-02,1.734456936632969640e-02,4.820817003262718031e-03,-1.000000000000000056e-01,-3.524849093632959063e-02,-1.329531677157769209e-03,0.000000000000000000e+00,0.000000000000000000e+00,0.000000000000000000e+00,5.117852186801481462e-01,-0.000000000000000000e+00,1.710323095321655273e-01,7.084649233579409611e+01,2.061133146286010798e-01
6.546100000000000529e-02,8.942505459764753944e-03,-1.116414518637774689e-02,9.885368943214416504e-01,1.946140482652421871e-02,-4.884065712448037999e-03,-7.067474531527785132e-04,-1.070151010538555533e-02,6.043639829379565849e-03,4.851227626204490662e-03,2.542152827057772915e-02,-4.359766689123045248e-03,-4.706182869202540399e-03,-1.000000000000000056e-01,-3.283128791389678530e-02,-1.843981381601800251e-03,0.000000000000000000e+00,0.000000000000000000e+00,0.000000000000000000e+00,5.124527446135775932e-01,-0.000000000000000000e+00,-3.331447839736938477e-01,7.904054050946416510e+01,2.061133146286010798e-01
9.780800000000000605e-02,8.680415593730336082e-03,-1.082496656142882020e-02,9.889230132102966309e-01,1.929579248702708791e-02,-5.108663263257762210e-03,-8.599753091130929970e-04,-4.710556910051923868e-03,-2.312676635414911280e-03,8.980832062661647797e-03,-6.512659195025458959e-03,4.528048171231423800e-03,7.038065046905394966e-03,-1.000000000000000056e-01,-3.000143789837293046e-02,-2.292809063564382743e-03,0.000000000000000000e+00,0.000000000000000000e+00,0.000000000000000000e+00,5.121205989281394366e-01,-0.000000000000000000e+00,-1.504656076431274414e-01,1.105674233030574101e+02,2.061133146286010798e-01
1.281009999999999927e-01,8.386718867404482913e-03,-1.035895255125496642e-02,9.893482923507690430e-01,1.938828448642245308e-02,-5.104176667609205964e-03,-1.112087421989120181e-03,-6.345231270760655871e-03,5.172336894137847564e-03,6.790434475988149643e-03,-1.256470684477222800e-02,1.071124847357421417e-02,6.741527430344798621e-03,-1.000000000000000056e-01,-3.236310957118072873e-02,-2.980934398224666104e-03,0.000000000000000000e+00,0.000000000000000000e+00,0.000000000000000000e+00,5.122545992476841281e-01,-0.000000000000000000e+00,5.469046831130981445e-01,-7.817497795670513483e+01,2.061133146286010798e-01
1.609609999999999930e-01,8.081701945309925986e-03,-9.853740587969721243e-03,9.896405935287475586e-01,1.922867800359110910e-02,-5.053559936360363380e-03,-1.003208821045340230e-03,-1.036069250332037096e-02,6.979003314302180102e-04,8.053779602050781250e-03,1.378399178796209205e-02,-1.105764911733200795e-02,-2.867580295114661657e-03,-1.000000000000000056e-01,-3.522605146811320226e-02,-2.670695737682859949e-03,0.000000000000000000e+00,0.000000000000000000e+00,0.000000000000000000e+00,5.121416854205862457e-01,-0.000000000000000000e+00,-4.032504558563232422e-02,1.125799931835150147e+02,2.061133146286010798e-01
1.835859999999999992e-01,7.786220461062992419e-03,-9.361457930442448894e-03,9.899193644523620605e-01,1.878484831100307381e-02,-5.132036274152262934e-03,-1.005050774661531924e-03,-1.452505498653178413e-03,1.078503994360957563e-02,3.901702584698796272e-03,-3.523392554356909179e-02,1.430786644658875104e-02,-4.989586423964429817e-04,-1.000000000000000056e-01,-2.813423504808987632e-02,-2.697899040546736238e-03,0.000000000000000000e+00,0.000000000000000000e+00,0.000000000000000000e+00,5.124343258742578566e-01,-0.000000000000000000e+00,5.348500013351440430e-01,9.248541955098659173e+01,2.061133146286010798e-01
2.093500000000000083e-01,6.992658947746829487e-03,-8.418733136916607684e-03,9.903389215469360352e-01,1.568594740814227562e-02,-3.606699606128804803e-03,-8.212151928635188060e-04,-7.063594750066541292e-03,1.231455472660487188e-02,2.102968282997608185e-03,-1.182792894597943234e-01,5.603948793510289683e-02,5.808141634058973032e-03,-9.903644792431443022e-02,-2.454116615945198948e-02,-2.214109626269555875e-03,0.000000000000000000e+00,0.000000000000000000e+00,0.000000000000000000e+00,5.125434413987520754e-01,-0.000000000000000000e+00,-1.723927259445190430e-01,9.363733778469841695e+01,2.061133146286010798e-01
2.322619999999999962e-01,6.552352210452858268e-03,-7.770080273307881057e-03,9.905182719230651855e-01,1.290695677910307787e-02,-2.605200127037354818e-03,-7.348876075595670411e-04,-8.988652693315375350e-03,1.820181344146314453e-02,-1.590216881595551968e-03,-8.210501316276101746e-02,2.803612396945447810e-02,-9.531205934836641316e-03,-7.601927477144636291e-02,-1.903825534916183532e-02,-1.999794540583188507e-03,0.000000000000000000e+00,0.000000000000000000e+00,0.000000000000000000e+00,5.128141611635198549e-01,-0.000000000000000000e+00,1.997805833816528320e-01,6.531680533469763361e+01,2.061133146286010798e-01
2.567159999999999997e-01,6.051210069895118782e-03,-6.996581603875176407e-03,9.906268119812011719e-01,9.789573041292538164e-03,-1.379080710838698209e-03,-4.683763812675342570e-04,-6.911084840374049493e-03,1.513325587623825727e-02,9.053022949956357479e-04,-1.073622092997235794e-01,5.792181107352614711e-02,2.713030660113141534e-02,-5.857527203347151490e-02,-9.421503972959831968e-03,-1.290010397378027474e-03,0.000000000000000000e+00,0.000000000000000000e+00,0.000000000000000000e+00,5.126291754270672074e-01,-0.000000000000000000e+00,-3.619968891143798828e-02,-7.775530039824828377e-01,2.061133146286010798e-01
2.844300000000000161e-01,5.449458816927562829e-03,-6.045661084780695402e-03,9.906353354454040527e-01,6.713332539482536575e-03,-8.585552168338672629e-05,-4.231520592553692645e-04,2.260892258581730704e-03,2.534478623179543116e-02,-1.082881726324558258e-02,-9.604153361616829532e-02,2.768188869875335897e-02,1.426785246135733182e-02,-2.927531955439981529e-02,5.699079202668753431e-03,-1.195782949654056182e-03,0.000000000000000000e+00,0.000000000000000000e+00,0.000000000000000000e+00,5.135164570894585889e-01,-0.000000000000000000e+00,2.120593786239624023e-01,1.232630988945211357e+02,2.061133146286010798e-01
3.183819999999999983e-01,5.260424226087676014e-03,-5.699975516901031880e-03,9.906256794929504395e-01,5.527091954628993511e-03,3.934465133266229486e-04,-2.777971330779943539e-04,-5.335880372544281325e-03,2.530906967906906141e-02,-8.525955490767955780e-03,-1.327104557319820077e-01,5.647911559809948995e-02,2.992709942964732681e-02,-2.279943876563242725e-02,1.251515146529981210e-03,-7.798687641672463755e-04,0.000000000000000000e+00,0.000000000000000000e+00,0.000000000000000000e+00,5.133633639892066780e-01,-0.000000000000000000e+00,-5.330525636672973633e-01,7.342516878522988577e+01,2.061133146286010798e-01
3.504700000000000037e-01,5.050217780616518548e-03,-5.313382976555293402e-03,9.905913472175598145e-01,4.437930708288999153e-03,6.445673790318462437e-04,-2.359853174180944109e-04,-8.583599736206327588e-03,2.072244890047864399e-02,-7.009231485426425934e-03,-1.196217506660313262e-01,5.889190377117041464e-03,2.280203339588684347e-02,-1.909902787260725487e-02,1.244920884858290860e-03,-6.623522089688749226e-04,0.000000000000000000e+00,0.000000000000000000e+00,0.000000000000000000e+00,5.132688245142441597e-01,-0.000000000000000000e+00,-6.019842624664306641e-02,9.069013847859459077e+01,2.061133146286010798e-01
3.851089999999999791e-01,4.366079038722822832e-03,-3.760722965777075263e-03,9.903548359870910645e-01,5.691739561889878722e-04,1.830349823889854122e-03,8.669459543070493529e-06,1.208917169324802551e-03,3.468760952469660680e-02,-1.602494530379772186e-02,-1.038114065196619473e-01,3.488391757048435460e-02,1.688397977104225470e-02,1.898150743730231058e-02,1.688564737527838491e-02,9.513840099339976319e-06,0.000000000000000000e+00,0.000000000000000000e+00,0.000000000000000000e+00,5.139785068503798238e-01,-0.000000000000000000e+00,4.646527767181396484e-02,9.693262402147360035e+01,2.061133146286010798e-01
4.168970000000000176e-01,3.595872007986634315e-03,-2.241110669272912848e-03,9.900730848312377930e-01,-2.100379989979041760e-03,2.664233349301436959e-03,3.265887233655879671e-04,-6.338573027225202251e-03,4.002398744685915777e-02,-1.065812353044748306e-02,-6.859144151549509405e-02,2.349420942930951356e-02,1.002736081635696849e-03,3.968287666816835285e-02,1.432978850128767759e-02,9.085726467586985322e-04,0.000000000000000000e+00,0.000000000000000000e+00,0.000000000000000000e+00,5.136225373807138395e-01,-0.000000000000000000e+00,7.160211801528930664e-01,-2.389412590553647675e+01,2.061133146286010798e-01
4.530529999999999835e-01,2.730248325647758982e-03,-4.981934880271741929e-04,9.898042082786560059e-01,-4.606883478310508373e-03,2.789781979346983576e-03,6.700941813764500852e-04,5.127547449796358674e-03,4.495657162307350324e-02,-1.519007701426744461e-02,-9.601385235785295236e-02,3.336716382723038145e-03,1.216228831219256720e-02,6.036475124590996721e-02,2.494595839734643425e-02,1.875869328993307050e-03,0.000000000000000000e+00,0.000000000000000000e+00,0.000000000000000000e+00,5.140021981623732472e-01,-0.000000000000000000e+00,5.269824266433715820e-01,-1.237384254192406559e+02,2.061133146286010798e-01
4.871900000000000119e-01,1.735415016103749545e-03,2.062915942981078873e-03,9.893748760223388672e-01,-6.414750996755980150e-03,2.577689232172497569e-03,1.124463649808520602e-03,-3.790435849665923541e-03,5.348512454900745949e-02,-1.372871361672878265e-02,-5.818257883596811286e-02,-1.723466179680570656e-02,4.128448540882028589e-02,8.004435052360123204e-02,1.411974402990667787e-02,3.150060908562235529e-03,0.000000000000000000e+00,0.000000000000000000e+00,0.000000000000000000e+00,5.139507100070342949e-01,-0.000000000000000000e+00,3.239363431930541992e-01,9.262713914607519428e+01,2.061133146286010798e-01
5.172619999999999996e-01,1.061244192714439708e-03,4.104811697653616177e-03,9.890418052673339844e-01,-7.129920492567373702e-03,2.412977788206482899e-03,1.305068577870774175e-03,6.607890661827085267e-03,6.198867077102155482e-02,-2.392012067139148712e-02,7.003527011125026958e-03,1.628801355171117030e-02,-1.004723147404648805e-02,9.165755582255576128e-02,2.229810967468439514e-02,3.654949649467553741e-03,0.000000000000000000e+00,0.000000000000000000e+00,0.000000000000000000e+00,5.147629020564831182e-01,-0.000000000000000000e+00,-7.207763195037841797e-02,-7.219996945191299176e+01,2.061133146286010798e-01
5.485449999999999493e-01,5.145749365720314735e-04,6.283145114199648398e-03,9.886814951896667480e-01,-7.609546229415828367e-03,2.174140934809054571e-03,1.392145159168035754e-03,3.239156589870436222e-04,6.474934871326304409e-02,-1.549677085131406784e-02,-3.710055101595541305e-02,-2.399349088920905287e-02,1.582459605887207715e-02,9.744220294595140608e-02,1.386460120674453018e-02,3.898684793597118059e-03,0.000000000000000000e+00,0.000000000000000000e+00,0.000000000000000000e+00,5.141934781387846876e-01,-0.000000000000000000e+00,-4.381839036941528320e-01,1.178917698293314089e+02,2.061133146286010798e-01
5.817790000000000461e-01,4.258559126422995910e-05,8.682351261238079390e-03,9.881240725517272949e-01,-7.497581260239197937e-03,2.086579969468482787e-03,1.671408877089009372e-03,3.566587746358745609e-03,8.312978762890536888e-02,-2.096031792461872101e-02,8.461816145759505636e-03,-2.069726867506806438e-03,-9.801692689484623779e-04,1.000000000000000056e-01,1.655862739790407018e-02,4.671575628192370377e-03,0.000000000000000000e+00,0.000000000000000000e+00,0.000000000000000000e+00,5.146758347630028263e-01,-0.000000000000000000e+00,5.684026479721069336e-01,5.319617361474102779e+01,2.061133146286010798e-01
6.142180000000000417e-01,-5.220296768199705374e-04,1.227703423179291042e-02,9.873641729354858398e-01,-5.983067892814495845e-03,1.457373207129242232e-03,1.960093713253601572e-03,2.851097755552822050e-03,8.240061211526682194e-02,-1.867891661822795868e-02,8.573046328769756697e-02,-1.935663566391694276e-02,1.756468229363424753e-04,1.000000000000000056e-01,1.109470678518782033e-02,5.479319790380576816e-03,0.000000000000000000e+00,0.000000000000000000e+00,0.000000000000000000e+00,5.145924223649676055e-01,-0.000000000000000000e+00,1.793626546859741211e-01,-4.781772066224697681e+01,2.061133146286010798e-01
6.457669999999999799e-01,-9.064192043667789215e-04,1.526921995106773206e-02,9.868158698081970215e-01,-4.119723009858110470e-03,7.162245783502996233e-04,2.230472746739192019e-03,1.252486364476436756e-02,9.789259868872142445e-02,-2.098263427615165710e-02,4.026712258626848062e-02,-1.778885744772931363e-02,6.745552516391201646e-03,1.000000000000000056e-01,1.396626800802892518e-02,6.221740607339043549e-03,0.000000000000000000e+00,0.000000000000000000e+00,0.000000000000000000e+00,5.148433501157710923e-01,-0.000000000000000000e+00,3.846061229705810547e-02,9.539531919403297877e+01,2.061133146286010798e-01
6.765079999999999982e-01,-1.219981456216217555e-03,1.844542929756142965e-02,9.862142205238342285e-01,-1.929392932721847717e-03,1.486490322146760690e-04,2.422200903995742199e-03,4.262807429620502986e-04,9.852549854962923404e-02,-1.686113886535167694e-02,8.163791680305729215e-02,-2.568476820619357628e-02,-2.291652204579975281e-03,9.132421350138590632e-02,-9.948621152828271245e-04,6.784572501735586236e-03,0.000000000000000000e+00,0.000000000000000000e+00,0.000000000000000000e+00,5.146123125499797446e-01,-0.000000000000000000e+00,-2.199796438217163086e-01,2.078819710123506184e+02,2.061133146286010798e-01
7.066149999999999931e-01,-1.405259951772942859e-03,2.170351678949650892e-02,9.855738282203674316e-01,8.907821235195656799e-04,-6.530871358518819392e-04,2.625872124262513922e-03,1.396092446016135129e-02,1.046247012264189813e-01,-1.945632323622703552e-02,9.066548231304488725e-02,-5.659956422020108804e-03,1.965971088906345865e-02,8.016722247636043353e-02,6.357958888261058816e-03,7.333467349165401217e-03,0.000000000000000000e+00,0.000000000000000000e+00,0.000000000000000000e+00,5.148878401960231832e-01,-0.000000000000000000e+00,4.677554368972778320e-01,-5.159113721639597117e+01,2.061133146286010798e-01
7.355580000000000451e-01,-1.353972688174019667e-03,2.497985814898831536e-02,9.848003387451171875e-01,4.222798429744817686e-03,-1.183457066968651716e-03,2.678201962675574518e-03,5.390812273870614589e-03,1.105175028224417294e-01,-1.996613293886184692e-02,1.229737893407885363e-01,-2.624083295897287546e-02,-3.521052979213312641e-03,6.483698028222094345e-02,-5.846142521948189882e-03,7.522675003175050001e-03,0.000000000000000000e+00,0.000000000000000000e+00,0.000000000000000000e+00,5.150193776920146682e-01,-0.000000000000000000e+00,-7.724031805992126465e-01,1.235669330295599764e+02,2.061133146286010798e-01
7.663489999999999469e-01,-1.254885798061470712e-03,2.838656675692230111e-02,9.839375019073486328e-01,7.431129976364292226e-03,-1.654032902659086091e-03,2.909369547279146671e-03,9.767860636824181667e-03,1.119306074154115538e-01,-1.873072795569896698e-02,1.053116201312338934e-01,-1.206217910918316871e-02,-4.486906814365150542e-03,4.685889410336537692e-02,-4.022779787414560403e-03,8.166035471704025106e-03,0.000000000000000000e+00,0.000000000000000000e+00,0.000000000000000000e+00,5.150266699900277745e-01,-0.000000000000000000e+00,1.009676814079284668e+00,-6.191523793934246456e+00,2.061133146286010798e-01
7.968819999999999792e-01,-1.115431355297706898e-03,3.183957357193138021e-02,9.830184578895568848e-01,1.113210882273873471e-02,-2.149755608295889076e-03,2.943951450812412780e-03,1.242110223431251194e-02,1.172475535985267187e-01,-2.918142825365066528e-02,1.314947670289302872e-01,-1.453893515179276175e-02,1.693084236045934790e-02,2.925310275778436261e-02,-5.622629214152694357e-03,8.276352352475646601e-03,0.000000000000000000e+00,0.000000000000000000e+00,0.000000000000000000e+00,5.159130925017464397e-01,-0.000000000000000000e+00,4.368078708648681641e-02,9.346696554604162088e+01,2.061133146286010798e-01
8.289400000000000102e-01,-8.893267312141805297e-04,3.497319762897440482e-02,9.821343421936035156e-01,1.488284794659885425e-02,-2.186435540375342157e-03,2.848202165759448467e-03,7.270527271029999378e-03,1.151137550655832315e-01,-2.415505982935428619e-02,1.384185801914083747e-01,1.662071935250208909e-02,-9.995160628598210705e-04,4.969618147216761650e-03,-1.018204176295137847e-02,8.042880002743113543e-03,0.000000000000000000e+00,0.000000000000000000e+00,0.000000000000000000e+00,5.156469054556057641e-01,-0.000000000000000000e+00,-1.652361154556274414e-01,9.196753411754872332e+01,2.061133146286010798e-01
8.592149999999999510e-01,-5.867585687613060055e-04,3.798026545332391229e-02,9.812443256378173828e-01,1.818622750089828391e-02,-2.383294318710538207e-03,2.959668826203975395e-03,2.090067857725305678e-02,1.171599717414649328e-01,-2.596579492092132568e-02,7.566472135728444237e-02,-1.972131111991486455e-02,7.263321551377763426e-03,-1.224330047383246842e-02,4.518219082937699861e-04,8.284847612643475578e-03,0.000000000000000000e+00,0.000000000000000000e+00,0.000000000000000000e+00,5.158920677314009495e-01,-0.000000000000000000e+00,1.262153387069702148e-01,1.066531648331281588e+02,2.061133146286010798e-01
8.914809999999999679e-01,-2.385832811725799047e-04,4.100194009378471671e-02,9.804384112358093262e-01,2.143259718032585609e-02,-2.104140667751774885e-03,2.927573927223416691e-03,8.247527481381777478e-03,1.151307192244342553e-01,-2.653794735670089722e-02,1.099074235802315058e-01,2.008725540709977928e-02,-3.035122596273076394e-04,-3.284590609485250889e-02,-9.555205753678098005e-03,8.276273384197008198e-03,0.000000000000000000e+00,0.000000000000000000e+00,0.000000000000000000e+00,5.160360730176949406e-01,-0.000000000000000000e+00,-2.935186624526977539e-01,9.769468188755026006e+01,2.061133146286010798e-01
9.219359999999999777e-01,2.044891532535291975e-04,4.415338350239942505e-02,9.795150756835937500e-01,2.397728819976155737e-02,-1.747256931266205626e-03,3.034463213491312133e-03,2.351146513316792336e-02,1.183974606290850995e-01,-2.823011018335819244e-02,6.734452230914661497e-02,3.179456543627323488e-03,-9.514565790685332314e-03,-4.406733642164596676e-02,7.156104614522495327e-03,8.434456802550893695e-03,0.000000000000000000e+00,0.000000000000000000e+00,0.000000000000000000e+00,5.162799742931137859e-01,-0.000000000000000000e+00,-2.476428747177124023e-01,1.039860920754540672e+02,2.061133146286010798e-01
9.537339999999999707e-01,1.012915435494968512e-03,4.862413691077144967e-02,9.782494306564331055e-01,2.649467496694894036e-02,-1.415807330640506123e-03,3.225472194515500990e-03,1.593253030271930479e-02,1.118196177741449665e-01,-3.049051575362682343e-02,2.441519488674118166e-02,4.711836558917673924e-03,3.076295183452736060e-02,-6.288788392383393155e-02,1.632976516466052175e-03,9.017653371384104499e-03,0.000000000000000000e+00,0.000000000000000000e+00,0.000000000000000000e+00,5.165852254057545778e-01,0.000000000000000000e+00,-1.378544569015502930e-01,1.002271521072509159e+02,2.061133146286010798e-01
9.872309999999999697e-01,1.623301229880116199e-03,5.193188025784450240e-02,9.774302840232849121e-01,2.815507590591443191e-02,-1.240725579249923882e-03,3.324947944060796089e-03,1.933304068408719587e-02,1.158649519112624898e-01,-3.297616168856620789e-02,4.823588558107639451e-02,1.811668084625536398e-02,1.084473014779750201e-02,-6.697609219414803194e-02,7.055693561515440082e-03,9.241741948079695845e-03,0.000000000000000000e+00,0.000000000000000000e+00,0.000000000000000000e+00,5.168865563895269633e-01,-0.000000000000000000e+00,-2.117565870285034180e-01,1.065682382609882239e+02,2.061133146286010798e-01
1.023101000000000038e+00,2.442854512963903504e-03,5.513490787823009665e-02,9.765706658363342285e-01,2.894032829645932364e-02,-7.369412620208404263e-04,3.355604839773180560e-03,2.232323136388991019e-02,1.086829627907788670e-01,-2.798025123775005341e-02,1.498628488020311428e-02,-1.022353062687899076e-03,-4.915188645983120316e-03,-7.573317998585230026e-02,1.281994799494122483e-02,9.269788115412014307e-03,0.000000000000000000e+00,0.000000000000000000e+00,0.000000000000000000e+00,5.166270906120459250e-01,-0.000000000000000000e+00,-8.623707294464111328e-02,9.949502413011724400e+01,2.061133146286010798e-01
1.057994000000000101e+00,3.917840384792111059e-03,5.907890423789438628e-02,9.753029942512512207e-01,2.902127227689979549e-02,-4.704882698713941380e-04,3.750888603886106884e-03,2.820112336806877840e-02,1.087648164076939206e-01,-3.458311036229133606e-02,-1.566489013869585070e-02,-3.403889833620758060e-02,9.276591782439757780e-03,-7.235653165627918548e-02,1.984099527680320205e-02,1.030403933764584279e-02,0.000000000000000000e+00,0.000000000000000000e+00,0.000000000000000000e+00,5.172656554750543201e-01,-0.000000000000000000e+00,8.805334568023681641e-02,2.390111660415198358e+01,2.061133146286010798e-01
1.089981000000000089e+00,5.054068144128192122e-03,6.196630286983036140e-02,9.743758440017700195e-01,2.873952325770729246e-02,-9.096631466620763717e-05,3.854668066441152823e-03,1.608791760881779498e-02,1.055129705008043955e-01,-3.111260011792182922e-02,-1.122541797611416314e-02,1.703608364183437432e-02,5.061649438124466924e-03,-7.066655401281932147e-02,1.262847559131063599e-02,1.066841640907045807e-02,0.000000000000000000e+00,0.000000000000000000e+00,0.000000000000000000e+00,5.171299341547412887e-01,-0.000000000000000000e+00,4.216221570968627930e-01,9.984309057022109357e+01,2.061133146286010798e-01
1.121779000000000082e+00,6.502639480224167018e-03,6.560191634686214635e-02,9.730975031852722168e-01,2.710596300246867138e-02,-2.122749762625275594e-04,4.194147252529041581e-03,2.859254073979679636e-02,1.072972678944467684e-01,-3.438375517725944519e-02,-1.071396557272376749e-03,-2.266567993107603679e-02,-4.088208091973882796e-03,-5.548968625532794269e-02,2.457206359704561596e-02,1.150416876232845942e-02,0.000000000000000000e+00,0.000000000000000000e+00,0.000000000000000000e+00,5.175276909676280734e-01,-0.000000000000000000e+00,-2.335995435714721680e-01,9.565339789182191055e+01,2.061133146286010798e-01
1.156188999999999911e+00,7.171531629359646949e-03,6.732290971361636067e-02,9.725301265716552734e-01,2.606785200391676868e-02,-3.097665272961958038e-04,4.206925973511413223e-03,2.032896075747265066e-02,9.853773791920662772e-02,-2.993741072714328766e-02,-5.233121292214057418e-02,-3.308908273100014813e-02,5.592348202566343497e-03,-5.419641216231296105e-02,1.606932410243874787e-02,1.162995568216323994e-02,0.000000000000000000e+00,0.000000000000000000e+00,0.000000000000000000e+00,5.172895071725458482e-01,-0.000000000000000000e+00,1.487714052200317383e-01,1.051261257800100708e+02,2.061133146286010798e-01
1.190415000000000001e+00,8.574080792402752338e-03,7.070876849579542378e-02,9.714615345001220703e-01,2.384291769865798036e-02,-2.853613277602473630e-04,4.301376411703924409e-03,3.209384559460386893e-02,1.041847680406137733e-01,-3.888532146811485291e-02,-9.371008488424455163e-02,2.090506228653516221e-02,-4.197101097430785076e-04,-3.160797797146354393e-02,2.773565549665132565e-02,1.179028293856548837e-02,0.000000000000000000e+00,0.000000000000000000e+00,0.000000000000000000e+00,5.180981033737034336e-01,-0.000000000000000000e+00,3.293097019195556641e-02,9.506150735872694213e+01,2.061133146286010798e-01
1.223662000000000027e+00,1.000083808324517091e-02,7.400538689680682958e-02,9.704922437667846680e-01,2.095368005598625266e-02,-7.151813014529828649e-04,4.575857060400100734e-03,2.478695293588794105e-02,9.590393379699847787e-02,-3.136075288057327271e-02,-4.588792128853833724e-02,4.040701408209012441e-03,-7.516324000906309975e-04,-1.741004521531182986e-02,1.848333173427236381e-02,1.265840296221093508e-02,0.000000000000000000e+00,0.000000000000000000e+00,0.000000000000000000e+00,5.176674067541182644e-01,-0.000000000000000000e+00,6.903969049453735352e-01,1.402708436637431646e+02,2.061133146286010798e-01
1.256969000000000003e+00,1.105839428448901311e-02,7.625126775128004963e-02,9.699676632881164551e-01,1.857035965424814333e-02,-1.269787873229510922e-03,4.706552106812536378e-03,3.843130365678575078e-02,1.010461204354701215e-01,-3.444704413414001465e-02,-1.137234856542026218e-01,-7.279480946444201288e-03,1.842977220439802680e-02,5.193787427756910678e-03,2.758100416205190586e-02,1.295516333772639417e-02,0.000000000000000000e+00,0.000000000000000000e+00,0.000000000000000000e+00,5.180024963057737741e-01,-0.000000000000000000e+00,1.155361533164978027e+00,2.194355365217506559e+01,2.310723066329956055e-01
1.286092000000000013e+00,1.213551966006248296e-02,7.857164025084363568e-02,9.695223569869995117e-01,1.636015501352779816e-02,-1.662396239256791475e-03,4.883172250257933160e-03,2.853055155192578060e-02,9.743305688657838415e-02,-2.614973485469818115e-02,-7.061400168940221156e-02,-2.799449651033037237e-02,-1.920449252906591357e-03,1.822586627774224963e-02,1.606012980768398157e-02,1.355222118612270377e-02,0.000000000000000000e+00,0.000000000000000000e+00,0.000000000000000000e+00,5.174746615802777727e-01,-0.000000000000000000e+00,6.435692310333251953e-02,9.627219254005756000e+01,2.310723066329956055e-01
1.317472999999999894e+00,1.321974422770582844e-02,8.094588811151581798e-02,9.691835045814514160e-01,1.435746155369709010e-02,-2.489205169817543251e-03,4.945384506086920352e-03,3.824967592386512016e-02,9.834407656679697296e-02,-2.538435906171798706e-02,-6.472305064669799102e-02,-3.527182332125522457e-02,1.899556628026232308e-04,3.453289085129412211e-02,2.069239926519158765e-02,1.369754345017210051e-02,0.000000000000000000e+00,0.000000000000000000e+00,0.000000000000000000e+00,5.175014030809094168e-01,-0.000000000000000000e+00,1.661783456802368164e-01,1.034810815486016651e+02,2.310723066329956055e-01
1.348794999999999966e+00,1.382953706638499758e-02,8.349532037944375207e-02,9.690418243408203125e-01,1.248586365467012523e-02,-3.178996367835029702e-03,5.128296865035369793e-03,2.772417758342014815e-02,1.003720347056599460e-01,-1.938823983073234558e-02,-7.082003455174694373e-02,1.429038353871038905e-03,7.936925529933126083e-03,5.057528123108073759e-02,7.026553985301113754e-03,1.431197612530477059e-02,0.000000000000000000e+00,0.000000000000000000e+00,0.000000000000000000e+00,5.171194365376705626e-01,-0.000000000000000000e+00,-3.892840147018432617e-01,1.164417206685376982e+02,2.310723066329956055e-01
1.378592999999999957e+00,1.443659480769860816e-02,8.612828150083697010e-02,9.688381552696228027e-01,1.105846620505114737e-02,-3.820691449529345363e-03,5.120711963320467679e-03,3.314791879614030490e-02,1.033483884518868745e-01,-2.245598100125789642e-02,-1.886340608582473197e-02,-1.848055085081197479e-02,-9.057684307736421289e-03,6.406979885211816494e-02,9.214354572869997220e-03,1.427681196804331254e-02,0.000000000000000000e+00,0.000000000000000000e+00,0.000000000000000000e+00,5.174159207253211656e-01,-0.000000000000000000e+00,1.207758188247680664e-01,1.052332777877092269e+02,2.310723066329956055e-01
1.407823999999999964e+00,1.503602167620726043e-02,8.886040772578578106e-02,9.687694907188415527e-01,9.874546500275645233e-03,-5.073409060307065843e-03,5.161627895635588492e-03,2.876520906345251052e-02,1.016759203412602730e-01,-2.339057996869087219e-02,-3.655385750206591872e-02,-6.795053083681903972e-02,2.415459635688282578e-02,7.231859538562621093e-02,-2.679345677276046087e-03,1.447265466955693913e-02,0.000000000000000000e+00,0.000000000000000000e+00,0.000000000000000000e+00,5.175401568329560664e-01,-0.000000000000000000e+00,9.387871026992797852e-01,-9.219034171846369929e+01,2.310723066329956055e-01
1.438887999999999945e+00,1.523236027435796378e-02,9.213126273077282269e-02,9.688162803649902344e-01,9.466435495442798373e-03,-5.854770600009384651e-03,5.080168028676457399e-03,2.577936129907021368e-02,1.053604967283641863e-01,-1.701312325894832611e-02,-5.410192014704166136e-03,1.398512640282510364e-02,-1.039594467655132262e-02,8.103565435893256286e-02,-9.177024427625864178e-03,1.428895287418047166e-02,0.000000000000000000e+00,0.000000000000000000e+00,0.000000000000000000e+00,5.171190036004880142e-01,-0.000000000000000000e+00,-5.478262901306152344e-03,9.713201773391378424e+01,2.310723066329956055e-01
1.469740999999999964e+00,1.524243770304512489e-02,9.570792356328743089e-02,9.689105749130249023e-01,9.267329707994058710e-03,-6.986243873308151109e-03,5.175568050905707783e-03,3.733401494723693342e-02,1.100386340341160119e-01,-1.631206832826137543e-02,1.106511683385395057e-03,-5.471917976465146688e-02,6.087443461516225084e-03,8.840011485907291189e-02,-6.684932489878582344e-03,1.454038762365145177e-02,0.000000000000000000e+00,0.000000000000000000e+00,0.000000000000000000e+00,5.171142499091934130e-01,-0.000000000000000000e+00,6.320489645004272461e-01,1.449537579624873160e+02,2.310723066329956055e-01
1.500162999999999913e+00,1.524266982478276501e-02,9.935940511123667052e-02,9.691519737243652344e-01,9.694251175170089455e-03,-8.096871186228149497e-03,5.346321135189948878e-03,1.880247372606299802e-02,1.092938809857191135e-01,-8.341032080352306366e-03,1.939406781734030055e-02,-5.667384524600664608e-02,1.730076593162404100e-02,8.765744821981166779e-02,-3.011240478503529605e-02,1.518582269511425942e-02,0.000000000000000000e+00,0.000000000000000000e+00,0.000000000000000000e+00,5.165449237258906701e-01,-0.000000000000000000e+00,2.007353305816650391e-02,1.060788552069568027e+02,2.310723066329956055e-01
1.530858999999999970e+00,1.529194824502305879e-02,1.030715762307495981e-01,9.694627523422241211e-01,1.095269535245526477e-02,-8.509845642723945502e-03,5.243550762524819796e-03,2.810332280748091549e-02,1.148080241998927636e-01,-8.045807480812072754e-03,5.824026642191820063e-02,1.739992814479978875e-02,-2.196579809119609400e-02,8.699992033142937842e-02,-2.248576196168723673e-02,1.485597268481858579e-02,0.000000000000000000e+00,0.000000000000000000e+00,0.000000000000000000e+00,5.165476786546808752e-01,-0.000000000000000000e+00,-2.114323377609252930e-01,9.970847437186931472e+01,2.310723066329956055e-01
1.564008000000000065e+00,1.523575315771268091e-02,1.074874606324388582e-01,9.701600670814514160e-01,1.320355659212734192e-02,-9.487088987206071522e-03,5.512461763218503771e-03,1.997871059624306556e-02,1.124987829626680341e-01,-2.224229741841554642e-03,6.939529802757621324e-02,-4.493301949832272796e-02,-4.363733611877385087e-04,7.347105962941496982e-02,-3.647154714580708168e-02,1.573473899462202175e-02,0.000000000000000000e+00,0.000000000000000000e+00,0.000000000000000000e+00,5.160971260119896487e-01,-0.000000000000000000e+00,-2.186238765716552734e-02,9.890698582371416592e+01,2.310723066329956055e-01
1.595391999999999921e+00,1.524032601910837309e-02,1.108180597906765902e-01,9.707729816436767578e-01,1.541172112924757247e-02,-9.644906053630997178e-03,5.555489131773648677e-03,1.854132287579594515e-02,1.214355426998486170e-01,-2.267599484184756875e-04,4.828014544136071534e-02,4.179855608530213401e-02,5.313787443360184874e-03,6.953971978935082066e-02,-3.725453419479701073e-02,1.589282670995761926e-02,0.000000000000000000e+00,0.000000000000000000e+00,0.000000000000000000e+00,5.159458292385028511e-01,-0.000000000000000000e+00,1.039146184921264648e-01,1.195939759139036482e+02,2.310723066329956055e-01
1.626614000000000004e+00,1.520144159335251252e-02,1.142023725058499001e-01,9.714003205299377441e-01,1.797299551376348864e-02,-9.619156831101038918e-03,5.693337017250161072e-03,2.350685944661364685e-02,1.173904292308204228e-01,-7.177002262324094772e-03,1.204796369173931625e-01,-2.003547717660898383e-02,1.298586305687410292e-02,5.100735265181720324e-02,-3.281391472427831052e-02,1.625535770202896080e-02,0.000000000000000000e+00,0.000000000000000000e+00,0.000000000000000000e+00,5.164433648111587116e-01,-0.000000000000000000e+00,-1.335412263870239258e-01,8.699546376029208261e+01,2.310723066329956055e-01
1.658649999999999958e+00,1.530004836468938818e-02,1.180883714342644275e-01,9.720711708068847656e-01,2.023734384199554065e-02,-9.380288403928238594e-03,5.797544608328295684e-03,1.316453422491869509e-02,1.140575913836711919e-01,-2.087674569338560104e-03,6.680851329517832615e-02,1.632004657182706958e-02,1.257902750080718869e-02,3.768910283557193319e-02,-3.999078556570481030e-02,1.663665377117778954e-02,0.000000000000000000e+00,0.000000000000000000e+00,0.000000000000000000e+00,5.160471953986002225e-01,-0.000000000000000000e+00,-3.922104835510253906e-03,8.130931761587812900e+01,2.310723066329956055e-01
1.688577999999999912e+00,1.538855683001229963e-02,1.219288745406533758e-01,9.727957248687744141e-01,2.329086844729543262e-02,-8.823086477271147032e-03,5.655315184461567717e-03,1.749370083187611405e-02,1.202501842902867629e-01,-2.996235620230436325e-03,1.047373494504882929e-01,2.929507525814345481e-02,-2.325062870953027716e-02,2.645796241992209516e-02,-3.120419078954357259e-02,1.618081019379979946e-02,0.000000000000000000e+00,0.000000000000000000e+00,0.000000000000000000e+00,5.161016527509294516e-01,-0.000000000000000000e+00,3.292168378829956055e-01,7.839599604805756883e+01,2.310723066329956055e-01
1.717926000000000064e+00,1.546373174095353083e-02,1.257314210480374173e-01,9.734635949134826660e-01,2.580579709390140239e-02,-7.898118769054107702e-03,5.992243598190046504e-03,1.239749890408284663e-02,1.159824959059192334e-01,3.588964696973562241e-03,6.653009858294858803e-02,1.980480011958468331e-02,2.355197481010292901e-02,9.309883573955348227e-03,-2.963311036010433941e-02,1.712290944341710031e-02,0.000000000000000000e+00,0.000000000000000000e+00,0.000000000000000000e+00,5.155865193592329421e-01,-0.000000000000000000e+00,-3.268611431121826172e-02,9.386193489517594912e+01,2.310723066329956055e-01
1.751644999999999897e+00,1.528094099736160803e-02,1.298991053949740127e-01,9.741123914718627930e-01,2.811634542458029892e-02,-6.923568470970975497e-03,5.995285917839660549e-03,1.172192471861729576e-02,1.176998115397717842e-01,4.292540252208709717e-03,7.307768394496319542e-02,5.362406579620698083e-02,-1.059978294750847302e-02,-2.056970719074447534e-04,-2.306326167722015999e-02,1.707258234549641207e-02,0.000000000000000000e+00,0.000000000000000000e+00,0.000000000000000000e+00,5.155147788695522149e-01,-0.000000000000000000e+00,3.898203372955322266e-02,1.555144188722426009e+02,2.310723066329956055e-01
1.784810999999999925e+00,1.491824500682620291e-02,1.355663637771571395e-01,9.750474095344543457e-01,3.119927524846695041e-02,-5.516301767889197905e-03,6.092497899134867792e-03,7.293626404258612798e-03,1.125108989910960089e-01,1.883103512227535248e-03,9.470448544364001853e-02,5.253262585834360399e-02,-6.863612856118832782e-03,-2.028971585419802118e-02,-1.746574235039526427e-02,1.728902547830568626e-02,0.000000000000000000e+00,0.000000000000000000e+00,0.000000000000000000e+00,5.156443855524066588e-01,-0.000000000000000000e+00,2.898596525192260742e-01,-9.606305897786093340e+00,2.310723066329956055e-01
1.815242999999999940e+00,1.468838862425264104e-02,1.397006511543422425e-01,9.756991863250732422e-01,3.297425144618561926e-02,-4.054400206018105024e-03,6.263739430642231883e-03,8.902006585586801773e-03,1.134948215055398557e-01,9.648339822888374329e-03,3.512541885357723520e-02,4.182597834422630001e-02,2.102654410307368965e-02,-2.648674882845901413e-02,-5.988575835965956502e-03,1.762598544995747085e-02,0.000000000000000000e+00,0.000000000000000000e+00,0.000000000000000000e+00,5.150452813287178522e-01,-0.000000000000000000e+00,-6.158740520477294922e-01,1.203757320455466271e+02,2.310723066329956055e-01
1.847423999999999955e+00,1.455117708732914933e-02,1.439572916446382467e-01,9.763013124465942383e-01,3.433737060571290245e-02,-2.804338007513562658e-03,6.525062307381403193e-03,5.782777899613908770e-03,1.144425500144651137e-01,4.760965704917907715e-03,7.308315823747714435e-02,3.650601181729176692e-02,-8.214626311764694835e-03,-3.134788695673008940e-02,-5.419209376553968914e-04,1.828607928556730267e-02,0.000000000000000000e+00,0.000000000000000000e+00,0.000000000000000000e+00,5.153846886151413065e-01,-0.000000000000000000e+00,1.418925523757934570e-01,-2.893817962645587549e+00,2.310723066329956055e-01
1.879461999999999966e+00,1.448560963804060124e-02,1.481767591999463007e-01,9.768307209014892578e-01,3.532632897185968013e-02,-1.473963421324553380e-03,6.645768056037761051e-03,1.415946796859690777e-02,1.038178909494009566e-01,4.028729163110256195e-03,1.222849672765754028e-02,6.495581373311384854e-02,1.676139557894712126e-02,-4.293503843182874813e-02,1.531176724854428108e-02,1.840516064700042920e-02,0.000000000000000000e+00,0.000000000000000000e+00,0.000000000000000000e+00,5.154109979634301508e-01,-0.000000000000000000e+00,2.913275957107543945e-01,-1.094805557910007821e+02,2.310723066329956055e-01
1.909850999999999965e+00,1.443552712162335556e-02,1.522799495249128332e-01,9.773523211479187012e-01,3.574627350961381150e-02,-3.763379113317366631e-04,6.798182485911795879e-03,9.036910333392487657e-03,1.074259603447949990e-01,-2.875255653634667397e-03,1.438598969603303596e-03,3.130344395670220381e-02,2.568069892127663664e-02,-3.802631114647009314e-02,1.722924200356087954e-02,1.880037372279641517e-02,0.000000000000000000e+00,0.000000000000000000e+00,0.000000000000000000e+00,5.159159263558220632e-01,-0.000000000000000000e+00,-1.363575458526611328e-02,-5.786340921424540085e+01,2.310723066329956055e-01
1.937929000000000013e+00,1.442628591513838224e-02,1.562641378850652962e-01,9.778110384941101074e-01,3.557936546516618503e-02,3.577634002664975554e-04,7.039846556237032774e-03,1.109269492342962980e-02,9.975990117068091190e-02,7.934812456369400024e-03,-1.075881539229329650e-02,9.056728666833022828e-03,-7.697669523200688368e-03,-3.974782092668377453e-02,2.455155891445920738e-02,1.937671277693170380e-02,0.000000000000000000e+00,0.000000000000000000e+00,0.000000000000000000e+00,5.150943355880545083e-01,-0.000000000000000000e+00,-1.344019174575805664e-01,9.344043709130528441e+01,2.310723066329956055e-01
1.971532999999999980e+00,1.491404466132061069e-02,1.602272228888136918e-01,9.782470464706420898e-01,3.509554003145829576e-02,9.851183996318901848e-04,7.140930885521641451e-03,1.693776665848116536e-02,1.013568551686119118e-01,5.262933205813169479e-03,-3.167204220833064882e-02,1.076299177652581714e-02,7.302083814808724843e-03,-3.095338569091939801e-02,3.344827772245041742e-02,1.953273709374475642e-02,0.000000000000000000e+00,0.000000000000000000e+00,0.000000000000000000e+00,5.152842605269514209e-01,-0.000000000000000000e+00,-6.752002239227294922e-02,9.371618548847703778e+01,2.310723066329956055e-01
2.004856999999999889e+00,1.542603374934227098e-02,1.640686063961473706e-01,9.785510301589965820e-01,3.426382162083218413e-02,1.788591516116877500e-03,7.285601799128267088e-03,7.368091112529773050e-03,9.627057609192415932e-02,8.305225492222234607e-05,-1.861885301757035607e-02,3.862801130811453765e-02,2.280438473691005340e-03,-2.671187296166117192e-02,3.056282672366109066e-02,1.998523017661668622e-02,0.000000000000000000e+00,0.000000000000000000e+00,0.000000000000000000e+00,5.156605487735385074e-01,-0.000000000000000000e+00,-6.555712223052978516e-02,1.027368641366370809e+02,2.310723066329956055e-01
2.037284999999999791e+00,1.616807487190752637e-02,1.689827338005950863e-01,9.787319302558898926e-01,3.227594906061175689e-02,2.015491417175718780e-03,7.495200544027966379e-03,2.527149391016787414e-02,9.441068611979447356e-02,1.549344975501298904e-03,-5.021812913760359542e-02,3.795150659692515197e-03,-1.001738743745697775e-02,-1.059561140731270223e-02,4.837692374384527927e-02,2.034050382472762930e-02,0.000000000000000000e+00,0.000000000000000000e+00,0.000000000000000000e+00,5.155659129264281715e-01,-0.000000000000000000e+00,5.844128131866455078e-02,9.328417602347373361e+01,2.310723066329956055e-01
2.071035999999999877e+00,1.706360245388975280e-02,1.726733691601236298e-01,9.788627624511718750e-01,3.072193713679068766e-02,1.855304434409177361e-03,7.746654017382759681e-03,1.256108672471661913e-02,9.399547581930713103e-02,6.776139140129089355e-03,-7.122027774396774702e-02,-1.350134416126713699e-02,9.990197579112670284e-03,2.969523571329264235e-03,3.531976364503793681e-02,2.122991731744910959e-02,0.000000000000000000e+00,0.000000000000000000e+00,0.000000000000000000e+00,5.151868691234715580e-01,-0.000000000000000000e+00,-2.686393260955810547e-02,9.857331059219153246e+01,2.310723066329956055e-01
2.105659999999999865e+00,1.798279881586221235e-02,1.762391621273633469e-01,9.789357185363769531e-01,2.921961165601319119e-02,1.679070705338014946e-03,7.858099301322019753e-03,1.892114891096398355e-02,9.099665700387465916e-02,4.615679383277893066e-03,-2.884040068727733094e-02,-2.310612410192188632e-02,5.601047060995483461e-03,1.339935846272142378e-02,4.180994451651649790e-02,2.146789048336267269e-02,0.000000000000000000e+00,0.000000000000000000e+00,0.000000000000000000e+00,5.153589141668580842e-01,-0.000000000000000000e+00,9.829467535018920898e-01,-5.261797590338463948e+00,2.310723066329956055e-01
2.135822000000000109e+00,1.922901436778387541e-02,1.808648701172692330e-01,9.790778160095214844e-01,2.685822717950496485e-02,9.243102857752205637e-04,8.098222834127017863e-03,2.021825496000971209e-02,8.640812014403952135e-02,2.549955621361732483e-03,-7.154865585995255628e-02,-2.482824876982531875e-02,2.434991337204164483e-02,2.921289289313406742e-02,3.793826148941753518e-02,2.220939150843653787e-02,0.000000000000000000e+00,0.000000000000000000e+00,0.000000000000000000e+00,5.155189656120736652e-01,-0.000000000000000000e+00,-9.460091590881347656e-03,1.030012812499757757e+02,2.310723066329956055e-01
2.167060999999999904e+00,2.006150169604679206e-02,1.844540578221022520e-01,9.790912270545959473e-01,2.551660840470915126e-02,2.278406995050996642e-04,8.087949435000218665e-03,1.862756893061439517e-02,8.976045586917666408e-02,3.187851980328559875e-03,-3.353477469810179495e-02,-4.609110634201607493e-03,-8.233604426618657338e-03,4.448312528031645591e-02,3.263440940241419536e-02,2.224981382020968512e-02,0.000000000000000000e+00,0.000000000000000000e+00,0.000000000000000000e+00,5.154979842630277309e-01,-0.000000000000000000e+00,7.402161359786987305e-01,1.064045049662046694e+02,2.310723066329956055e-01
2.198014999999999830e+00,2.090647970665277314e-02,1.879593400663649994e-01,9.790538549423217773e-01,2.415782407927662828e-02,-9.700412786517453867e-04,8.236161615178925685e-03,2.371734995256535514e-02,8.764874860213418828e-02,-1.421010354533791542e-03,-3.434496026671833568e-02,-6.014449360632596192e-02,1.385057321953838891e-02,5.400234954774975338e-02,2.981169037921427983e-02,2.270799471949341841e-02,0.000000000000000000e+00,0.000000000000000000e+00,0.000000000000000000e+00,5.158639163991072252e-01,-0.000000000000000000e+00,-2.343428134918212891e-02,1.006201133807692543e+02,2.310723066329956055e-01
2.227284000000000042e+00,2.173604801015747642e-02,1.913678225110127251e-01,9.789646863937377930e-01,2.325699173954024271e-02,-2.347555328644723716e-03,8.368834876859658142e-03,2.167161373273339062e-02,8.786905012528679892e-02,6.375195458531379700e-03,-1.849418995678459715e-02,-2.062108551234301604e-02,1.642934249700888499e-02,6.378032296022373426e-02,1.925318248234238541e-02,2.320990636332065371e-02,0.000000000000000000e+00,0.000000000000000000e+00,0.000000000000000000e+00,5.153154155884961396e-01,-0.000000000000000000e+00,4.519344568252563477e-01,5.679939893024623387e+01,2.310723066329956055e-01
2.257195999999999980e+00,2.255718426362028628e-02,1.948640184566609590e-01,9.788838624954223633e-01,2.275896657484808086e-02,-3.434343104806503177e-03,8.108362205056495256e-03,3.011436431133454952e-02,8.685143926068356057e-02,-4.935384262353181839e-03,-9.710155029774861224e-03,-4.913272824349902007e-02,-1.119164214945990617e-02,6.871363046292819354e-02,1.978072404394787612e-02,2.247475467318788001e-02,0.000000000000000000e+00,0.000000000000000000e+00,0.000000000000000000e+00,5.161847839869483368e-01,-0.000000000000000000e+00,2.347880601882934570e-01,-8.689553809273479601e+01,2.310723066329956055e-01
2.289648999999999823e+00,2.331600569548690147e-02,1.986096775936950221e-01,9.787712693214416504e-01,2.228703169108906326e-02,-4.814338576727861252e-03,8.318136320678395576e-03,1.621315940752968143e-02,8.675107919141034074e-02,2.191590145230293274e-03,-3.201223836333610961e-02,-6.612348597317702081e-02,1.416623422336569030e-02,7.555076395000799583e-02,-7.766138021553605809e-04,2.331130726923552610e-02,0.000000000000000000e+00,0.000000000000000000e+00,0.000000000000000000e+00,5.156887555072401375e-01,-0.000000000000000000e+00,-5.887711048126220703e-02,9.187854358285262890e+01,2.310723066329956055e-01
2.319138000000000144e+00,2.404322987672635054e-02,2.022479785123089402e-01,9.786087870597839355e-01,2.246194097612879900e-02,-6.186423937982299393e-03,8.168767129246351857e-03,2.545125373418538270e-02,8.898988530119543439e-02,2.177033748012036085e-04,6.420515581101757241e-02,-1.541964135557710204e-02,-3.046556815162092258e-02,7.929303469656145964e-02,3.162469751507540443e-04,2.287983906810570067e-02,0.000000000000000000e+00,0.000000000000000000e+00,0.000000000000000000e+00,5.158774056733471669e-01,-0.000000000000000000e+00,1.690231561660766602e-01,9.784729563436502531e+01,2.310723066329956055e-01
2.349337999999999926e+00,2.476124613117586942e-02,2.057709342370341588e-01,9.784007668495178223e-01,2.273081255376570645e-02,-7.440035905882158573e-03,7.985877322776167506e-03,1.939053625377649623e-02,8.614577459352518174e-02,-6.381987594068050385e-03,-2.160267928112127866e-02,-3.895250691007163396e-02,1.384180023259479198e-02,7.782985693121158288e-02,-1.349253714087513684e-02,2.253854541348732088e-02,0.000000000000000000e+00,0.000000000000000000e+00,0.000000000000000000e+00,5.164040141498490444e-01,-0.000000000000000000e+00,6.129300594329833984e-02,9.586813903932711867e+01,2.310723066329956055e-01
2.381159999999999943e+00,2.585182620846492030e-02,2.092532258780770982e-01,9.782642722129821777e-01,2.375755296897803445e-02,-8.273857242109938781e-03,7.785220403764512957e-03,1.733311701065671367e-02,8.579492234004944262e-02,2.056669676676392555e-03,5.696095313254673914e-02,-1.170294672472571053e-02,-6.258811047231295673e-03,7.488210335768903658e-02,-1.878800993593043173e-02,2.204892059443286367e-02,0.000000000000000000e+00,0.000000000000000000e+00,0.000000000000000000e+00,5.158172908965367176e-01,-0.000000000000000000e+00,1.082698106765747070e-01,8.113788669789998664e+01,2.310723066329956055e-01
2.435268999999999906e+00,2.725873068018595108e-02,2.136931678498731890e-01,9.781931638717651367e-01,2.588904174541282674e-02,-9.382497965068070656e-03,7.315588401008031073e-03,2.446996155179696764e-02,8.285303046553063600e-02,-4.478990100324153900e-03,6.976479770908923517e-02,-3.062199377524807420e-02,-6.199869535319578809e-03,6.213327251543576679e-02,-1.907610817125553193e-02,2.074670744821222046e-02,0.000000000000000000e+00,0.000000000000000000e+00,0.000000000000000000e+00,5.163328131927514830e-01,-0.000000000000000000e+00,3.317810297012329102e-01,1.003520762671704460e+02,2.310723066329956055e-01
2.472995000000000054e+00,2.855348903970438695e-02,2.194282907150651996e-01,9.781718254089355469e-01,2.892131260728164274e-02,-9.961609120992864774e-03,6.966357755746087517e-03,2.464986635420250705e-02,8.183055547475028002e-02,-6.965769571252167225e-04,6.620971840521172602e-02,5.886143617895318175e-03,8.829665145833323278e-03,4.682708705590606091e-02,-2.273431965254775824e-02,1.983568142804442713e-02,0.000000000000000000e+00,0.000000000000000000e+00,0.000000000000000000e+00,5.160848013261258860e-01,-0.000000000000000000e+00,-1.972585916519165039e-01,1.148348640247788381e+02,2.310723066329956055e-01
2.509857999999999922e+00,2.908645680187225621e-02,2.242789884682874213e-01,9.783416390419006348e-01,3.176196387925520753e-02,-1.050909951537959408e-02,6.519530774965268984e-03,1.150933175673825477e-02,7.659779068397878921e-02,1.266532926820218563e-03,5.658065303633327825e-02,1.041057897400745648e-02,2.378592556926135103e-03,2.856507962075186674e-02,-3.637832085321761333e-02,1.879817123274601931e-02,0.000000000000000000e+00,0.000000000000000000e+00,0.000000000000000000e+00,5.159440666904357986e-01,-0.000000000000000000e+00,7.710039615631103516e-02,7.778247430586118583e+01,2.310723066329956055e-01
2.548541999999999863e+00,2.957160335753732106e-02,2.288629806696956537e-01,9.784815907478332520e-01,3.476818368516440549e-02,-9.904880276110139548e-03,5.992505637025235046e-03,1.954766796585244437e-02,8.043579024481130324e-02,-5.787313421024009585e-05,5.947463365496422766e-02,2.580093213389377318e-02,-1.083458505530070226e-02,1.666725676463650524e-02,-2.372732466343706673e-02,1.715869541592407455e-02,0.000000000000000000e+00,0.000000000000000000e+00,0.000000000000000000e+00,5.160683539854614699e-01,-0.000000000000000000e+00,4.396983385086059570e-01,1.011921622143253359e+02,2.310723066329956055e-01
2.589519999999999822e+00,3.017171244229358354e-02,2.315832498439406584e-01,9.786359667778015137e-01,3.685569943152139372e-02,-9.499487221073188437e-03,5.736790841484804004e-03,1.041297743478799068e-02,6.875474894067475085e-02,4.786965902894735336e-03,7.670305657844041225e-02,-1.086217297860894541e-02,-1.403775259536968294e-02,-3.728711470158588281e-03,-2.907382050131974635e-02,1.653166446086506980e-02,0.000000000000000000e+00,0.000000000000000000e+00,0.000000000000000000e+00,5.157000844951690199e-01,-0.000000000000000000e+00,2.474135160446166992e-01,9.958376194781405388e+01,2.310723066329956055e-01
2.628207999999999878e+00,3.108356922733154087e-02,2.345314037939278673e-01,9.790151715278625488e-01,4.000604871638449578e-02,-8.607714584301984218e-03,5.141893614754839727e-03,1.334482565704107546e-02,6.481730895273477011e-02,6.692918483167886734e-03,3.694389979889140668e-02,2.581444072011802524e-02,-1.708891919027116443e-02,-2.265110553810077698e-02,-1.898412843111343604e-02,1.472013331241622813e-02,0.000000000000000000e+00,0.000000000000000000e+00,0.000000000000000000e+00,5.155489411137949007e-01,-0.000000000000000000e+00,1.580234766006469727e-01,-1.971236307676367971e+01,2.310723066329956055e-01
2.664473000000000091e+00,3.191711574576820698e-02,2.372052315255221422e-01,9.796698093414306641e-01,4.195436338436508983e-02,-7.423527294351695005e-03,4.869532684498082548e-03,3.328773538964997347e-03,5.929899131448743144e-02,6.122095976024866104e-03,3.474655673707862519e-02,8.544933980118522149e-03,1.100295589036324106e-03,-3.640514561091633822e-02,-1.913307116538108532e-02,1.396701883166168168e-02,0.000000000000000000e+00,0.000000000000000000e+00,0.000000000000000000e+00,5.155519455856154565e-01,-0.000000000000000000e+00,1.028476953506469727e-01,7.937746691103173191e+01,2.310723066329956055e-01
2.705233000000000221e+00,3.291572453522508684e-02,2.398041566297574867e-01,9.802355766296386719e-01,4.329398831496788363e-02,-6.063093881235159799e-03,4.041049982743026396e-03,1.129321110004069366e-02,5.867565227989653825e-02,-2.661683596670627594e-03,3.627799644934640022e-02,5.653417555569151959e-02,-2.667326693163369830e-02,-4.259674645031066853e-02,-1.960111123693581911e-03,1.135678521113958617e-02,0.000000000000000000e+00,0.000000000000000000e+00,0.000000000000000000e+00,5.161855991151308443e-01,-0.000000000000000000e+00,-8.226883411407470703e-02,9.293509871537273170e+01,2.310723066329956055e-01
2.743577999999999850e+00,3.386170407849059538e-02,2.420453983967724154e-01,9.806810617446899414e-01,4.396178622436890115e-02,-4.858339574514314307e-03,3.491873539352725615e-03,9.437057644296933945e-03,3.959272781303534161e-02,6.704748608171939850e-03,3.546793459052020175e-02,2.965591694832061739e-02,-2.292701336249937730e-02,-5.916031258608923926e-02,3.871492733840976082e-03,9.717951732630736306e-03,0.000000000000000000e+00,0.000000000000000000e+00,0.000000000000000000e+00,5.154509610477546744e-01,-0.000000000000000000e+00,5.059915781021118164e-01,-1.718990932948085515e+01,2.310723066329956055e-01
2.780765000000000153e+00,3.486451638355418658e-02,2.439623697895395849e-01,9.810987114906311035e-01,4.354253771072263274e-02,-3.611383723381322852e-03,2.804779841014036056e-03,1.750243540643803622e-02,3.665041148266370841e-02,3.398820525035262108e-03,-3.314859191864984872e-02,1.463822265968165934e-02,-2.467111443911397875e-02,-5.398135009642573978e-02,1.929826757842377852e-02,7.530988928624582357e-03,0.000000000000000000e+00,0.000000000000000000e+00,0.000000000000000000e+00,5.156851023772353049e-01,-0.000000000000000000e+00,4.515397548675537109e-02,2.585658268805370952e+01,2.310723066329956055e-01
2.821845000000000159e+00,3.566195880392140916e-02,2.451580750862442926e-01,9.815015792846679688e-01,4.277972483835345424e-02,-2.384173112263798799e-03,2.452422463288993649e-03,7.899345308994080647e-03,3.071683010071594652e-02,5.684536881744861603e-03,-2.878389926843236482e-02,5.695981928541232753e-02,-6.327463331446521455e-03,-5.146409624840257019e-02,1.900551845560848746e-02,6.553306181197371405e-03,0.000000000000000000e+00,0.000000000000000000e+00,0.000000000000000000e+00,5.154918861832844534e-01,-0.000000000000000000e+00,4.471222162246704102e-01,9.537906334380835460e+01,2.310723066329956055e-01
2.862639000000000156e+00,3.697635338703565006e-02,2.467784063966403374e-01,9.821020364761352539e-01,4.053398789136038877e-02,-1.009248879466184690e-03,1.745731267382865997e-03,7.564376592432506957e-03,2.673951068781652007e-02,3.794788848608732224e-03,-3.634752955768476984e-02,2.224628328953342019e-02,-2.816763364152365459e-02,-3.727140508345819225e-02,2.985466846017931913e-02,4.406526378174957514e-03,0.000000000000000000e+00,0.000000000000000000e+00,0.000000000000000000e+00,5.155999587746692425e-01,-0.000000000000000000e+00,1.039463281631469727e-01,1.002892043758604785e+02,2.310723066329956055e-01
2.903725000000000112e+00,3.776971821725536027e-02,2.475341316591519736e-01,9.824828505516052246e-01,3.907718303991897235e-02,-5.413470938242515018e-04,1.343330685429296872e-03,1.857759898217882510e-02,1.652915662658421478e-02,5.071592051535844803e-03,-4.616344977095983987e-02,2.642932211211290044e-02,3.436271134792574095e-03,-3.390718228827877684e-02,4.233588326241857769e-02,3.098190603700312629e-03,0.000000000000000000e+00,0.000000000000000000e+00,0.000000000000000000e+00,5.154816463305242902e-01,-0.000000000000000000e+00,2.456177473068237305e-01,1.105238330357743877e+02,2.310723066329956055e-01
2.941695999999999867e+00,3.908671059973280876e-02,2.485367980696405188e-01,9.830380082130432129e-01,3.574798777344452561e-02,-4.244441833276546561e-04,6.711282352406937888e-04,1.247992367087966299e-02,6.163746223178895832e-03,9.844175539910793304e-03,-7.812735894998280861e-02,-3.530736729363128518e-02,-9.747609169968082105e-03,-1.726922978495585431e-02,3.750794898215293466e-02,1.323857788713911354e-03,0.000000000000000000e+00,0.000000000000000000e+00,0.000000000000000000e+00,5.150847547167242135e-01,-0.000000000000000000e+00,1.387941837310791016e-02,1.454406411672825072e+02,2.310723066329956055e-01
2.981933999999999862e+00,4.024536999715492419e-02,2.489560073860128953e-01,9.835110306739807129e-01,3.307991182856804407e-02,-6.202453231232141206e-04,1.047961206547985208e-04,2.060309637862766177e-02,9.081076167740580532e-03,-1.210551708936691284e-03,-8.663687462518840365e-02,-1.398296570233111165e-02,-8.170175066724925939e-03,4.562592755726875907e-03,4.431360975836739352e-02,-3.448112005974279803e-04,0.000000000000000000e+00,0.000000000000000000e+00,0.000000000000000000e+00,5.158922851468282778e-01,-0.000000000000000000e+00,-8.094608783721923828e-02,1.417190486734609749e+02,2.310723066329956055e-01
3.018140999999999963e+00,4.153512034320017143e-02,2.489330228322090555e-01,9.841269850730895996e-01,3.008350786555343687e-02,-1.077027169447131172e-03,-1.276865741720723381e-04,1.205227108942334355e-02,3.953262606481202854e-03,5.514432676136493683e-03,-6.950204765707940213e-02,-3.541191142132994133e-03,5.378757172636122698e-04,2.074213274359746131e-02,3.434781782445707476e-02,-8.265961345566563701e-04,0.000000000000000000e+00,0.000000000000000000e+00,0.000000000000000000e+00,5.153524735781140897e-01,-0.000000000000000000e+00,2.750586271286010742e-01,1.015564503537079588e+02,2.310723066329956055e-01
3.059509999999999952e+00,4.250898736687720031e-02,2.488023997460178938e-01,9.846448898315429688e-01,2.812524246822326393e-02,-2.222588217746457318e-03,-4.002208644505439298e-04,3.166974201375873099e-02,1.591583905583712766e-03,6.070362403988838196e-03,-4.766672951470440900e-02,-4.915916418009141919e-02,-1.653425223541090186e-02,3.317719839765015388e-02,4.464562737593803787e-02,-1.711341734772831025e-03,0.000000000000000000e+00,0.000000000000000000e+00,0.000000000000000000e+00,5.152884432606213982e-01,-0.000000000000000000e+00,1.604102849960327148e-01,1.131354378271987997e+02,2.310723066329956055e-01
3.094427000000000039e+00,4.395969680893211523e-02,2.480612382263011617e-01,9.853278994560241699e-01,2.570157758330922707e-02,-3.659247510778618206e-03,-6.174695013950625604e-04,1.833797088885986276e-02,-4.270738456257439433e-03,9.216140955686569214e-03,-8.784914201506961728e-02,-3.342433620446721293e-02,2.477985114451129386e-03,4.516284707122550368e-02,2.291629955231156909e-02,-2.017814724257660508e-03,0.000000000000000000e+00,0.000000000000000000e+00,0.000000000000000000e+00,5.149994723386708273e-01,-0.000000000000000000e+00,-5.759418010711669922e-02,7.979403331832163815e+01,2.310723066329956055e-01
3.128693000000000168e+00,4.551300594343349326e-02,2.468426522385846755e-01,9.860268235206604004e-01,2.392646899376765085e-02,-5.386686865308298877e-03,-8.847077021947888451e-04,2.484600407329877816e-02,8.189433177748771950e-04,3.104349831119179726e-03,-3.196885125334743977e-02,-5.105157693025490911e-02,-5.979098329121474396e-03,6.147612665376507579e-02,1.993409052869656722e-02,-2.724450854703575065e-03,0.000000000000000000e+00,0.000000000000000000e+00,0.000000000000000000e+00,5.154204016868573213e-01,-0.000000000000000000e+00,3.336910009384155273e-01,1.043402032329733800e+02,2.310723066329956055e-01
3.161557999999999868e+00,4.663377045518778824e-02,2.459073366123410154e-01,9.865254759788513184e-01,2.318912448934323800e-02,-6.898203985942652494e-03,-1.073172428546168662e-03,2.050701082719350032e-02,-1.166348535293997707e-02,9.759047999978065491e-03,-1.277684440224576695e-02,-6.834046899388630802e-02,1.025220825872993381e-02,5.612803443968940320e-02,6.683905394631803332e-03,-3.085351420583304360e-03,0.000000000000000000e+00,0.000000000000000000e+00,0.000000000000000000e+00,5.148776280685991580e-01,-0.000000000000000000e+00,-7.452929019927978516e-02,1.253816459901406688e+02,2.310723066329956055e-01
3.193382000000000165e+00,4.776970863076081958e-02,2.447873483013600915e-01,9.870725274085998535e-01,2.251193789389166824e-02,-8.062748521046270156e-03,-1.175435581381625632e-03,2.740214591492549576e-02,-6.721073467667094438e-03,6.036149337887763977e-03,-4.515469208370151422e-02,-2.589658580101122931e-02,3.401365149006725522e-04,6.629036902000354226e-02,6.171696908055174409e-03,-3.366034774946902175e-03,0.000000000000000000e+00,0.000000000000000000e+00,0.000000000000000000e+00,5.151310434412166295e-01,-0.000000000000000000e+00,-2.413235902786254883e-01,1.057412799374180992e+02,2.310723066329956055e-01
