timestamp,x,y,z,roll,pitch,yaw,vx,vy,vz,p,q,r,psp,qsp,rsp,pres,qres,rres,thrust_sp, thrust_res
0.000000000000000000e+00,1.113585848995223872e-02,1.564299687239869771e-02,1.003672719001770020e+00,7.334779507419984107e-03,-1.229279678133843312e-02,-1.098345806907019551e-02,2.165585860434173990e-02,-2.664753467298259029e-02,-9.976468281820416451e-04,-5.063684776876270499e-02,4.013588666565658797e-03,2.786245137160984695e-02,-5.902585518114669694e-02,-5.532837962265678422e-02,-3.068669599531015368e-02,0.000000000000000000e+00,-0.000000000000000000e+00,-0.000000000000000000e+00,5.117543621796396547e-01,0.000000000000000000e+00
2.502400000000000110e-02,1.125073532995387975e-02,1.470749508395105543e-02,1.003832817077636719e+00,6.601864464859621973e-03,-1.200907301596054744e-02,-1.120249027495501259e-02,-9.974324192440439142e-04,-2.382869522496467926e-02,-9.405370801687240601e-03,-4.058794996490121959e-02,5.274974455008795554e-02,1.449164583663457677e-02,-4.885138338574438605e-02,-7.490464777991019674e-02,-3.127504113150442189e-02,0.000000000000000000e+00,-0.000000000000000000e+00,-0.000000000000000000e+00,5.123679964955867305e-01,0.000000000000000000e+00
5.000500000000000084e-02,1.131597741055093836e-02,1.377218334153818176e-02,1.004103660583496094e+00,6.548257606783908745e-03,-1.236948465910803208e-02,-1.157081110993440909e-02,7.462035494617956510e-03,-2.463462176194377087e-02,-5.519862170331180096e-04,2.626480634487894303e-02,4.168351782053711548e-03,1.391632718189639469e-02,-5.010524813395501181e-02,-6.694486739744315296e-02,-3.232035125363619255e-02,0.000000000000000000e+00,-0.000000000000000000e+00,-0.000000000000000000e+00,5.116893185306027325e-01,0.000000000000000000e+00
7.296500000000000208e-02,1.139038072137399729e-02,1.316346819884307330e-02,1.004292488098144531e+00,6.055663860921743809e-03,-1.250692690700261345e-02,-1.192895016438133560e-02,-1.023217381524453183e-03,-2.845662010775905013e-02,7.490274962037801743e-03,-2.130945200325832373e-02,-2.698446649721446267e-02,-3.989927827391643450e-02,-5.039526183826248396e-02,-7.580613235521380111e-02,-3.332970099866094937e-02,0.000000000000000000e+00,-0.000000000000000000e+00,-0.000000000000000000e+00,5.110673871939073187e-01,0.000000000000000000e+00
9.670199999999999629e-02,1.143716550283014992e-02,1.257856526420110879e-02,1.004458904266357422e+00,5.793489164367376237e-03,-1.249190068570693590e-02,-1.199333388160583880e-02,8.565622796273970538e-03,-1.950460216927915949e-02,-3.300635609775781631e-03,-3.577544016006389133e-03,1.893048953510941337e-02,5.710110402443090366e-04,-4.118319944757252438e-02,-6.669514839934781447e-02,-3.350567773003509942e-02,0.000000000000000000e+00,-0.000000000000000000e+00,-0.000000000000000000e+00,5.118545319246611269e-01,0.000000000000000000e+00
1.245659999999999962e-01,1.157771811431947823e-02,1.151589341398806185e-02,1.004596114158630371e+00,5.148272616529257946e-03,-1.254803685378003131e-02,-1.227295222316726608e-02,7.437121657690469456e-03,-2.111184220682241902e-02,-5.555444862693548203e-03,2.858173889534323464e-04,-7.416802622797658180e-03,5.557288748937936479e-03,-4.031845363335514326e-02,-6.919286387252739090e-02,-3.430304145276125150e-02,0.000000000000000000e+00,-0.000000000000000000e+00,-0.000000000000000000e+00,5.120122847726450432e-01,0.000000000000000000e+00
1.468899999999999928e-01,1.170092113410575382e-02,1.073039322536680461e-02,1.004664540290832520e+00,4.824761368533385560e-03,-1.237831022320690089e-02,-1.256079472892146498e-02,6.124399739573525674e-03,-2.460501171346654928e-02,-4.676067270338535309e-03,-2.532339179276870897e-02,3.866642238727693165e-02,-3.984349059105293800e-02,-4.134697173678072296e-02,-6.880322007913493298e-02,-3.512127235648054846e-02,0.000000000000000000e+00,-0.000000000000000000e+00,-0.000000000000000000e+00,5.119422010414715896e-01,0.000000000000000000e+00
1.748560000000000114e-01,1.189562795793344500e-02,9.592754817019948435e-03,1.004753828048706055e+00,4.712570893557134662e-03,-1.220257680341951811e-02,-1.266745037015981623e-02,1.070120288472514725e-02,-2.221111045717130694e-02,-7.333457004278898239e-03,-2.268970234085255708e-02,-2.858364386965409412e-02,1.144816470840288175e-02,-3.888704702321296031e-02,-6.359499866991916162e-02,-3.542145096367577128e-02,0.000000000000000000e+00,-0.000000000000000000e+00,-0.000000000000000000e+00,5.121352285141549388e-01,0.000000000000000000e+00
1.989400000000000057e-01,1.202534531472171549e-02,8.888111123444075029e-03,1.004747867584228516e+00,4.640664250759017791e-03,-1.176705175238201839e-02,-1.268248701314123039e-02,4.402226260075087737e-03,-2.242446295484428614e-02,3.928659018129110336e-03,3.533430457330561519e-02,1.626604687323789794e-02,-9.348533646162974706e-03,-3.952457365443359794e-02,-6.634136928355749419e-02,-3.546503340727125142e-02,0.000000000000000000e+00,-0.000000000000000000e+00,-0.000000000000000000e+00,5.112921060822136488e-01,0.000000000000000000e+00
2.227619999999999878e-01,1.234768193773960396e-02,7.979581564131555185e-03,1.004739999771118164e+00,4.647735810624184158e-03,-1.114536698027568384e-02,-1.292848980522909308e-02,1.481748345209650021e-02,-1.712175507799863772e-02,-1.107765175402164459e-02,1.674051197705487366e-03,3.707550742694543100e-02,-4.387004562588178030e-02,-3.574535149431588149e-02,-5.275327676874280725e-02,-3.615634252674793103e-02,0.000000000000000000e+00,-0.000000000000000000e+00,-0.000000000000000000e+00,5.124118073134267259e-01,0.000000000000000000e+00
2.504560000000000120e-01,1.270996113717060179e-02,7.215821722630116203e-03,1.004662513732910156e+00,4.216010748374732914e-03,-1.061334159478577455e-02,-1.299957963562503593e-02,8.987085162170140289e-04,-2.405124952435879274e-02,-4.455132875591516495e-03,-4.285866001030384786e-02,4.962033668283667362e-03,-9.922010029139217285e-03,-3.999796649506643514e-02,-6.168051992282058693e-02,-3.636838165943945267e-02,0.000000000000000000e+00,-0.000000000000000000e+00,-0.000000000000000000e+00,5.119259150006617576e-01,0.000000000000000000e+00
2.741279999999999828e-01,1.292780514525537078e-02,6.751987915228951746e-03,1.004596948623657227e+00,4.178405464877176304e-03,-1.041321835866804157e-02,-1.293965313709866116e-02,1.599697519818096478e-02,-8.592954350233307503e-03,-1.331353187561035156e-02,2.018370527621144578e-02,2.900653013729494537e-02,1.571660409111256748e-02,-2.641537288726545155e-02,-4.608073486779869221e-02,-3.618813883829485878e-02,0.000000000000000000e+00,-0.000000000000000000e+00,-0.000000000000000000e+00,5.125961199124632328e-01,0.000000000000000000e+00
2.991570000000000062e-01,1.318731497852336509e-02,6.287246595519350653e-03,1.004531145095825195e+00,4.159353884204033090e-03,-1.014963973944693620e-02,-1.321265020735706841e-02,4.048185608599180643e-04,-2.512810772431180867e-02,-2.954700961709022522e-03,2.248755837278466028e-03,-2.694017133681214995e-02,-3.951117582485304952e-02,-4.242624661307991402e-02,-5.875501751825572966e-02,-3.697258083547083629e-02,0.000000000000000000e+00,-0.000000000000000000e+00,-0.000000000000000000e+00,5.118314469660387722e-01,0.000000000000000000e+00
3.267539999999999889e-01,1.332853345765603811e-02,5.777962858789950813e-03,1.004382133483886719e+00,3.872705122298077639e-03,-9.519229024194109101e-03,-1.327156338515123046e-02,1.904611155471886211e-02,-1.075911379000097333e-02,-1.863813214004039764e-02,-5.063983380012838931e-02,8.286014349482688501e-02,-2.753772291722206278e-02,-2.668685536963118221e-02,-3.733079049938097665e-02,-3.713076166945028511e-02,0.000000000000000000e+00,-0.000000000000000000e+00,-0.000000000000000000e+00,5.130185373339659627e-01,0.000000000000000000e+00
3.473709999999999853e-01,1.334399180297346499e-02,5.497544281053378529e-03,1.004286885261535645e+00,3.659748203173886130e-03,-9.726020543401325824e-03,-1.304268433593880339e-02,1.110278715787516197e-02,-1.252600931711926255e-02,-1.188067812472581863e-02,2.167528912367093497e-02,-3.154674935800950292e-02,3.207385057302618303e-02,-2.914086420963224108e-02,-4.763963636291983911e-02,-3.649019997119545833e-02,0.000000000000000000e+00,-0.000000000000000000e+00,-0.000000000000000000e+00,5.125312236002430577e-01,0.000000000000000000e+00
3.735850000000000004e-01,1.339097633168367940e-02,5.242837883519930152e-03,1.004218816757202148e+00,3.693986607801234053e-03,-9.616204769438807531e-03,-1.337927404608119097e-02,-3.472748138274902164e-04,-1.915804503464765135e-02,-2.794428728520870209e-03,2.759776342829751376e-03,-3.801275231495171436e-02,-6.113416372542126304e-02,-3.475621310360836602e-02,-5.483514986229737209e-02,-3.743770716813560329e-02,0.000000000000000000e+00,-0.000000000000000000e+00,-0.000000000000000000e+00,5.118614248374342424e-01,0.000000000000000000e+00
4.007620000000000071e-01,1.341221224537531530e-02,4.881051916698095870e-03,1.004188060760498047e+00,3.742185721908726243e-03,-9.879255701578548710e-03,-1.325844652674668112e-02,2.067363530718515849e-02,-1.399748584197419744e-02,-1.406220346689224243e-02,-2.995579074380227969e-02,-2.135146779339308978e-02,2.034484747109058592e-02,-2.997493249200773591e-02,-3.787330351670022827e-02,-3.709980969172393950e-02,0.000000000000000000e+00,-0.000000000000000000e+00,-0.000000000000000000e+00,5.127097565793835576e-01,0.000000000000000000e+00
4.254539999999999988e-01,1.350368732092236540e-02,4.499462216154850175e-03,1.004130840301513672e+00,3.484754879233025859e-03,-9.728031841525153212e-03,-1.329001494643433645e-02,3.766921531683461478e-03,-5.674309028934926280e-03,-2.236985974013805389e-02,-5.465549364634484514e-02,5.466467589047752096e-02,1.703148233522470273e-02,-2.277720289330326456e-02,-5.354783707664048653e-02,-3.717193105687216503e-02,0.000000000000000000e+00,-0.000000000000000000e+00,-0.000000000000000000e+00,5.133432556702615113e-01,0.000000000000000000e+00
4.497320000000000206e-01,1.350889223485821425e-02,4.174615156399236887e-03,1.004210710525512695e+00,3.857907013985184801e-03,-1.007175446686647824e-02,-1.346778218670507954e-02,2.275975737667259788e-02,-7.181013816130055877e-03,-1.311428658664226532e-02,4.293812137267226381e-02,-3.030799278810454925e-02,-1.402140397971424722e-02,-2.765610978740269676e-02,-3.782834785216471207e-02,-3.768115070241817577e-02,0.000000000000000000e+00,-0.000000000000000000e+00,-0.000000000000000000e+00,5.126635142843044557e-01,0.000000000000000000e+00
4.756500000000000172e-01,1.361050732485629203e-02,3.734550606805962791e-03,1.004280805587768555e+00,3.668207563321018022e-03,-1.008555583280346113e-02,-1.362169165489057754e-02,-1.410182943145866423e-04,-1.203687724449238952e-02,-2.782530384138226509e-03,-1.435432797596665998e-02,-4.828335425363309251e-03,-4.117930002018915792e-02,-3.065379335919062379e-02,-5.897894156919375463e-02,-3.810728639607485757e-02,0.000000000000000000e+00,-0.000000000000000000e+00,-0.000000000000000000e+00,5.118889350307550545e-01,0.000000000000000000e+00
4.971749999999999781e-01,1.364809647286440407e-02,3.448989847552295235e-03,1.004400610923767090e+00,3.575314292988402212e-03,-9.992503990428058813e-03,-1.359986770963561575e-02,2.195145102238811249e-02,-1.402549883316391499e-03,-2.382327429950237274e-02,-6.048468518329613852e-02,4.960823306221608803e-02,5.763175463996485053e-03,-2.070917842493184835e-02,-3.724314680918797832e-02,-3.804741094985564231e-02,0.000000000000000000e+00,-0.000000000000000000e+00,-0.000000000000000000e+00,5.134585722487290393e-01,0.000000000000000000e+00
5.244790000000000285e-01,1.377566400223986104e-02,3.163263278928925455e-03,1.004567384719848633e+00,3.573379736779330913e-03,-1.055497594442811327e-02,-1.355402730572774495e-02,2.445075742126699616e-04,-8.669180529912027741e-03,-5.458334926515817642e-03,1.156404494368994638e-02,-5.165811919752586606e-02,2.388202055331598364e-02,-2.852476304139223498e-02,-6.133698377382318379e-02,-3.791467383407892688e-02,0.000000000000000000e+00,-0.000000000000000000e+00,-0.000000000000000000e+00,5.120850089652460024e-01,0.000000000000000000e+00
5.479589999999999739e-01,1.386135457014288190e-02,3.043644279856524970e-03,1.004750847816467285e+00,3.924680177641161165e-03,-1.070388358464624545e-02,-1.383284312122978754e-02,1.216854148756984361e-02,-2.117371789507479195e-03,-7.506797090172767639e-03,2.753802410064058390e-02,-8.798865837007317087e-03,-7.086082803985915834e-02,-2.437626536237541552e-02,-4.942587779738522730e-02,-3.868803845250606832e-02,0.000000000000000000e+00,-0.000000000000000000e+00,-0.000000000000000000e+00,5.122270417007999121e-01,0.000000000000000000e+00
5.740089999999999915e-01,1.398658350052246931e-02,2.896462276127777583e-03,1.004902243614196777e+00,3.967535037275147711e-03,-1.108648460318595319e-02,-1.394150738824961877e-02,6.584216566002753721e-03,-1.103863559778180299e-02,-1.107988879084587097e-02,-4.262257859621981088e-02,-5.330140050006590413e-02,-9.263880625239383215e-03,-3.298513901819509486e-02,-5.794156798301273309e-02,-3.900028137840005904e-02,0.000000000000000000e+00,-0.000000000000000000e+00,-0.000000000000000000e+00,5.124856580283080332e-01,0.000000000000000000e+00
5.990729999999999666e-01,1.405610374853287145e-02,2.820057311782912367e-03,1.005033135414123535e+00,4.169312125054359768e-03,-1.100176191985391405e-02,-1.386792321406038475e-02,8.804184734300867995e-03,2.497730308071788655e-03,-1.764066889882087708e-02,3.064761784344164491e-02,2.216027224143902671e-02,-6.051639623433537583e-03,-2.208841031022893905e-02,-5.481692422465403447e-02,-3.877164505612068490e-02,0.000000000000000000e+00,-0.000000000000000000e+00,-0.000000000000000000e+00,5.129736160904477815e-01,0.000000000000000000e+00
6.239540000000000086e-01,1.424619075756630021e-02,2.477055543698892040e-03,1.005236744880676270e+00,4.502766181334189911e-03,-1.132315800991778865e-02,-1.404914352018771240e-02,1.049170079784807717e-02,-4.096172664525318807e-03,-3.587090410292148590e-03,6.979194873630260865e-02,-4.633243880605778658e-02,-1.612117169813845688e-02,-3.175320517589933639e-02,-5.553535100328529234e-02,-3.928802451689611397e-02,0.000000000000000000e+00,-0.000000000000000000e+00,-0.000000000000000000e+00,5.119163887908951827e-01,0.000000000000000000e+00
6.472379999999999800e-01,1.444602741928822411e-02,1.866075998161178520e-03,1.005470395088195801e+00,4.624253210149345886e-03,-1.116999057463652356e-02,-1.436223252441304332e-02,8.393725253338788633e-03,-3.575472858560567371e-03,-8.410186506807804108e-03,-1.788499454313656825e-02,1.999018063877307586e-02,-2.574128538631141952e-02,-3.155161899013185500e-02,-5.630686939784987355e-02,-4.016069264514371406e-02,0.000000000000000000e+00,-0.000000000000000000e+00,-0.000000000000000000e+00,5.122589425766617133e-01,0.000000000000000000e+00
6.741850000000000342e-01,1.472402652676518299e-02,9.983946605073938923e-04,1.005833506584167480e+00,5.281419722241635292e-03,-1.098554188277089949e-02,-1.461226615558608444e-02,7.418825753183495159e-03,-1.490527987805178320e-03,-1.685050874948501587e-02,-2.320664046155570051e-02,3.151988337654606370e-02,1.402260011570199798e-02,-3.476209842020268337e-02,-5.538865073538457029e-02,-4.085186653355754594e-02,0.000000000000000000e+00,-0.000000000000000000e+00,-0.000000000000000000e+00,5.128672706410554172e-01,0.000000000000000000e+00
6.998860000000000081e-01,1.501439330838689502e-02,2.077284749802860197e-04,1.006225466728210449e+00,5.616420676171070096e-03,-1.098808258611394528e-02,-1.464707359625072591e-02,7.501658687790251426e-03,-6.887968248285560903e-03,-7.198595907539129257e-03,1.138063776807434792e-02,-2.464293868736295093e-02,2.581249440203466777e-02,-4.211449954551509806e-02,-5.484419603059901421e-02,-4.095534066660239114e-02,0.000000000000000000e+00,-0.000000000000000000e+00,-0.000000000000000000e+00,5.121246516590960418e-01,0.000000000000000000e+00
7.241739999999999844e-01,1.520242071172159259e-02,-2.730376759803948778e-04,1.006486535072326660e+00,5.784151259008695964e-03,-1.084203966295715915e-02,-1.503333023288666581e-02,8.606641327119135543e-03,-4.658322001949842528e-03,1.623731513973325491e-04,2.154766533119596011e-02,1.425312922656348001e-03,-6.513179831773911743e-02,-4.091610847905116644e-02,-5.281427278510279766e-02,-4.203301079694504727e-02,0.000000000000000000e+00,-0.000000000000000000e+00,-0.000000000000000000e+00,5.115535135323052707e-01,0.000000000000000000e+00
7.471189999999999776e-01,1.538727936318708134e-02,3.405298610989903761e-05,1.006756663322448730e+00,5.608568015598735385e-03,-1.059720560468346839e-02,-1.498885020682827474e-02,6.540602918406834484e-03,5.646229689143788047e-03,-1.299203466624021530e-02,-2.995884320166282075e-02,3.265591211709893693e-02,2.570821071748084427e-02,-3.160448248240906727e-02,-5.300004698657487245e-02,-4.189601705208761961e-02,0.000000000000000000e+00,-0.000000000000000000e+00,-0.000000000000000000e+00,5.125138918472964544e-01,0.000000000000000000e+00
7.723550000000000137e-01,1.566755390992140978e-02,5.703702017326355359e-04,1.007209300994873047e+00,5.927236269528862560e-03,-1.034850871407044792e-02,-1.520954599401558305e-02,6.098676662171721025e-03,1.226579803619830614e-03,-3.787586465477943420e-03,3.222665940453381395e-02,2.331561975251682239e-02,-3.007883764418201739e-03,-3.840728269264433864e-02,-5.110061184078598662e-02,-4.252101415746256663e-02,0.000000000000000000e+00,-0.000000000000000000e+00,-0.000000000000000000e+00,5.117951724831032445e-01,0.000000000000000000e+00
7.974170000000000424e-01,1.584004087538289085e-02,8.978277655840511459e-04,1.007540822029113770e+00,5.919281592164556301e-03,-1.068375915212937954e-02,-1.533444326952571046e-02,1.837460377912989232e-02,1.216046502831305163e-03,1.946518663316965103e-03,3.630364175760141671e-02,-4.578212990890512257e-02,-2.466799990210804053e-02,-3.736505575348928604e-02,-4.304741876119764360e-02,-4.287949337306279363e-02,0.000000000000000000e+00,-0.000000000000000000e+00,-0.000000000000000000e+00,5.113382013981647711e-01,0.000000000000000000e+00
8.251110000000000388e-01,1.612309555308568190e-02,1.441634344985199493e-03,1.008017301559448242e+00,5.662085041382015731e-03,-1.038589134548772996e-02,-1.550836764870267004e-02,3.756458136916514430e-03,-1.153967766796560159e-03,-2.467790851369500160e-03,-4.882138798511691941e-02,2.373388699198053509e-02,-2.935923323203339791e-02,-3.742763608622552696e-02,-5.448146219631232190e-02,-4.335786147508596811e-02,0.000000000000000000e+00,-0.000000000000000000e+00,-0.000000000000000000e+00,5.116229542000654273e-01,0.000000000000000000e+00
8.475439999999999641e-01,1.616403313283891474e-02,1.886324896961851568e-03,1.008346676826477051e+00,5.865348809500203243e-03,-1.037192399960940037e-02,-1.534346622724713782e-02,2.734701592014350882e-02,9.698677641939153909e-03,-1.313295867294073105e-02,2.541527906745552276e-02,5.089584903369651081e-03,2.984604009841158173e-02,-2.907999201270748679e-02,-3.319351466239718607e-02,-4.290920546236426381e-02,0.000000000000000000e+00,-0.000000000000000000e+00,-0.000000000000000000e+00,5.123976078179770521e-01,0.000000000000000000e+00
8.725319999999999743e-01,1.626061117875486281e-02,2.585093660190737695e-03,1.008861541748046875e+00,5.569713795281393265e-03,-1.041130296207670725e-02,-1.546712609659928184e-02,-5.563695440392585692e-03,4.413668289932149401e-03,1.616781461052596569e-03,3.666522090326684857e-02,-1.928730995392375497e-02,-8.109099585634459151e-03,-3.289754338630506564e-02,-6.325956443692462572e-02,-4.322498526328988344e-02,0.000000000000000000e+00,-0.000000000000000000e+00,-0.000000000000000000e+00,5.112514927361818673e-01,0.000000000000000000e+00
8.972769999999999913e-01,1.628938447096216213e-02,3.044469112751607264e-03,1.009207367897033691e+00,5.661569842084918265e-03,-1.067269926754810250e-02,-1.550057402176419075e-02,2.492114728092251902e-02,1.104164592014613214e-02,-1.034771092236042023e-02,-3.149963055293996533e-02,-4.223775182303000746e-03,-1.646026418030750033e-02,-2.667397478087217902e-02,-3.545036995548443010e-02,-4.334588356399121656e-02,0.000000000000000000e+00,-0.000000000000000000e+00,-0.000000000000000000e+00,5.121187716359937303e-01,0.000000000000000000e+00
9.252259999999999929e-01,1.637554484700436824e-02,3.721869596164499323e-03,1.009688735008239746e+00,5.769768184434981816e-03,-1.088245478337435124e-02,-1.543208296387832412e-02,-9.872720882868144671e-03,2.273995885398595596e-03,-1.319314353168010712e-02,-4.670005263945021384e-02,2.802659210440811358e-03,2.828958861477850681e-02,-3.537089028432725824e-02,-6.920113317971948730e-02,-4.311877705994515697e-02,0.000000000000000000e+00,-0.000000000000000000e+00,-0.000000000000000000e+00,5.122922913827409053e-01,0.000000000000000000e+00
9.481049999999999756e-01,1.678295684158909520e-02,3.592931782519729732e-03,1.010000228881835938e+00,6.498795588747915790e-03,-1.088921745564230825e-02,-1.543787899846282841e-02,1.151268196372647740e-02,1.826371616071936418e-02,-1.353406812995672226e-02,4.323460460528268101e-02,2.769079477675574427e-02,-4.096091441073489159e-02,-2.565608218608986593e-02,-4.671592395200118569e-02,-4.313479503238798474e-02,0.000000000000000000e+00,-0.000000000000000000e+00,-0.000000000000000000e+00,5.123011030518033193e-01,0.000000000000000000e+00
9.717369999999999619e-01,1.717767280760909565e-02,3.485717809897138659e-03,1.010346531867980957e+00,6.663450404404545023e-03,-1.106213964679225725e-02,-1.510411005461675948e-02,2.788615941741862374e-03,2.944916487052748073e-03,-9.041440673172473907e-03,1.605819698389001488e-02,-1.074952790269149625e-02,5.125700559680181068e-02,-4.159519991283539692e-02,-5.750902266763425336e-02,-4.220545055539209889e-02,0.000000000000000000e+00,-0.000000000000000000e+00,-0.000000000000000000e+00,5.119388519146668148e-01,0.000000000000000000e+00
9.998240000000000460e-01,1.775674197908591254e-02,3.336894304356279733e-03,1.010822534561157227e+00,7.454025647588406051e-03,-1.105577539843372037e-02,-1.498637253251877688e-02,7.963194606712036341e-03,1.344895119267520978e-02,-1.259317900985479355e-02,1.421019647501677377e-02,3.554212287157011013e-02,9.799588421328837839e-03,-3.597426795603473476e-02,-5.170704303944889668e-02,-4.185727565814467699e-02,0.000000000000000000e+00,-0.000000000000000000e+00,-0.000000000000000000e+00,5.121697862659673195e-01,0.000000000000000000e+00
1.030697999999999892e+00,1.812536064433436372e-02,3.245292621397132416e-03,1.011183619499206543e+00,7.955986415893729138e-03,-1.113169862076479610e-02,-1.479224294888603630e-02,7.596464191436922558e-03,2.975286560903177367e-03,-1.019397936761379242e-02,1.706283239580401109e-02,-1.446221443396506802e-02,2.240075987974181684e-02,-4.927652843217454615e-02,-5.281430781542836850e-02,-4.132319136484713384e-02,0.000000000000000000e+00,-0.000000000000000000e+00,-0.000000000000000000e+00,5.119636664556318495e-01,0.000000000000000000e+00
1.045136000000000065e+00,1.832211553407852439e-02,3.219036240211554413e-03,1.011344909667968750e+00,8.105268012252092244e-03,-1.111106984246301721e-02,-1.454636361946648471e-02,9.800727136801877515e-03,4.049892918152579388e-03,-1.034265104681253433e-02,3.353929446229070299e-02,-3.778482167834878308e-02,4.052414576326228424e-02,-4.781107960526567724e-02,-5.065143205680344013e-02,-4.063289863609165220e-02,0.000000000000000000e+00,-0.000000000000000000e+00,-0.000000000000000000e+00,5.119621859449174917e-01,0.000000000000000000e+00
1.074049000000000031e+00,1.853254716414880557e-02,2.831878221132955176e-03,1.011745810508728027e+00,8.496764477388320247e-03,-1.126765464133039352e-02,-1.422155896852284052e-02,7.802727873321632646e-03,1.072407029531952799e-02,-1.352058630436658859e-02,2.558573326667974712e-02,1.197803496337858722e-02,7.916007343034481974e-03,-4.535443194860668686e-02,-5.345229573548231083e-02,-3.970486124692668151e-02,0.000000000000000000e+00,-0.000000000000000000e+00,-0.000000000000000000e+00,5.121696101030164261e-01,0.000000000000000000e+00
1.102187999999999946e+00,1.861267479383472978e-02,2.331396461680182702e-03,1.012062668800354004e+00,8.784820346504436731e-03,-1.160398830823927696e-02,-1.396062424303812222e-02,4.642247213488913567e-03,4.937890394226080067e-03,-5.895577836781740189e-03,5.254633087597628677e-02,-3.183858287005321419e-02,-3.914896433240661056e-02,-5.318079041675023017e-02,-5.766384232100612434e-02,-3.897289661277858475e-02,0.000000000000000000e+00,-0.000000000000000000e+00,-0.000000000000000000e+00,5.115745724285818419e-01,0.000000000000000000e+00
1.130614999999999926e+00,1.864991298971508185e-02,1.988399670622878479e-03,1.012258172035217285e+00,8.703669434423588064e-03,-1.177576208361963417e-02,-1.350295771292064906e-02,3.710167851980090536e-03,2.199055204296440982e-03,-1.790200732648372650e-02,-3.459428170965363897e-02,-9.276926979653038821e-03,4.867192053990274797e-02,-5.423037609355366162e-02,-5.898684555310301780e-02,-3.769285881861078602e-02,0.000000000000000000e+00,-0.000000000000000000e+00,-0.000000000000000000e+00,5.124550208241123173e-01,0.000000000000000000e+00
1.148918000000000106e+00,1.868135152563004178e-02,1.842344297643621438e-03,1.012351989746093750e+00,8.700782536265150996e-03,-1.196595044430748267e-02,-1.338238323059970369e-02,1.194882806177685435e-02,-2.436230298802648155e-03,-1.085900515317916870e-02,-5.302060959545733254e-02,-2.300179542881476691e-02,1.235492913577154392e-02,-5.756692220293195550e-02,-5.324201646692573037e-02,-3.737225969541740911e-02,0.000000000000000000e+00,-0.000000000000000000e+00,-0.000000000000000000e+00,5.119260519460907544e-01,0.000000000000000000e+00
1.172673999999999994e+00,1.870816513767956796e-02,1.553896943194497688e-03,1.012492775917053223e+00,8.670794998281073154e-03,-1.221071548527530304e-02,-1.282380905591984366e-02,1.241213641257524897e-02,1.057979547439587796e-02,-2.221301384270191193e-02,1.654886369551339387e-02,8.715441742370790695e-03,4.420477076495996777e-02,-4.636898669018789387e-02,-5.571003323374870697e-02,-3.578394488441510868e-02,0.000000000000000000e+00,-0.000000000000000000e+00,-0.000000000000000000e+00,5.127658812564983570e-01,0.000000000000000000e+00
1.197993000000000086e+00,1.833049572584682235e-02,8.864157682941245986e-04,1.012648224830627441e+00,8.471553092737076421e-03,-1.287514757485541672e-02,-1.235289580243414953e-02,-2.751187332695133152e-03,-3.571588451839279640e-03,-1.480232365429401398e-02,1.988374818424687093e-02,-2.208883763004955772e-02,2.016438691004745348e-03,-5.893827833957437923e-02,-7.231977914652172601e-02,-3.446518820878474720e-02,0.000000000000000000e+00,-0.000000000000000000e+00,-0.000000000000000000e+00,5.122056163065721313e-01,0.000000000000000000e+00
1.224366000000000065e+00,1.800079515623975723e-02,2.413112137928442890e-04,1.012785196304321289e+00,8.268039195287991971e-03,-1.299193309123869433e-02,-1.184995082484885387e-02,1.531205512771043574e-02,2.728088887332203415e-03,-1.120933424681425095e-02,-3.163704511661053626e-03,-1.269676306688269016e-02,8.838444949928683445e-03,-5.069952869815502750e-02,-5.639981762775082841e-02,-3.307334240843695650e-02,0.000000000000000000e+00,-0.000000000000000000e+00,-0.000000000000000000e+00,5.119303181669683234e-01,0.000000000000000000e+00
1.250726000000000004e+00,1.768259178480830959e-02,-3.267248084353880483e-04,1.012848734855651855e+00,7.352893414045337181e-03,-1.233366313054906627e-02,-1.112824241373888690e-02,-5.259802096165078558e-03,-3.876690269952112224e-03,-1.124752964824438095e-02,-4.954953983911587756e-02,3.176147822303473922e-02,1.053289863976875421e-02,-5.158960201808229784e-02,-7.145960809454698914e-02,-3.105471741316800927e-02,0.000000000000000000e+00,-0.000000000000000000e+00,-0.000000000000000000e+00,5.119241625959282116e-01,0.000000000000000000e+00
1.276532999999999918e+00,1.731199992453756262e-02,-5.756583810546507746e-04,1.012913227081298828e+00,6.726146283977703019e-03,-1.244372826966544388e-02,-1.074812175238948342e-02,1.641204497052188571e-02,5.217881735910918743e-03,-2.697598375380039215e-02,-4.734666267747031365e-02,2.036839389911445156e-02,3.573373709211241644e-02,-3.919326845409266957e-02,-5.192455537152147749e-02,-3.001138423880400641e-02,0.000000000000000000e+00,-0.000000000000000000e+00,-0.000000000000000000e+00,5.131002309097263403e-01,0.000000000000000000e+00
1.296527999999999903e+00,1.703020252387867778e-02,-2.771831587431982931e-04,1.012916326522827148e+00,6.219592490047006796e-03,-1.220664930679737914e-02,-1.056114496089644028e-02,-1.537335980926207192e-02,-4.549871691980959983e-03,-8.661629632115364075e-03,6.914840016331824137e-03,8.041552573329245612e-03,-9.412377533359351026e-03,-4.519264608841239150e-02,-7.921435368780678499e-02,-2.947745247884087094e-02,0.000000000000000000e+00,-0.000000000000000000e+00,-0.000000000000000000e+00,5.117364092454361746e-01,0.000000000000000000e+00
1.322608999999999924e+00,1.657210470905736907e-02,1.428507276143528863e-04,1.012927174568176270e+00,5.685311865506306565e-03,-1.203795751955438753e-02,-1.025214213200742464e-02,1.309046447117865990e-02,7.536651811636864602e-03,-1.360756158828735352e-02,-1.976328396551238833e-02,8.523472708028962536e-03,-3.985725662770801814e-02,-3.002327455508791224e-02,-5.074134602162392454e-02,-2.863193651180767629e-02,0.000000000000000000e+00,-0.000000000000000000e+00,-0.000000000000000000e+00,5.121058654468810811e-01,0.000000000000000000e+00
1.348235000000000072e+00,1.614275703340549428e-02,6.085534648773830747e-04,1.012816071510314941e+00,4.668299589208638363e-03,-1.201045011384915817e-02,-9.645757561689505266e-03,-8.717073984258747951e-03,-1.295912952196565928e-03,-6.389006040990352631e-03,-6.125837785903828075e-02,-3.315780909016007028e-02,3.044457782077664154e-02,-3.222173139907440892e-02,-7.249365020311782093e-02,-2.693963644477254116e-02,0.000000000000000000e+00,-0.000000000000000000e+00,-0.000000000000000000e+00,5.115699950484735581e-01,0.000000000000000000e+00
1.373755999999999977e+00,1.557162577476833322e-02,1.028221673334805616e-03,1.012795567512512207e+00,4.904800783962998643e-03,-1.188057823112287359e-02,-9.424471503550968521e-03,9.515461630374023178e-03,7.357960799871992620e-03,-1.292388699948787689e-02,-1.650053488540463922e-02,5.036205481791751482e-02,1.966107602795534939e-02,-2.505628953868054010e-02,-5.407031133696994091e-02,-2.631898654271747073e-02,0.000000000000000000e+00,-0.000000000000000000e+00,-0.000000000000000000e+00,5.120581778533407347e-01,0.000000000000000000e+00
1.399553000000000047e+00,1.496530327657850240e-02,1.483886374809735564e-03,1.012712121009826660e+00,4.914009210094341662e-03,-1.157512795795656579e-02,-9.157751777542744165e-03,-6.265770594219684242e-03,5.919296257647185810e-03,-1.286851987242698669e-02,1.132021202368811187e-02,7.281973178582060342e-03,8.454018580757307472e-03,-2.736552887965183756e-02,-6.783399291329522685e-02,-2.555955940701731821e-02,0.000000000000000000e+00,-0.000000000000000000e+00,-0.000000000000000000e+00,5.120584144777694524e-01,0.000000000000000000e+00
1.423569000000000084e+00,1.436430131104027112e-02,1.949654927597295733e-03,1.012687683105468750e+00,5.038494503285120309e-03,-1.149323557176851196e-02,-8.723436416953722627e-03,4.818768461820480478e-03,8.493160294916595951e-03,-3.228385932743549347e-03,2.769070825245343107e-02,3.059546046804974186e-03,1.810065200011557254e-02,-2.547686438508777601e-02,-5.631794920182830316e-02,-2.435082022536244617e-02,0.000000000000000000e+00,-0.000000000000000000e+00,-0.000000000000000000e+00,5.113378860885231525e-01,0.000000000000000000e+00
1.449260999999999910e+00,1.400237013339383600e-02,2.268946431345071190e-03,1.012700796127319336e+00,5.104102772712228522e-03,-1.135154487452583183e-02,-8.657426962960235173e-03,-3.675105460662307904e-03,8.650823169037339874e-03,-4.720365628600120544e-03,-6.065711450634567528e-03,-3.511582951614116137e-03,9.241294599697255988e-03,-2.598034400778150010e-02,-6.409510521828608309e-02,-2.415499932590581267e-02,0.000000000000000000e+00,-0.000000000000000000e+00,-0.000000000000000000e+00,5.114391208132459399e-01,0.000000000000000000e+00
1.474901999999999935e+00,1.395645012162943961e-02,2.293462874918925087e-03,1.012693881988525391e+00,5.552083440580765639e-03,-1.082895761236102317e-02,-8.244335286152093545e-03,6.052882227702836501e-03,7.758827576702311164e-03,-9.653250686824321747e-03,9.343843986930762055e-03,3.137507562618473134e-02,3.983132534078048098e-02,-2.954819040548263553e-02,-5.155617183263649927e-02,-2.301120666148243066e-02,0.000000000000000000e+00,-0.000000000000000000e+00,-0.000000000000000000e+00,5.118035278991567294e-01,0.000000000000000000e+00
1.496315000000000062e+00,1.392266551880410284e-02,2.342359016152096608e-03,1.012609958648681641e+00,5.932807417683923917e-03,-1.035968204232551315e-02,-8.312400608110781519e-03,1.902719317323110912e-03,9.854164791236940876e-03,-2.894137520343065262e-03,3.162849581990531678e-02,6.491692063942551202e-03,-2.957634181916636573e-02,-3.014623943123067099e-02,-5.325230181945983521e-02,-2.319176820552404372e-02,0.000000000000000000e+00,-0.000000000000000000e+00,-0.000000000000000000e+00,5.112989074578252469e-01,0.000000000000000000e+00
1.522971999999999992e+00,1.392340836503115457e-02,2.463553919633437814e-03,1.012469053268432617e+00,5.835896797530618074e-03,-9.987426041557556644e-03,-7.843266865482201311e-03,4.032547783300876459e-03,2.599886116192992331e-03,-6.648370064795017242e-03,-4.612849087370529677e-02,-1.965978876639650971e-02,-8.412639602580453601e-04,-3.560027579290229310e-02,-4.840240765874775919e-02,-2.189646380893855993e-02,0.000000000000000000e+00,-0.000000000000000000e+00,-0.000000000000000000e+00,5.115823747620414919e-01,0.000000000000000000e+00
1.548500999999999905e+00,1.392181753129322248e-02,2.565857525084419902e-03,1.012353658676147461e+00,6.273054867349399030e-03,-9.797052551306029144e-03,-7.637367848777554258e-03,7.555264950204206888e-03,1.287526798014113939e-02,-8.978655561804771423e-03,3.905925579108652373e-02,2.706157905803290367e-02,1.676594030305869967e-02,-2.894802758422394817e-02,-4.462743462774474562e-02,-2.130678895713072896e-02,0.000000000000000000e+00,-0.000000000000000000e+00,-0.000000000000000000e+00,5.117614062225900318e-01,0.000000000000000000e+00
1.575267999999999891e+00,1.352495740790116488e-02,2.463125272464783411e-03,1.012217402458190918e+00,7.018755337102290312e-03,-9.913077959455840471e-03,-7.646558559840865854e-03,-3.136183641355703208e-03,3.182597924455377383e-03,-3.296046983450651169e-03,6.218328416052358587e-02,-3.826578089353769446e-02,-5.023760024822300843e-03,-4.323195582216086269e-02,-5.468610436211383818e-02,-2.132329978856745134e-02,0.000000000000000000e+00,-0.000000000000000000e+00,-0.000000000000000000e+00,5.113401742524205096e-01,0.000000000000000000e+00
1.597221999999999920e+00,1.314007030933772927e-02,2.353314951606893125e-03,1.012070178985595703e+00,7.004791083115533348e-03,-9.758631492781333350e-03,-7.329462009806997358e-03,2.614203016789879656e-03,1.263689283732635261e-02,-6.231626961380243301e-03,-4.862368985977836428e-02,1.675476325083106663e-02,8.623416299946470506e-03,-3.406224782024182274e-02,-4.769930514229523549e-02,-2.043237732824859654e-02,0.000000000000000000e+00,-0.000000000000000000e+00,-0.000000000000000000e+00,5.115644158351830839e-01,0.000000000000000000e+00
1.623499999999999943e+00,1.256327445502240098e-02,2.218515428660158915e-03,1.011890769004821777e+00,7.177353395559784612e-03,-1.015784985110190775e-02,-7.164238859516114388e-03,-4.618084867430754560e-03,7.394286203853857320e-03,-1.411720085889101028e-02,-1.074449443931293005e-02,-2.647685696208765954e-02,1.802509759872098286e-02,-4.091372351957541648e-02,-5.730330958800962382e-02,-1.996035312169613940e-02,0.000000000000000000e+00,-0.000000000000000000e+00,-0.000000000000000000e+00,5.121632197018001209e-01,0.000000000000000000e+00
1.646733999999999920e+00,1.221286532651939989e-02,2.143705708101876269e-03,1.011803746223449707e+00,7.205481692370639679e-03,-1.030955548666856458e-02,-7.133477532266230270e-03,-9.247864638296590667e-03,1.051124466170570877e-02,-9.455592371523380280e-03,-2.138422757633753890e-02,1.143370417632353850e-02,-2.664193234099069413e-02,-3.781725849803749262e-02,-6.118055934526304973e-02,-1.986050456568277944e-02,0.000000000000000000e+00,-0.000000000000000000e+00,-0.000000000000000000e+00,5.118220383469667123e-01,0.000000000000000000e+00
1.674959000000000087e+00,1.159059938122853489e-02,2.043757124315518162e-03,1.011649847030639648e+00,7.352520550691400009e-03,-1.053720207605235437e-02,-7.002861591133724417e-03,4.566547682868987712e-03,6.480915686691722001e-03,-8.347420021891593933e-03,1.077950475203372400e-02,-2.140217184086425084e-02,-2.633016093362264276e-02,-4.245401042471711600e-02,-5.113312342511132369e-02,-1.951791073553577061e-02,0.000000000000000000e+00,-0.000000000000000000e+00,-0.000000000000000000e+00,5.117490503800052881e-01,0.000000000000000000e+00
1.697240000000000082e+00,1.119488535561216982e-02,2.013333121093789906e-03,1.011507868766784668e+00,7.223796024133353512e-03,-1.056685351086161795e-02,-6.803475736871122947e-03,-1.186004874208949553e-02,5.191545713127698920e-03,-5.151106975972652435e-03,-1.651684283072785142e-02,-3.467737283030108281e-02,2.834303804011329558e-02,-4.214145378003671810e-02,-6.687170680961952718e-02,-1.893499415844229761e-02,0.000000000000000000e+00,-0.000000000000000000e+00,-0.000000000000000000e+00,5.115154238281670596e-01,0.000000000000000000e+00
1.725193999999999894e+00,1.055098422664211763e-02,1.988182942000298742e-03,1.011311650276184082e+00,7.156082809740300227e-03,-1.059799343041256670e-02,-6.501213805242933574e-03,1.123151339494451659e-02,1.368361776773370855e-02,-8.625458925962448120e-03,3.555114860943543731e-02,7.270406093407041741e-03,1.628360739904561455e-02,-3.451677816239857172e-02,-4.636670765310489661e-02,-1.811342800433179967e-02,0.000000000000000000e+00,-0.000000000000000000e+00,-0.000000000000000000e+00,5.117875015449017129e-01,0.000000000000000000e+00
1.746293000000000095e+00,1.020722351010476016e-02,1.999837011928247421e-03,1.011121034622192383e+00,6.847447728634737177e-03,-1.046553268825500815e-02,-6.622838543312248305e-03,-8.305137386623999071e-03,2.530713627187712329e-03,-8.192700333893299103e-03,-6.198013546337584334e-02,-2.560281450347513810e-02,-5.629238202816888234e-03,-4.284107259771023635e-02,-6.484061849565894708e-02,-1.844469257106362559e-02,0.000000000000000000e+00,-0.000000000000000000e+00,-0.000000000000000000e+00,5.117643029654591613e-01,0.000000000000000000e+00
1.774699999999999944e+00,9.877563613278459928e-03,2.722058216302220782e-03,1.010857224464416504e+00,6.636845600141719898e-03,-1.014439819885426530e-02,-6.331341743966767410e-03,4.966609657626944521e-03,1.639289610913756412e-02,-1.798944547772407532e-02,-7.754655418976513781e-02,6.766193063765249538e-02,3.687124356394500674e-02,-2.808774396551817071e-02,-4.940899194485214030e-02,-1.763248359363855933e-02,0.000000000000000000e+00,-0.000000000000000000e+00,-0.000000000000000000e+00,5.125182657639826278e-01,0.000000000000000000e+00
1.797320000000000029e+00,9.768586001875015010e-03,3.453535185417752097e-03,1.010608792304992676e+00,6.583673424730744454e-03,-9.991190468802368940e-03,-6.148654217593252369e-03,-2.393500530965600708e-03,1.186927457008340667e-02,-3.800994483754038811e-03,2.630014018499747530e-02,-2.640790082598043487e-02,-3.887865309681959227e-03,-3.292629540913472042e-02,-5.628143747088778376e-02,-1.711801974839544105e-02,0.000000000000000000e+00,-0.000000000000000000e+00,-0.000000000000000000e+00,5.114775799106624499e-01,0.000000000000000000e+00
1.824696000000000096e+00,9.622304557711102921e-03,4.518575603414934708e-03,1.010311245918273926e+00,6.578731254363185017e-03,-9.962737608391281086e-03,-6.264760791439449861e-03,2.940533381646938502e-04,1.224984737353386650e-02,-1.399585395120084286e-03,2.270909047772685929e-02,-4.848314886542305982e-03,-4.837692581826854438e-02,-3.116606913947433249e-02,-5.289960642846729122e-02,-1.744604690371664990e-02,0.000000000000000000e+00,-0.000000000000000000e+00,-0.000000000000000000e+00,5.113135675438121863e-01,0.000000000000000000e+00
1.847115999999999980e+00,9.501998178517838747e-03,5.234414492009518798e-03,1.010102510452270508e+00,6.320336784208734592e-03,-9.829232809567045592e-03,-6.027314574518216617e-03,1.165205471806786885e-03,1.202893372428581915e-02,-1.330227684229612350e-02,-2.451979120834341802e-02,-1.263457627174163073e-02,3.676176567795468031e-02,-2.924663986001014432e-02,-5.179021616802753636e-02,-1.678566765032579733e-02,0.000000000000000000e+00,-0.000000000000000000e+00,-0.000000000000000000e+00,5.122144422905865468e-01,0.000000000000000000e+00
1.873979999999999979e+00,9.456961600968295800e-03,6.008528626094728972e-03,1.009792566299438477e+00,6.193804331397584524e-03,-9.648525966886811744e-03,-5.923777388385564890e-03,-1.455444875442772059e-03,1.595207751893070944e-02,-1.137907151132822037e-02,-3.994017605094834361e-03,1.560412830310871661e-03,2.425910378329743794e-02,-2.467269046685992978e-02,-5.286843666739443615e-02,-1.648877627559985903e-02,0.000000000000000000e+00,-0.000000000000000000e+00,-0.000000000000000000e+00,5.120966148923159489e-01,0.000000000000000000e+00
1.896965999999999930e+00,9.536846696086316924e-03,6.139633406453944529e-03,1.009559869766235352e+00,6.245234738898031851e-03,-9.804241421473625095e-03,-6.135355758918548119e-03,2.229292626345776799e-03,1.000141847202657037e-02,-3.892317647114396095e-03,-1.703439677143887832e-02,-2.420513202484776000e-02,-4.554765189131352449e-02,-3.020512028881434941e-02,-5.038853341097801475e-02,-1.709385505664623439e-02,0.000000000000000000e+00,-0.000000000000000000e+00,-0.000000000000000000e+00,5.115533916613397292e-01,0.000000000000000000e+00
1.923845999999999945e+00,9.674030303767212902e-03,6.326384238506188758e-03,1.009225010871887207e+00,5.924538949550370651e-03,-9.672654739933284063e-03,-6.062552015908995173e-03,6.977345567789578840e-04,1.173273113590738749e-02,-5.185322836041450500e-03,-3.646169998443171689e-02,-1.991581559091385942e-02,7.272633177240978540e-03,-2.567636175630933285e-02,-5.120367729671072149e-02,-1.688804001338445326e-02,0.000000000000000000e+00,-0.000000000000000000e+00,-0.000000000000000000e+00,5.116703586828839079e-01,0.000000000000000000e+00
1.946083000000000007e+00,9.807988955630866229e-03,6.474164282361396551e-03,1.008938193321228027e+00,6.347219615937266766e-03,-9.457450507664999506e-03,-6.155863588634735706e-03,8.956565323845268626e-04,1.804315153276443359e-02,-2.752254251390695572e-03,3.136021949464303654e-02,2.264209170446374736e-02,-2.265876552243718464e-02,-2.338909975164356683e-02,-4.932082440813421315e-02,-1.713983566000271130e-02,0.000000000000000000e+00,-0.000000000000000000e+00,-0.000000000000000000e+00,5.115060547114078648e-01,0.000000000000000000e+00
1.973508999999999958e+00,9.859735799404533568e-03,6.547747507289708967e-03,1.008567929267883301e+00,6.469458402686292277e-03,-9.854715675233105543e-03,-6.133833956051937264e-03,2.198920062058525027e-03,1.735524333722592363e-02,-2.751667518168687820e-03,1.696135629406227488e-02,-5.402621389706802058e-02,-1.546284208906819300e-02,-2.553055469916676312e-02,-5.079893759223000349e-02,-1.707617229475716369e-02,0.000000000000000000e+00,-0.000000000000000000e+00,-0.000000000000000000e+00,5.115279391329990988e-01,0.000000000000000000e+00
1.997611999999999943e+00,9.778642859776446802e-03,6.395004484530162660e-03,1.008357644081115723e+00,6.497115274119173896e-03,-9.842441413628000291e-03,-6.188286714810642408e-03,-6.929976001718398879e-03,1.325034295470895948e-02,-7.628939929418265820e-04,-2.149029888342823130e-02,1.857723726387571980e-02,-7.013654896746057861e-03,-2.898003025102413588e-02,-5.831309519996438762e-02,-1.722002529800520376e-02,0.000000000000000000e+00,-0.000000000000000000e+00,-0.000000000000000000e+00,5.113879632409651377e-01,0.000000000000000000e+00
2.022714999999999819e+00,9.693907980067010058e-03,6.253005107696668272e-03,1.008193016052246094e+00,7.021877333945030636e-03,-1.025723653365329113e-02,-6.319786466614019105e-03,1.503953791187189609e-02,2.400485623945461042e-02,-1.076354878023266792e-03,4.041342113112839085e-02,-1.371033575101382983e-02,1.648663113986043732e-02,-2.297180722388516422e-02,-4.192191141021549272e-02,-1.760050993401651720e-02,0.000000000000000000e+00,-0.000000000000000000e+00,-0.000000000000000000e+00,5.114203401371394397e-01,0.000000000000000000e+00
2.049570999999999810e+00,9.615164647584793778e-03,6.118611556417850525e-03,1.007962822914123535e+00,6.846436082368680467e-03,-1.011352489836370161e-02,-6.418926453736872872e-03,-1.197392910558223861e-02,1.151178596998725726e-02,2.324590692296624184e-03,-1.049761909230261490e-02,1.541021721584083168e-02,-3.550825718641856255e-02,-3.365291107689882127e-02,-6.606750262881785907e-02,-1.785183578140886462e-02,0.000000000000000000e+00,-0.000000000000000000e+00,-0.000000000000000000e+00,5.111715121762835379e-01,0.000000000000000000e+00
2.075616000000000128e+00,9.404835210108179397e-03,6.309314303588629824e-03,1.007748961448669434e+00,7.080029465573057373e-03,-1.067756301336775238e-02,-6.625846620335051895e-03,1.637977039848402191e-02,1.258010345026387873e-02,-4.937037359923124313e-03,2.183635552705329858e-02,-5.240571248116439318e-02,-3.908533786861120157e-02,-3.214897554762769644e-02,-4.291262085816623800e-02,-1.846710978456000962e-02,0.000000000000000000e+00,-0.000000000000000000e+00,-0.000000000000000000e+00,5.117263497905618630e-01,0.000000000000000000e+00
2.098723999999999812e+00,9.127126487238417310e-03,6.871068959324364879e-03,1.007570385932922363e+00,6.984270568127011469e-03,-1.072507260106725369e-02,-6.570647843425314605e-03,-1.476406184089879350e-02,6.399205292074485948e-03,4.023998510092496872e-03,3.597554616558360646e-02,-3.293877784724340285e-02,1.184057313054595953e-02,-3.641027416320889026e-02,-7.272829177697712200e-02,-1.826674479215661950e-02,0.000000000000000000e+00,-0.000000000000000000e+00,-0.000000000000000000e+00,5.110608894678572156e-01,0.000000000000000000e+00
2.121449000000000140e+00,8.867567664183872642e-03,7.410476678245386112e-03,1.007376670837402344e+00,7.158939244584835472e-03,-1.061139833819457756e-02,-6.771053097193391324e-03,1.073049256481010093e-02,2.134364189008237586e-02,1.655257190577685833e-03,7.233226845142316959e-03,1.884906929198689948e-02,-4.989184047673281969e-02,-2.397467428348598606e-02,-4.693908084176670603e-02,-1.885151274223217932e-02,0.000000000000000000e+00,-0.000000000000000000e+00,-0.000000000000000000e+00,5.112460797447082594e-01,0.000000000000000000e+00
2.151158000000000126e+00,8.457739776173530538e-03,8.278268279536120031e-03,1.007047057151794434e+00,6.925482846338907109e-03,-1.036533235041825485e-02,-6.835807505199742451e-03,-7.977567924132067390e-03,1.097157088458250267e-02,-4.492019303143024445e-03,-7.304369854865134203e-03,-1.901217800710670479e-03,-7.967347084886413494e-03,-3.255808134624011557e-02,-6.444192390698898210e-02,-1.901756371920915178e-02,0.000000000000000000e+00,-0.000000000000000000e+00,-0.000000000000000000e+00,5.117207693867682483e-01,0.000000000000000000e+00
2.177490000000000148e+00,8.050971532236869677e-03,9.133636435472578669e-03,1.006687641143798828e+00,7.070416283265355123e-03,-1.033169414593948510e-02,-6.964793783760470092e-03,7.646960441547504678e-03,2.610547936764840218e-02,-9.746627882122993469e-03,-1.650677403343767113e-02,4.519435939037568656e-02,-1.728435818526326620e-02,-1.903461943510778229e-02,-4.915084110071710893e-02,-1.938283692510783807e-02,0.000000000000000000e+00,-0.000000000000000000e+00,-0.000000000000000000e+00,5.121431698526508480e-01,0.000000000000000000e+00
2.201391000000000098e+00,7.919856746548348606e-03,9.256711716663947737e-03,1.006566643714904785e+00,7.436897024595090326e-03,-1.059702327291689450e-02,-7.037183522821788273e-03,7.039583150567304583e-03,1.303956737077541575e-02,-3.047318023163825274e-04,4.665927358011059262e-02,-1.817521820934094381e-02,-2.436061883472566067e-02,-3.400687560545931354e-02,-5.359958405997947845e-02,-1.959280516268602224e-02,0.000000000000000000e+00,-0.000000000000000000e+00,-0.000000000000000000e+00,5.114439769380170198e-01,0.000000000000000000e+00
2.227787000000000184e+00,7.680264380997376891e-03,9.539068595823041452e-03,1.006367206573486328e+00,7.490165649001888706e-03,-1.042820693870072368e-02,-7.109285488357874883e-03,-3.841987324004198304e-03,1.643328698133771082e-02,-3.437901381403207779e-03,6.216964215897702664e-03,-3.801003563735143309e-02,1.831301870893177475e-02,-2.947316889072611537e-02,-6.137893052661605453e-02,-1.976799399141820901e-02,0.000000000000000000e+00,-0.000000000000000000e+00,-0.000000000000000000e+00,5.116882282003901716e-01,0.000000000000000000e+00
2.251927999999999930e+00,7.417218244080825591e-03,9.838126330146331269e-03,1.006186485290527344e+00,7.836730552539972194e-03,-1.015414533373415473e-02,-7.139379516125865521e-03,2.667050520277121969e-03,2.643544053269821989e-02,-1.659061526879668236e-03,2.834515390945987687e-02,3.398549692850941217e-02,-4.931992948511208785e-02,-2.378393832082118658e-02,-5.290826463700705473e-02,-1.985351389015183043e-02,0.000000000000000000e+00,-0.000000000000000000e+00,-0.000000000000000000e+00,5.115674349645462637e-01,0.000000000000000000e+00
2.273026000000000213e+00,7.153893970845541690e-03,1.016079152984014286e-02,1.005938410758972168e+00,7.788486054834921173e-03,-1.022254357620289156e-02,-6.912376614053306056e-03,1.895390545065073857e-03,2.006587374624791212e-02,-1.246409025043249130e-02,-4.486451778276193125e-02,-9.922795779479930568e-04,5.872980218665480034e-02,-2.984594367818082378e-02,-5.505669633577886524e-02,-1.922447908927255034e-02,0.000000000000000000e+00,-0.000000000000000000e+00,-0.000000000000000000e+00,5.123913114739766517e-01,0.000000000000000000e+00
2.298519999999999897e+00,6.933697306570354123e-03,1.051826469647345642e-02,1.005640149116516113e+00,8.320428842567530875e-03,-1.008381595126461860e-02,-7.246080212733430059e-03,-9.052315816994057490e-03,2.336066103140423469e-02,-4.025720991194248199e-03,4.527807416110399275e-02,1.021826578973380507e-02,-4.342534604248637908e-02,-2.936298197844514415e-02,-6.304275434939167477e-02,-2.012458088355306707e-02,0.000000000000000000e+00,-0.000000000000000000e+00,-0.000000000000000000e+00,5.117868700376415614e-01,0.000000000000000000e+00
2.324959000000000220e+00,6.893526200607884985e-03,1.236662047462407793e-02,1.005168795585632324e+00,8.738614588852914797e-03,-9.930339974874025089e-03,-7.349051011011686896e-03,6.309112929572334438e-03,1.634816313384652650e-02,2.034779870882630348e-03,3.399085526052229855e-02,-2.753450999816173597e-02,-2.574864763220068020e-02,-3.686064538425080223e-02,-4.796477233929975076e-02,-2.045544075168043152e-02,0.000000000000000000e+00,-0.000000000000000000e+00,-0.000000000000000000e+00,5.113658925702874170e-01,0.000000000000000000e+00
2.351015999999999995e+00,7.016388938702463121e-03,1.490008505129457837e-02,1.004601240158081055e+00,8.497005935259677178e-03,-9.349912006627381089e-03,-7.313015711323256340e-03,-2.681608019952831743e-03,2.289205861290085839e-02,-1.035643275827169418e-02,-4.590190379759257616e-02,6.858196569629465827e-05,-1.943729729972049763e-02,-2.737981156680094688e-02,-5.369967471413310961e-02,-2.032882523049583945e-02,0.000000000000000000e+00,-0.000000000000000000e+00,-0.000000000000000000e+00,5.123324033650827891e-01,0.000000000000000000e+00
2.372027000000000108e+00,7.096858752780913285e-03,1.658550690339215955e-02,1.004219412803649902e+00,8.579949562230045415e-03,-9.146441372856806140e-03,-7.025037957671287359e-03,2.780853899028570570e-03,2.595044460704469536e-02,-1.156118139624595642e-02,1.046297084003720845e-02,1.295717184422390603e-02,1.175637690161491881e-02,-2.519595056839170691e-02,-4.657609137099910646e-02,-1.953707259239678695e-02,0.000000000000000000e+00,-0.000000000000000000e+00,-0.000000000000000000e+00,5.124578689784022867e-01,0.000000000000000000e+00
2.397111000000000214e+00,7.201747332350760290e-03,1.902594087861469302e-02,1.003669738769531250e+00,8.729461497730647487e-03,-9.186686852803438441e-03,-6.905733082490428387e-03,8.120318425330954335e-04,3.288964511224292536e-02,-2.342619234696030617e-03,5.299299099345436415e-02,-2.461906301752017287e-02,5.231391089560762618e-03,-1.925457793355904099e-02,-4.914745758876204462e-02,-1.918293305077667377e-02,0.000000000000000000e+00,-0.000000000000000000e+00,-0.000000000000000000e+00,5.118159735639391528e-01,0.000000000000000000e+00
2.426776999999999962e+00,7.818953987625151814e-03,2.130685344235168366e-02,1.002803802490234375e+00,9.450689219540611349e-03,-8.956350187452333245e-03,-6.478620086799891098e-03,8.865257023339137565e-03,3.851259024983347962e-02,-2.238627523183822632e-02,5.440661921773296689e-02,3.416731753417018985e-02,3.529363577919870931e-02,-1.895572708673842061e-02,-4.051095765147948863e-02,-1.800102781874918234e-02,0.000000000000000000e+00,-0.000000000000000000e+00,-0.000000000000000000e+00,5.133847971817699918e-01,0.000000000000000000e+00
2.449024999999999785e+00,8.109016185823920628e-03,2.243784446295488469e-02,1.002351999282836914e+00,9.772768673934175213e-03,-9.416896181877243421e-03,-6.510946930490701945e-03,-1.712805565755901678e-04,2.104043868285581514e-02,-8.921649307012557983e-03,5.032260933262565523e-03,-6.935180805007346017e-02,-1.613931311320092668e-02,-3.500634167038321753e-02,-5.164389590266380003e-02,-1.807335970002649228e-02,0.000000000000000000e+00,-0.000000000000000000e+00,-0.000000000000000000e+00,5.124231934871276151e-01,0.000000000000000000e+00
2.473739000000000132e+00,8.575105214745557675e-03,2.406286552930208752e-02,1.001686096191406250e+00,1.070870753464489740e-02,-9.442099635645906375e-03,-6.224037531692649949e-03,1.046704331963560497e-02,3.680655684035661485e-02,-1.347131188958883286e-02,-1.766464384984593392e-02,4.577552825351375448e-02,1.931035209870952604e-02,-2.458785026042143232e-02,-4.164682300732479997e-02,-1.726952915880197725e-02,0.000000000000000000e+00,-0.000000000000000000e+00,-0.000000000000000000e+00,5.128262976481492430e-01,0.000000000000000000e+00
2.498654000000000153e+00,9.067249944404854115e-03,2.524683683587769512e-02,1.001012325286865234e+00,1.165930147599535116e-02,-9.375547086002633534e-03,-5.874260028708055970e-03,-1.124467627295917989e-02,2.459221068638375862e-02,-1.410167571157217026e-02,1.777976942501277580e-02,9.224890646026787100e-03,3.806652180199509433e-02,-4.210318041574225706e-02,-5.989382724522092361e-02,-1.623097411758023245e-02,0.000000000000000000e+00,-0.000000000000000000e+00,-0.000000000000000000e+00,5.129300489685874043e-01,0.000000000000000000e+00
2.524655999999999789e+00,9.432313620272176832e-03,2.549909920428409388e-02,1.000539898872375488e+00,1.225344553283127212e-02,-9.519067225405075661e-03,-5.557776114310630788e-03,5.066238907446506644e-03,3.847582537752455845e-02,-1.447313558310270309e-02,1.023914581848470173e-02,2.430790874382465078e-02,-3.735813578507778728e-03,-3.255458887803044238e-02,-4.428591318811582467e-02,-1.537623230626855575e-02,0.000000000000000000e+00,-0.000000000000000000e+00,-0.000000000000000000e+00,5.130110086031248740e-01,0.000000000000000000e+00
2.550050999999999846e+00,9.749423004334741016e-03,2.572970608959555122e-02,1.000113129615783691e+00,1.302767908973640268e-02,-9.813151394474139977e-03,-5.329376668005370021e-03,1.154426655021862161e-02,3.077565929014306617e-02,-2.206251397728919983e-02,1.924539815853989339e-02,-9.222903042698139472e-03,3.405981345250817804e-02,-4.553727008168609314e-02,-4.310773057933296737e-02,-1.474568538249454441e-02,0.000000000000000000e+00,-0.000000000000000000e+00,-0.000000000000000000e+00,5.136222029114871912e-01,0.000000000000000000e+00
2.574882000000000115e+00,1.031477944061002204e-02,2.609400727752451271e-02,9.994486570358276367e-01,1.400293936615592746e-02,-1.020290572166993037e-02,-4.801536068860468021e-03,3.935559008690745972e-03,2.724675376525846626e-02,-1.371534727513790131e-02,2.648842472479629243e-02,-1.514127686050600191e-02,4.894074394512597931e-02,-5.313707751370316812e-02,-5.224948252282633071e-02,-1.322143041074302916e-02,0.000000000000000000e+00,-0.000000000000000000e+00,-0.000000000000000000e+00,5.130660964644676580e-01,0.000000000000000000e+00
2.602612999999999843e+00,1.079303230521463410e-02,2.644599428751475897e-02,9.987785816192626953e-01,1.483987564928918902e-02,-1.041897506271682872e-02,-4.128359302829842647e-03,7.270728467288115927e-03,2.467718948667224632e-02,-1.706731319427490234e-02,5.780603714644672042e-02,-1.804318143441781958e-02,5.158455884285514242e-02,-5.975989080757030530e-02,-4.947630602092791680e-02,-1.134133733757980433e-02,0.000000000000000000e+00,-0.000000000000000000e+00,-0.000000000000000000e+00,5.133809140829390660e-01,0.000000000000000000e+00
2.624935999999999936e+00,1.093000501719300008e-02,2.658565724681102166e-02,9.985117912292480469e-01,1.472961867363741482e-02,-1.054572585524193862e-02,-3.918022206140570063e-03,-2.269130044716347223e-03,2.548607751428656060e-02,-1.616220735013484955e-02,-3.206476238687789443e-02,-2.159254403418449375e-02,7.501555391533121231e-02,-5.776883438668255905e-02,-5.833143240471275887e-02,-1.071227114788458890e-02,0.000000000000000000e+00,-0.000000000000000000e+00,-0.000000000000000000e+00,5.133497020644128828e-01,0.000000000000000000e+00
2.651203000000000198e+00,1.132343448678386696e-02,2.700593375408101571e-02,9.977453947067260742e-01,1.475858828772073222e-02,-1.086072140258087515e-02,-3.236375526664447833e-03,1.185975889507652134e-02,2.889123672232658813e-02,-1.669487170875072479e-02,1.608350444320560263e-02,1.156064010390424248e-03,2.672519194892082270e-02,-5.487321325516453935e-02,-4.727838746622786692e-02,-8.847448209952701870e-03,0.000000000000000000e+00,-0.000000000000000000e+00,-0.000000000000000000e+00,5.134661914030700380e-01,0.000000000000000000e+00
2.672741999999999951e+00,1.159000794161631556e-02,2.725110654621725956e-02,9.972524046897888184e-01,1.485169226009451504e-02,-1.138374937803243725e-02,-2.971929127402184179e-03,9.027748618525847230e-03,1.342357637740705309e-02,-5.525543354451656342e-03,1.550580360551583742e-02,-6.087713386694353079e-02,9.209502932381291584e-03,-6.805441220469933550e-02,-5.469804548394487098e-02,-8.094911816245720093e-03,0.000000000000000000e+00,-0.000000000000000000e+00,-0.000000000000000000e+00,5.126799444493942426e-01,0.000000000000000000e+00
2.701029000000000124e+00,1.200775610702274447e-02,2.757851104919830168e-02,9.965000152587890625e-01,1.445433944036374901e-02,-1.127663640300813341e-02,-2.310252609173168992e-03,6.277225176179035762e-03,1.971915904298102845e-02,-1.410117559134960175e-02,-4.309924652230644887e-02,1.571681757237138044e-02,2.220481798513575245e-02,-5.785484669732664925e-02,-5.549569881473534472e-02,-6.229682923749091383e-03,0.000000000000000000e+00,-0.000000000000000000e+00,-0.000000000000000000e+00,5.133883153668361565e-01,0.000000000000000000e+00
2.728813000000000155e+00,1.246744130140418037e-02,2.760530666154624446e-02,9.956957101821899414e-01,1.379299915529215784e-02,-1.158436068927248819e-02,-1.318967425864014942e-03,5.805434640191594123e-03,2.249676899746192241e-02,-1.962361484766006470e-02,-5.235187030354195720e-02,-1.354455761362541658e-02,4.956026580520282721e-02,-5.213687569229104313e-02,-5.709884718890029243e-02,-3.452571049073982490e-03,0.000000000000000000e+00,-0.000000000000000000e+00,-0.000000000000000000e+00,5.138788648841748907e-01,0.000000000000000000e+00
2.750297000000000214e+00,1.263748622372367486e-02,2.761194718465304065e-02,9.954299330711364746e-01,1.349732673858797596e-02,-1.177412633744068238e-02,-1.073823350956626399e-03,9.451158363284735062e-03,2.049173020395726047e-02,-1.554941199719905853e-02,-4.061858751668723927e-02,-1.632373444309184740e-02,2.041372477943930244e-02,-5.203184833713182106e-02,-5.512296260209262333e-02,-2.781298883320404425e-03,0.000000000000000000e+00,-0.000000000000000000e+00,-0.000000000000000000e+00,5.136161840276347590e-01,0.000000000000000000e+00
