timestamp,x,y,z,roll,pitch,yaw,vx,vy,vz,p,q,r,psp,qsp,rsp,pres,qres,rres,thrust_sp, thrust_res
0.000000000000000000e+00,-5.655054405136862063e-03,2.289125140823290022e-03,1.016562700271606445e+00,1.325696570131737646e-02,-1.335663313849200229e-02,2.387221441090311275e-04,1.612933940118819673e-02,-1.812690426024122711e-02,-2.120454236865043640e-02,-3.979700022898765427e-02,-9.792968547683579897e-03,1.283444999112889548e-02,-3.112964405899165676e-01,-2.782837616010193638e-01,6.876664341640988110e-02,-2.118857502937316895e-01,-2.009694814682006780e-01,6.791140437126159946e-02,5.183994644402832863e-01,3.266854286193847656e-01,-1.083437561988830566e+00,9.592743874170116669e+01,3.202383518218994418e-02
3.624299999999999744e-02,-5.107605180625226018e-03,1.257792296349197984e-03,1.016757011413574219e+00,1.398694125547009053e-02,-1.376218831859699065e-02,7.155875672577337375e-05,1.315743177321300299e-02,-1.519722083916313742e-02,-1.652940548956394196e-02,3.801202299732034384e-02,3.283991457438688311e-02,-2.233974042724053838e-02,-3.113896442837911227e-01,-2.856188562738238845e-01,6.700775079475478069e-02,-2.115633487701416016e-01,-2.012758255004882812e-01,6.657822132110595426e-02,5.183655024682397583e-01,3.441368341445922852e-01,-1.203150153160095215e+00,1.051209211758625202e+02,3.202383518218994418e-02
7.478300000000000225e-02,-4.557475280508497574e-03,-2.076148238729465982e-04,1.016994476318359375e+00,1.444367177295086124e-02,-1.322346366680449137e-02,2.834117070838663736e-05,1.850997009620192549e-02,-1.945534910632380765e-02,-1.672459021210670471e-02,-5.177941372493268662e-02,-2.175186228364213350e-03,-8.274342091942707422e-03,-3.122279644012451172e-01,-2.751151153709164299e-01,7.520711230066881581e-02,-2.122279644012451116e-01,-1.994275331497192272e-01,7.492684721946715753e-02,5.181232096153639555e-01,3.312408924102783203e-01,-8.820761442184448242e-01,1.031802185458517727e+02,3.202383518218994418e-02
1.077319999999999944e-01,-4.142722416876574651e-03,-1.291216744874614658e-03,1.017115831375122070e+00,1.431739859426202355e-02,-1.253307977640294446e-02,1.801391335862597342e-04,1.773859836129449558e-02,-1.033911366904888621e-02,-1.751441508531570435e-02,3.320583877385725920e-03,1.948982335856163858e-02,6.092288565319881576e-03,-3.114247513662982692e-01,-2.708183351859880794e-01,6.385532814292167736e-02,-2.118516147136688121e-01,-1.985188007354736217e-01,6.314359903335571567e-02,5.181809751745979353e-01,3.317234516143798828e-01,-1.129726290702819824e+00,1.151829031441260156e+02,3.202383518218994418e-02
1.420589999999999908e-01,-3.860481440199891538e-03,-1.895947045094622521e-03,1.017030715942382812e+00,1.338388465815601100e-02,-1.254703857171546311e-02,3.556568537811559470e-04,-1.061629784876442833e-03,-2.486071287477745195e-02,-1.566013321280479431e-02,-9.756765522448677952e-02,1.939744114120356758e-02,3.244230134277320543e-02,-3.120566964149474876e-01,-2.888990434852012346e-01,6.981666263520372451e-02,-2.120566964149475098e-01,-2.016080617904663086e-01,6.862723231315612238e-02,5.184130937160457142e-01,3.512061834335327148e-01,-9.553097486495971680e-01,8.943840386035221002e+01,3.202383518218994418e-02
1.779270000000000018e-01,-3.382766993495805313e-03,-2.326480183579684134e-03,1.016995787620544434e+00,1.223689162307408686e-02,-1.282051433015007902e-02,4.954704116938332377e-04,1.286878398642510475e-03,-1.997082145664912448e-02,-1.070808712393045425e-02,7.050816819493715623e-03,1.286145868208871459e-02,-2.732987498559813488e-02,-3.053566325527424796e-01,-2.856837893045592880e-01,5.848679945610661679e-02,-2.114775002002715898e-01,-2.015763044357299638e-01,5.691779851913451871e-02,5.179983890735940788e-01,3.486785888671875000e-01,-1.145702242851257324e+00,1.409911144324777013e+02,3.202383518218994418e-02
2.113929999999999976e-01,-2.724234028511752712e-03,-2.618890303461262649e-03,1.016600966453552246e+00,8.018171854560506712e-03,-8.922443645894118092e-03,-1.679010289403274606e-04,1.194185570432026826e-02,-1.097520221228283875e-02,-2.980069071054458618e-02,-1.891530288261703552e-01,2.184710673310830409e-01,-1.224199572175796143e-03,-2.714513141247503758e-01,-2.457573966299231305e-01,2.669231214205032218e-02,-2.113520622253417802e-01,-1.956604242324828935e-01,2.708916664123535087e-02,5.183773988047117864e-01,2.914512157440185547e-01,-1.071224808692932129e+00,9.047731661424616334e+01,3.202383518218994418e-02
2.459810000000000052e-01,-1.921150993201032426e-03,-2.707953103206098104e-03,1.015457391738891602e+00,-7.837347247018379426e-04,2.238914159333749154e-04,-1.575011687548942335e-03,1.911319411292789969e-02,-6.500769958867411678e-03,-4.306056350469589233e-02,-2.943599392340117693e-01,2.813525390073947641e-01,-5.273226981861851154e-02,-2.126149358235961684e-01,-9.157400262326761964e-02,-6.642721308275301162e-02,-2.119471371173858587e-01,-1.056656241416931152e-01,-6.202225685119628490e-02,5.180750999658123579e-01,2.168982028961181641e-01,-4.899942874908447266e-02,-5.370320587758774877e+01,3.202383518218994418e-02
2.802549999999999764e-01,-1.076291639910342650e-03,-2.576916287687875534e-03,1.013555049896240234e+00,-1.202876246611452732e-02,1.093456019955052483e-02,-2.788185602020953370e-03,2.845314201078687211e-02,1.078622637240047970e-02,-6.228369846940040588e-02,-2.791565787918001140e-01,2.758654758886299740e-01,-2.372432489702500091e-02,-8.939784484393059616e-02,2.797470328370378900e-01,-1.483190513718243009e-01,-1.750864684581756592e-01,1.890434145927429033e-01,-1.407246708869933915e-01,5.115928342498673453e-01,-2.160430550575256348e-01,-9.306033849716186523e-01,8.930917668125556474e+01,3.202383518218994418e-02
3.136630000000000251e-01,7.668945668910735866e-05,-2.114949450054775214e-03,1.011059641838073730e+00,-2.418724715013598203e-02,2.118905231287659952e-02,-3.984324448188532319e-03,4.303867600157606360e-02,1.660722788816898846e-02,-7.487294822931289673e-02,-3.451152988285278167e-01,2.752233504411218945e-01,1.520092160321007309e-02,2.734396457672119141e-01,3.164249420166015403e-01,-1.975949973208409038e-01,1.734396457672119085e-01,2.164249420166015625e-01,-1.872616410255432129e-01,5.045347928396072268e-01,-6.529262065887451172e-01,-1.106788754463195801e+00,9.087665728444930835e+01,3.202383518218994418e-02
3.472120000000000206e-01,1.137791978300498313e-03,-1.229883504123817752e-03,1.009052038192749023e+00,-3.292117573085435317e-02,2.869847445694673205e-02,-5.093070929196620578e-03,5.485061997046640492e-02,3.527043466116722148e-02,-8.429727703332901001e-02,-3.293479266812552320e-01,2.891081460280048310e-01,-5.708949477234259023e-02,3.119311332702636719e-01,3.179288566112518089e-01,-2.096100575510736197e-01,2.119311332702636663e-01,2.179288566112518311e-01,-1.967655658721923773e-01,5.051014151651880280e-01,-6.721950173377990723e-01,-1.083247780799865723e+00,9.154394627579203814e+01,3.202383518218994418e-02
3.832760000000000056e-01,2.616081438997977862e-03,1.002965376218740165e-03,1.005950689315795898e+00,-4.353203711416288313e-02,3.851921307996053478e-02,-5.937620640918744516e-03,7.129113571692152762e-02,5.056265362379890049e-02,-9.128305315971374512e-02,-2.579326006265077464e-01,2.590425557813145208e-01,6.551038891336366174e-03,3.210892677307128906e-01,3.208208680152893066e-01,-2.233886744063532936e-01,2.210892677307128851e-01,2.208208680152893011e-01,-2.092401981353759766e-01,5.056480065787082312e-01,-6.878389120101928711e-01,-1.228597998619079590e+00,1.044227460690929803e+02,3.202383518218994418e-02
4.182489999999999819e-01,4.692869761344425558e-03,3.902145207591625840e-03,1.002644062042236328e+00,-5.219633436921611996e-02,4.670104000412833578e-02,-5.881801038520369923e-03,7.996571856656826960e-02,6.738545577756378802e-02,-8.521080017089843750e-02,-2.123359057822213625e-01,1.638146076243615912e-01,-1.475338654767122809e-02,3.234556913375854492e-01,3.238649249076843151e-01,-2.251393804423586220e-01,2.234556913375854437e-01,2.238649249076843095e-01,-2.121509671211242731e-01,5.049073150082619144e-01,-7.204987406730651855e-01,2.253664731979370117e-01,-3.400927065120476556e+01,4.507329463958740373e-02
4.556740000000000235e-01,6.955885196169278063e-03,6.822667760927584105e-03,9.994300603866577148e-01,-5.694146965581321773e-02,4.805297390009455327e-02,-3.009080912177491875e-03,8.139038368321226125e-02,8.342262789577467585e-02,-9.416949748992919922e-02,-7.589970768897515152e-02,-3.820137582966547790e-02,1.462467780862662381e-01,3.238876700401306374e-01,3.245001971721649392e-01,-2.171554119064220412e-01,2.238876700401306041e-01,2.245001971721649059e-01,-2.125347375869750810e-01,5.058918545131180222e-01,-7.216849923133850098e-01,-6.160551309585571289e-01,3.514593365740536490e-01,4.507329463958740373e-02
4.896519999999999762e-01,9.093961842035707885e-03,9.608776041481545058e-03,9.965353608131408691e-01,-5.445886585518594503e-02,3.943658460423726808e-02,1.692551188623119983e-03,8.185701187989860572e-02,9.877650461863549114e-02,-7.915176451206207275e-02,2.010868675922558579e-01,-3.343448425446028383e-01,1.433661103643766033e-01,3.231389760971069558e-01,3.238226711750030740e-01,-2.069833711964909617e-01,2.231389760971069225e-01,2.238226711750030407e-01,-2.146716713905334473e-01,5.052519813736707777e-01,-7.120954990386962891e-01,-1.582513928413391113e+00,7.550205855710150615e+01,4.507329463958740373e-02
5.243160000000000043e-01,1.178595541941030410e-02,1.306083983650474165e-02,9.934009909629821777e-01,-4.626506782879852286e-02,2.581320605328585316e-02,7.653284094277969761e-03,1.018652779082981075e-01,1.104608818649895907e-01,-9.138429164886474609e-02,2.226644504235517352e-01,-3.891946215278237475e-01,1.457285091716004066e-01,3.216970205307007058e-01,3.212208211421966331e-01,-1.902468574719056449e-01,2.216970205307006725e-01,2.212208211421966553e-01,-2.134526610374450628e-01,5.067448031152814725e-01,-6.996766328811645508e-01,-1.242044091224670410e+00,1.274732821404303564e+02,4.507329463958740373e-02
5.593069999999999986e-01,1.368322138349364891e-02,1.575993147615572382e-02,9.906713962554931641e-01,-3.742313438528348940e-02,1.515924282507929988e-02,1.235360429589760917e-02,9.598945105482835360e-02,1.222030640822127090e-01,-1.036059334874153137e-01,3.779018683839018289e-01,-3.904558266166389124e-01,1.384373449255716648e-01,3.188877820968628041e-01,3.163549005985260010e-01,-1.747911751054047058e-01,2.188877820968627985e-01,2.163549005985259954e-01,-2.102351188659667969e-01,5.079849010670128839e-01,-6.989019513130187988e-01,-1.016226887702941895e+00,9.670092351425925870e+01,4.507329463958740373e-02
5.952190000000000536e-01,1.574150972330090256e-02,1.938710389892672054e-02,9.864445924758911133e-01,-2.473392532096354776e-02,1.986719470987496905e-03,1.865142593494889187e-02,1.023647960865286949e-01,1.352119096076567217e-01,-1.221784278750419617e-01,3.160321882250556880e-01,-2.990005306669640261e-01,1.885378545298521669e-01,3.155235767364502064e-01,2.842416844196182790e-01,-1.317288837090373754e-01,2.155235767364502009e-01,1.915648877620697021e-01,-1.841295003890991155e-01,5.105942544144496109e-01,-6.579233407974243164e-01,-5.759078264236450195e-01,-9.691257229361774250e+00,4.507329463958740373e-02
6.319339999999999957e-01,1.873485254788102156e-02,2.438923799314320767e-02,9.806198477745056152e-01,-7.035198802216383919e-03,-1.386779522120784591e-02,2.617801074402612005e-02,1.294896741381958150e-01,1.543873740366043523e-01,-1.469649523496627808e-01,4.459850834371416051e-01,-3.489929032183996527e-01,1.787393534893857439e-01,2.968834757804870716e-01,-7.115550218705812835e-02,-7.177146162171191279e-02,1.968834757804870661e-01,-8.398411273956297995e-02,-1.450348019599914384e-01,5.173387341801837236e-01,-4.282271265983581543e-01,-1.110103964805603027e+00,1.065103045964481652e+02,4.507329463958740373e-02
6.693430000000000213e-01,2.163410901008843215e-02,2.977273820795636738e-02,9.750410318374633789e-01,5.883049688618483854e-03,-2.647044947731536091e-02,3.230928916633073189e-02,1.176839293316435942e-01,1.532640659959205731e-01,-1.685096919536590576e-01,3.600387978037594139e-01,-3.646677113296981076e-01,1.848220076849541316e-01,1.268596710539256767e-01,-2.526534437900450625e-01,5.104254587957499784e-02,5.082439184188842357e-02,-1.733189821243286133e-01,-3.982475996017455916e-02,5.286369148376504068e-01,6.765162944793701172e-02,-9.820460081100463867e-01,1.178308172211782079e+02,4.507329463958740373e-02
7.044820000000000526e-01,2.439935037714521804e-02,3.527857257901912541e-02,9.689983725547790527e-01,1.847932801366691455e-02,-3.984853533501286904e-02,3.807844497185430138e-02,9.380540214377219854e-02,1.428693999416153493e-01,-1.816855669021606445e-01,3.893956222142910817e-01,-3.992627837446174888e-01,1.462022325297740732e-01,-1.542571441191171733e-01,-3.029465198516845814e-01,1.720798969268798884e-01,-1.430849432945251465e-01,-2.029465198516845759e-01,7.207989692687988281e-02,5.295615665854863652e-01,3.240954875946044922e-02,-8.225878477096557617e-01,1.032599678346008432e+02,4.507329463958740373e-02
7.384579999999999478e-01,2.631278042939445491e-02,3.946318573154690423e-02,9.638749361038208008e-01,2.789920614684451849e-02,-4.999376797646237769e-02,4.250776977885951935e-02,9.754581675334336732e-02,1.532726429682708114e-01,-2.018696963787078857e-01,3.985377920654040729e-01,-3.713928904595961145e-01,2.020768083158692996e-01,-2.292894870812490493e-01,-3.025987267494201771e-01,1.859966635704040638e-01,-1.673999190330505427e-01,-2.025987267494201716e-01,8.599666357040404441e-02,5.309115938178481375e-01,-6.411254405975341797e-03,-9.471510648727416992e-01,4.849207889938067240e+01,4.507329463958740373e-02
7.739219999999999988e-01,2.928372755393763086e-02,4.566600846302282246e-02,9.563772678375244141e-01,4.076115290752491127e-02,-6.251227910466661264e-02,4.691777611397374842e-02,8.700320712808466694e-02,1.347844693568062135e-01,-2.198349684476852417e-01,3.678170838382167629e-01,-3.491387219298375255e-01,1.133287482169610533e-01,-3.083936572074890137e-01,-3.088964819908142090e-01,2.363699793815612904e-01,-2.083936572074890081e-01,-2.088964819908142034e-01,1.363699793815612848e-01,5.230058874165008920e-01,-5.502458214759826660e-01,-1.052137494087219238e+00,9.478746650884770020e+01,4.507329463958740373e-02
8.096799999999999553e-01,3.253778570587763375e-02,5.231156916180650790e-02,9.482815265655517578e-01,5.299416703900030473e-02,-6.974692409307658991e-02,5.042130403963374086e-02,7.512903832768896839e-02,1.303555143134360883e-01,-2.345647811889648438e-01,3.780360192522189133e-01,-1.135537354960566431e-01,6.250679697628747089e-02,-3.154514968395233376e-01,-3.127746343612670676e-01,2.677642881870269664e-01,-2.154514968395233043e-01,-2.127746343612670898e-01,1.677642881870269609e-01,5.225722040002146462e-01,-6.782140135765075684e-01,-1.125964522361755371e+00,9.932217253279172553e+01,4.507329463958740373e-02
8.427980000000000471e-01,3.556341743236646202e-02,5.830339663214399032e-02,9.396982789039611816e-01,6.212002296726678446e-02,-6.806713539241138200e-02,5.230632252418725148e-02,6.501956175971687624e-02,1.242670734541241329e-01,-2.526435256004333496e-01,2.348850916280745549e-01,1.142598888567297050e-01,5.987568411742690000e-02,-3.155471086502075195e-01,-3.111272573471069447e-01,2.845018088817596325e-01,-2.155471086502075140e-01,-2.111272573471069391e-01,1.845018088817596269e-01,5.250387567751821916e-01,-6.652211546897888184e-01,-1.095598816871643066e+00,1.261799994814667798e+02,4.507329463958740373e-02
8.828110000000000124e-01,3.903751411509663594e-02,6.466519636182414821e-02,9.303107857704162598e-01,6.489759887804522065e-02,-5.934682052405992891e-02,5.219236853379047303e-02,6.919026952168853828e-02,1.240290887849517243e-01,-2.814974486827850342e-01,-3.284063733424167492e-02,2.580429478661711018e-01,1.355808656012365276e-02,-3.088325202465057595e-01,-3.039541363716125599e-01,2.873244404792785756e-01,-2.088325202465057262e-01,-2.039541363716125544e-01,1.873244404792785700e-01,5.297334909085125165e-01,-5.782100558280944824e-01,-9.564625024795532227e-01,8.477479167620252554e+01,4.507329463958740373e-02
9.166039999999999743e-01,4.233440014869754853e-02,7.082836329503044981e-02,9.205836057662963867e-01,6.123582741791601392e-02,-4.779042542318223674e-02,5.084528944763974656e-02,5.663315476252388236e-02,1.068111795504532863e-01,-2.803712189197540283e-01,-2.187105736556817226e-01,3.441368909070977589e-01,-6.895348367823639357e-02,-2.952905833721161111e-01,-2.948050856590270774e-01,2.859172463417053445e-01,-1.952905833721160778e-01,-1.948050856590270996e-01,1.859172463417053112e-01,5.362020695031703976e-01,-2.737590670585632324e-01,-9.620736837387084961e-01,8.074938553790966012e+01,4.507329463958740373e-02
9.515390000000000237e-01,4.525200862905368049e-02,7.643624134084441024e-02,9.108066558837890625e-01,5.354953989875870651e-02,-3.592442992829769643e-02,4.825740016753613665e-02,4.393583506258159910e-02,9.332403242839557023e-02,-2.844072282314300537e-01,-2.565664815617239580e-01,3.477147710377594403e-01,-1.150470763721216372e-01,-2.802076458930969349e-01,-2.732530355453491322e-01,2.831554830074310414e-01,-1.802076458930969294e-01,-1.732530355453491266e-01,1.831554830074310358e-01,5.446359341898109330e-01,1.222164630889892578e-01,-1.108150601387023926e+00,9.610809724524800401e+01,4.507329463958740373e-02
9.888959999999999972e-01,4.750678381850965970e-02,8.230351765401743014e-02,9.013706445693969727e-01,4.389986920145105137e-02,-2.335201820921906091e-02,4.454593390849532347e-02,4.847250728442362155e-02,8.814845522827932656e-02,-2.898562550544738770e-01,-2.763856771605201490e-01,3.063615310938155312e-01,-9.591144726023261013e-02,-2.797111511230468972e-01,-2.439068038334434863e-01,2.853922128677368053e-01,-1.797111511230468639e-01,-1.624614000320434570e-01,1.853922128677367998e-01,5.457053337093237255e-01,1.035908460617065430e-01,-2.881826162338256836e-01,1.363008388973555718e+01,4.507329463958740373e-02
1.024539000000000089e+00,4.961104016422007018e-02,8.805300550590615394e-02,8.918163180351257324e-01,3.259967934630436659e-02,-1.042823227425637711e-02,3.989574195059416434e-02,4.919113436651406657e-02,8.268376838603924694e-02,-3.009601533412933350e-01,-3.509357575016047726e-01,3.444632067311333978e-01,-1.230843655947651549e-01,-2.656002461910247914e-01,-1.209841568465588879e-01,2.749985992908478005e-01,-1.656002461910247858e-01,-1.233158111572265625e-01,1.749985992908477672e-01,5.473365976551112233e-01,9.297108650207519531e-02,-9.957066774368286133e-01,-7.305231558862806196e+01,4.507329463958740373e-02
1.061743000000000103e+00,5.175531189501429707e-02,9.360203853702969701e-02,8.820340037345886230e-01,2.039281596662204793e-02,1.924889305495725011e-03,3.461180062393769130e-02,4.739531781953035955e-02,8.525136083798685871e-02,-3.055118024349212646e-01,-3.844548719253543245e-01,3.367491933759442224e-01,-1.712526388489118701e-01,-5.429256394964987464e-02,3.139647878639870854e-02,2.288126366390098032e-01,-3.380286097526550432e-02,-4.997406005859374861e-02,1.325497806072234996e-01,5.489328011473701974e-01,1.045932769775390625e-01,-8.539417982101440430e-01,1.062721222397114786e+02,4.507329463958740373e-02
1.097906999999999966e+00,5.331258114000474169e-02,9.901285275885272907e-02,8.726104497909545898e-01,8.276655343053957586e-03,1.319359061565661406e-02,2.919967905842882697e-02,5.050474769444111139e-02,9.759892878043952003e-02,-2.816613018512725830e-01,-2.839814882956518960e-01,2.663142667097505023e-01,-1.658321963452349945e-01,2.057285528562311505e-01,2.907503187656402810e-01,1.043996076762588876e-01,1.342491030693054033e-01,1.907503187656402477e-01,2.357062697410583496e-02,5.460903458467329941e-01,-1.932239532470703125e-02,-9.564529657363891602e-01,1.016181474524806845e+02,4.507329463958740373e-02
1.132405000000000106e+00,5.488888036379049179e-02,1.046997757811187479e-01,8.641478419303894043e-01,-2.866163094792955734e-03,2.386859194763957248e-02,2.299283416371279698e-02,6.892257933577472517e-02,9.624433679756751181e-02,-2.682639956474304199e-01,-3.232697903935726758e-01,2.858627618419261607e-01,-1.183535306069067039e-01,3.036436796188354270e-01,3.084677219390868919e-01,-3.614401093679192600e-03,2.036436796188354492e-01,2.084677219390869141e-01,-6.713136434555053156e-02,5.447931808025147093e-01,-9.324640035629272461e-02,-1.090176463127136230e+00,1.393509264655691595e+02,4.507329463958740373e-02
1.169651999999999914e+00,5.687158923251409148e-02,1.102960692655597513e-01,8.569275736808776855e-01,-1.334005361942261665e-02,3.389538941470338074e-02,1.591207588780332860e-02,7.887187590230509970e-02,1.059661868039012272e-01,-2.484613060951232910e-01,-3.021590700243665939e-01,2.793565195869415207e-01,-2.433723915021533402e-01,3.155719280242920144e-01,3.127714693546295166e-01,-4.556626186846672588e-02,2.155719280242919811e-01,2.127714693546295111e-01,-8.958156108856200894e-02,5.405008529792693084e-01,-3.034595251083374023e-01,-1.093400835990905762e+00,8.239540648636936737e+01,4.507329463958740373e-02
1.205219000000000040e+00,5.890630982433638779e-02,1.146974343920469375e-01,8.497993350028991699e-01,-2.329668874905049467e-02,4.192068638733226216e-02,8.989674578243072797e-03,8.726789998478075294e-02,1.244144404495244327e-01,-2.323674410581588745e-01,-2.445041893791231324e-01,1.965416573247269483e-01,-1.485398306317347317e-01,3.198903560638427512e-01,3.183030247688293235e-01,-1.033553878007834881e-01,2.198903560638427734e-01,2.183030247688293457e-01,-1.284868955612182562e-01,5.376052997661963095e-01,-4.491510987281799316e-01,-4.524942636489868164e-01,-4.914048241766832348e+01,4.507329463958740373e-02
1.240825000000000067e+00,6.143006633365695468e-02,1.195231978739696166e-01,8.432729244232177734e-01,-3.108831398450038336e-02,4.503059105505147208e-02,2.600232705655680654e-03,1.099755590327467503e-01,1.296583306012402681e-01,-2.036284655332565308e-01,-1.614130699830004234e-01,-3.596538712582634384e-02,-1.641378345312613229e-01,3.224810838699340709e-01,3.219204485416412576e-01,-1.464530989386068072e-01,2.224810838699340654e-01,2.219204485416412242e-01,-1.543002605438232311e-01,5.347469930061767851e-01,-5.385820865631103516e-01,-1.279826521873474121e+00,9.959125466533355109e+01,4.507329463958740373e-02
1.277109999999999967e+00,6.401966618817447885e-02,1.240742169142187157e-01,8.382498025894165039e-01,-3.199462198378066197e-02,4.015393288949598016e-02,-1.581068239063626243e-03,1.140798132470018794e-01,1.341541003734776638e-01,-1.770772933959960938e-01,2.014674339645272996e-02,-2.377471260273257836e-01,-1.030389216528264096e-01,3.227568149566650280e-01,3.220234811305999756e-01,-1.772319979785698107e-01,2.227568149566650224e-01,2.220234811305999700e-01,-1.733227372169494629e-01,5.338602714875145816e-01,-5.199371576309204102e-01,-9.778264760971069336e-01,5.512766231956142349e+01,4.507329463958740373e-02
1.313609000000000027e+00,6.667348745540285782e-02,1.282702409528939103e-01,8.343517780303955078e-01,-2.501023030592414501e-02,2.921087626117024882e-02,-3.366588581234100132e-03,1.127037607091823102e-01,1.450395299113723113e-01,-1.342551112174987793e-01,2.667285592817776330e-01,-2.724796440400388264e-01,-2.220507231241457269e-02,3.214724302291870339e-01,3.201456308364868386e-01,-1.788806628578055447e-01,2.214724302291870006e-01,2.201456308364868053e-01,-1.692915201187133734e-01,5.313211091415710463e-01,-5.216838717460632324e-01,-1.180408120155334473e+00,-1.116742554580579707e+02,4.507329463958740373e-02
1.349177999999999988e+00,6.981249273086806428e-02,1.327812301391920746e-01,8.313701152801513672e-01,-1.397763187384933048e-02,1.704271502703225138e-02,-4.544899951036415232e-03,1.219837084275157690e-01,1.471177201918559829e-01,-1.039324775338172913e-01,3.556403242378811114e-01,-3.179452914586453072e-01,-5.723932007422204149e-02,3.182123661041259544e-01,3.173659145832061768e-01,-1.785303195860570569e-01,2.182123661041259766e-01,2.173659145832061712e-01,-1.650762319564819391e-01,5.298890007082427411e-01,-5.066754817962646484e-01,-1.516011476516723633e+00,1.060668613947742642e+02,4.507329463958740373e-02
1.384436999999999918e+00,7.316647004621186501e-02,1.376267059649954327e-01,8.291063308715820312e-01,-2.022567299275492697e-03,5.159531389404392598e-03,-4.411233929177020563e-03,1.226772778782176110e-01,1.511106545918423638e-01,-9.353097528219223022e-02,3.022422956076667444e-01,-3.115424128606334997e-01,1.888546924569698207e-02,3.105245828628540039e-01,3.122402310371398815e-01,-1.874410254305933221e-01,2.105245828628539984e-01,2.122402310371398759e-01,-1.741357326507568248e-01,5.315032722144821253e-01,-3.999390602111816406e-01,-1.123858332633972168e+00,9.719070271926253213e+01,4.507329463958740373e-02
1.420565000000000078e+00,7.706285379054993168e-02,1.435942959155573906e-01,8.269110918045043945e-01,1.033196325833185374e-02,-7.496624873676527301e-03,-3.164292411310492582e-03,1.236343491931147509e-01,1.536229393026833645e-01,-8.189660310745239258e-02,3.740962377043449139e-01,-3.704250135396107146e-01,8.664418133070539429e-02,3.022603392601013184e-01,2.828060642120425183e-01,-1.719982140160096484e-01,2.022603392601013128e-01,1.985750377178192028e-01,-1.624024629592895341e-01,5.334545781876752768e-01,-2.689036130905151367e-01,-1.176236271858215332e+00,1.047297767326633959e+02,4.507329463958740373e-02
1.460271000000000097e+00,8.096221256851836301e-02,1.496029371019136356e-01,8.251534104347229004e-01,2.269088070599682011e-02,-2.074462982076363815e-02,-1.635562631258787774e-03,1.108314475652583814e-01,1.557649352442337931e-01,-6.045582890510559082e-02,3.797054906255513673e-01,-3.685147338242149573e-01,2.669079616535394855e-02,2.378014475646527404e-01,1.307295078869240568e-01,-1.489272530147782714e-01,1.829499721527099443e-01,1.387067735195159912e-01,-1.444391012191772461e-01,5.327883606633130320e-01,-2.397269010543823242e-01,-8.848794698715209961e-01,-5.512814043280332044e+01,4.507329463958740373e-02
1.497832999999999970e+00,8.508451738593499070e-02,1.560215868721980259e-01,8.236708045005798340e-01,3.485798743500165275e-02,-3.371923186424075070e-02,2.483629449877846024e-04,1.087334560811580725e-01,1.450349224357603550e-01,-6.027159839868545532e-02,2.903081442264732748e-01,-3.630238603185703128e-01,6.181428107421774176e-02,2.358841353890779938e-02,-1.981123167537658936e-01,-8.713426562747193793e-02,5.182929039001464566e-02,-1.093136429786682046e-01,-8.908052444458007535e-02,5.352277470311690433e-01,-1.221863627433776855e-01,-1.270048499107360840e+00,9.937724434806953866e+01,4.507329463958740373e-02
1.532769000000000048e+00,9.024782088442075134e-02,1.640950480780554999e-01,8.219989538192749023e-01,4.965449895138038250e-02,-4.950941314046852781e-02,3.176076367168313448e-03,1.034371717525119777e-01,1.466985773409652527e-01,-6.759728491306304932e-02,2.849295144966706994e-01,-2.904895565856210338e-01,1.248063283872181822e-01,-2.639233648777007946e-01,-3.003271818161010742e-01,1.432917126024588206e-01,-1.639233648777007890e-01,-2.003271818161010687e-01,1.310487091541290283e-01,5.370726737386248839e-01,-6.881165504455566406e-02,-1.132057785987854004e+00,5.442065577819506217e+01,4.507329463958740373e-02
1.582939000000000096e+00,9.370875753822283105e-02,1.698647325065196223e-01,8.207888007164001465e-01,6.114966737000143010e-02,-6.236869399484756826e-02,5.305316385124965797e-03,9.468047496413878328e-02,1.364882408731863117e-01,-5.404547974467277527e-02,3.763705012052375731e-01,-3.170621137373479947e-01,3.198529810363807957e-02,-2.996863663196563943e-01,-3.136240005493163840e-01,1.981793004984470641e-01,-1.996863663196563610e-01,-2.136240005493164062e-01,1.778138279914855957e-01,5.273906123960108161e-01,-5.631048083305358887e-01,-1.498754620552062988e+00,1.278422899405294686e+02,4.507329463958740373e-02
1.626235000000000097e+00,9.987306779766132181e-02,1.793162851936396518e-01,8.191950917243957520e-01,7.788173529489574032e-02,-7.900805845440372899e-02,8.545264296886095901e-03,6.121002505916245395e-02,9.832230117792849222e-02,-4.696115478873252869e-02,3.148414698501103004e-01,-2.886084514534491552e-01,6.491201545635129355e-02,-3.122816264629363903e-01,-3.173267364501953236e-01,2.361392403517483529e-01,-2.122816264629363847e-01,-2.173267364501953181e-01,2.030073344707488958e-01,5.246188338782569183e-01,-7.008401155471801758e-01,-1.609295010566711426e+00,9.393567361745540722e+01,4.507329463958740373e-02
1.674347999999999947e+00,1.042110615591982509e-01,1.859902232229405650e-01,8.176756501197814941e-01,8.537691682286713268e-02,-8.260506529785249796e-02,1.075229350782768399e-02,3.893516055170719720e-02,8.171262373578344618e-02,-6.013517081737518311e-02,3.573547503675630205e-02,9.636363291780615514e-02,6.866504010205358444e-02,-3.130135834217071533e-01,-3.176242470741271751e-01,2.513903506980338931e-01,-2.130135834217071478e-01,-2.176242470741271973e-01,2.106903970241546520e-01,5.256904695262525351e-01,-7.120892405509948730e-01,-1.205256342887878418e+00,1.336833994168326569e+02,4.507329463958740373e-02
1.720577999999999941e+00,1.093680232632195659e-01,1.929252328030993391e-01,8.157750368118286133e-01,8.319552020887949206e-02,-7.429734129246878815e-02,9.376907101948366713e-03,3.837334400718950267e-02,6.442135423667653960e-02,-6.877734512090682983e-02,-1.534581042436653220e-01,3.099005579445730518e-01,-1.144423383663017990e-01,-3.130697309970855713e-01,-3.161989212036132590e-01,2.472354404980698084e-01,-2.130697309970855657e-01,-2.161989212036132812e-01,2.120790302753448320e-01,5.273996449625673044e-01,-6.730670928955078125e-01,-1.251619219779968262e+00,-8.082048097698032052e+01,4.507329463958740373e-02
1.768880999999999926e+00,1.140036287022919564e-01,1.989251071584842434e-01,8.133322000503540039e-01,7.301401538089871690e-02,-5.934782297870100365e-02,5.952769870379860315e-03,2.704174259431913613e-02,4.440809345235598865e-02,-7.290047407150268555e-02,-2.741109539018782293e-01,3.476971123141911479e-01,-7.061318196351121235e-02,-3.097222626209258922e-01,-3.125123858451843151e-01,2.261654893670239364e-01,-2.097222626209258867e-01,-2.125123858451843095e-01,2.034425497055053766e-01,5.314443847132059862e-01,-4.898185729980468750e-01,-1.128358006477355957e+00,1.043780083300294024e+02,4.507329463958740373e-02
1.813317000000000068e+00,1.179139364692586706e-01,2.036516797746082130e-01,8.104062676429748535e-01,5.902815896309011184e-02,-4.318824845043178762e-02,8.959312460779495597e-04,1.063519149637943972e-02,2.641119726233862042e-02,-8.626287430524826050e-02,-3.640686005552680182e-01,3.250227881208498371e-01,-1.617406773105245221e-01,-2.956023812294006348e-01,-3.009779214859008567e-01,1.974009043090182991e-01,-1.956023812294006292e-01,-2.009779214859008789e-01,1.914790570735931396e-01,5.421617480003121381e-01,2.562320232391357422e-02,-1.467849731445312500e+00,1.193754645019765945e+02,4.507329463958740373e-02
1.856189000000000089e+00,1.213592776413513624e-01,2.073612032656050042e-01,8.067219257354736328e-01,4.372021855685615660e-02,-2.744465316835631441e-02,-5.036876867614642483e-03,1.611771380813893130e-03,2.070928339951084649e-02,-9.475219249725341797e-02,-3.148637251533287218e-01,3.536687573006089269e-01,-1.510093271487390199e-01,-2.737225115299224965e-01,-2.262612191359827940e-01,1.495859299846135915e-01,-1.737225115299224909e-01,-1.345021605491638073e-01,1.623489797115325872e-01,5.423549503188214160e-01,-2.606415748596191406e-02,-3.590680360794067383e-01,-5.407600101758163191e+01,4.507329463958740373e-02
1.898738999999999955e+00,1.241023532807207647e-01,2.099290350744371925e-01,8.026453256607055664e-01,2.809195771976751715e-02,-1.195502803854031626e-02,-1.194388388431886355e-02,2.751633404602092138e-03,8.239279919416671663e-03,-9.687048196792602539e-02,-3.811015106379855855e-01,3.319589644043270948e-01,-1.482956701789601983e-01,-2.200811928009258067e-02,1.640367166256199716e-01,4.338520764317445322e-02,8.752620220184326519e-03,1.522649824619293213e-01,7.696512937545775535e-02,5.365118918636025969e-01,-3.893177509307861328e-01,-1.420593857765197754e+00,1.472622526189248902e+02,4.507329463958740373e-02
1.941362999999999950e+00,1.255537869538125295e-01,2.106401675687868680e-01,7.985432147979736328e-01,1.325520167894600650e-02,4.433515747154670450e-03,-1.940647629065656021e-02,6.111073760097717258e-03,8.755972958531733907e-03,-9.297017008066177368e-02,-2.829240362033745848e-01,3.570328106525351708e-01,-1.968075743060594962e-01,2.505936484868612202e-01,3.132802844047546387e-01,-1.492603133074070776e-01,1.816143751144409235e-01,2.132802844047546331e-01,-9.394887685775756003e-02,5.353286142432653882e-01,-4.705551266670227051e-01,-4.332765340805053711e-01,-7.958649119020162743e+01,4.507329463958740373e-02
1.987505000000000077e+00,1.267589762302024081e-01,2.112179337523912570e-01,7.951459288597106934e-01,4.893888647162691809e-04,1.724161746027608189e-02,-2.477638598536402101e-02,1.371119805710942219e-02,1.977600417468137681e-02,-1.006404012441635132e-01,-3.489219657523385809e-01,3.532055701354885890e-01,-1.168147443417289488e-01,3.112150192260741965e-01,3.149011611938476451e-01,-1.812488748310034370e-01,2.112150192260742188e-01,2.149011611938476396e-01,-1.107128620147704995e-01,5.357441121942613238e-01,-5.075282454490661621e-01,-9.590834379196166992e-01,1.325763486957786483e+02,4.507329463958740373e-02
2.029927999999999955e+00,1.278099324571804751e-01,2.114241528950732418e-01,7.908471226692199707e-01,-1.534131132288286785e-02,3.128512306030661883e-02,-3.125347648098107667e-02,3.743398254764938871e-02,2.987725293480981981e-02,-8.374822884798049927e-02,-2.912379603372288184e-01,2.476809951332191728e-01,-1.158214369898721841e-01,3.193838119506836049e-01,3.193618535995483287e-01,-2.241806562747950538e-01,2.193838119506835993e-01,2.193618535995483232e-01,-1.359302401542663574e-01,5.341242426222121420e-01,-5.631841421127319336e-01,-1.289649844169616699e+00,1.048968841408969297e+02,4.507329463958740373e-02
2.072239999999999860e+00,1.287536776922003634e-01,2.114301198721766639e-01,7.876106500625610352e-01,-2.708220496182977763e-02,3.903783611495081907e-02,-3.628060522897141177e-02,3.504846981333090139e-02,3.554629039284792208e-02,-4.861989617347717285e-02,-1.385862514071247997e-01,8.329617010985010742e-03,-1.327072561756867941e-01,3.234875559806823508e-01,3.237236797809600608e-01,-2.706009387969970925e-01,2.234875559806823730e-01,2.237236797809600830e-01,-1.706009387969970592e-01,5.304665047002250500e-01,-6.513440608978271484e-01,-1.145658373832702637e+00,1.104331144632182742e+02,4.507329463958740373e-02
2.114796000000000120e+00,1.292831841519574698e-01,2.114167322358213585e-01,7.857142090797424316e-01,-2.828930981792729393e-02,3.410043354533098814e-02,-3.726121850769437832e-02,3.866416716595765662e-02,3.768881828218322710e-02,-3.805957967415452003e-03,8.503581054949470308e-02,-2.740522179877447062e-01,-2.467521117708655187e-03,3.229754328727721946e-01,3.236724853515625111e-01,-2.757507801055908425e-01,2.229754328727722168e-01,2.236724853515625056e-01,-1.757507801055908092e-01,5.276179552578386112e-01,-6.488907337188720703e-01,-1.602600812911987305e+00,1.037355043876373450e+01,4.507329463958740373e-02
2.157589000000000201e+00,1.291836473047237310e-01,2.112497013787438815e-01,7.849823236465454102e-01,-2.238773389593614119e-02,2.368917395904257539e-02,-3.551828069756290257e-02,4.041966908016750987e-02,3.401308617889264863e-02,3.427630290389060974e-03,1.999385517273327140e-01,-3.775534441783144346e-01,6.278836393818976180e-02,3.228487968444824219e-01,3.231547653675079235e-01,-2.781471066082827903e-01,2.228487968444824163e-01,2.231547653675079179e-01,-1.784281253814697099e-01,5.268526388859368081e-01,-6.754159331321716309e-01,4.170640707015991211e-01,-2.554584664685856654e-01,8.341281414031982699e-02
2.201715999999999784e+00,1.296520777950559145e-01,2.116786160541141715e-01,7.845879793167114258e-01,-1.122495453097994977e-02,8.479682720206715985e-03,-3.153707535708396431e-02,5.908188380298417391e-02,5.931689125778247945e-02,7.667952682822942734e-03,1.959209816950783778e-01,-2.849692489251204330e-01,1.287280656349791275e-01,3.211911916732788086e-01,3.201532125473022239e-01,-2.633858700719579060e-01,2.211911916732788030e-01,2.201532125473022461e-01,-1.743116497993469072e-01,5.274204726657713005e-01,-6.422188282012939453e-01,-6.825689077377319336e-01,-1.003762892877781354e+02,8.341281414031982699e-02
2.244953000000000198e+00,1.313107694890557897e-01,2.113558622140540855e-01,7.853843569755554199e-01,3.054329005265482219e-03,-8.085081835995655553e-03,-2.624822644336232899e-02,7.389773658656804967e-02,6.092023460141485908e-02,4.390589520335197449e-02,3.512842901542693186e-01,-3.384749379283447102e-01,1.653915572213393304e-01,3.181224584579467884e-01,3.049072880024951138e-01,-2.639883314995480346e-01,2.181224584579467829e-01,2.143100559711456354e-01,-1.898364543914794755e-01,5.250372954781834522e-01,-6.348386406898498535e-01,-1.233402132987976074e+00,1.297428173978422024e+02,8.341281414031982699e-02
2.287577000000000194e+00,1.332379863320083402e-01,2.109801820591765131e-01,7.864540815353393555e-01,1.904102979392431269e-02,-2.415568108100685230e-02,-2.022714334303039180e-02,5.198397460531077596e-02,4.470289620370917344e-02,5.271431058645248413e-02,3.575398076189205687e-01,-3.791192205837123907e-01,1.894878634600561107e-01,2.792872273419348961e-01,1.644196891761310342e-01,-2.220731054977812535e-01,2.163805961608886719e-01,1.940750241279602106e-01,-1.657340526580810547e-01,5.256128802034065739e-01,-5.705367326736450195e-01,-5.022090673446655273e-01,7.752742821206373947e+01,8.341281414031982699e-02
2.329892000000000074e+00,1.363942367531713884e-01,2.118274161120443089e-01,7.873134613037109375e-01,3.444295672634692385e-02,-3.913680257178575594e-02,-1.387769903394769043e-02,5.108681168267849293e-02,5.409967245685973897e-02,6.092706322669982910e-02,3.533044537958637821e-01,-3.139070152208275344e-01,1.275324148872133134e-01,1.552619745302833143e-01,-2.426464557647705078e-01,1.196915828811966065e-02,1.820172071456909180e-01,-1.426464557647705023e-01,4.914404153823852262e-02,5.304171833335884489e-01,-2.812173962593078613e-01,-1.044160008430480957e+00,9.661488362128460494e+01,8.341281414031982699e-02
2.384027999999999814e+00,1.392424948310276023e-01,2.129225201848563009e-01,7.880643010139465332e-01,4.601070370449894531e-02,-5.149326686540445230e-02,-8.301228573081378265e-03,5.177342655729752496e-02,4.065483419197336856e-02,5.261474102735519409e-02,2.375760003382205721e-01,-3.157907532746286328e-01,1.486342009289715882e-01,-2.794137299060821533e-01,-3.077026128768921009e-01,1.731910951769218554e-01,-1.794137299060821478e-01,-2.077026128768920954e-01,1.932591319084167314e-01,5.405768713870466868e-01,2.424063682556152344e-01,-9.144433736801147461e-01,7.026559157707369252e+01,8.341281414031982699e-02
2.438388000000000222e+00,1.429840431311282245e-01,2.142772684309320053e-01,7.890391349792480469e-01,6.614563128563080707e-02,-7.376960191728842986e-02,1.607586742449774011e-03,9.394140508175038984e-03,9.027959129892010673e-03,6.210260093212127686e-02,2.751057003982275151e-01,-3.261947878002381396e-01,1.377127982615756197e-01,-3.144434869289398082e-01,-3.189478278160094993e-01,2.233680574150736509e-01,-2.144434869289398027e-01,-2.189478278160095215e-01,2.115900099277496227e-01,5.255852686806429253e-01,-5.450588464736938477e-01,-1.179347872734069824e+00,4.865185068444561267e+01,8.341281414031982699e-02
2.476461000000000023e+00,1.451736825189376967e-01,2.148732382442277988e-01,7.891046404838562012e-01,7.986382496160585043e-02,-8.558890961762766203e-02,7.672083894561023895e-03,3.635613487586861724e-03,-5.398119845863378306e-03,3.974204137921333313e-02,2.853968443388086307e-01,-1.605973143030223760e-01,1.445208789308478070e-01,-3.166704535484313743e-01,-3.196827530860900657e-01,2.482611979292258519e-01,-2.166704535484313965e-01,-2.196827530860900879e-01,2.168732464313506969e-01,5.247220142872494053e-01,-6.883327960968017578e-01,-1.043364167213439941e+00,1.077931917074949837e+02,8.341281414031982699e-02
2.515591999999999828e+00,1.463444694672428326e-01,2.145304047312467932e-01,7.888462543487548828e-01,8.877585896027548329e-02,-8.618193466520707169e-02,9.853930180104813336e-03,6.331062345837547983e-04,-3.551960169221882874e-02,3.483777493238449097e-02,2.407605893526674756e-01,8.022679453292629048e-02,7.398930180103056864e-02,-3.190290451049804799e-01,-3.188591361045837180e-01,2.555809234110378303e-01,-2.190290451049804743e-01,-2.188591361045837402e-01,2.174509763717651367e-01,5.248272977089274427e-01,-7.104481458663940430e-01,-1.252657294273376465e+00,5.852345991261521441e+00,8.341281414031982699e-02
2.550450999999999802e+00,1.479609037979044139e-01,2.143116777414826868e-01,7.881625890731811523e-01,9.303688027721306042e-02,-7.536379781506941100e-02,1.016786606191712010e-02,-2.979459678594841010e-02,-4.586582577337501576e-02,1.978030987083911896e-02,-5.204388564861683582e-04,2.819276611527121723e-01,-6.677737834958578401e-03,-3.198117136955261341e-01,-3.161162376403808816e-01,2.586221462333183618e-01,-2.198117136955261286e-01,-2.161162376403808483e-01,2.204503297805786022e-01,5.267426652822538857e-01,-6.768294572830200195e-01,-6.538590192794799805e-01,1.378864109641133666e+02,8.341281414031982699e-02
2.591620999999999952e+00,1.484708526797864636e-01,2.138227677147179484e-01,7.873449325561523438e-01,8.863301294797913676e-02,-6.616162892133847784e-02,9.660703419448066209e-03,-4.197886379391805450e-02,-5.859802670266343189e-02,5.859264172613620758e-03,-2.423820139779453431e-01,3.619600935240385176e-01,-1.121379791375714391e-02,-3.197220206260681374e-01,-3.137958049774169922e-01,2.559783850239744640e-01,-2.197220206260681041e-01,-2.137958049774169866e-01,2.209840893745422252e-01,5.295191283930468229e-01,-5.931319594383239746e-01,-1.035369277000427246e+00,1.116691874576938233e+02,8.341281414031982699e-02
2.628598999999999908e+00,1.484353672091108800e-01,2.122029078587235607e-01,7.856133580207824707e-01,7.552945378924490194e-02,-5.088446609478713967e-02,6.605134981355875387e-03,-6.042506905027098668e-02,-9.073014855075400842e-02,4.918567836284637451e-03,-3.398104965041779391e-01,3.462132917549546329e-01,-1.078668486368355856e-01,-3.189667642116546520e-01,-3.070677161216736062e-01,2.378812121359515919e-01,-2.189667642116546464e-01,-2.070677161216735729e-01,2.143601059913635143e-01,5.370414449675710022e-01,-1.986960768699645996e-01,-8.562213182449340820e-01,9.184913278828655336e+01,8.341281414031982699e-02
2.667267999999999972e+00,1.477220463709092158e-01,2.103878351297856220e-01,7.837789654731750488e-01,6.425942434798775915e-02,-3.882774712632519609e-02,3.023384593636921358e-03,-7.105426148873680847e-02,-9.670640150931691936e-02,-7.037940900772809982e-03,-2.654421018704417601e-01,3.372419541593281167e-01,-1.336409508419643677e-01,-3.114411294460296409e-01,-3.011109948158264271e-01,2.114227396834572059e-01,-2.114411294460296631e-01,-2.011109948158264216e-01,1.997932791709899902e-01,5.460183787073210615e-01,2.357418537139892578e-01,-1.121382355690002441e+00,1.001560634983694200e+02,8.341281414031982699e-02
2.698922000000000043e+00,1.467939328823535672e-01,2.080961459063002394e-01,7.815881371498107910e-01,5.213746290351948393e-02,-2.581485313378228952e-02,-1.078357893535351452e-03,-6.963624341031572629e-02,-1.069613943666543748e-01,-1.795383729040622711e-02,-3.529709243008808395e-01,3.557717407617334016e-01,-8.566304075637380666e-02,-3.048070251941680797e-01,-2.790963896567774660e-01,1.850328795828053152e-01,-2.048070251941680742e-01,-1.811219930648803600e-01,1.866476476192474310e-01,5.490139293254595598e-01,3.406813144683837891e-01,-1.406051278114318848e+00,8.355951660774965717e+01,8.341281414031982699e-02
2.736955000000000027e+00,1.449713371717999688e-01,2.044797057313970101e-01,7.790536284446716309e-01,3.938832235383116220e-02,-1.281388011834838636e-02,-5.909432988767803797e-03,-6.679462355571619270e-02,-1.182018858685222329e-01,-2.241920679807662964e-02,-4.096631323533585500e-01,3.652106240083971556e-01,-1.566141934465479502e-01,-3.144145548343658669e-01,-1.115001595985209565e-01,1.783650274894886811e-01,-2.144145548343658336e-01,-9.840381145477294922e-02,1.947647631168365479e-01,5.490144477673434276e-01,3.012194633483886719e-01,-1.151552796363830566e+00,9.827466740092189923e+01,8.341281414031982699e-02
2.774649000000000143e+00,1.425700972058517590e-01,2.001187264881031380e-01,7.761980891227722168e-01,2.605370551369775786e-02,-7.089523278658305117e-05,-1.089036521154399841e-02,-6.534432900284374568e-02,-1.228303746061411572e-01,-2.576665394008159637e-02,-3.716579004788339025e-01,3.371933724862722359e-01,-1.500807417752753059e-01,-2.947732638081719259e-01,2.439943543372081469e-01,1.439197034693506516e-01,-2.066269755363464300e-01,1.752243697643280085e-01,1.749852240085601751e-01,5.476207886224554455e-01,1.860541105270385742e-01,-1.276450991630554199e+00,1.003549244560543343e+02,8.341281414031982699e-02
2.814262999999999959e+00,1.401409954891250087e-01,1.954868576458939911e-01,7.730392813682556152e-01,1.224159280362176021e-02,1.153313234620356731e-02,-1.581576081046809010e-02,-6.688342189817389483e-02,-1.268083642379038700e-01,-3.406405076384544373e-02,-3.848002592177013903e-01,3.441420865972684706e-01,-1.123195451147300933e-01,-9.855216220760029677e-02,3.152200400829315297e-01,4.200362136103198696e-02,-9.520316720008849265e-02,2.152200400829315241e-01,8.701785206794739047e-02,5.376677605682188554e-01,-4.270839691162109375e-01,-7.189401388168334961e-01,-4.890531217435561473e+01,8.341281414031982699e-02
2.848019999999999996e+00,1.373519803878078260e-01,1.900006788903191302e-01,7.700986266136169434e-01,-3.010907466048988413e-04,2.260410387038569446e-02,-2.105362388267976656e-02,-5.776725943855673395e-02,-1.222875363137136823e-01,-1.061658747494220734e-02,-2.992780751398557704e-01,3.399557558967140070e-01,-1.524077775230281984e-01,2.375115773801106944e-01,3.189276933670043834e-01,-6.439523845874581265e-02,1.581977605819702148e-01,2.189276933670043779e-01,-4.900610446929931120e-03,5.329423540566473605e-01,-6.190770864486694336e-01,-8.994492292404174805e-01,8.704048836730081007e+01,8.341281414031982699e-02
2.890902999999999778e+00,1.338177054948086753e-01,1.826410440388703815e-01,7.670311331748962402e-01,-1.578045652431002421e-02,3.548119096540536255e-02,-2.743133158049450987e-02,-3.435612954160328220e-02,-1.197665119736044115e-01,2.960219047963619232e-03,-3.563384701180974390e-01,2.549030287451939936e-01,-1.041396646078235483e-01,3.107801437377929465e-01,3.218195617198943981e-01,-1.665932168329293250e-01,2.107801437377929688e-01,2.218195617198943925e-01,-9.009050130844116488e-02,5.310951322558365995e-01,-6.909427642822265625e-01,-1.022266507148742676e+00,1.444119736971435657e+02,8.341281414031982699e-02
2.927449000000000190e+00,1.315831067977627777e-01,1.773581441921113222e-01,7.648370862007141113e-01,-2.707794580594163197e-02,4.261818965287056393e-02,-3.287224561866518985e-02,-2.701884371563136045e-02,-1.012788887258639636e-01,2.839275635778903961e-02,-2.691074431677490941e-01,1.171373024371256261e-01,-1.494732433271871996e-01,3.193548440933227650e-01,3.229974448680877908e-01,-2.492874876184712207e-01,2.193548440933227595e-01,2.229974448680877575e-01,-1.583631277084350530e-01,5.293022405034928379e-01,-7.081321477890014648e-01,2.308684587478637695e-01,1.132579577605304877e+02,8.341281414031982699e-02
2.967074000000000211e+00,1.285860896204630566e-01,1.709857706386813392e-01,7.635170221328735352e-01,-3.825072401093028429e-02,4.095733966277359528e-02,-3.709210991648128480e-02,-2.770715003731311077e-02,-9.208716521614175587e-02,5.282604694366455078e-02,-3.241348007976653234e-01,-1.591759812559414011e-01,-1.095966910744116118e-01,3.228719353675842396e-01,3.234966397285461426e-01,-2.846725940704345481e-01,2.228719353675842341e-01,2.234966397285461370e-01,-1.846725940704345703e-01,5.278378746620254747e-01,-7.059597373008728027e-01,-1.474522709846496582e+00,1.190441866668526387e+02,8.341281414031982699e-02
3.004366000000000092e+00,1.253181185445930990e-01,1.641713613113510994e-01,7.629377245903015137e-01,-4.775298851639262626e-02,2.784802504427741354e-02,-3.915819003142637089e-02,-1.635897874107839628e-02,-8.256242099982875893e-02,7.516572624444961548e-02,-1.963299631673562640e-01,-4.063015790091799029e-01,-2.854073395188744949e-02,3.219428539276122936e-01,3.234004020690918191e-01,-3.030320644378662331e-01,2.219428539276122880e-01,2.234004020690917858e-01,-2.030320644378661998e-01,5.266719373444860297e-01,-6.920688152313232422e-01,-1.075606226921081543e+00,8.143683724768227705e+01,8.341281414031982699e-02
3.037665000000000060e+00,1.228080255476081545e-01,1.588875473669524307e-01,7.634778618812561035e-01,-4.680045238697996129e-02,1.290806566886493201e-02,-3.845438912613587806e-02,-1.658491739919454311e-02,-6.656567236282247280e-02,8.574569970369338989e-02,8.008079432306058898e-02,-4.122628666620506421e-01,4.440902600422911434e-02,3.201170921325683372e-01,3.221973061561584362e-01,-3.138081073760986550e-01,2.201170921325683594e-01,2.221973061561584306e-01,-2.138081073760986217e-01,5.258648022112457632e-01,-6.998516321182250977e-01,-1.506531953811645508e+00,1.178597908836374017e+02,8.341281414031982699e-02
3.073916999999999788e+00,1.199692971343503251e-01,1.529017901236258969e-01,7.643873095512390137e-01,-3.907815836928362624e-02,-2.099004051353103861e-03,-3.610608875984164939e-02,-5.773122232374626808e-03,-4.745809643431372210e-02,1.013077497482299805e-01,2.601473712261337390e-01,-3.968555749840678715e-01,8.130660637750504460e-02,3.169369935989380105e-01,2.995549675794484390e-01,-3.149853467941284291e-01,2.169369935989379772e-01,2.154520690441131536e-01,-2.149853467941284235e-01,5.247693992975029920e-01,-7.017839550971984863e-01,-9.378445148468017578e-02,1.322694819567483364e+02,8.341281414031982699e-02
3.107879000000000058e+00,1.180371521516515726e-01,1.489464420231743080e-01,7.653314471244812012e-01,-3.131875793723244011e-02,-1.218355945181714972e-02,-3.368031343405327588e-02,-1.039692886942709775e-02,-4.453575270102116956e-02,1.090415269136428833e-01,2.446073443924987323e-01,-3.810709592827781211e-01,6.958895232963560606e-02,3.126351594924926536e-01,1.402553804907739621e-01,-3.031026968232277685e-01,2.126351594924926758e-01,1.275121986865997148e-01,-2.088561415672302302e-01,5.249262764226958478e-01,-6.649099588394165039e-01,-1.001137137413024902e+00,1.066737100421515549e+02,8.341281414031982699e-02
3.140144999999999964e+00,1.155581486447896100e-01,1.441890684108533272e-01,7.665821313858032227e-01,-1.989576457945125415e-02,-2.419784273731617752e-02,-2.890695574831085579e-02,-1.145280800274957149e-02,-2.376846075939393482e-02,1.076327413320541382e-01,2.963993920171416607e-01,-2.738733025235234875e-01,1.829843397131125926e-01,3.153099298477172741e-01,-1.816561186622430157e-01,-2.892176028630396578e-01,2.153099298477172685e-01,-1.144461750984191867e-01,-2.082658052444457952e-01,5.256892892928359817e-01,-6.309134364128112793e-01,-1.081145167350769043e+00,-4.211458442227261401e+01,8.341281414031982699e-02
3.175209999999999866e+00,1.133003287317431440e-01,1.397091289883261311e-01,7.679662108421325684e-01,-8.529208011114966514e-03,-3.642505299474008140e-02,-2.383605517772277235e-02,-1.342623070496173909e-02,-1.276422510447081625e-02,1.177982240915298462e-01,3.512220607546379103e-01,-3.324284049026893229e-01,1.318861651865259887e-01,3.145522952079772838e-01,-2.963429927825927956e-01,-2.620380271801389660e-01,2.145522952079772783e-01,-1.963429927825927623e-01,-1.956334590911865123e-01,5.262471138477250454e-01,-5.607290267944335938e-01,-1.145172953605651855e+00,1.344548009816939214e+02,8.341281414031982699e-02
3.209254000000000051e+00,1.107230572583721984e-01,1.356854477966371042e-01,7.694327235221862793e-01,2.571492512967814802e-03,-4.919122059035374583e-02,-1.764263132326881339e-02,-2.492783288464207880e-02,-1.581054771395833808e-02,1.200010105967521667e-01,2.892324318204275713e-01,-3.452650394470216377e-01,1.843456094801927680e-01,3.016534493969970088e-01,-3.118561029434204213e-01,-1.177881464711519888e-01,2.017737865447997991e-01,-2.118561029434204157e-01,-6.945419311523437500e-02,5.322397391524434918e-01,-2.233488559722900391e-01,-6.402560472488403320e-01,-4.006407967116474111e+01,8.341281414031982699e-02
3.242261000000000060e+00,1.079763839344665827e-01,1.319926101276175379e-01,7.709739208221435547e-01,1.444227808782186026e-02,-6.192377030471374333e-02,-1.122116520722457773e-02,-4.485261841467918370e-02,-2.361371330168909530e-02,1.059661284089088440e-01,3.320928452717480384e-01,-3.540289923368385439e-01,2.262773501156265243e-01,1.630028913130469603e-01,-3.131244659423828014e-01,8.452689052102212164e-02,1.485425949096679521e-01,-2.131244659423827958e-01,1.136808514595031711e-01,5.374076927706388229e-01,6.969332695007324219e-03,-9.987295866012573242e-01,9.028995086493438293e+01,8.341281414031982699e-02
3.276667000000000218e+00,1.062210278898322730e-01,1.295228984523001670e-01,7.717882990837097168e-01,2.363897959515800715e-02,-6.952172826448488330e-02,-6.518978864853965279e-03,-5.500347267614197344e-02,-1.833611386154457637e-02,1.067517325282096863e-01,3.635948897215334208e-01,-2.498326382271358614e-01,1.630047491201269405e-01,-9.951315149956793671e-02,-3.166315078735351674e-01,1.097256915897362184e-01,-5.761504769325256209e-02,-2.166315078735351618e-01,1.245253086090087891e-01,5.337247160608143970e-01,-1.961198449134826660e-01,-1.067062973976135254e+00,9.799995719250398452e+01,8.341281414031982699e-02
3.308514999999999873e+00,1.036672773299931877e-01,1.262209362036127158e-01,7.728326320648193359e-01,3.519749978232922238e-02,-7.315417483587860481e-02,-1.891223268002658676e-04,-5.263392244974220147e-02,-3.485878160405084247e-02,8.548372238874435425e-02,2.988206013187283405e-01,-4.000855490330356388e-03,2.136658823167219834e-01,-3.106213390827178844e-01,-3.205497503280639870e-01,1.823078850107527904e-01,-2.106213390827178789e-01,-2.205497503280639537e-01,1.783848702907562256e-01,5.284257489008370445e-01,-5.730325579643249512e-01,-1.046555876731872559e+00,1.135573112914738090e+02,8.341281414031982699e-02
3.344419999999999948e+00,1.012019557394306241e-01,1.230407130253008130e-01,7.736804485321044922e-01,4.650160177117077659e-02,-6.826452727568121936e-02,5.880593805304102847e-03,-7.265381835489821694e-02,-5.002430392934902048e-02,9.863512963056564331e-02,3.315508535181404537e-01,2.161943658701058757e-01,1.544224482539031662e-01,-3.144505321979522705e-01,-3.202770233154296764e-01,2.169183327103721692e-01,-2.144505321979522650e-01,-2.202770233154296708e-01,1.953508973121642900e-01,5.280976596975818227e-01,-5.412123799324035645e-01,-9.780112504959106445e-01,1.950019691057557338e+02,8.341281414031982699e-02
3.380234000000000183e+00,9.953931237858186509e-02,1.209768641217960766e-01,7.741086483001708984e-01,5.467484808615215297e-02,-6.124864860826928492e-02,9.667770643883912343e-03,-7.227600879559169245e-02,-6.296950143946562772e-02,8.651291579008102417e-02,2.990991020034030057e-01,2.715976840607463583e-01,1.599630302410357530e-01,-3.162127614021301159e-01,-3.178868532180786355e-01,2.353546401732654336e-01,-2.162127614021301103e-01,-2.178868532180786022e-01,2.032899498939514105e-01,5.329465486117879180e-01,-3.284027576446533203e-01,1.345001459121704102e-01,-1.133116362172176110e+02,8.341281414031982699e-02
3.413149000000000211e+00,9.639926579583481259e-02,1.169590167585479179e-01,7.747135758399963379e-01,6.710637795678760231e-02,-4.687811340512082481e-02,1.163431032888406422e-02,-9.148334715159796293e-02,-7.512157057181607922e-02,8.582852035760879517e-02,2.209436607790480067e-01,3.537499652463437227e-01,2.182705331197852192e-03,-3.195352315902709739e-01,-3.076457858085632213e-01,2.506368310473899852e-01,-2.195352315902709961e-01,-2.076457858085632158e-01,2.135266721248626764e-01,5.329660392153031667e-01,-3.340286016464233398e-01,-6.341332197189331055e-01,-1.205444206425730158e+01,8.341281414031982699e-02
3.447856999999999950e+00,9.432906054160958287e-02,1.143499475727926401e-01,7.748636007308959961e-01,7.121154583052771714e-02,-3.762491552603064449e-02,1.202661970322204885e-02,-9.588907426886759955e-02,-8.104014584382744635e-02,8.319991081953048706e-02,1.071788569788575674e-01,3.447645382812652981e-01,2.482901208291578288e-02,-3.211776733398437611e-01,-3.009836077690124512e-01,2.538086498405485170e-01,-2.211776733398437556e-01,-2.009836077690124456e-01,2.164090991020202470e-01,5.327468294310417907e-01,-3.628206253051757812e-01,-1.158645987510681152e+00,8.590822058783112425e+01,8.341281414031982699e-02
3.482101000000000113e+00,9.133563152667513452e-02,1.115167629373230024e-01,7.749022841453552246e-01,6.903236293310596738e-02,-2.389553031264068927e-02,1.060236151163803688e-02,-9.384187339118316151e-02,-8.799677524973277543e-02,5.792619287967681885e-02,-1.646469123863529282e-01,3.642911667622090177e-01,-4.194384580659660244e-02,-3.210628211498260387e-01,-2.908446073532104381e-01,2.467954680577220394e-01,-2.210628211498260332e-01,-1.908446073532104326e-01,2.150164783000945989e-01,5.380668364273520909e-01,-1.770948767662048340e-01,-1.144790291786193848e+00,9.518540699027097673e+01,8.341281414031982699e-02
3.516990999999999978e+00,8.824102713825530964e-02,1.084019238858173334e-01,7.745962142944335938e-01,6.088498152898495080e-02,-9.754213974415781863e-03,8.014041409023318213e-03,-1.004048789652228352e-01,-1.055375228612958766e-01,5.369184911251068115e-02,-2.817771418740124822e-01,3.999683690692893978e-01,-1.048675844422520265e-01,-3.205279529094696156e-01,-1.642433277830190608e-01,2.324340333338076880e-01,-2.205279529094696100e-01,-1.235060691833496094e-01,2.094029188156127930e-01,5.455515616632610199e-01,2.137041091918945312e-01,-1.064020752906799316e+00,8.841250261682712619e+01,8.341281414031982699e-02
3.550966999999999985e+00,8.518381567447810832e-02,1.050917053280457231e-01,7.739804983139038086e-01,5.006828749549696589e-02,3.873712604264500925e-03,4.675589591609059445e-03,-9.363315570436339663e-02,-1.068568235867270316e-01,4.800044372677803040e-02,-2.570051176100333623e-01,3.544522078986966362e-01,-1.167376173919523613e-01,-3.172744512557983398e-01,3.542106457426484611e-02,2.061697842084906640e-01,-2.172744512557983343e-01,-1.599823236465454032e-02,1.937030375003814531e-01,5.489330669042850053e-01,3.696990013122558594e-01,-1.684201955795288086e+00,1.262406652216748313e+02,8.341281414031982699e-02
3.585234999999999950e+00,8.146870308795525761e-02,1.016229111146120939e-01,7.730786204338073730e-01,3.785936379944643965e-02,1.612655737235013653e-02,9.655230710825927522e-04,-7.414597470845177285e-02,-1.194955035069962257e-01,3.225482255220413208e-02,-3.665797105546810819e-01,3.079482594932261841e-01,-5.485615943413155865e-02,-3.189283192157745250e-01,2.197582006454467662e-01,1.868242154240358777e-01,-2.189283192157745195e-01,1.197582006454467746e-01,1.854202151298522949e-01,5.481832058463877999e-01,2.520544528961181641e-01,-1.073942303657531738e+00,9.544708519775250011e+01,8.341281414031982699e-02
3.618784999999999918e+00,7.897078208931318510e-02,9.890517015101946141e-02,7.723439931869506836e-01,2.892622227433358159e-02,2.502188119184123316e-02,-2.481243678348948357e-03,-7.590105754698819873e-02,-1.292038536675608196e-01,3.594246506690979004e-02,-3.749324047228024259e-01,3.460877393170623817e-01,-1.311437095553774357e-01,-3.183677017688751332e-01,2.911715686321258434e-01,1.733938794703537845e-01,-2.183677017688751276e-01,1.911715686321258378e-01,1.817002594470977783e-01,5.456515373924850643e-01,1.122394800186157227e-01,-1.075000882148742676e+00,9.742588662295358404e+01,8.341281414031982699e-02
3.657185000000000130e+00,7.583942821731466666e-02,9.489749881638796791e-02,7.713868618011474609e-01,1.759009600152718761e-02,3.700311889834617674e-02,-7.527960849079251560e-03,-6.205100020951467843e-02,-1.201794259810159693e-01,3.770560771226882935e-02,-2.651933894803866765e-01,3.326765874602576889e-01,-1.461908809893670835e-01,-2.907201148663453028e-01,3.204649209976196400e-01,1.449936089308937748e-01,-2.051119029521941972e-01,2.204649209976196345e-01,1.674000084400177057e-01,5.332425172469881236e-01,-5.832006931304931641e-01,-1.140958189964294434e+00,9.761752807068579330e+01,8.341281414031982699e-02
