timestamp,x,y,z,roll,pitch,yaw,vx,vy,vz,p,q,r,psp,qsp,rsp,pres,qres,rres,thrust_sp, thrust_res
0.000000000000000000e+00,-1.094566435239910374e-02,1.935417119079792247e-02,1.045579552650451660e+00,1.961295818729250420e-02,-8.641921104286076627e-03,3.297322076713808670e-02,1.658891081282641219e-02,8.487433932140766440e-03,-3.849941119551658630e-02,5.782064366481058128e-03,-1.044623649962695376e-02,2.557985058484099974e-02,-3.034454107284546009e-01,-2.297401830300257741e-01,9.384472300488430618e-03,-2.034454107284545954e-01,-1.815286874771118164e-01,-8.317379951477051059e-02,5.166556421466883542e-01,2.798157930374145508e-01,-1.283325314521789551e+00,1.131001257491898286e+02,4.775984287261962613e-02
2.551099999999999896e-02,-1.072450763567593841e-02,1.984456201053056909e-02,1.045502662658691406e+00,1.978428076208654796e-02,-8.717152490721025160e-03,3.258942381503748820e-02,1.522554334337648807e-02,4.515283228395436388e-03,-4.611433669924736023e-02,-2.724939162882350149e-02,1.234648370813764585e-02,1.462941062138319655e-04,-2.793513953685760609e-01,-2.834988444052939302e-02,2.401557500542320367e-01,-1.793513953685760554e-01,2.386184334754943778e-02,1.486580729484558161e-01,5.148793190158453825e-01,1.542153358459472656e-01,-1.135720849037170410e+00,9.355921408097181313e+01,4.775984287261962613e-02
5.255499999999999755e-02,-1.035264614407565946e-02,2.049896155810443030e-02,1.045293927192687988e+00,2.026457102340760777e-02,-8.679331131483891681e-03,3.198890916668845757e-02,1.884187193405286245e-02,5.601431416005776300e-03,-3.509615361690521240e-02,-1.983984741967489453e-03,-8.525608356201823737e-03,-2.401498313491371578e-02,-2.947111725807189941e-01,-2.244723950270145207e-01,1.733660313948862663e-01,-1.947111725807189886e-01,-1.759546995162963867e-01,8.355901837348937711e-02,5.099460480735020784e-01,-6.572216749191284180e-02,-1.017669558525085449e+00,7.429293065890166758e+01,4.775984287261962613e-02
7.359499999999999376e-02,-1.012944444773157711e-02,2.095674186836322603e-02,1.045193552970886230e+00,1.983939567235352280e-02,-8.199280517319440520e-03,3.182788078973126933e-02,1.288178963041836968e-02,5.275972222154630929e-03,-4.425426200032234192e-02,-1.629799830113193293e-02,1.708639381187985334e-02,-3.891548571153953529e-02,-3.093409419059753307e-01,-3.317248882912799540e-02,2.652135158846876672e-01,-2.093409419059753251e-01,1.745662093162536621e-02,1.758514702320098932e-01,5.095284077353561258e-01,-1.244227886199951172e-01,-8.421941995620727539e-01,8.564135143658037919e+01,4.775984287261962613e-02
1.012709999999999999e-01,-9.678842441783637451e-03,2.160107204643293283e-02,1.044743776321411133e+00,1.795695369663436944e-02,-7.744824409253281416e-03,3.035364025586822709e-02,2.695851128155877727e-02,9.341833101293002539e-03,-4.950118809938430786e-02,-1.277899249949299154e-01,2.993591028666799710e-03,-6.942021783674656721e-02,-3.005633538280939598e-01,-1.750567672131009556e-01,2.005370083334373221e-01,-2.039359152317047064e-01,-1.398993015289306530e-01,1.153873443603515569e-01,5.166509558470351315e-01,2.330487966537475586e-01,-9.580985307693481445e-01,7.200399766424699521e+01,4.775984287261962613e-02
1.228589999999999960e-01,-9.357440876484152473e-03,2.187769054248261263e-02,1.044247865676879883e+00,1.522330818892564039e-02,-7.090820188027535664e-03,2.920125986470039486e-02,2.828462610615016526e-02,1.720404802938327662e-02,-6.020283326506614685e-02,-1.634016164562219486e-01,1.739389189863057086e-02,-3.803936144897205468e-02,-2.617144459849379823e-01,-1.630252630571800143e-01,1.635862362339751686e-01,-1.889066934585571234e-01,-1.313322544097900446e-01,8.169078826904296875e-02,5.166682156496863465e-01,1.888916492462158203e-01,-7.697600126266479492e-01,7.071328998660051468e+01,2.881906032562255721e-02
1.506909999999999916e-01,-8.787981968361835428e-03,2.210716084147833563e-02,1.043254137039184570e+00,8.532987090986881781e-03,-4.686490701524936853e-03,2.682691588916187586e-02,3.134904590897914789e-02,1.623949512095054781e-02,-8.361220359802246094e-02,-2.934145139170144523e-01,8.992092665735092194e-02,-6.955766123087069042e-02,-1.888539353055347370e-01,4.481953233319787427e-02,1.013857587210447164e-01,-1.578270435333251898e-01,5.865300893783569058e-02,2.623361349105834961e-02,5.170945226895959923e-01,1.133751869201660156e-01,-3.354612588882446289e-01,9.437704044162163086e+01,2.881906032562255721e-02
1.745579999999999909e-01,-8.402365413130790175e-03,2.232834525920937910e-02,1.042366504669189453e+00,3.359017156707374240e-03,-2.690920517713468740e-03,2.520434748039391062e-02,3.065840064028702017e-02,1.968499826989481699e-02,-9.001776576042175293e-02,-3.133663428768155845e-01,8.348562844295415175e-02,-7.332404541829533329e-02,-7.626800581094683729e-02,1.112408327352762266e-01,2.469502765133026884e-02,-8.211979866027831199e-02,1.129787206649780218e-01,-4.588004350662231584e-02,5.177355561185413846e-01,1.166025400161743164e-01,-1.004764199256896973e+00,5.423326953831575992e+01,2.881906032562255721e-02
2.008550000000000058e-01,-7.679712038925497371e-03,2.283985291117276648e-02,1.040575861930847168e+00,-5.628789606249098160e-03,4.948568996165914058e-04,2.319215252268035099e-02,3.090611189115550009e-02,2.551799475324076014e-02,-1.041002646088600159e-01,-3.471082313823118937e-01,1.136746629691169491e-01,-6.289264893602936057e-02,2.495007280675130001e-01,2.069263199169137368e-01,-8.627898248858120733e-02,1.805861234664916937e-01,1.874461233615875300e-01,-1.512192249298095759e-01,5.180734284291256264e-01,6.883382797241210938e-02,-7.621253728866577148e-01,6.094667954899421858e+01,2.881906032562255721e-02
2.265300000000000091e-01,-7.032128531920592111e-03,2.332974531012633329e-02,1.038615942001342773e+00,-1.410477483469268177e-02,3.796669933504137617e-03,2.183219410147190301e-02,3.079284445383593735e-02,3.196793561026808200e-02,-1.031275689601898193e-01,-2.837102761412692020e-01,9.551807755929003774e-02,-5.544638031460415173e-02,3.115100979804992787e-01,2.500740988127349573e-01,-1.351528406435427432e-01,2.115100979804992731e-01,2.089780926704406794e-01,-1.963557958602905329e-01,5.143150909957786565e-01,-1.399663686752319336e-01,-9.519606828689575195e-01,7.069909002331606018e+01,2.881906032562255721e-02
2.538300000000000001e-01,-6.571337621006991501e-03,2.367605804256885452e-02,1.036472439765930176e+00,-2.066635215876026430e-02,5.305663415221095747e-03,2.143276144877994185e-02,2.146828253677040763e-02,3.422556192555346877e-02,-1.110552847385406494e-01,-1.920063752496313780e-01,-1.196155610121000341e-03,1.044134599321890067e-02,3.131649494171142578e-01,2.491820615817267326e-01,-1.571173095437512213e-01,2.131649494171142523e-01,2.055357277393340953e-01,-2.172655105590820257e-01,5.138069222642545064e-01,-2.106301784515380859e-01,-1.130090355873107910e+00,1.286812420762821318e+02,2.881906032562255721e-02
2.754389999999999894e-01,-6.276912620022901020e-03,2.400423724782333595e-02,1.034943938255310059e+00,-2.337725046665053985e-02,4.798163866547522360e-03,2.199829849201949405e-02,2.468382539656012453e-02,4.266031928311838500e-02,-1.097518131136894226e-01,-1.415499967953439409e-01,-5.157190004541005457e-02,7.579429804575495144e-02,3.161117672920227273e-01,2.381332308067356796e-01,-1.622874572148531036e-01,2.161117672920226940e-01,1.936049580574035478e-01,-2.240374088287353516e-01,5.092574593784563453e-01,-4.577312469482421875e-01,-1.548456907272338867e+00,1.161629533277528026e+02,2.881906032562255721e-02
2.996240000000000014e-01,-6.066554274807628953e-03,2.437025443951583784e-02,1.033475160598754883e+00,-2.370258102289787838e-02,2.687022569588748411e-03,2.311575279894992688e-02,1.715099478134625433e-02,4.095038115383786009e-02,-9.967827051877975464e-02,2.827270180252366288e-02,-1.615732003037578524e-01,7.862660437579883921e-02,2.025626301765441895e-01,-1.670585518812247317e-01,-1.312173597514019185e-01,1.025626301765441839e-01,-1.915648341178894098e-01,-1.960287094116210938e-01,5.190693246107550562e-01,9.772968292236328125e-02,-1.396923184394836426e+00,-1.252319623944798366e+01,2.881906032562255721e-02
3.263159999999999950e-01,-5.806474180160482723e-03,2.498569091924606606e-02,1.031405091285705566e+00,-2.049357116664706976e-02,-2.886351440410717117e-03,2.573817830519343694e-02,2.442075428902136525e-02,4.873628707119444237e-02,-1.098995208740234375e-01,1.998497456877285638e-01,-2.448662168276696527e-01,1.176082206161249005e-01,2.435880541801452581e-01,-1.769347188183247321e-01,-1.936405834749459209e-02,1.435880541801452526e-01,-1.725236177444458008e-01,-9.141601324081420621e-02,5.182503919315788465e-01,9.924173355102539062e-04,-3.450459241867065430e-01,-1.359573742972050070e+01,2.881906032562255721e-02
3.490929999999999866e-01,-5.688075013018517589e-03,2.519324643583677192e-02,1.029986619949340820e+00,-1.638302897041573128e-02,-7.378962490131479868e-03,2.794526265245109858e-02,1.180514996137770403e-02,4.173651985623278576e-02,-1.067724302411079407e-01,2.581633523041049760e-01,-2.784977612956048842e-01,1.549430320995516530e-01,2.542076349258423074e-01,-2.219586911140563057e-01,-6.653327694507965573e-03,1.542076349258422741e-01,-1.774486899375915527e-01,-8.480515480041503351e-02,5.166414964869714410e-01,-8.239686489105224609e-02,-1.270412325859069824e+00,1.220198132202820602e+02,2.881906032562255721e-02
3.759350000000000191e-01,-5.525536484157660307e-03,2.517899880285841621e-02,1.027780532836914062e+00,-8.354176280054064624e-03,-1.409973311249657080e-02,3.147621345447276092e-02,2.329775935943991655e-02,5.163956280925650205e-02,-1.128126606345176697e-01,3.432410602231602548e-01,-2.177847170251149544e-01,1.471136267462486436e-01,2.194639444351196289e-01,-2.376777591727064765e-01,2.121231517548786971e-02,1.194639444351196234e-01,-1.611622452735900768e-01,-6.691399812698363425e-02,5.184637608040733037e-01,-2.150136232376098633e-02,-1.042651772499084473e+00,9.906061726871526218e+01,2.881906032562255721e-02
4.014289999999999803e-01,-5.312799966875733984e-03,2.531589277451902140e-02,1.026017785072326660e+00,-3.139091602848672127e-03,-1.676902757978293579e-02,3.368204576663059308e-02,8.352146793578990244e-03,4.813990409209110977e-02,-1.185786873102188110e-01,3.073296061798996281e-01,-8.892346493860189827e-02,1.013780161391003437e-01,1.096254205299907608e-02,-1.980209708213806208e-01,5.882528848447276387e-02,-5.760655403137206892e-02,-9.802097082138061523e-02,-3.558247089385985912e-02,5.223082345384018055e-01,1.517794132232666016e-01,-1.414135575294494629e+00,1.151663604259562419e+02,2.881906032562255721e-02
4.238919999999999910e-01,-5.040331679963686376e-03,2.558294890526992965e-02,1.024061918258666992e+00,1.542779564529291785e-03,-1.750483820430681625e-02,3.560230876067994876e-02,3.122861947094389759e-02,6.639938539610960866e-02,-1.381542086601257324e-01,2.784297759057642874e-01,9.402392054312860500e-03,9.281182964672855806e-02,-9.785448718610188779e-02,-8.849903323847628511e-02,1.593246504957351317e-01,-1.504107356071472112e-01,2.197319269180297938e-03,5.941888689994812012e-02,5.234160064961311809e-01,1.205779314041137695e-01,-7.797089815139770508e-01,5.619673035864098409e+01,2.881906032562255721e-02
4.499690000000000079e-01,-4.524736532426010087e-03,2.610534833594315915e-02,1.020882725715637207e+00,8.156175463224160302e-03,-1.507862724119601872e-02,3.788746547738180981e-02,2.270781164351862863e-02,6.362398120577517080e-02,-1.507650017738342285e-01,2.330725498289486219e-01,1.817379325282604818e-01,7.658541676513626328e-02,-1.733826646254472414e-01,-4.245335267736845275e-02,2.390469670295715388e-01,-1.788877308368682917e-01,4.176081418991088590e-02,1.390469670295715332e-01,5.237037883903077340e-01,6.750237941741943359e-02,-1.098981738090515137e+00,4.419494393024260859e+01,2.881906032562255721e-02
4.764399999999999746e-01,-3.307235882014565934e-03,2.582873352180390172e-02,1.017547607421875000e+00,1.537303806380357213e-02,-1.012599159447025166e-02,3.951444218285758009e-02,2.454961161513794649e-02,6.089397376089919489e-02,-1.609046161174774170e-01,2.621808279082075699e-01,2.169043879897930571e-01,7.282780200748638355e-02,-2.286829531681159600e-01,-1.642518237965398531e-02,2.594398736953735241e-01,-1.856033027172088457e-01,3.173961639404297014e-02,1.594398736953735185e-01,5.243111375511350092e-01,4.009366035461425781e-02,-1.375003695487976074e+00,9.506442384950254620e+01,2.881906032562255721e-02
4.992710000000000203e-01,-2.419890888909574916e-03,2.573029150985023036e-02,1.015102744102478027e+00,2.001607430104923244e-02,-5.699500895806064449e-03,4.029541312646792162e-02,3.285936382304259495e-02,5.813452438164711661e-02,-1.704819202423095703e-01,1.978505331302062575e-01,2.909173996015566033e-01,3.406619507882580056e-02,-2.632132949065789096e-01,6.549551377719195489e-02,2.898659586906432994e-01,-1.882707059383392223e-01,7.783992290496825894e-02,1.898659586906432939e-01,5.260581780637175742e-01,7.980072498321533203e-02,-7.428272962570190430e-01,-5.890801834590715202e+01,2.881906032562255721e-02
5.255790000000000184e-01,-1.085088634445866831e-03,2.562407607952052815e-02,1.011306643486022949e+00,2.517523082380269603e-02,8.597813306006063527e-04,4.126240063129619356e-02,2.989579760673618733e-02,5.764263945756271934e-02,-1.776848286390304565e-01,1.481910851292967124e-01,2.400213617312567105e-01,1.510697190618636582e-02,-2.958394169807433971e-01,1.821094103855959434e-01,3.014783680438995472e-01,-1.958394169807433915e-01,1.540800154209136796e-01,2.014783680438995417e-01,5.248312633061299470e-01,-3.867208957672119141e-02,2.854241132736206055e-01,-8.869491557108151625e+00,5.708482265472412248e-02
5.553289999999999615e-01,3.188361203194275658e-04,2.577810149739509851e-02,1.006989359855651855e+00,2.703677516609899814e-02,6.194092037781873117e-03,4.078386247079678756e-02,3.159757078350318438e-02,6.298268566335284147e-02,-1.886147260665893555e-01,1.187293794450534207e-02,1.688279690279987644e-01,-5.448079910303519485e-02,-3.007274389266967884e-01,2.586418052215668784e-01,3.105287671089172474e-01,-2.007274389266967829e-01,1.931232154369354193e-01,2.105287671089172419e-01,5.252940109483119624e-01,-8.296495676040649414e-02,-1.532184839248657227e+00,1.056837697446065931e+02,5.708482265472412248e-02
5.760070000000000467e-01,7.478420736987513931e-04,2.580260137052609384e-02,1.005661368370056152e+00,2.681773102145030077e-02,7.567832640414939860e-03,4.040703443714061677e-02,3.157182655406742811e-02,5.859873357024031337e-02,-1.916696280241012573e-01,-5.516300042497027795e-02,1.463733116386452260e-01,-6.789543184354447647e-02,-2.818860471248626487e-01,2.803781425079865386e-01,2.986251592636108287e-01,-1.818860471248626709e-01,2.060196340084075872e-01,1.986251592636108232e-01,5.243565807305459181e-01,-1.604159474372863770e-01,-1.274188637733459473e+00,1.289649681344044723e+02,5.708482265472412248e-02
6.015779999999999461e-01,1.736298304536339557e-03,2.708350657500382952e-02,1.002642989158630371e+00,2.540771065210420052e-02,9.874498758338789983e-03,3.945541828965724862e-02,3.992100701383751588e-02,6.757915565011327064e-02,-1.939080804586410522e-01,-1.217809993395442686e-01,1.086064350162054548e-01,-7.541937272561166639e-02,-2.577303051948547363e-01,2.956480281900258911e-01,2.539139330387115701e-01,-1.577303051948547308e-01,1.990650415420532060e-01,1.539139330387115367e-01,5.234320584719011071e-01,-2.412179112434387207e-01,-1.296517729759216309e+00,7.966508617698096373e+01,5.708482265472412248e-02
6.252389999999999892e-01,2.714692539440208968e-03,2.835836922835505147e-02,9.994941353797912598e-01,2.241145635826251661e-02,1.134702015926003504e-02,3.828264791228215558e-02,3.927228850828212714e-02,6.764439842849416518e-02,-2.002226412296295166e-01,-1.779025882788877189e-01,5.511179049602211999e-02,-6.007572119429997054e-02,-2.198680274696025727e-01,2.831178963184356467e-01,2.264156222343444713e-01,-1.389315962791442816e-01,1.831178963184356689e-01,1.264156222343444658e-01,5.250307940001450735e-01,-2.018240690231323242e-01,-1.272686123847961426e+00,9.778158921454949848e+01,5.708482265472412248e-02
6.496070000000000455e-01,4.159009465223173323e-03,3.030983359116229403e-02,9.947215914726257324e-01,1.602637898890257179e-02,1.180090947158918269e-02,3.576921394119011305e-02,3.605175476806339596e-02,7.196095413697867205e-02,-2.144283354282379150e-01,-2.703252490499813421e-01,-1.572132649221974834e-02,-7.186173632322694071e-02,-2.071114293366885795e-01,1.048530638217926025e-01,2.478431874126598711e-01,-1.722531795501708873e-01,4.853063821792602192e-03,1.482937932014465332e-01,5.322034917970130952e-01,1.040335893630981445e-01,-3.129557371139526367e-01,7.490614675013270052e+00,5.708482265472412248e-02
6.754900000000000349e-01,5.113289937473967407e-03,3.164601481835253166e-02,9.913501739501953125e-01,1.091460033398686420e-02,1.061670212902798838e-02,3.399530078393284832e-02,3.571964660192594732e-02,7.154768926947190077e-02,-2.154230028390884399e-01,-3.015582866923928185e-01,-8.876371327969964642e-02,-9.596494884070497222e-02,-1.385350186220256630e-01,-2.321274363495674786e-02,2.382040843651731243e-01,-1.369526267051696666e-01,-1.219246745109558022e-01,1.434728622436523271e-01,5.338895258758069584e-01,1.682969331741333008e-01,-4.456101655960083008e-01,-3.602432330542568195e+01,5.708482265472412248e-02
6.988769999999999705e-01,6.257268770568647810e-03,3.408477895213970349e-02,9.862602353096008301e-01,3.090168199204268006e-03,6.857944445142871714e-03,3.094887967246294155e-02,4.181021695126646565e-02,7.614914912947584602e-02,-2.155310958623886108e-01,-3.024146968359910370e-01,-1.597760406312288828e-01,-1.279464572691921820e-01,3.388325382888773829e-03,-2.928998230547950887e-02,8.660508000678995844e-02,-5.087108016014098982e-02,-1.086297512054443387e-01,1.947283744812011719e-04,5.320338152180246194e-01,3.400981426239013672e-02,-1.271132826805114746e+00,9.438521617805812980e+01,5.708482265472412248e-02
7.247350000000000181e-01,6.959648242058557796e-03,3.819852274396180053e-02,9.794815182685852051e-01,-8.473238413329193044e-03,-1.609287868107323050e-03,2.686203640968241185e-02,3.704142075856015071e-02,7.605776931188487633e-02,-2.174423336982727051e-01,-2.924722720313297497e-01,-2.942345439278959973e-01,-1.088717453458222240e-01,2.360388875007629339e-01,-7.841651923581767492e-02,-1.084778472867824750e-01,1.360388875007629284e-01,-9.809224605560303012e-02,-1.836774587631225530e-01,5.295512037498795177e-01,-1.483160853385925293e-01,-1.259480834007263184e+00,1.179613967777305135e+02,5.708482265472412248e-02
7.521290000000000475e-01,7.533308552222113368e-03,4.161808924940557652e-02,9.738401174545288086e-01,-1.729073752876378670e-02,-9.721666873284018351e-03,2.460058075031037669e-02,4.433934062628115680e-02,9.391771854296857014e-02,-2.267113029956817627e-01,-2.908078886248169903e-01,-3.184281310283789690e-01,-8.806471677543990795e-02,3.061686038970947155e-01,-1.558201866310600092e-01,-1.490325616245029849e-01,2.061686038970947099e-01,-1.292436003684997448e-01,-2.178935050964355413e-01,5.254082146492423666e-01,-4.465473890304565430e-01,-1.199084520339965820e-01,-7.049398627272974238e+01,5.708482265472412248e-02
7.741500000000000048e-01,7.918056089648342274e-03,4.391599555543161670e-02,9.701149463653564453e-01,-2.238878113905744607e-02,-1.497099066902229936e-02,2.292453023258595596e-02,4.233256820012179511e-02,9.373826797578392600e-02,-2.297549843788146973e-01,-2.461195791191498894e-01,-3.109155206907662783e-01,-5.924641659275164257e-02,3.138328552246093528e-01,-2.355026695349725918e-01,-1.585364437325561260e-01,2.138328552246093750e-01,-1.723438382148742565e-01,-2.226063966751098688e-01,5.237091502758146611e-01,-5.784813761711120605e-01,-1.355575680732727051e+00,1.641266317174683707e+02,5.708482265472412248e-02
8.001209999999999711e-01,8.554550861320212377e-03,4.732041899894121745e-02,9.646019339561462402e-01,-2.917498691908619601e-02,-2.126787631198845396e-02,2.017181582239280929e-02,4.036547488465631883e-02,1.052444284343193315e-01,-2.393979281187057495e-01,-2.238761358690138925e-01,-1.915539760031974292e-01,-6.625038224243627594e-02,3.196402311325073353e-01,-2.725339889526366965e-01,-1.693722607760478338e-01,2.196402311325073298e-01,-1.725339889526367188e-01,-2.255409836769103893e-01,5.247763535298987092e-01,-5.946161150932312012e-01,-1.249785780906677246e+00,1.058465194921496533e+02,5.708482265472412248e-02
8.270020000000000149e-01,9.368651854595323736e-03,5.077078830862391534e-02,9.590914249420166016e-01,-3.488422927373487775e-02,-2.429112584797721297e-02,1.824649251608802952e-02,4.626129949736394048e-02,1.157699312584968832e-01,-2.342969179153442383e-01,-1.749578682349349212e-01,-7.353003152820411503e-02,-6.631752979225673250e-02,3.236620068550110085e-01,-2.111005306243896595e-01,-1.758168749465834346e-01,2.236620068550109752e-01,-1.111005306243896401e-01,-2.264390945434570090e-01,5.281516569493129865e-01,-4.266556501388549805e-01,-1.546687364578247070e+00,1.015749806569262006e+02,5.708482265472412248e-02
8.484960000000000280e-01,9.901604062949589599e-03,5.326787978682610142e-02,9.552977681159973145e-01,-3.701549723540745185e-02,-2.522588111557788615e-02,1.793883177277592195e-02,2.844150414433163285e-02,1.271265349293186075e-01,-2.252171188592910767e-01,-3.074076020501637779e-02,-4.482116028073578062e-02,-2.945651994512856614e-02,3.238237619400024525e-01,-3.116848707199096902e-01,-1.766236305098413950e-01,2.238237619400024470e-01,-2.116848707199096569e-01,-2.262873172760009599e-01,5.241060960422021520e-01,-6.398024559020996094e-01,-1.150785088539123535e+00,9.461152083582817340e+01,5.708482265472412248e-02
8.745230000000000503e-01,1.057092388538777121e-02,5.708172754499861445e-02,9.500380754470825195e-01,-3.706642884780436686e-02,-2.503544968442605878e-02,1.925141855844303418e-02,3.265844580074441644e-02,1.378440383428379268e-01,-2.289325445890426636e-01,5.780709816874209789e-02,3.273844111775487536e-02,7.665824600294503244e-02,2.607197880744934193e-01,2.518084049224852961e-02,5.586572639218415764e-02,1.607197880744934138e-01,1.251808404922485352e-01,2.459907531738281337e-03,5.411905244322250397e-01,2.492763996124267578e-01,-1.117992281913757324e+00,1.933893068012023662e+02,5.708482265472412248e-02
9.011949999999999683e-01,1.144328714932311454e-02,6.095096961265316499e-02,9.445853829383850098e-01,-3.255784232988769011e-02,-2.285387964153784424e-02,2.128922091002348124e-02,2.097694952920008821e-02,1.355584105407643680e-01,-2.174564301967620850e-01,1.817900866613430533e-01,1.395258549865643349e-01,8.318893841404879919e-02,2.602495431900024303e-01,2.305495738983152909e-02,7.972484984726409263e-02,1.602495431900024248e-01,1.230549573898315346e-01,2.046875953674316337e-02,5.372834563284368814e-01,4.271018505096435547e-02,-3.428603410720825195e-01,-7.769946701687801749e+01,5.708482265472412248e-02
9.233609999999999873e-01,1.230119599059011429e-02,6.290779343353711250e-02,9.417121410369873047e-01,-2.755965802968697934e-02,-2.016650094097327539e-02,2.296265700797563147e-02,2.765847293689198058e-02,1.445980231037667652e-01,-2.103328406810760498e-01,3.015533129588459649e-01,1.723832092163751495e-01,6.638625995104908972e-02,1.975264430046081432e-01,5.694162845611569490e-03,8.888822812486810165e-02,9.752644300460815152e-02,1.056941628456115750e-01,2.473726272583007604e-02,5.374387559946306459e-01,5.404460430145263672e-02,-2.906135320663452148e-01,-4.454645961587731051e+01,5.708482265472412248e-02
9.495350000000000179e-01,1.407263522951577965e-02,6.766230171241642555e-02,9.351838231086730957e-01,-1.632429565069773783e-02,-1.184447243840391906e-02,2.736432675069184334e-02,2.896364487510326088e-02,1.605784041439302645e-01,-2.176239341497421265e-01,2.998784645145293193e-01,2.589237695179089083e-01,1.519029994243145110e-01,1.986800074577331765e-01,6.747199896571509647e-02,1.356920399569332969e-01,9.868000745773315707e-02,1.120507657527923528e-01,5.900377035140991211e-02,5.388339069104568502e-01,6.170928478240966797e-02,-1.706083953380584717e+00,1.464060610857071083e+02,5.708482265472412248e-02
9.764289999999999914e-01,1.528808135609198253e-02,7.136350901275868852e-02,9.306041002273559570e-01,-6.916708375414599291e-03,-4.717333408531310113e-03,3.066510884377166707e-02,2.870699399553967163e-02,1.578367975105577636e-01,-2.221422642469406128e-01,3.132422798339822290e-01,2.948394472034411851e-01,1.060817912794030232e-01,1.722319245338440052e-01,1.087776547224997697e-01,1.647053225918809205e-01,7.223192453384398581e-02,1.059512078762054471e-01,7.884571552276610495e-02,5.396744580655404855e-01,5.794107913970947266e-02,-1.019185662269592285e+00,9.333282063074257451e+01,5.708482265472412248e-02
9.994729999999999448e-01,1.612477524450119451e-02,7.396606299369129500e-02,9.273936152458190918e-01,-1.218113703731338988e-04,-1.471365472891505988e-04,3.219846911863270822e-02,3.146654249883414078e-02,1.635015301726567838e-01,-2.158141881227493286e-01,3.640312159934206981e-01,2.297042593716983050e-01,3.601726862195450685e-02,1.129209518432617299e-01,1.380043835337922409e-01,1.604039336247904957e-01,1.292095184326171910e-02,1.020998954772949219e-01,7.042125463485716941e-02,5.393605053571581820e-01,3.788673877716064453e-02,-3.461822271347045898e-01,-3.164064983950355270e+01,5.708482265472412248e-02
1.025176000000000087e+00,1.666228043982019569e-02,7.660129228295667336e-02,9.242314696311950684e-01,6.228917995855390820e-03,3.369593609035659298e-03,3.325355638545356152e-02,2.681259359949761042e-02,1.683050438733933729e-01,-2.107951343059539795e-01,3.582783752789945875e-01,1.705453508800606199e-01,6.629828383288799420e-02,1.152270078659057700e-01,1.406113338116482814e-01,1.463556832876022618e-01,1.522700786590576102e-02,8.469657897949219028e-02,5.360310673713684221e-02,5.399218752178766012e-01,6.174385547637939453e-02,-1.031325221061706543e+00,8.563757434196936913e+01,5.708482265472412248e-02
1.051557000000000075e+00,1.741858144157472713e-02,8.054715616827921865e-02,9.197757244110107422e-01,1.458657428980686399e-02,5.881218485928041417e-03,3.402700853138700826e-02,2.793209369121209956e-02,1.632034617718046421e-01,-2.129309028387069702e-01,2.430252598056822089e-01,6.045220112014806912e-02,4.847950812411678384e-02,8.504014028888934318e-02,1.555156827685397203e-01,1.418632653358032347e-01,1.998528242111205847e-02,8.083595037460326871e-02,4.719670414924621166e-02,5.421443637857351616e-01,1.447954177856445312e-01,-1.109475731849670410e+00,1.071697866815695761e+02,5.708482265472412248e-02
1.074753999999999987e+00,1.814752135197438693e-02,8.462550393166086427e-02,9.150915145874023438e-01,2.191979871865199977e-02,6.185540210085438417e-03,3.436106099219740639e-02,3.434461053209798831e-02,1.648035431016031671e-01,-2.152257412672042847e-01,2.463931229624756192e-01,-2.251274790680045032e-02,1.935931010539292097e-04,7.063437580602052734e-02,1.642113397580524659e-01,1.852187144414317310e-01,4.867215156555175504e-02,8.190057277679442527e-02,8.981884717941283902e-02,5.442711090766201298e-01,2.204883098602294922e-01,-9.759219884872436523e-01,9.801740149564419369e+01,5.708482265472412248e-02
1.103715000000000002e+00,1.890510728154305362e-02,8.859822168942853293e-02,9.105955958366394043e-01,2.846810681218731390e-02,5.150704953196250102e-03,3.425688938390691191e-02,2.480013669142498711e-02,1.632233981510784471e-01,-2.112883925437927246e-01,2.875982722788583690e-01,-4.120398616628815486e-02,-1.644987325241437093e-02,3.343136622431969185e-02,1.322987521758999807e-01,2.196556190652651508e-01,5.229338407516479631e-02,6.376810669898987094e-02,1.245033502578735268e-01,5.441278504665589821e-01,1.952247619628906250e-01,-7.235838174819946289e-01,8.187151731665105103e+01,5.708482265472412248e-02
1.128548000000000107e+00,1.936157458612607074e-02,9.380229488246535907e-02,9.063115715980529785e-01,3.437382176079271240e-02,3.465629180247065122e-03,3.354520470730098375e-02,3.409506402061745350e-02,1.655463025608711614e-01,-2.044872343540191650e-01,2.145902148186540348e-01,-9.754434841357655095e-02,-1.216862509431152969e-02,1.768444677119630076e-02,6.650641589724250180e-02,2.307534505085682974e-01,6.948022842407226840e-02,9.709596633911133151e-06,1.376633763313293290e-01,5.437579936871204112e-01,1.690163612365722656e-01,-1.089075922966003418e+00,1.035904806885377525e+02,5.708482265472412248e-02
1.154374000000000011e+00,1.989346821264850740e-02,9.906780895501435258e-02,9.019205570220947266e-01,3.919222107621272988e-02,8.788866503433023780e-04,3.279182490205346384e-02,3.115420043506205924e-02,1.592841682196612652e-01,-2.009134143590927124e-01,1.727080336142813588e-01,-9.898714890177624792e-02,1.389126523038255664e-02,-1.619621494218051461e-01,-2.793602197576208757e-02,2.488533297433892788e-01,-7.759587764739990512e-02,-7.468303442001342218e-02,1.576591372489929144e-01,5.423684050018726666e-01,7.343208789825439453e-02,-1.045295357704162598e+00,5.835331819284290589e+01,5.708482265472412248e-02
1.178550999999999904e+00,2.022318960947255828e-02,1.024398907371411593e-01,8.992112874984741211e-01,4.172989269634197473e-02,-1.629909747292268563e-03,3.221472790365424721e-02,2.957905824867502337e-02,1.574051062173502380e-01,-2.006121724843978882e-01,1.586210771530263686e-01,-1.538977566441710187e-01,-2.488955102230999347e-02,-1.175556137883756180e-01,-9.476788783281712980e-02,2.642071722457876026e-01,-1.864101290702819755e-02,-1.248135924339294350e-01,1.744105339050292802e-01,5.430125818311900554e-01,8.461785316467285156e-02,-7.041348218917846680e-01,8.517186472360121741e+01,5.708482265472412248e-02
1.201548000000000060e+00,2.075457523373878260e-02,1.071702497839173290e-01,8.955217003822326660e-01,4.544359486011872312e-02,-5.813282337421066259e-03,3.087814811877456073e-02,2.560338080014547615e-02,1.477461553887679802e-01,-1.910943835973739624e-01,1.534844076790146394e-01,-1.496746968240048048e-01,-9.164929137487591582e-02,-2.111599147319793701e-01,-1.390853757308597449e-01,2.751197689799893542e-01,-1.111599147319793646e-01,-1.395199656486511286e-01,1.886312484741210771e-01,5.438624120813841945e-01,1.406027078628540039e-01,-1.067812323570251465e+00,1.011284160588016050e+02,5.708482265472412248e-02
1.223483000000000098e+00,2.129505856572109362e-02,1.125440822690808029e-01,8.919469118118286133e-01,4.843194146560961949e-02,-1.041310918129068064e-02,2.911370170798927362e-02,3.377685001489248717e-02,1.463463550771467447e-01,-1.880977004766464233e-01,1.120669159600561904e-01,-1.777532907325986566e-01,-7.388390601534740310e-02,-2.662448346614837424e-01,-1.907115500597939828e-01,2.774311137254542592e-01,-1.662448346614837646e-01,-1.681691408157348633e-01,1.955121159553527832e-01,5.406675108871377144e-01,-5.501258373260498047e-02,-1.014728903770446777e+00,9.961934723338981712e+01,5.708482265472412248e-02
1.249141999999999975e+00,2.188966219582044737e-02,1.180429401760284963e-01,8.886635899543762207e-01,5.059721285153628845e-02,-1.443326613280282444e-02,2.682809007495023587e-02,2.859156054638112288e-02,1.384530840069618240e-01,-1.818145662546157837e-01,7.043237191554943544e-02,-1.474415744509894322e-01,-5.717235764585796437e-02,-2.882879614830017312e-01,-2.297009110252589692e-01,2.755149292421199547e-01,-1.882879614830016979e-01,-1.761894106864929088e-01,1.994753122329711859e-01,5.380478459270531255e-01,-2.030236721038818359e-01,-1.018798232078552246e+00,8.097953559218240116e+01,5.708482265472412248e-02
1.274323000000000095e+00,2.249875009869734335e-02,1.232477743380848145e-01,8.855464458465576172e-01,5.152414485834001107e-02,-1.733435474264899412e-02,2.413200876596619665e-02,3.219923450901888973e-02,1.347015041270686053e-01,-1.810698211193084717e-01,-1.402208674855852551e-02,-6.460367358117119485e-02,-9.963753621163386198e-02,-2.179946660995483454e-01,-2.197238428946203803e-01,2.243792775795651062e-01,-1.179946660995483398e-01,-1.507254123687744030e-01,1.556167602539062500e-01,5.427298655203964817e-01,3.287565708160400391e-02,-1.101448178291320801e+00,9.977278060290498729e+01,5.708482265472412248e-02
1.300489000000000006e+00,2.321040877479313425e-02,1.284196025177815892e-01,8.825093507766723633e-01,5.053560357910951567e-02,-1.880226518727434737e-02,2.111672659506690086e-02,2.900248553909502702e-02,1.213875137592729803e-01,-1.638655662536621094e-01,-8.080437509251071904e-02,-5.086741859526999580e-03,-1.433571837818541084e-01,-2.873319149017333762e-01,-1.906678495277093766e-01,1.907888818569405676e-01,-1.873319149017333984e-01,-1.092011690139770425e-01,1.302954196929931585e-01,5.409512810672439942e-01,-2.385276556015014648e-02,-9.843927621841430664e-01,9.783668152039483346e+01,5.708482265472412248e-02
1.328816999999999915e+00,2.386367452406283965e-02,1.338420248884631680e-01,8.798912763595581055e-01,4.793773101092772132e-02,-1.777999975284605405e-02,1.768665611285118525e-02,2.808454682293016688e-02,1.239339908004222779e-01,-1.689558178186416626e-01,-1.214434166814420263e-01,6.620448078811932979e-02,-1.477451660664464983e-01,-3.019680500030517689e-01,-1.225831674116979880e-01,1.762823487863635352e-01,-2.019680500030517634e-01,-4.731262922286987027e-02,1.255218744277954157e-01,5.424834054801531691e-01,1.598989963531494141e-02,-1.039613842964172363e+00,1.085620524419849744e+02,5.708482265472412248e-02
1.349982000000000015e+00,2.433866057112872572e-02,1.373700443276786032e-01,8.780318498611450195e-01,4.516071432263821239e-02,-1.583228879322629012e-02,1.523229492649613888e-02,2.878786081482721804e-02,1.192752121533105225e-01,-1.622084230184555054e-01,-1.790767370128025227e-01,1.213736489601851404e-01,-1.444795392645730758e-01,-2.869520604610443226e-01,-1.021843671475961002e-01,1.822413489856216928e-01,-1.869520604610443171e-01,-4.009287357330321849e-02,1.386083185672759843e-01,5.431047021126735874e-01,5.579972267150878906e-02,-1.424366831779479980e+00,2.662803547933372528e+01,5.708482265472412248e-02
1.377361999999999975e+00,2.502922047948756210e-02,1.424330370590003170e-01,8.754482865333557129e-01,3.910759757704384415e-02,-1.175525606279403945e-02,1.159955526175168034e-02,3.266413625239198565e-02,1.211017991036321545e-01,-1.562374681234359741e-01,-2.613007019735027470e-01,1.670962924687266760e-01,-1.158822114542312348e-01,-2.271603027133410613e-01,-3.833580470480764391e-02,1.423605522448490035e-01,-1.536778986454009899e-01,-5.307769775390624480e-03,1.093916952610015786e-01,5.433770069891320498e-01,6.981265544891357422e-02,-1.187651753425598145e+00,9.428486703877230468e+01,5.708482265472412248e-02
1.399828999999999990e+00,2.547338935275018923e-02,1.457683482445495948e-01,8.737124204635620117e-01,3.442978005923406915e-02,-8.633656221071372983e-03,9.133729706250003078e-03,3.825033789916459925e-02,1.153025889432048590e-01,-1.635853052139282227e-01,-2.865914500064868919e-01,1.592268387101760385e-01,-8.662618712777979402e-02,-1.682848922339522379e-01,1.224175486968722901e-02,1.203750573032763560e-01,-1.231128931045532143e-01,2.160206437110900879e-02,9.466570615768432617e-02,5.437191455758937364e-01,3.863000869750976562e-02,-9.611223936080932617e-01,8.736797544743541266e+01,5.708482265472412248e-02
1.427046999999999954e+00,2.660627114903438284e-02,1.522670988817811655e-01,8.706632852554321289e-01,2.508798129051208886e-02,-1.362323504456197654e-03,4.517357390310889134e-03,3.192867599528980554e-02,1.098187653657555357e-01,-1.435399353504180908e-01,-2.641106788981898434e-01,2.286818710155780754e-01,-1.032262187012046445e-01,-2.861799375681496616e-02,1.917534309902931833e-01,6.140640836549052933e-02,-4.626613855361938477e-02,1.592439830303191972e-01,4.912381768226623674e-02,5.406815784896047417e-01,-7.721889019012451172e-02,-4.966403245925903320e-01,1.274484202518515019e+02,5.708482265472412248e-02
1.448898000000000019e+00,2.732359867105716225e-02,1.556006093554196945e-01,8.693028092384338379e-01,2.042809571517705328e-02,2.580287739235354039e-03,2.383471838366170176e-03,3.887533469498796052e-02,1.129172957266091071e-01,-1.418796330690383911e-01,-2.627612854878545456e-01,2.256611521784899210e-01,-1.391069953126645442e-01,1.134329873750924145e-01,2.526346683078135591e-01,6.231508635706295082e-03,5.972667932510375421e-02,1.883095622062682939e-01,2.362668514251708768e-04,5.404020044344264306e-01,-1.058229207992553711e-01,-7.781103849411010742e-01,8.721556660629575219e+01,5.708482265472412248e-02
1.474885000000000002e+00,2.843968247513291303e-02,1.605916070031309650e-01,8.670676350593566895e-01,1.298306612628739865e-02,7.875608128065980651e-03,-6.908523364159578541e-04,3.588751117009440772e-02,1.170363677212024472e-01,-1.370128542184829712e-01,-2.374188204876727382e-01,1.361808734165093349e-01,-1.074739488686992650e-01,2.999622583389282005e-01,2.977072913568094004e-01,-1.357389908174684579e-01,1.999622583389282227e-01,2.018030941486358698e-01,-1.329224824905395341e-01,5.377138884677542530e-01,-2.585722208023071289e-01,-7.982476949691772461e-01,2.060707687690032941e+01,5.708482265472412248e-02
1.499115999999999893e+00,2.912675331073244500e-02,1.636779054138860212e-01,8.661076426506042480e-01,7.525352835482467841e-03,1.061033514433962210e-02,-2.586172243859216971e-03,3.523982610294992823e-02,1.200968769383937984e-01,-1.331047564744949341e-01,-2.816361566481397349e-01,1.244616596676299258e-01,-7.308520848157894212e-02,3.104317426681518777e-01,3.113598048686981312e-01,-2.057520547889019891e-01,2.104317426681518444e-01,2.113598048686981257e-01,-1.975791692733764593e-01,5.363566399572859966e-01,-3.357613086700439453e-01,-1.003674626350402832e+00,9.867727973173747102e+01,5.708482265472412248e-02
1.526690000000000103e+00,3.023010010362119776e-02,1.698338540212792624e-01,8.639337420463562012e-01,-2.343416898172046361e-03,1.350184241212648573e-02,-6.249776828840762806e-03,3.928739126317642300e-02,1.239282097020178164e-01,-1.102464571595191956e-01,-2.419249154712900807e-01,8.046293548819423436e-02,-1.143752328317025890e-01,3.197124719619751088e-01,3.178305268287658913e-01,-2.309822100210685292e-01,2.197124719619751032e-01,2.178305268287658580e-01,-2.126219987869262529e-01,5.337462315619253550e-01,-4.111168980598449707e-01,-8.492380380630493164e-01,7.939275287439421902e+01,5.708482265472412248e-02
1.549139999999999961e+00,3.062227267726024341e-02,1.727050711765579782e-01,8.630589246749877930e-01,-6.184585229839364810e-03,1.350370251087573692e-02,-7.878249665555043732e-03,3.889049394344464700e-02,1.272586708917673171e-01,-1.039394065737724304e-01,-1.492415260236724384e-01,-1.323452157941004508e-02,-9.390956111851517241e-02,3.205827593803405873e-01,3.063399434089660867e-01,-2.364566880539493432e-01,2.205827593803405817e-01,2.063399434089660534e-01,-2.136310100555419977e-01,5.351466959836771453e-01,-3.249512910842895508e-01,-1.054346919059753418e+00,1.089357457518547108e+02,5.708482265472412248e-02
1.572459000000000051e+00,3.102543772816753614e-02,1.756188372239529394e-01,8.623322844505310059e-01,-9.096470288757759620e-03,1.238664767629527041e-02,-8.911765617609052753e-03,2.798502963300617333e-02,1.303221982450137040e-01,-9.529305249452590942e-02,-1.162126229161916519e-01,-9.138629171372610049e-02,-4.763134812796139539e-02,3.148344278335571400e-01,1.529944777488708441e-01,-2.436585110125421838e-01,2.148344278335571345e-01,5.299447774887084545e-02,-2.180795788764953447e-01,5.335667801236942953e-01,-3.926637172698974609e-01,-4.474276304244995117e-01,1.099059331423200092e+02,-8.852934837341308941e-03
1.599412000000000056e+00,3.175721523995823914e-02,1.812000719851050989e-01,8.615465164184570312e-01,-9.833157916537188514e-03,5.208370406202034175e-03,-9.511515079891589772e-03,3.063004314273269982e-02,1.324121012311285928e-01,-6.520034372806549072e-02,6.967286791033452942e-02,-2.784606522365359882e-01,-2.761204315904057429e-03,2.766979932785034180e-01,-8.504075829777707485e-02,-2.208407930547426345e-01,1.766979932785034124e-01,-1.632591962814330944e-01,-1.937956094741821178e-01,5.323448744342655914e-01,-3.549518585205078125e-01,-1.005365729331970215e+00,1.015091922748406432e+02,-8.852934837341308941e-03
1.622646000000000033e+00,3.207383159144797796e-02,1.840702005861961366e-01,8.613432049751281738e-01,-7.666962648001551979e-03,-1.711958979266903214e-04,-8.649574086246348756e-03,2.076303773154208193e-02,1.284572283255471792e-01,-4.946066439151763916e-02,2.167530971157145547e-01,-3.099043827493465630e-01,6.914722959301097815e-02,2.854428529739380105e-01,-6.701192550926302061e-02,-2.046127224440898451e-01,1.854428529739379772e-01,-1.031280398368835394e-01,-1.801832914352416992e-01,5.340378317548479803e-01,-2.096964716911315918e-01,-1.024575591087341309e+00,9.969935606932735084e+01,-8.852934837341308941e-03
1.648632000000000097e+00,3.208456775728352889e-02,1.879414937845949041e-01,8.614780902862548828e-01,-1.596512033856400774e-03,-9.626712332162501440e-03,-6.483822064786031771e-03,2.245793254255604859e-02,1.334537336238508509e-01,-4.546086490154266357e-02,2.276888945126832597e-01,-3.647043233241452076e-01,1.241955082361497070e-01,2.772600769996643177e-01,-1.450875760157546990e-01,-2.042169636162713964e-01,1.772600769996643122e-01,-1.228350162506103432e-01,-1.862180829048156738e-01,5.327220995350897548e-01,-2.757854461669921875e-01,-8.276609182357788086e-01,1.489096669259753014e+02,-8.852934837341308941e-03
1.677388000000000101e+00,3.207278849793152725e-02,1.917966171179796564e-01,8.618421554565429688e-01,6.831738062665192873e-03,-1.896793724965983863e-02,-3.937965149425174359e-03,2.558386368702203137e-02,1.302476346236642879e-01,-2.606850117444992065e-02,3.195261259423674560e-01,-3.339499489364360918e-01,8.336046299828164807e-02,2.949286460876464622e-01,-2.340164742029160472e-01,-1.487083875067209404e-01,1.949286460876464844e-01,-1.539252519607543779e-01,-1.384063839912414440e-01,5.330218074182421217e-01,-1.895918846130371094e-01,-6.558188199996948242e-01,7.665232388503419259e+01,-5.570244789123534983e-03
1.701117999999999908e+00,3.204774934764152011e-02,1.944087170853422974e-01,8.621932268142700195e-01,1.281183762999111089e-02,-2.492152215200760246e-02,-1.833608781720491099e-03,2.216452976380461209e-02,1.334107868477366343e-01,-2.900404110550880432e-02,3.438515399828307451e-01,-3.542179446338043491e-01,1.505156540416615341e-01,2.907015562057495006e-01,-2.772747397422790638e-01,-1.551441338147523108e-01,1.907015562057494951e-01,-1.772747397422790583e-01,-1.512872099876403642e-01,5.301953584763403615e-01,-3.637630939483642578e-01,-1.431540608406066895e+00,-4.040921766766195411e+00,-5.570244789123534983e-03
1.726020000000000110e+00,3.191365374930538873e-02,1.984518864154594386e-01,8.626275658607482910e-01,2.156049088585569248e-02,-3.223121669546213930e-02,1.423330463019842080e-03,1.626959303500680534e-02,1.335955677202097236e-01,-2.986400388181209564e-02,3.187432246878323383e-01,-1.982308284843596058e-01,1.084480422012365219e-01,2.632767142683221651e-01,-2.900164484977721946e-01,-4.864208123763475583e-02,1.655554533004760798e-01,-1.900164484977722168e-01,-5.478386878967284740e-02,5.302778482233918567e-01,-3.695490956306457520e-01,-9.770544767379760742e-01,8.270473209350090826e+01,-5.570244789123534983e-03
1.747919000000000000e+00,3.311028352735007063e-02,2.025493346134957795e-01,8.632135391235351562e-01,3.021362637366147366e-02,-3.611869345506457663e-02,4.719046721650199845e-03,7.583063321435955456e-04,1.308751267477418490e-01,-1.841182447969913483e-02,3.375942322911170135e-01,-7.028186317119163029e-02,1.136505018348706458e-01,1.537861083733845780e-01,-2.640077471733093262e-01,1.021105454586184250e-02,1.105870485305786161e-01,-1.640077471733093206e-01,-5.992162227630615408e-03,5.370947464706100627e-01,4.547441005706787109e-02,-1.674803733825683594e+00,1.377667597102330888e+02,-5.570244789123534983e-03
1.773908000000000040e+00,3.422174430353518149e-02,2.064898638521622531e-01,8.639158010482788086e-01,3.855611511229587590e-02,-3.669357562681674345e-02,8.042425120749173428e-03,1.627588880070548680e-02,1.241410351640786919e-01,-2.227408625185489655e-02,2.753711320118920614e-01,5.761318447380615274e-04,1.771940370205787596e-01,-2.751568260991525683e-02,-2.449011564254760798e-01,9.637156410091643477e-02,-1.460945606231689453e-02,-1.449011564254760742e-01,7.068707942962645929e-02,5.387366869241234646e-01,1.159486770629882812e-01,-4.618796110153198242e-01,-8.390583451942599424e+01,-5.570244789123534983e-03
1.801223000000000019e+00,3.529700434500227663e-02,2.102192109699470846e-01,8.645275235176086426e-01,4.663994283143071268e-02,-3.395556650377296037e-02,1.129214551151027160e-02,1.784448907825935890e-02,1.161310903018904495e-01,-2.263100631535053253e-02,2.668468588236840855e-01,1.493535773197433025e-01,1.226517493714934515e-01,-6.998380511518394187e-02,-1.386625051498412975e-01,9.073481577989855884e-02,-2.383053302764892578e-03,-3.866250514984130582e-02,5.594900250434875488e-02,5.394278367527637341e-01,1.476006507873535156e-01,-1.036617398262023926e+00,1.165749639988663091e+02,-5.570244789123534983e-03
1.822602000000000055e+00,3.592921772396062696e-02,2.126255089109264085e-01,8.649094104766845703e-01,5.222820096320846678e-02,-3.121286367919018367e-02,1.323568551548459822e-02,1.040614569642541939e-02,1.094287542496883425e-01,-1.497189514338970184e-02,3.290097549139009425e-01,1.581402031953705323e-01,1.023950524102225229e-01,-1.583825707435607966e-01,-1.779208898544311634e-01,1.525559405127920876e-01,-5.838257074356079102e-02,-7.792088985443114402e-02,1.123683929443359403e-01,5.373635401503071840e-01,5.766832828521728516e-02,-1.112483382225036621e+00,1.012937134669050749e+02,-5.570244789123534983e-03
1.849401000000000073e+00,3.760566404186006795e-02,2.178070274425188413e-01,8.654624819755554199e-01,6.295062294103025147e-02,-2.306251046268448235e-02,1.729709359077277395e-02,7.817923293110271357e-03,1.027534036261868178e-01,-2.458919957280158997e-02,2.931711057346044202e-01,2.584324383627270572e-01,9.885990979174956450e-02,-2.205494701862335261e-01,-1.575799107551574818e-01,2.091601351915942097e-01,-1.205494701862335205e-01,-5.757991075515746932e-02,1.583738207817077526e-01,5.350142499030851040e-01,-1.158659458160400391e-01,-9.177187681198120117e-01,1.314630278610665925e+02,-5.570244789123534983e-03
1.877229999999999954e+00,3.891116316263764502e-02,2.213245138920302557e-01,8.656914830207824707e-01,7.074548610163203244e-02,-1.509534680365165471e-02,1.898359019534911693e-02,5.978913698686239703e-03,8.924680800191200913e-02,-2.717752009630203247e-02,2.601993753138698295e-01,3.081668647947338191e-01,5.973065367259772218e-02,-2.661468982696533203e-01,-6.566344302349473583e-02,2.407383959687583175e-01,-1.661468982696533148e-01,-9.205949306488036069e-03,1.862534344196319636e-01,5.311658711131646005e-01,-3.442752361297607422e-01,-1.170550942420959473e+00,9.077326188079365465e+01,-5.570244789123534983e-03
1.897734000000000032e+00,3.976560652281528607e-02,2.235171436400939793e-01,8.657431006431579590e-01,7.466535512223099191e-02,-9.364073816604534528e-03,1.940512067913304980e-02,3.992766316259454412e-03,7.775982915035155318e-02,-2.419458515942096710e-02,1.650024773501514441e-01,3.420249677309925018e-01,-7.729280231152730468e-03,-2.946717977523803933e-01,-7.771183687908638990e-03,2.524946653787403239e-01,-1.946717977523803600e-01,1.189733147621154820e-02,1.976526975631713867e-01,5.310057504497260883e-01,-3.485287427902221680e-01,-2.458306550979614258e-01,-2.012896363499943675e+01,-5.570244789123534983e-03
1.923362000000000016e+00,4.101861108069780604e-02,2.265809597587836177e-01,8.655876517295837402e-01,7.748937372163239301e-02,-1.193190096865803795e-03,1.973070004070431524e-02,1.130511224535871682e-02,7.255756863849602278e-02,-2.959242276847362518e-02,2.013207362098812236e-02,2.854298446098227915e-01,-3.444177978092974757e-03,-3.006376743316650502e-01,1.597847813930023397e-01,2.560604476770691473e-01,-2.006376743316650446e-01,1.196440994739532415e-01,2.017347157001495306e-01,5.330307289122561132e-01,-2.676045894622802734e-01,-1.316062331199645996e+00,9.860943546271172977e+01,-5.570244789123534983e-03
1.950531999999999933e+00,4.235244429610611483e-02,2.303701667409507048e-01,8.653934597969055176e-01,7.703687393201942568e-02,5.592413180576460974e-03,1.955019039783044074e-02,7.480751856343768359e-03,6.374884245624425072e-02,-2.558733709156513214e-02,-6.057342774128726681e-02,2.121577233295238452e-01,8.783419792750067623e-03,-2.796038806438446156e-01,2.740460813267655560e-01,2.486541397059846004e-01,-1.796038806438446100e-01,1.928443729877471757e-01,1.958102881908416748e-01,5.316351283117938253e-01,-3.369151353836059570e-01,-1.116567969322204590e+00,1.301632838431481787e+02,-5.570244789123534983e-03
1.975044000000000022e+00,4.320601161121989664e-02,2.326937020372631948e-01,8.652327060699462891e-01,7.496983431261000641e-02,9.561253037140060584e-03,1.866593971401992597e-02,1.535265973548076771e-02,5.569770378512114983e-02,-2.527212351560592651e-02,-1.596815475608028834e-01,1.935463762144971900e-01,-2.310822290540412438e-02,-2.763158500194549672e-01,2.895397126674651989e-01,2.439660452500530818e-01,-1.763158500194549616e-01,1.895397126674651933e-01,1.943193733692169245e-01,5.309465078011094130e-01,-3.819652795791625977e-01,-7.461613416671752930e-01,9.326369228615287454e+01,-5.570244789123534983e-03
2.001434999999999853e+00,4.456770031715807240e-02,2.358542202910475505e-01,8.648203611373901367e-01,7.044203202125490226e-02,1.504111981783706753e-02,1.667874963023138063e-02,2.260705491868005013e-02,4.648279642242586496e-02,-2.789767645299434662e-02,-2.327887685575996124e-01,1.829997379494840426e-01,-6.912500804826321454e-02,-2.851715564727783092e-01,2.947633147239684948e-01,2.379496890123541097e-01,-1.851715564727783037e-01,1.947633147239684892e-01,1.946481585502624345e-01,5.298792338018650794e-01,-4.604009389877319336e-01,-8.644562959671020508e-01,4.786100698611193138e+01,-5.570244789123534983e-03
2.022416000000000214e+00,4.553814602225741276e-02,2.377572110155577734e-01,8.644840717315673828e-01,6.601042894267306060e-02,1.811937996275037044e-02,1.494358310104821307e-02,2.741790009368598804e-02,4.226158753334018775e-02,-3.057702630758285522e-02,-2.614041000817258764e-01,1.464300242299556576e-01,-8.144298149656911678e-02,-2.879000961780547874e-01,2.972199857234955056e-01,2.261284053632189317e-01,-1.879000961780548096e-01,1.972199857234954723e-01,1.880297362804412842e-01,5.310056853074788252e-01,-4.189829826354980469e-01,-6.263364553451538086e-01,5.942702393036891095e+01,-5.570244789123534983e-03
2.048465000000000202e+00,4.709997685858044458e-02,2.416842337979475119e-01,8.636453747749328613e-01,5.496205809121579994e-02,2.108363898131071501e-02,1.072127820124702154e-02,2.250589952455067655e-02,2.916229331439550848e-02,-3.099707886576652527e-02,-3.343208264727149381e-01,1.515165238692198733e-02,-1.024420567397350407e-01,-2.987896859645843284e-01,2.248453497886657715e-01,2.205163994459580501e-01,-1.987896859645843506e-01,1.248453497886657659e-01,1.940720200538635087e-01,5.333504116953459162e-01,-3.028670549392700195e-01,-1.237582564353942871e+00,7.645142070078743757e+01,-5.570244789123534983e-03
2.075755000000000017e+00,4.797352671005651603e-02,2.446868090599995937e-01,8.627857565879821777e-01,4.568079213997496002e-02,1.926070177397809502e-02,7.037973823002601284e-03,2.985489101920178745e-02,3.131709804205126679e-02,-2.775457128882408142e-02,-3.364223991135115166e-01,-1.331037506286010252e-01,-1.347595035745472458e-01,-2.942863707101393556e-01,5.758780241012573936e-02,2.102185057994262196e-01,-2.125561237335205078e-01,-4.241219758987426619e-02,1.936503589153289739e-01,5.351100436554294681e-01,-2.055101990699768066e-01,-8.918215036392211914e-01,9.205710521832426707e+01,-5.570244789123534983e-03
2.097874000000000017e+00,4.857687319572992490e-02,2.464729498476873892e-01,8.622213006019592285e-01,3.951721643208004620e-02,1.621711584736629241e-02,4.386165666707364692e-03,3.231852899820616964e-02,2.383873215381488581e-02,-2.796264737844467163e-02,-3.369212396533499132e-01,-2.022756843559971873e-01,-9.218070321358222408e-02,-2.584841014958016991e-01,1.901667118072510043e-02,1.952043458841450918e-01,-2.127470254898071178e-01,-8.098332881927490512e-02,1.854999840259551891e-01,5.323226228800044257e-01,-3.699536323547363281e-01,-7.944589853286743164e-01,-6.137732980635269087e+01,-5.570244789123534983e-03
2.124668999999999919e+00,4.952838739459156092e-02,2.489667824430757126e-01,8.614039421081542969e-01,3.068652058068895364e-02,9.792423901624269789e-03,6.874969298240511748e-05,2.801211791345172356e-02,2.081161386364703200e-02,-3.063209354877471924e-02,-3.442586815328101957e-01,-2.620869822547107764e-01,-1.216810448992469568e-01,-1.833807113834214630e-01,-2.301855087280271772e-02,1.176320456227972905e-01,-1.959559500217437633e-01,-1.230185508728027233e-01,1.190906524658203042e-01,5.319499828447151746e-01,-4.126729965209960938e-01,-1.077985405921936035e+00,6.700482511636374738e+01,-5.570244789123534983e-03
2.151035999999999948e+00,5.038160561245954433e-02,2.510314692362066169e-01,8.605130314826965332e-01,2.154915164163197921e-02,2.169532968145482243e-03,-4.120535203912933236e-03,3.258591866891139693e-02,1.953251456559424587e-02,-2.544314973056316376e-02,-3.440987892117118863e-01,-2.591456997947692575e-01,-1.703819175021430987e-01,9.950942295682493888e-02,-1.504802742989536091e-02,-1.317531004123295713e-01,2.574201822280883581e-02,-9.054207801818847656e-02,-1.193252563476562417e-01,5.335248680912292318e-01,-3.176467418670654297e-01,-1.241843819618225098e+00,1.151943915223099708e+02,-5.570244789123534983e-03
2.172728000000000215e+00,5.102809947416850345e-02,2.522368284628797030e-01,8.598167896270751953e-01,1.537195638453169033e-02,-3.403908476613759504e-03,-6.864890984468187754e-03,4.822727650780378461e-02,1.904142584636113467e-02,-2.448408864438533783e-02,-3.300735688752812202e-01,-3.205203759476982772e-01,-1.476682719869815419e-01,1.994632124900818093e-01,-5.813971246812522919e-03,-1.982020962236239192e-01,9.946321249008178988e-02,-5.630289316177367748e-02,-1.784460067749023271e-01,5.335873200929546201e-01,-3.218957185745239258e-01,-8.883074522018432617e-01,1.055293938089859580e+02,-5.570244789123534983e-03
2.201766000000000112e+00,5.226932888973530311e-02,2.539798186398966040e-01,8.588308095932006836e-01,6.171593277592203955e-03,-1.121963131264336333e-02,-1.097334053782340717e-02,4.604215536383638591e-02,1.948273661919222577e-02,-2.637759968638420105e-02,-3.474245451471345003e-01,-2.621351627719312738e-01,-1.201760445931609050e-01,3.017747879028320201e-01,-5.301838181351772698e-03,-2.452596955242070664e-01,2.017747879028320146e-01,-1.568090915679931684e-03,-2.145573377609252819e-01,5.331750315589220968e-01,-3.644559383392333984e-01,-1.082488417625427246e+00,1.077283322311365481e+02,-5.570244789123534983e-03
2.227539999999999853e+00,5.352651202682871812e-02,2.557233887250311977e-01,8.575975298881530762e-01,-2.967873213143406783e-03,-1.676646251465507831e-02,-1.515948230810463225e-02,5.602629604353413090e-02,2.944070601754071592e-02,-3.183549270033836365e-02,-3.697503089261273135e-01,-1.562316396692385312e-01,-1.171911627823896129e-01,3.187525272369384766e-01,1.132096933786331389e-02,-2.640623226904127430e-01,2.187525272369384710e-01,4.310106039047240795e-02,-2.218252658843994085e-01,5.337490747045716688e-01,-3.692163228988647461e-01,-9.072631597518920898e-01,1.623834581582543990e+02,-5.570244789123534983e-03
2.253089000000000119e+00,5.494724303360074696e-02,2.574096530746062261e-01,8.563388586044311523e-01,-1.159486383866612652e-02,-1.957384908479165020e-02,-1.923446779624913422e-02,4.830773868559563866e-02,3.094831154364408032e-02,-3.092677891254425049e-02,-3.257343560010645955e-01,-6.374133650096723558e-02,-1.258020284161890101e-01,3.230725646018982045e-01,6.989250572863084376e-02,-2.762790279290264772e-01,2.230725646018981989e-01,1.263774991035461481e-01,-2.227016687393188477e-01,5.362570739894508831e-01,-2.409563064575195312e-01,-1.021389365196228027e+00,1.240872295197748798e+02,-5.570244789123534983e-03
2.277718999999999827e+00,5.602165521626729927e-02,2.584313160239170015e-01,8.554726243019104004e-01,-1.663339358489466027e-02,-2.063413382701573262e-02,-2.123425097580637633e-02,5.478431559385441019e-02,3.899616527573668973e-02,-2.852381952106952667e-02,-2.579787094408643178e-01,-4.632310558037693038e-02,-1.205625604175670912e-01,3.245905876159668191e-01,6.221447941358782679e-02,-2.825580423756434145e-01,2.245905876159667858e-01,1.190673172473907387e-01,-2.233373880386352595e-01,5.373607401987090526e-01,-1.835104227066040039e-01,-8.693114519119262695e-01,1.104542607288886273e+02,-5.570244789123534983e-03
2.303484999999999783e+00,5.742623656944476074e-02,2.600042807328644678e-01,8.542637228965759277e-01,-2.165019258814573563e-02,-2.167791206225411216e-02,-2.200282485312851644e-02,3.607736004624019499e-02,4.246553032422843710e-02,-2.294575981795787811e-02,-9.467116287780452666e-02,-4.626165374398380492e-02,2.246790583636051886e-02,3.237106084823608287e-01,-8.309903542991686765e-03,-2.885696305845498189e-01,2.237106084823608232e-01,6.896007657051085593e-02,-2.272099256515502930e-01,5.331093297298948874e-01,-4.091664552688598633e-01,-1.090718388557434082e+00,1.075089602153740742e+02,-5.570244789123534983e-03
2.327790999999999944e+00,5.866065428360046213e-02,2.617026170293935139e-01,8.532246351242065430e-01,-2.176460917118064678e-02,-2.271555476798603479e-02,-2.139888936901190863e-02,3.817433130941919051e-02,5.165955868494950115e-02,-7.016384508460760117e-03,8.512647580164894867e-02,-6.016810111159672653e-02,4.162444748871840794e-02,2.923200726509094238e-01,-1.848521251437762747e-01,-2.487027503925251792e-01,1.923200726509094183e-01,-1.060998558998107882e-01,-1.890601873397827204e-01,5.370798254017348228e-01,-1.401345133781433105e-01,-8.549622297286987305e-01,8.322980971613480961e+01,-5.570244789123534983e-03
2.351640000000000175e+00,5.989317025735903244e-02,2.631839528402112882e-01,8.525525927543640137e-01,-1.784998633404890137e-02,-2.328538900980814397e-02,-1.972389672895830809e-02,3.030014891797020923e-02,6.213866580157660635e-02,-5.084453150629997253e-03,1.839315373289555910e-01,2.729743738226279165e-02,7.573689919431804418e-02,2.693599700927734597e-01,4.191953448798912962e-03,-1.697558871211996834e-01,1.693599700927734264e-01,9.174849987030028742e-02,-1.149290442466735784e-01,5.395478806632597601e-01,-6.797850131988525391e-03,-1.270106196403503418e+00,9.303475117536321193e+01,-5.570244789123534983e-03
2.377901000000000042e+00,6.083955870146908612e-02,2.639588074798324691e-01,8.522925376892089844e-01,-1.393257074987646824e-02,-2.378536616928617065e-02,-1.810537437082845175e-02,1.883319557260111285e-02,5.820498216673548192e-02,8.638895116746425629e-03,1.997891374386900620e-01,-3.297809239171666656e-02,1.108382872165334654e-01,2.634365797042846902e-01,-1.188217047289472778e-01,-1.913176723689584413e-01,1.634365797042846569e-01,-2.173233032226562500e-02,-1.411399483680725042e-01,5.377576468410274479e-01,-5.935537815093994141e-02,-1.200778365135192871e+00,9.815328810918160229e+01,-5.570244789123534983e-03
2.401494000000000018e+00,6.206464299832207404e-02,2.652536866717182251e-01,8.519438505172729492e-01,-6.539588244066801316e-03,-2.458020045194864167e-02,-1.542933242882718430e-02,2.858070532432469349e-02,6.972124377884766910e-02,1.287909317761659622e-02,3.142438085973123241e-01,-5.152268498149713966e-02,1.207821806539111642e-01,2.675535202026367299e-01,-7.800879882943206889e-02,-1.733175765340515539e-01,1.675535202026367243e-01,1.418126821517944232e-02,-1.307841539382934570e-01,5.388269114106536417e-01,6.935000419616699219e-03,-1.066348910331726074e+00,7.776002347405935211e+01,-5.570244789123534983e-03
2.425075999999999787e+00,6.308965982586549337e-02,2.666491025234028478e-01,8.518134355545043945e-01,1.460423988132317046e-03,-2.543379517721722216e-02,-1.235833781693410766e-02,1.588240620646313300e-02,7.078196742727417556e-02,1.478315051645040512e-02,2.545977582033945308e-01,6.110313745463159980e-03,1.313953318280570992e-01,2.546568512916564941e-01,-4.876878857612610557e-02,-1.529230705029794857e-01,1.546568512916564886e-01,5.123121142387389998e-02,-1.192864894866943332e-01,5.412369181163515508e-01,1.413310766220092773e-01,-1.145913243293762207e+00,1.036478542775658696e+02,-5.570244789123534983e-03
