timestamp,x,y,z,roll,pitch,yaw,vx,vy,vz,p,q,r,psp,qsp,rsp,pres,qres,rres,thrust_sp, thrust_res
0.000000000000000000e+00,-1.725740578361508598e-02,-6.060015954172231871e-03,9.840657711029052734e-01,1.326467612092899727e-02,-1.478776670249914993e-02,-3.650072462589480041e-03,5.481806996248099299e-03,1.542774288995741455e-02,1.581422984600067139e-02,3.295453183460479024e-02,-4.182666832953151753e-02,-3.844951576661564518e-03,-7.746907533128569168e-02,-1.000000000000000056e-01,-9.897183230030859313e-03,0.000000000000000000e+00,0.000000000000000000e+00,0.000000000000000000e+00,5.119617051207574487e-01,-0.000000000000000000e+00,3.914231061935424805e-01,5.276515452716736831e+01,0.000000000000000000e+00
2.179100000000000134e-02,-1.725982048882100314e-02,-5.549970903841716305e-03,9.838314652442932129e-01,1.358191113700945099e-02,-1.550818913853801995e-02,-3.457464352821308130e-03,5.702697202291350832e-03,2.058978369777443584e-02,7.312571629881858826e-03,4.874153098268964313e-02,-5.595491730433399535e-02,-3.183763322002816382e-03,-7.728564302687437881e-02,-1.000000000000000056e-01,-9.325671214460373726e-03,0.000000000000000000e+00,0.000000000000000000e+00,0.000000000000000000e+00,5.126173036073577993e-01,-0.000000000000000000e+00,-3.823748826980590820e-01,7.406814913331653827e+01,0.000000000000000000e+00
4.809000000000000080e-02,-1.728718371527188102e-02,-4.868296434010799777e-03,9.836681485176086426e-01,1.395612857382959662e-02,-1.558549396141239995e-02,-3.203319828019447757e-03,5.284748354830065206e-03,2.167714465363643206e-02,1.247066911309957504e-02,7.653113712732570462e-03,4.061467791480744688e-02,4.962223779699258264e-02,-7.910442445963573876e-02,-1.000000000000000056e-01,-8.600005100050822637e-03,0.000000000000000000e+00,0.000000000000000000e+00,0.000000000000000000e+00,5.122511114097525464e-01,0.000000000000000000e+00,3.123372793197631836e-01,1.031496466191267984e+02,0.000000000000000000e+00
7.386500000000000010e-02,-1.722519336204768672e-02,-4.177744821493031314e-03,9.835427999496459961e-01,1.479022209181009122e-02,-1.524937987349561652e-02,-3.204236423645135529e-03,1.196809407783032582e-02,1.542378623993845461e-02,1.789029873907566071e-02,2.283013887522750140e-02,4.015199776630898332e-02,-1.348257670798769887e-03,-8.923339332202336049e-02,-1.000000000000000056e-01,-8.626135369904142092e-03,0.000000000000000000e+00,0.000000000000000000e+00,0.000000000000000000e+00,5.118569265455596984e-01,-0.000000000000000000e+00,1.120256185531616211e-01,9.060590175556082215e+01,0.000000000000000000e+00
9.890400000000000580e-02,-1.719791227297805605e-02,-3.769368807752003243e-03,9.833751320838928223e-01,1.494883638568221887e-02,-1.445921070671185582e-02,-3.104449248092021763e-03,1.531227531837892411e-02,2.140581144200550540e-02,1.139524858444929123e-02,3.356053325283119698e-02,8.988026051575706901e-03,-9.764585595748087252e-03,-8.421354129816824297e-02,-9.440384184018289770e-02,-8.348009154438063018e-03,0.000000000000000000e+00,0.000000000000000000e+00,0.000000000000000000e+00,5.123559377421746941e-01,-0.000000000000000000e+00,3.441361188888549805e-01,1.039062813150024738e+02,0.000000000000000000e+00
1.242599999999999955e-01,-1.723111414757034013e-02,-3.222420487656084062e-03,9.828447103500366211e-01,1.406180148566517525e-02,-1.203787289018687368e-02,-2.771667497569841026e-03,2.033600596192824961e-02,3.371862674167932367e-02,-1.167824398726224899e-02,-7.423811350626634276e-02,1.093415660532454786e-01,3.420437494767148562e-02,-6.907957670475352308e-02,-7.513835808175764464e-02,-7.477602067825994681e-03,0.000000000000000000e+00,0.000000000000000000e+00,0.000000000000000000e+00,5.141301392781132407e-01,-0.000000000000000000e+00,1.082803010940551758e-01,8.139106815005401074e+01,0.000000000000000000e+00
1.454830000000000012e-01,-1.717775963554724061e-02,-2.830651012244130189e-03,9.823945760726928711e-01,1.259151709799546243e-02,-1.041343815274808904e-02,-2.553887251607956602e-03,3.854374298721191267e-03,1.710617641802986491e-02,-8.213284425437450409e-03,-1.222790166794044397e-01,1.110717821362381397e-01,1.382554523582618829e-02,-7.438058274149431104e-02,-7.850485786128322263e-02,-6.918552011187573125e-03,0.000000000000000000e+00,0.000000000000000000e+00,0.000000000000000000e+00,5.139302400004606142e-01,-0.000000000000000000e+00,4.435228109359741211e-01,8.538931745620691061e+01,0.000000000000000000e+00
1.747209999999999874e-01,-1.711434464184122609e-02,-2.134003058368292606e-03,9.813637137413024902e-01,1.026827249799894953e-02,-8.118969624328453705e-03,-2.003367230140160223e-03,1.123914117758260771e-02,3.125809869897090698e-02,-1.891209185123443604e-02,-5.071705716215030996e-02,4.783528620099794515e-02,9.020889866808864954e-03,-4.501017498854525262e-02,-5.522741885681346774e-02,-5.447562422126406290e-03,0.000000000000000000e+00,0.000000000000000000e+00,0.000000000000000000e+00,5.148326404893032171e-01,-0.000000000000000000e+00,1.634157896041870117e-01,9.441350682160032193e+01,0.000000000000000000e+00
1.962480000000000058e-01,-1.705594476331300999e-02,-1.633855052920482045e-03,9.805661439895629883e-01,8.088416284585703275e-03,-6.756241158085041221e-03,-1.741485220604989436e-03,1.088254680129477694e-02,3.158871136737258223e-02,-2.462264709174633026e-02,-1.517983077186599028e-01,7.222549772876421526e-02,1.903345203106148603e-02,-3.226412581270160507e-02,-4.769606272273067132e-02,-4.760999733465332007e-03,0.000000000000000000e+00,0.000000000000000000e+00,0.000000000000000000e+00,5.153536103132868584e-01,-0.000000000000000000e+00,3.168569803237915039e-01,1.061133066811303536e+02,0.000000000000000000e+00
2.233920000000000072e-01,-1.705172110808001254e-02,-5.794706083109340752e-04,9.790310859680175781e-01,4.868192205232655008e-03,-5.023204587994545278e-03,-1.082806951718575869e-03,1.212549030152412733e-03,2.421286694233578535e-02,-3.725545480847358704e-02,-1.091667049093298231e-01,5.913316702661178259e-02,5.082834881577634467e-02,-1.659563527527201793e-02,-4.409042262099393400e-02,-2.963649951363944712e-03,0.000000000000000000e+00,0.000000000000000000e+00,0.000000000000000000e+00,5.164513806277802876e-01,-0.000000000000000000e+00,-5.329644680023193359e-02,9.415576280308071944e+01,0.000000000000000000e+00
2.510049999999999781e-01,-1.694063379437160677e-02,6.456274469387372848e-04,9.772082567214965820e-01,2.313946852080821584e-03,-4.215864489200304988e-03,-5.769321663678347086e-04,2.048554835649790337e-02,3.237715890832863069e-02,-4.760927706956863403e-02,-5.999766399751892826e-02,-3.351541319232930870e-03,2.050876373525721205e-02,8.396339743992823137e-03,-2.201644303099927619e-02,-1.587347021101637168e-03,0.000000000000000000e+00,0.000000000000000000e+00,0.000000000000000000e+00,5.174134727822667923e-01,-0.000000000000000000e+00,8.246314525604248047e-02,9.259197050203879087e+01,0.000000000000000000e+00
2.736190000000000011e-01,-1.684587568153922410e-02,1.448459546889825774e-03,9.759054780006408691e-01,6.795984459449574012e-04,-3.545062720831770875e-03,-2.058845893764058434e-04,2.363604394542120207e-02,3.871233977458296560e-02,-5.209190770983695984e-02,-6.281711938776946003e-02,1.542567987808482824e-02,-6.622093456097573674e-03,2.345950139315238631e-02,-1.786358010103097568e-02,-5.573638659266966222e-04,0.000000000000000000e+00,0.000000000000000000e+00,0.000000000000000000e+00,5.179103130857043435e-01,-0.000000000000000000e+00,2.279269695281982422e-02,8.931397147405292003e+01,0.000000000000000000e+00
3.001469999999999971e-01,-1.668339611092968175e-02,2.760110139320439814e-03,9.737600684165954590e-01,-1.020845068642777702e-03,-2.783786185068359842e-03,3.442598653057475991e-04,9.987130969298901872e-03,3.879745427520879530e-02,-6.101712584495544434e-02,-8.382766906125636852e-02,4.693582956253253974e-02,2.575341484990704283e-02,3.454349773104786747e-02,-2.408357389943804189e-02,9.809070622142646023e-04,0.000000000000000000e+00,0.000000000000000000e+00,0.000000000000000000e+00,5.188040091777078588e-01,-0.000000000000000000e+00,-2.351883649826049805e-01,8.880467841859091038e+01,0.000000000000000000e+00
3.214560000000000195e-01,-1.652805882095621098e-02,3.565138992702244006e-03,9.723529219627380371e-01,-1.364522046816636245e-03,-2.491377624335822105e-03,5.678305341531207856e-04,2.420371828774685666e-02,3.768457470962455896e-02,-6.152425706386566162e-02,-4.780051749828471974e-02,4.459852120328740288e-02,-4.803009135327173523e-03,3.650378103640869454e-02,-8.848281376465098186e-03,1.595431691146842468e-03,0.000000000000000000e+00,0.000000000000000000e+00,0.000000000000000000e+00,5.190271919810495183e-01,-0.000000000000000000e+00,6.460083723068237305e-01,-4.256116268077555276e+00,0.000000000000000000e+00
3.481310000000000238e-01,-1.616291193008807109e-02,4.924625177122852158e-03,9.700502157211303711e-01,-1.441594171602960175e-03,-2.081654465362126061e-03,9.578339285179144139e-04,2.193793142173919644e-02,3.977777587109623120e-02,-6.120715662837028503e-02,2.702315993291775145e-02,1.524130762800049270e-02,-4.360316205829584645e-03,3.979191619986724437e-02,-9.771524594486389118e-03,2.688761854093335568e-03,0.000000000000000000e+00,0.000000000000000000e+00,0.000000000000000000e+00,5.192578428140353086e-01,-0.000000000000000000e+00,2.664083242416381836e-01,1.170251144463051673e+02,0.000000000000000000e+00
3.710060000000000024e-01,-1.586458936262527888e-02,5.835096578651849213e-03,9.684883356094360352e-01,-9.430797519959505234e-04,-1.679983691037723048e-03,1.155120614962933372e-03,2.544675907619822069e-02,4.303203881981787493e-02,-6.111109629273414612e-02,4.138438600426252306e-02,7.031684859956544194e-03,4.744074962107684701e-02,3.952917996511117610e-02,-3.839881298938825800e-03,3.237824493750263155e-03,0.000000000000000000e+00,0.000000000000000000e+00,0.000000000000000000e+00,5.194520975912920724e-01,-0.000000000000000000e+00,-1.776444911956787109e-02,9.790104922313302893e+01,0.000000000000000000e+00
3.999139999999999917e-01,-1.538246874246624457e-02,7.330782480356172470e-03,9.660675525665283203e-01,-1.652864419893480645e-04,-8.124721895879094546e-04,1.279209550762231079e-03,3.314013743334105755e-02,4.243910920983991197e-02,-6.982316821813583374e-02,1.783877435118045099e-02,5.307268232558074589e-02,2.199536617947165512e-02,3.453446167182900456e-02,7.694690409693911298e-03,3.573546939676708334e-03,0.000000000000000000e+00,0.000000000000000000e+00,0.000000000000000000e+00,5.203640209028441710e-01,-0.000000000000000000e+00,-5.509245395660400391e-02,-1.322874180335087715e+02,0.000000000000000000e+00
4.217380000000000018e-01,-1.504973480293714770e-02,8.253808336405758783e-03,9.646047353744506836e-01,5.977734449217572167e-04,-6.362713907759331988e-04,1.393078771777341105e-03,3.577693266045701287e-02,4.529066816195863321e-02,-5.376378446817398071e-02,7.202866157821000148e-02,4.944878140932725333e-03,3.693927535315161617e-03,3.276377374225850764e-02,1.013931875945254558e-02,3.887028731237029966e-03,0.000000000000000000e+00,0.000000000000000000e+00,0.000000000000000000e+00,5.193787289606370816e-01,-0.000000000000000000e+00,1.945539712905883789e-01,1.012350489721238347e+02,0.000000000000000000e+00
4.481470000000000176e-01,-1.447106400131412986e-02,8.831787078330351551e-03,9.624402523040771484e-01,1.459744400274514938e-03,-9.583129084966834910e-05,1.576359340764066320e-03,3.746681677124711479e-02,4.916217122185555927e-02,-6.212554126977920532e-02,1.641765781820115830e-02,8.482657848025376701e-03,-1.517651386885489687e-02,3.026133686489911392e-02,1.501662975772476843e-02,4.389346166915386593e-03,0.000000000000000000e+00,0.000000000000000000e+00,0.000000000000000000e+00,5.202432020228153764e-01,-0.000000000000000000e+00,2.369402647018432617e-01,9.022093863356056431e+01,0.000000000000000000e+00
4.696139999999999759e-01,-1.404284061949387201e-02,9.062873634686273092e-03,9.607739448547363281e-01,2.195886020929187395e-03,5.551499302747231468e-05,1.881193474339042191e-03,2.637001254197986547e-02,5.101067778243374706e-02,-6.883338093757629395e-02,3.895202790694797523e-02,-1.842327760214260146e-02,1.888932826936645659e-02,2.665275646417847311e-02,7.330386786751645102e-03,5.254004083281360593e-03,0.000000000000000000e+00,0.000000000000000000e+00,0.000000000000000000e+00,5.209554775677005534e-01,-0.000000000000000000e+00,1.742576360702514648e-01,-1.406332364256311251e+01,0.000000000000000000e+00
4.952540000000000275e-01,-1.324941237212673081e-02,9.463448474194630783e-03,9.582639336585998535e-01,2.844184626567377010e-03,-5.576232523796242901e-05,2.080995751851156400e-03,4.175381885464753834e-02,5.566395613217566679e-02,-7.615476846694946289e-02,2.226062008107902376e-02,-1.226900574185004443e-02,1.448816465966840106e-02,2.616962888210319985e-02,2.083382227737984663e-02,5.783265604551612871e-03,0.000000000000000000e+00,0.000000000000000000e+00,0.000000000000000000e+00,5.217857744310570034e-01,-0.000000000000000000e+00,8.788216114044189453e-02,9.097859102762257066e+01,0.000000000000000000e+00
5.216690000000000493e-01,-1.233168266347975731e-02,1.014407240335358888e-02,9.554491639137268066e-01,3.550427645840434181e-03,-5.348382068108836762e-04,2.408850186849452284e-03,4.092759041024839756e-02,5.682385369299241401e-02,-7.607280462980270386e-02,2.750068598790627108e-02,-2.205295174253511098e-02,-4.070003612733236534e-03,2.242869430683096243e-02,1.553306111517822365e-02,6.709578826075535130e-03,0.000000000000000000e+00,0.000000000000000000e+00,0.000000000000000000e+00,5.220967278778538834e-01,-0.000000000000000000e+00,-2.672480344772338867e-01,9.937992178222418715e+01,0.000000000000000000e+00
5.483390000000000208e-01,-1.178394249775490191e-02,1.134005180508683430e-02,9.526491165161132812e-01,4.016931147408325624e-03,-1.591464615156912288e-03,2.727043261738777962e-03,3.058385400171022284e-02,5.040722857020921155e-02,-8.621456474065780640e-02,-2.500467398053087334e-02,-1.997856285142136923e-02,4.662997872993675241e-02,1.502990875165523439e-02,1.057909275752029390e-03,7.633479917780572332e-03,0.000000000000000000e+00,0.000000000000000000e+00,0.000000000000000000e+00,5.231615208790448834e-01,-0.000000000000000000e+00,1.121746301651000977e-01,9.044791948005843096e+01,0.000000000000000000e+00
5.766430000000000167e-01,-1.125198067003785850e-02,1.281545290166860585e-02,9.497510790824890137e-01,4.937130733574441287e-03,-2.942216308638778699e-03,2.810580992935147755e-03,4.377356203208195018e-02,4.788138874270031486e-02,-7.605125755071640015e-02,6.489007759442749768e-02,-6.799521764731213114e-02,1.256274105525373788e-02,9.117321704222481824e-03,4.520623029188529721e-03,7.858737770130186373e-03,0.000000000000000000e+00,0.000000000000000000e+00,0.000000000000000000e+00,5.227501655846803486e-01,-0.000000000000000000e+00,8.774960041046142578e-02,4.072350711477279361e+01,0.000000000000000000e+00
5.978299999999999725e-01,-1.080968702214382335e-02,1.386017135253304715e-02,9.478247165679931641e-01,5.606432361611882534e-03,-3.568821903571883780e-03,2.723279491217660189e-03,4.909067972593160467e-02,6.040491853344245182e-02,-8.782222121953964233e-02,5.035431057984715575e-02,-4.545016191728171173e-02,-3.594917823772363769e-02,1.562659727092217260e-02,3.061222349279388126e-03,7.616354968636218636e-03,0.000000000000000000e+00,0.000000000000000000e+00,0.000000000000000000e+00,5.238818397149167527e-01,-0.000000000000000000e+00,-1.199189424514770508e-01,9.635471488560965270e+01,0.000000000000000000e+00
6.238709999999999534e-01,-1.012486283798991714e-02,1.541937613460906374e-02,9.450658559799194336e-01,6.673396970011685400e-03,-4.121215452972615267e-03,2.808013688272869950e-03,3.967295806607310654e-02,6.424671763511595468e-02,-8.801577985286712646e-02,4.626994995398271693e-02,3.496829983807670222e-03,9.168179460617237320e-03,1.108132250156130746e-02,-8.103123535438306810e-03,7.888927190483396856e-03,0.000000000000000000e+00,0.000000000000000000e+00,0.000000000000000000e+00,5.242280784495513268e-01,-0.000000000000000000e+00,3.857873678207397461e-01,8.117261137964032969e+01,0.000000000000000000e+00
6.454220000000000512e-01,-9.539389638468415838e-03,1.650033438037157990e-02,9.431706666946411133e-01,7.057707936545820800e-03,-4.261764438618476092e-03,2.682558023090812066e-03,5.213309977394289113e-02,6.149585934482933863e-02,-8.686928451061248779e-02,9.856572222125725008e-03,2.095957493132787758e-02,-1.305969901180676317e-02,6.772965579177069734e-03,2.494492615117364660e-03,7.503171015742549077e-03,0.000000000000000000e+00,0.000000000000000000e+00,0.000000000000000000e+00,5.244163516973513461e-01,-0.000000000000000000e+00,2.309595346450805664e-01,9.193324656791526195e+01,0.000000000000000000e+00
6.748420000000000529e-01,-8.874076120316501393e-03,1.853966548107330303e-02,9.402001500129699707e-01,7.467905373706789848e-03,-4.558780069898960008e-03,2.654035165768865549e-03,4.910311848171290683e-02,6.683294952273777234e-02,-9.698001295328140259e-02,2.011997838568473085e-02,-9.475590700415607122e-04,-3.127608328648149531e-03,9.994047357094776318e-03,-3.088304211285895513e-03,7.442473901014545756e-03,0.000000000000000000e+00,0.000000000000000000e+00,0.000000000000000000e+00,5.255131802502419625e-01,-0.000000000000000000e+00,-3.638523817062377930e-01,1.339725076640209807e+02,0.000000000000000000e+00
6.962289999999999868e-01,-8.344564091937222219e-03,1.999173610188064582e-02,9.381070733070373535e-01,7.544428716209444774e-03,-4.675838707843160691e-03,2.749709632580513066e-03,5.378697606293720429e-02,6.463596139612842739e-02,-9.515137225389480591e-02,-6.642383837557601367e-03,-1.529439673113368661e-02,1.499837693511343363e-02,8.167754050677692237e-03,6.778937511185655074e-04,7.696993033192878197e-03,0.000000000000000000e+00,0.000000000000000000e+00,0.000000000000000000e+00,5.256771634318022635e-01,-0.000000000000000000e+00,2.503514289855957031e-03,1.008755692859168960e+02,0.000000000000000000e+00
7.223920000000000341e-01,-7.557019834671232193e-03,2.217219287224818022e-02,9.350332617759704590e-01,7.292572587802161749e-03,-4.791994754123063416e-03,2.742733482200609106e-03,5.247026445918673287e-02,6.513229317757922299e-02,-1.015543565154075623e-01,-1.721945240662130575e-02,4.758465560464715353e-03,2.139622365939015253e-02,1.197031370902328432e-02,-1.196574221451436127e-03,7.684098895186564082e-03,0.000000000000000000e+00,0.000000000000000000e+00,0.000000000000000000e+00,5.265185115112278602e-01,-0.000000000000000000e+00,1.146711111068725586e-01,9.690591798181884542e+01,0.000000000000000000e+00
7.488789999999999614e-01,-6.633785409957687271e-03,2.444133407831138721e-02,9.319252371788024902e-01,7.208913339119378365e-03,-5.206242190812782056e-03,2.666185103631680230e-03,5.611765955183451587e-02,7.953092573839783130e-02,-9.788409620523452759e-02,3.026326139537753590e-02,-2.816219985236761980e-02,-3.224505633554689693e-02,2.526026763568049033e-02,-1.447971324181295243e-04,7.466177956635622337e-03,0.000000000000000000e+00,0.000000000000000000e+00,0.000000000000000000e+00,5.266377371665185159e-01,-0.000000000000000000e+00,1.156550645828247070e-01,8.882205441983943217e+01,0.000000000000000000e+00
7.764499999999999735e-01,-6.016289832664590241e-03,2.702744598058046469e-02,9.291554093360900879e-01,7.173070977400292786e-03,-5.775005252385057020e-03,2.569621387625186954e-03,6.292314440240855122e-02,8.189723913134777655e-02,-9.475956112146377563e-02,6.689046971820748581e-03,-3.775496549546157599e-02,2.338770845743932893e-04,2.718241451017751331e-02,1.454320443379215986e-03,7.189395820113686497e-03,0.000000000000000000e+00,0.000000000000000000e+00,0.000000000000000000e+00,5.267665273047407171e-01,-0.000000000000000000e+00,-1.852248907089233398e-01,9.597112463163256280e+01,0.000000000000000000e+00
7.973010000000000375e-01,-5.512777598501944140e-03,2.877198547228390982e-02,9.272948503494262695e-01,7.250264888893968168e-03,-5.798008634694484797e-03,2.565752802925847040e-03,5.059838313459252140e-02,6.625535347204267178e-02,-9.142069518566131592e-02,-1.317717759898059601e-02,-5.144243533378377005e-04,1.844734822892636975e-02,1.565995285580355431e-02,-8.734164800489644179e-03,7.216147411363449393e-03,0.000000000000000000e+00,0.000000000000000000e+00,0.000000000000000000e+00,5.268012062754777736e-01,-0.000000000000000000e+00,-5.046141147613525391e-02,8.695235843644013585e+01,0.000000000000000000e+00
8.230969999999999676e-01,-4.682069087658165089e-03,3.132407180477540798e-02,9.245422482490539551e-01,7.791321394849167609e-03,-5.677778319695736542e-03,2.304478762166009987e-03,6.536717860332723340e-02,8.056898142184082401e-02,-9.270338714122772217e-02,4.158594835859216049e-02,1.045100431685457108e-03,-6.706823090357565825e-03,2.719510136733909247e-02,5.855339091959596391e-03,6.427863469351480230e-03,0.000000000000000000e+00,0.000000000000000000e+00,0.000000000000000000e+00,5.272603139637839220e-01,-0.000000000000000000e+00,2.582908868789672852e-01,3.878968931544542187e+01,0.000000000000000000e+00
8.501819999999999933e-01,-3.782533441683345096e-03,3.397552275307330616e-02,9.219346642494201660e-01,8.322238590412246034e-03,-5.072824043912849135e-03,2.071791806096281649e-03,7.216911734392612854e-02,8.670862597723688614e-02,-9.231784194707870483e-02,3.215285898845973711e-02,1.853232202193208500e-02,5.898967297451416548e-03,2.839481641413241914e-02,1.367989890235027026e-02,5.739347532431771093e-03,0.000000000000000000e+00,0.000000000000000000e+00,0.000000000000000000e+00,5.275818258919399151e-01,-0.000000000000000000e+00,2.427936792373657227e-01,1.130244609135644254e+02,0.000000000000000000e+00
8.715460000000000429e-01,-3.242836640817711204e-03,3.572821185272269384e-02,9.201964735984802246e-01,8.868159893587277548e-03,-4.673682324951577982e-03,2.027366239084712595e-03,6.215836347603675982e-02,7.332636943096512705e-02,-8.819487690925598145e-02,5.481043377199422417e-02,6.527684951706946501e-03,3.248161954973254051e-02,1.512263692272761313e-02,8.122746615110289226e-03,5.641748011395719686e-03,0.000000000000000000e+00,0.000000000000000000e+00,0.000000000000000000e+00,5.275542928149715705e-01,-0.000000000000000000e+00,-1.436966657638549805e-01,7.386896715674063785e+01,0.000000000000000000e+00
8.993910000000000515e-01,-2.343449042080537892e-03,3.831794585096668510e-02,9.178732037544250488e-01,9.900976202571749873e-03,-4.506544743305473943e-03,1.602109819533711075e-03,6.810761383049185325e-02,8.404445096951478067e-02,-8.546821773052215576e-02,3.194681043120854713e-02,4.832660569942582755e-05,-5.713037916879296074e-02,2.049469343682480335e-02,1.594027425450605939e-02,4.407325467988831846e-03,0.000000000000000000e+00,0.000000000000000000e+00,0.000000000000000000e+00,5.276885815403532520e-01,-0.000000000000000000e+00,1.137589216232299805e-01,7.938552653425233530e+01,0.000000000000000000e+00
9.252200000000000424e-01,-1.303287330729610127e-03,4.097737600669302399e-02,9.154742360115051270e-01,1.020938961052157874e-02,-4.620775825534551018e-03,1.736560836503689724e-03,6.566700243197179376e-02,8.878544397217363882e-02,-9.554221481084823608e-02,1.534787270786223783e-02,-2.817886710896733496e-02,1.795749951239587403e-02,2.238855486757816010e-02,1.321144216126955186e-02,4.794758528581521961e-03,0.000000000000000000e+00,0.000000000000000000e+00,0.000000000000000000e+00,5.287577660330841089e-01,-0.000000000000000000e+00,4.138237237930297852e-01,5.991351781438140733e+01,0.000000000000000000e+00
9.468189999999999662e-01,-5.823265144012169155e-04,4.280885885518800893e-02,9.137421846389770508e-01,1.031330607802603480e-02,-4.805354223768709687e-03,1.686358219057612108e-03,5.974477163814564951e-02,8.098158389835345694e-02,-9.315842390060424805e-02,-9.478148416849574431e-03,2.046574714328215346e-04,4.242363932836302337e-02,1.655495863083581223e-02,8.421337766079249609e-03,4.680037459431574121e-03,0.000000000000000000e+00,0.000000000000000000e+00,0.000000000000000000e+00,5.288700407419206773e-01,-0.000000000000000000e+00,6.681191921234130859e-02,9.452009875378755055e+01,0.000000000000000000e+00
9.735810000000000297e-01,5.872706274676228700e-04,4.550919328585373985e-02,9.113648533821105957e-01,1.086567258924528954e-02,-5.563157750751335229e-03,1.369570636597361706e-03,6.647836503359438876e-02,8.183241743617980513e-02,-8.049854636192321777e-02,1.098756584163565475e-02,-2.651612273555360721e-02,-2.339272792638009621e-02,1.691178151652226666e-02,1.048431485682550617e-02,3.780066529110115425e-03,0.000000000000000000e+00,0.000000000000000000e+00,0.000000000000000000e+00,5.282865253587873955e-01,-0.000000000000000000e+00,-9.472429752349853516e-02,9.458062789021219885e+01,0.000000000000000000e+00
9.986990000000000034e-01,1.789383007286369284e-03,4.795795886368334898e-02,9.092671275138854980e-01,1.180704639622659827e-02,-6.323380114263033036e-03,1.159617600515323605e-03,6.987767958820514935e-02,8.789734632700625661e-02,-8.412100374698638916e-02,6.370423580256034946e-02,-5.849762372549716788e-02,6.080275580146773939e-03,1.711039409527731828e-02,8.085695326405796871e-03,3.201436076192054614e-03,0.000000000000000000e+00,0.000000000000000000e+00,0.000000000000000000e+00,5.288657206018897439e-01,-0.000000000000000000e+00,-2.921811342239379883e-01,6.086026399561522027e+01,0.000000000000000000e+00
1.024006999999999890e+00,3.043812278386903280e-03,5.042188195966217090e-02,9.070909023284912109e-01,1.270908837846387862e-02,-6.240014875739774425e-03,6.748069466935254553e-04,7.795438636567020296e-02,8.797392280482529969e-02,-8.194556832313537598e-02,5.438889279935201458e-03,1.994702863625227168e-02,-3.300433805112362728e-02,1.237379507320858149e-02,1.530981511964231781e-02,1.799480071865200426e-03,0.000000000000000000e+00,0.000000000000000000e+00,0.000000000000000000e+00,5.290293976999319581e-01,-0.000000000000000000e+00,-1.491185426712036133e-01,1.019376637018538787e+02,0.000000000000000000e+00
1.052340000000000053e+00,4.390628834005792965e-03,5.286790972601684152e-02,9.050111174583435059e-01,1.390784144202861922e-02,-6.205079591968587494e-03,4.306222117588356436e-04,6.917968502251801988e-02,8.523806761505328677e-02,-6.729576736688613892e-02,4.963945666175350463e-02,1.990210076800099162e-02,-2.026289674379045530e-02,4.632537381735897172e-03,8.823394276463156216e-03,1.151614131507439076e-03,0.000000000000000000e+00,0.000000000000000000e+00,0.000000000000000000e+00,5.282663552171685817e-01,-0.000000000000000000e+00,4.794489145278930664e-01,-3.125231175027966213e+00,0.000000000000000000e+00
1.077104999999999979e+00,5.342811986797660340e-03,5.449196070944142822e-02,9.037231802940368652e-01,1.467481716915303679e-02,-6.274082346982678970e-03,3.307593911873777607e-04,7.352288284430651133e-02,8.808393903152635096e-02,-7.138789445161819458e-02,7.700037409418851453e-02,-3.106368321730437754e-02,5.008827856052368993e-02,3.522730832244470346e-03,1.369371853132751379e-02,8.380298601954883075e-04,0.000000000000000000e+00,0.000000000000000000e+00,0.000000000000000000e+00,5.288140686809355007e-01,-0.000000000000000000e+00,2.088249921798706055e-01,9.382809130783853391e+01,0.000000000000000000e+00
1.103367999999999904e+00,6.148435408855601990e-03,5.685880102750591469e-02,9.024139046669006348e-01,1.507409220767018561e-02,-5.847829553029315619e-03,2.710735985805545328e-05,6.936099806937816303e-02,7.546886398046463718e-02,-6.999900192022323608e-02,7.721130969800940602e-03,6.133592121094454119e-02,1.213003538349180857e-02,-7.310507761297516290e-03,1.335308130398365871e-02,-7.572507209396839301e-06,0.000000000000000000e+00,0.000000000000000000e+00,0.000000000000000000e+00,5.289540291973594544e-01,-0.000000000000000000e+00,-1.596740484237670898e-01,1.006996782544107276e+02,0.000000000000000000e+00
1.122616000000000058e+00,6.516752894965338605e-03,5.796491855175297386e-02,9.018170237541198730e-01,1.532355908353136460e-02,-5.893028599923910704e-03,-2.371373781141258689e-04,8.336000609821427043e-02,9.054980155582467716e-02,-7.974345237016677856e-02,3.562384987142850137e-03,4.606312085133978940e-02,-3.679231612385099742e-02,5.302812112512699308e-03,2.471617664572942075e-02,-8.315444142313888065e-04,0.000000000000000000e+00,0.000000000000000000e+00,0.000000000000000000e+00,5.298800309264051211e-01,-0.000000000000000000e+00,-4.621449708938598633e-01,9.333232885712233440e+01,0.000000000000000000e+00
1.147156000000000065e+00,7.833967047485321938e-03,6.156885771317349015e-02,8.997597694396972656e-01,1.572648235494740129e-02,-6.225879526684963139e-03,-3.569956101569205192e-04,6.549580369499356791e-02,8.559600487703783456e-02,-7.249277085065841675e-02,2.663112634125923417e-02,-3.010092294487909381e-02,-2.530974889256406082e-02,-4.989322615422770932e-04,7.988117323468503159e-03,-1.053670311502552526e-03,0.000000000000000000e+00,0.000000000000000000e+00,0.000000000000000000e+00,5.296538168554847381e-01,-0.000000000000000000e+00,-3.567334413528442383e-01,5.910585477521657083e+01,0.000000000000000000e+00
1.172085000000000043e+00,9.046544488866751013e-03,6.498763385112796276e-02,8.977471590042114258e-01,1.545460636383692681e-02,-6.611123270252594608e-03,-3.020944014607721082e-04,7.116510282537415188e-02,8.729666651218291606e-02,-7.008313387632369995e-02,-3.050169392773396417e-03,-1.547434443114940536e-02,3.714797317957065775e-02,5.773332180426334406e-03,1.330418256066491500e-02,-9.370668769642653828e-04,0.000000000000000000e+00,0.000000000000000000e+00,0.000000000000000000e+00,5.297896864552087415e-01,-0.000000000000000000e+00,1.804774999618530273e-01,9.431918190916245237e+01,0.000000000000000000e+00
1.200398999999999994e+00,1.074176726390190482e-02,6.963791805225845455e-02,8.950246572494506836e-01,1.490583807355362091e-02,-8.035089074140078225e-03,-1.914035800669626269e-04,7.507338500461616104e-02,8.890064663401509026e-02,-6.161707267165184021e-02,1.170504455832845417e-02,-6.483191972715876550e-02,1.314820196226786087e-02,1.371379578385737569e-02,7.610098356023943869e-03,-5.883081240320997551e-04,0.000000000000000000e+00,0.000000000000000000e+00,0.000000000000000000e+00,5.295327627104304824e-01,-0.000000000000000000e+00,-1.379228830337524414e-01,8.259856363304223237e+01,0.000000000000000000e+00
1.224458999999999964e+00,1.145912047984205123e-02,7.183280874818399886e-02,8.936484456062316895e-01,1.462472096592598754e-02,-8.684713469571336830e-03,-1.701619354682242587e-04,7.219388106008715889e-02,9.298079961044918018e-02,-7.456535100936889648e-02,-2.011587636029523590e-02,-6.569949269100096301e-02,3.406398216021542386e-02,1.990229004792798059e-02,1.151929279450419723e-03,-4.845211028142171195e-04,0.000000000000000000e+00,0.000000000000000000e+00,0.000000000000000000e+00,5.307342721081487191e-01,-0.000000000000000000e+00,-6.817042827606201172e-02,9.272864258733075360e+01,0.000000000000000000e+00
1.247031999999999918e+00,1.227884104172445590e-02,7.415955868220636127e-02,8.921529054641723633e-01,1.457520818725102814e-02,-9.194060655742353205e-03,-1.448021609264286773e-04,7.643450533823997750e-02,8.900235242786856682e-02,-6.940873712301254272e-02,-1.427522833874190350e-02,-1.033642388939075112e-02,3.492756057209413234e-02,1.858658003757689831e-02,2.292933377870773771e-03,-4.212948438694907871e-04,0.000000000000000000e+00,0.000000000000000000e+00,0.000000000000000000e+00,5.306327452004548917e-01,-0.000000000000000000e+00,1.868060827255249023e-01,1.003654907587003464e+02,0.000000000000000000e+00
1.275134999999999907e+00,1.405538299585137180e-02,7.862625876159723415e-02,8.895195722579956055e-01,1.494873027771331450e-02,-1.057840776627938517e-02,-3.267460310093502442e-04,7.602765457193928766e-02,9.223214821713646150e-02,-5.543866008520126343e-02,4.679758183373428776e-02,-2.852162302415386583e-02,-2.731444322296629895e-02,2.265287278079906527e-02,-6.140433536796443929e-03,-8.708339731082204160e-04,0.000000000000000000e+00,0.000000000000000000e+00,0.000000000000000000e+00,5.299729388225736804e-01,-0.000000000000000000e+00,2.127810716629028320e-01,8.084595075239529649e+01,0.000000000000000000e+00
1.297023999999999955e+00,1.504961416904015623e-02,8.081618880145224892e-02,8.882322311401367188e-01,1.531687385137558283e-02,-1.108817688575114424e-02,-4.465376216177432251e-04,7.735869278352247580e-02,1.007518119104133941e-01,-6.428213417530059814e-02,7.338907550666355639e-02,-5.316240838836289173e-02,1.027048169187816905e-02,2.791718494449874077e-02,-7.653889494142139191e-03,-1.192873145543282831e-03,0.000000000000000000e+00,0.000000000000000000e+00,0.000000000000000000e+00,5.308727603458498479e-01,-0.000000000000000000e+00,1.325460672378540039e-01,7.455753218734795951e+01,0.000000000000000000e+00
1.322764999999999969e+00,1.660772732035700056e-02,8.394822734540270670e-02,8.862956166267395020e-01,1.573426097989791272e-02,-1.126494917924913963e-02,-7.314443512415630009e-04,7.826853353307451633e-02,9.204660740410258724e-02,-5.627071484923362732e-02,-1.247585375154382573e-02,3.064749060843018069e-02,-2.763003643958376193e-02,1.995284209699104208e-02,-7.020901227956571553e-03,-1.996039511050817783e-03,0.000000000000000000e+00,0.000000000000000000e+00,0.000000000000000000e+00,5.305856218447769779e-01,0.000000000000000000e+00,2.561589479446411133e-01,9.603556063626245987e+01,0.000000000000000000e+00
1.349903999999999993e+00,1.821664257461121442e-02,8.697184839474771112e-02,8.844898939132690430e-01,1.609234086632773536e-02,-1.146068534764776992e-02,-8.830810206140624020e-04,7.321927793709197274e-02,8.554014015338062826e-02,-4.688209295272827148e-02,-2.678018720333297676e-03,-1.207928561390880090e-02,8.967431293588255803e-03,1.640167500196827374e-02,-1.094799123848394853e-02,-2.391059660019234645e-03,0.000000000000000000e+00,0.000000000000000000e+00,0.000000000000000000e+00,5.301844195261181669e-01,-0.000000000000000000e+00,-4.261100292205810547e-02,9.102766593680911456e+01,0.000000000000000000e+00
1.371488000000000040e+00,1.931872250011228490e-02,8.899706035215897149e-02,8.832316398620605469e-01,1.630032376068020136e-02,-1.156418611743248448e-02,-8.793265325782511840e-04,8.624717220682655283e-02,9.713940628091072282e-02,-6.033258140087127686e-02,2.472281263928026787e-02,-2.800088014519543783e-02,5.144578294921201000e-02,2.618721001646007532e-02,-2.175960101242777403e-04,-2.460698011224060622e-03,0.000000000000000000e+00,0.000000000000000000e+00,0.000000000000000000e+00,5.314238483705656657e-01,-0.000000000000000000e+00,2.156308889389038086e-01,8.069081666577679357e+01,0.000000000000000000e+00
1.398476999999999970e+00,2.161710524456540716e-02,9.330206185123161855e-02,8.806229829788208008e-01,1.637000062223844393e-02,-1.174568920515373094e-02,-1.108075611027087033e-03,8.088597322224908015e-02,1.003879552871989184e-01,-5.862651765346527100e-02,8.234262936763575569e-03,-2.646508817140378819e-02,-3.851496630373936469e-02,2.972078003769246593e-02,-5.659583330884987960e-03,-3.057553106852572977e-03,0.000000000000000000e+00,0.000000000000000000e+00,0.000000000000000000e+00,5.316528706501225665e-01,-0.000000000000000000e+00,3.543025255203247070e-01,-4.836842856974134719e+01,0.000000000000000000e+00
1.421389999999999931e+00,2.272218988739327719e-02,9.560529395334803338e-02,8.794546723365783691e-01,1.614737700080322302e-02,-1.196731840266340718e-02,-1.051454339194167389e-03,6.417843238111907433e-02,8.951619323021883790e-02,-4.263157397508621216e-02,6.665180284977606333e-03,-1.845106462185656937e-02,2.649324940099176667e-03,2.477097642821037352e-02,-1.794361162712865970e-02,-2.804925878114816751e-03,0.000000000000000000e+00,0.000000000000000000e+00,0.000000000000000000e+00,5.307210580571520842e-01,-0.000000000000000000e+00,-4.144052267074584961e-01,9.922124282742645107e+01,0.000000000000000000e+00
1.448083000000000009e+00,2.463906135598427707e-02,9.918364260546029543e-02,8.777582049369812012e-01,1.628718006266189830e-02,-1.255367078154590033e-02,-9.779739834207712857e-04,7.644410320802141889e-02,9.044927172425837325e-02,-4.500984400510787964e-02,1.528030114319115819e-02,-3.596854096581070942e-02,3.218632248739642515e-02,2.867909677630143400e-02,-8.673148685506917172e-03,-2.669583378071327395e-03,0.000000000000000000e+00,0.000000000000000000e+00,0.000000000000000000e+00,5.311793743289279224e-01,-0.000000000000000000e+00,2.948962450027465820e-01,8.972747112640549005e+01,0.000000000000000000e+00
1.475742000000000109e+00,2.649279778219847808e-02,1.026214292226877989e-01,8.760925531387329102e-01,1.674946962849771168e-02,-1.317957972474270711e-02,-1.249281989447910629e-03,8.092567299697243921e-02,9.849270235053791955e-02,-4.736846685409545898e-02,3.039231934137468991e-02,-1.377319824171902019e-02,-2.097953545813545720e-02,3.422436637612498445e-02,-9.710314373923440226e-03,-3.417422303496953084e-03,0.000000000000000000e+00,0.000000000000000000e+00,0.000000000000000000e+00,5.316366992093723987e-01,-0.000000000000000000e+00,2.308892011642456055e-01,9.097044261194274384e+01,0.000000000000000000e+00
1.497287999999999952e+00,2.773690288484952776e-02,1.049041962408845813e-01,8.749906420707702637e-01,1.707798436722797464e-02,-1.338572500823365097e-02,-1.166217566613883625e-03,7.320795233951941927e-02,9.067927579013110306e-02,-4.008226469159126282e-02,6.175794513139622882e-02,-2.951932007276647854e-02,2.863351838021158807e-02,2.714597856830479328e-02,-1.638876866242533481e-02,-3.130561525921005117e-03,0.000000000000000000e+00,0.000000000000000000e+00,0.000000000000000000e+00,5.313331042726275877e-01,-0.000000000000000000e+00,3.128522634506225586e-01,7.984661211455238572e+01,0.000000000000000000e+00
1.523789000000000060e+00,3.046973811003500163e-02,1.099493301665576822e-01,8.730406165122985840e-01,1.808736933630305035e-02,-1.321412991178316787e-02,-1.657655066424595491e-03,7.305849882874128343e-02,9.051874899626827231e-02,-3.662734478712081909e-02,3.725506520001777705e-02,3.631854623332797516e-02,-1.513183891822682953e-02,2.523274788978015909e-02,-1.242467941175639037e-02,-4.534957456492183514e-03,0.000000000000000000e+00,0.000000000000000000e+00,0.000000000000000000e+00,5.313807732110947812e-01,-0.000000000000000000e+00,4.445898532867431641e-02,9.369373465667521828e+01,0.000000000000000000e+00
1.546221999999999985e+00,3.197819095051512156e-02,1.126227324860486906e-01,8.720476031303405762e-01,1.865905810274607127e-02,-1.307903851701630593e-02,-1.809506824769604614e-03,7.233774460797834371e-02,9.383190847163964954e-02,-3.896486759185791016e-02,4.437686049183670045e-02,2.145500867726013710e-03,-1.535112078112713802e-02,2.618302501797967544e-02,-1.093993480903575864e-02,-4.970050649009738475e-03,0.000000000000000000e+00,0.000000000000000000e+00,0.000000000000000000e+00,5.317785097224976276e-01,-0.000000000000000000e+00,1.074899435043334961e-01,9.013956375978904134e+01,0.000000000000000000e+00
1.575617999999999963e+00,3.400326013124208013e-02,1.164646486715156942e-01,8.708719015121459961e-01,1.942144338651314445e-02,-1.283956305031819234e-02,-1.902153693338780012e-03,6.893082829132922418e-02,9.585178839252057881e-02,-2.525766380131244659e-02,1.271624570858782485e-02,1.229735482588865426e-02,3.994492237953315567e-02,2.563351053249796063e-02,-1.018477022685150037e-02,-5.233161141238507064e-03,0.000000000000000000e+00,0.000000000000000000e+00,0.000000000000000000e+00,5.310216019312395952e-01,0.000000000000000000e+00,-2.704823017120361328e-02,9.499756995790646386e+01,0.000000000000000000e+00
1.600578999999999974e+00,3.604684167815829648e-02,1.201830419832883440e-01,8.697054386138916016e-01,1.991271074230237248e-02,-1.271132487883974704e-02,-2.138799189295689622e-03,7.302284965883783230e-02,8.623901513489326542e-02,-2.079617045819759369e-02,2.748173804058728215e-02,1.497705035475902467e-02,-1.788263939438934289e-02,1.779809959458087190e-02,-4.179522798524178823e-03,-5.951331474663090759e-03,0.000000000000000000e+00,0.000000000000000000e+00,0.000000000000000000e+00,5.309195458726981842e-01,-0.000000000000000000e+00,1.449180841445922852e-01,9.226769361081410636e+01,0.000000000000000000e+00
1.622049999999999992e+00,3.752760929657033423e-02,1.221540366550909334e-01,8.688544034957885742e-01,1.993571347186756659e-02,-1.283726911670157733e-02,-2.188809086450485986e-03,6.553055753929182270e-02,9.181718948599462693e-02,-2.182649448513984680e-02,5.568031807420965179e-02,-6.379177663818969002e-02,-1.728822733543110626e-02,2.500295322993514521e-02,-1.013155143308978531e-02,-6.034464687976137665e-03,0.000000000000000000e+00,0.000000000000000000e+00,0.000000000000000000e+00,5.312004291781936560e-01,-0.000000000000000000e+00,-4.352368116378784180e-01,8.889194091542699994e+01,0.000000000000000000e+00
1.648835000000000051e+00,3.978008634607186483e-02,1.250748156227697583e-01,8.677710890769958496e-01,1.972269856229094329e-02,-1.290949124207574350e-02,-1.978248352540625324e-03,6.980022809799175942e-02,9.179464043440296872e-02,-2.113880030810832977e-02,-2.948677992365754050e-02,1.407607947426928012e-02,2.811611409700542560e-02,2.796924101726325218e-02,-4.607560084283740705e-03,-5.496730043457798143e-03,0.000000000000000000e+00,0.000000000000000000e+00,0.000000000000000000e+00,5.313744383558126616e-01,-0.000000000000000000e+00,1.660662889480590820e-01,9.366597676788828153e+01,0.000000000000000000e+00
1.675327000000000011e+00,4.198489467119100038e-02,1.278033172845849386e-01,8.667433261871337891e-01,2.018777333369513663e-02,-1.345426049190412421e-02,-2.109124109555087639e-03,6.166071283283599408e-02,8.520005045873096927e-02,-1.398318540304899216e-02,4.391608230453613627e-03,2.045901205720146790e-02,-1.049512969676158133e-02,2.240329611918728814e-02,-1.323321985309546152e-02,-5.781777653146358276e-03,0.000000000000000000e+00,0.000000000000000000e+00,0.000000000000000000e+00,5.310609335277570731e-01,-0.000000000000000000e+00,-1.434599161148071289e-01,9.860020104695387033e+01,0.000000000000000000e+00
1.695910999999999946e+00,4.344302686094588667e-02,1.296719038295093551e-01,8.659796714782714844e-01,2.051840779931402362e-02,-1.401947768533906569e-02,-1.955952721529740854e-03,7.809448556398121410e-02,9.210349644264734237e-02,-1.893347129225730896e-02,7.378226877934963845e-02,-8.718340447895733814e-02,3.752878760209883008e-02,2.803479718503166032e-02,-2.102092089788493330e-03,-5.457174499862493811e-03,0.000000000000000000e+00,0.000000000000000000e+00,0.000000000000000000e+00,5.316315747113929957e-01,-0.000000000000000000e+00,5.293186902999877930e-01,7.559081003517665920e+01,0.000000000000000000e+00
1.722962000000000105e+00,4.653023673681561112e-02,1.332323438084420941e-01,8.648046851158142090e-01,2.172249150921725172e-02,-1.441982721515500110e-02,-2.255069520508717461e-03,7.766179588043113646e-02,8.314432756966519400e-02,-1.015078648924827576e-02,7.090451381845468137e-02,-8.997496831967386269e-03,-1.898982620273535022e-03,1.548283123048793501e-02,-5.002788577156870239e-03,-6.265968627216622622e-03,0.000000000000000000e+00,0.000000000000000000e+00,0.000000000000000000e+00,5.312098968355407624e-01,-0.000000000000000000e+00,4.685509204864501953e-02,5.394997378211114381e+01,0.000000000000000000e+00
1.750602999999999909e+00,4.888371651417818681e-02,1.358918350998109259e-01,8.639655113220214844e-01,2.276158015753685510e-02,-1.438560563005997217e-02,-2.491191264343271036e-03,7.351851031258851976e-02,9.099380425397766980e-02,-8.820163086056709290e-03,5.072364653755620512e-02,1.485627735208627483e-03,-4.756078485135438461e-02,1.826497340682114653e-02,-6.150477983811260436e-03,-6.912830222944255087e-03,0.000000000000000000e+00,0.000000000000000000e+00,0.000000000000000000e+00,5.313180207101588781e-01,-0.000000000000000000e+00,8.194626569747924805e-01,2.583671708285272928e+01,0.000000000000000000e+00
1.772501000000000104e+00,5.048589436638036693e-02,1.376375530693569049e-01,8.633259534835815430e-01,2.354307191541459357e-02,-1.448477809227388668e-02,-2.555524279549668560e-03,5.977975334782265060e-02,7.984579982778405860e-02,2.937734592705965042e-03,8.186775604363170922e-02,-3.020837838353681443e-02,7.873305963063641569e-03,5.676441044201143565e-03,-1.520134063719342545e-02,-6.999977313409844193e-03,0.000000000000000000e+00,0.000000000000000000e+00,0.000000000000000000e+00,5.306232781055670866e-01,-0.000000000000000000e+00,-9.922158718109130859e-02,1.004321055936754874e+02,0.000000000000000000e+00
1.799695000000000045e+00,5.288096159944848107e-02,1.402687749040048004e-01,8.623147010803222656e-01,2.424151937029994305e-02,-1.426880217017889585e-02,-3.070351989239803597e-03,7.845773757095386713e-02,7.900204474801712784e-02,1.048308913595974445e-03,-1.725573277294081484e-02,6.744081035721242665e-03,-1.574193242456039046e-02,4.264974526898453189e-03,4.053748427142869065e-03,-8.641569577145680192e-03,0.000000000000000000e+00,0.000000000000000000e+00,0.000000000000000000e+00,5.309737530956740725e-01,-0.000000000000000000e+00,3.886491060256958008e-01,5.412402749273057623e+01,0.000000000000000000e+00
1.821342000000000017e+00,5.430902645709943105e-02,1.421358937066765360e-01,8.617570996284484863e-01,2.457856451528791716e-02,-1.411875730399492213e-02,-3.189793957478572351e-03,6.050208135817568972e-02,6.808621168955411584e-02,6.401685066521167755e-03,2.199742444547375664e-02,-8.761562325704767493e-03,-1.559282554488898749e-02,-4.236281827181401227e-03,-9.977798554628785135e-03,-8.829032382235424414e-03,0.000000000000000000e+00,0.000000000000000000e+00,0.000000000000000000e+00,5.307294870601563241e-01,0.000000000000000000e+00,-4.477021694183349609e-01,6.613336128016182158e+01,0.000000000000000000e+00
1.847693999999999948e+00,5.721800990334455911e-02,1.467033544044012150e-01,8.604180216789245605e-01,2.449140608121163840e-02,-1.394841724197215527e-02,-3.127020130350598691e-03,5.756113370640143084e-02,7.689701317585299900e-02,-1.447246526367962360e-03,-1.881031639428956681e-02,1.068266262543249995e-02,1.994807640770517379e-02,7.642297546677616522e-03,-6.712766302599241890e-03,-8.685207520940041448e-03,0.000000000000000000e+00,0.000000000000000000e+00,0.000000000000000000e+00,5.315362471336309014e-01,-0.000000000000000000e+00,-7.948195934295654297e-02,1.218860507955765229e+02,0.000000000000000000e+00
1.873710999999999904e+00,5.931491599245260204e-02,1.499495035881026062e-01,8.595414757728576660e-01,2.392322131755159759e-02,-1.457443454738371891e-02,-3.190610543211265006e-03,6.598861028629215975e-02,7.230922705947867568e-02,1.471464429050683975e-02,-1.298779476828768389e-02,-4.417878405693525384e-02,-1.961616515645758091e-02,9.788265777290663244e-03,-2.026602565839810948e-03,-8.914058255982348911e-03,0.000000000000000000e+00,0.000000000000000000e+00,0.000000000000000000e+00,5.305536241688282306e-01,-0.000000000000000000e+00,1.237381696701049805e-01,9.210245767441315934e+01,0.000000000000000000e+00
1.900479999999999947e+00,6.141587115725733598e-02,1.530644505245513098e-01,8.586696386337280273e-01,2.340976101876086901e-02,-1.516613998749893888e-02,-2.826242230636995690e-03,7.012556155616822551e-02,8.076272113892579707e-02,2.905778819695115089e-03,-9.620311271936266354e-03,-3.600557163067881483e-02,4.334206443442464168e-02,2.229289854794228726e-02,-2.449546187757702109e-03,-7.888778743355362444e-03,0.000000000000000000e+00,0.000000000000000000e+00,0.000000000000000000e+00,5.316088124780392610e-01,-0.000000000000000000e+00,2.858082056045532227e-01,9.896254941261221916e+01,0.000000000000000000e+00
1.920152000000000081e+00,6.282178347359541892e-02,1.550906177211952286e-01,8.581092953681945801e-01,2.316068326365693791e-02,-1.554999013374347427e-02,-2.795284257148727969e-03,6.018639962756468231e-02,6.915093299928222470e-02,7.975748740136623383e-03,-8.811850819944394911e-03,-2.074517254037842873e-02,5.279351797541585040e-02,1.593644707152008094e-02,-1.175876988526348109e-02,-7.704957247470556325e-03,0.000000000000000000e+00,0.000000000000000000e+00,0.000000000000000000e+00,5.313900555344550636e-01,-0.000000000000000000e+00,3.544164896011352539e-01,5.408701469761827951e+01,0.000000000000000000e+00
1.946709999999999940e+00,6.503810649638396002e-02,1.579843324734636067e-01,8.572416305541992188e-01,2.324183042173204664e-02,-1.597097943183256596e-02,-2.886992838283794494e-03,6.601471844797711375e-02,7.822254165930948855e-02,1.289787609130144119e-02,3.011421056529808848e-02,-7.563461110255977581e-03,-4.596796390314384501e-02,2.654874062994862227e-02,-6.909286963921690457e-03,-8.010222948018452804e-03,0.000000000000000000e+00,0.000000000000000000e+00,0.000000000000000000e+00,5.312375512967042468e-01,-0.000000000000000000e+00,6.179343461990356445e-01,1.307762660004001418e+02,0.000000000000000000e+00
1.975500999999999951e+00,6.716061061918789099e-02,1.606800804221565904e-01,8.565716743469238281e-01,2.324250910926039040e-02,-1.617389941180946700e-02,-2.771918326253212765e-03,6.500059523496386216e-02,6.943877849102028654e-02,1.368384528905153275e-02,-1.631183348751669149e-02,-1.782945245010387494e-04,1.239589923027941028e-02,2.089301349516386325e-02,-8.107317024757547744e-03,-7.676266970910561316e-03,0.000000000000000000e+00,0.000000000000000000e+00,0.000000000000000000e+00,5.313396383311597138e-01,-0.000000000000000000e+00,-1.730817556381225586e-01,9.530083035705501970e+01,0.000000000000000000e+00
1.997392000000000056e+00,6.858067972564758918e-02,1.624775913296434282e-01,8.560425639152526855e-01,2.359939863958707140e-02,-1.601820314111046528e-02,-2.844145938813821134e-03,6.432869250153602780e-02,6.517605439013993140e-02,1.899722963571548462e-02,-4.469831452246489888e-03,1.971037423543161096e-02,1.104289085038198497e-02,1.849954970777455132e-02,-6.122841960174686682e-03,-7.899336524611333399e-03,0.000000000000000000e+00,0.000000000000000000e+00,0.000000000000000000e+00,5.311095766157601927e-01,0.000000000000000000e+00,4.319179058074951172e-02,4.907446863934014658e+01,0.000000000000000000e+00
2.020450999999999997e+00,6.998924522588870212e-02,1.642001628906472888e-01,8.555957078933715820e-01,2.408388585780104826e-02,-1.597893351576273879e-02,-3.121089544122072554e-03,6.083380349113734487e-02,6.918740623437896753e-02,2.245822176337242126e-02,2.095443466247525269e-02,2.519786440498513955e-03,-2.232735417337649089e-02,2.088238798160233986e-02,-7.192771202175011688e-03,-8.661543793483772458e-03,0.000000000000000000e+00,0.000000000000000000e+00,0.000000000000000000e+00,5.310103507593553207e-01,-0.000000000000000000e+00,3.646528720855712891e-02,9.803481847802773075e+01,0.000000000000000000e+00
2.049075999999999897e+00,7.278496599791155208e-02,1.668897331400565620e-01,8.548718094825744629e-01,2.462460835077316321e-02,-1.572652647713357332e-02,-3.180061558275607686e-03,6.445323785464603106e-02,6.296558676452820857e-02,2.652577497065067291e-02,-6.500503739042580963e-03,1.586233487354138730e-02,1.052794795296405767e-02,1.451366793748432721e-02,-1.522079264829202371e-04,-8.904470165742250920e-03,0.000000000000000000e+00,0.000000000000000000e+00,0.000000000000000000e+00,5.308778460543531752e-01,0.000000000000000000e+00,1.395088434219360352e-01,1.040504392876247550e+02,0.000000000000000000e+00
2.072486000000000050e+00,7.421125680153756177e-02,1.682093858566989231e-01,8.545873761177062988e-01,2.492266311029990924e-02,-1.538084087298452474e-02,-3.408409284341783890e-03,6.604840195672191661e-02,6.287336913148640349e-02,2.785890735685825348e-02,-7.218239289760069663e-03,5.885003989125988516e-02,-3.325962065235222448e-02,1.493878001552413105e-02,4.069908277704525727e-03,-9.591435625468824888e-03,0.000000000000000000e+00,0.000000000000000000e+00,0.000000000000000000e+00,5.309145049769392610e-01,-0.000000000000000000e+00,1.786955595016479492e-01,5.697779664117779674e+01,0.000000000000000000e+00
2.099960999999999967e+00,7.696675991473514444e-02,1.707969437867975782e-01,8.537994623184204102e-01,2.526376386485251063e-02,-1.528068905150847812e-02,-3.240334440301471160e-03,5.833140148078019838e-02,5.993464434820201109e-02,3.173493966460227966e-02,-2.876835283808202963e-03,-3.045069224439914644e-03,9.455036707211070951e-03,1.283435725916407151e-02,7.652443409309248696e-04,-9.083764175550235187e-03,0.000000000000000000e+00,0.000000000000000000e+00,0.000000000000000000e+00,5.307932453092100156e-01,-0.000000000000000000e+00,2.434369325637817383e-01,1.004922590696957911e+02,0.000000000000000000e+00
2.122202999999999840e+00,7.838963333090774588e-02,1.717602884269265329e-01,8.535389900207519531e-01,2.514599304399688443e-02,-1.529913923259385022e-02,-3.087433962098396715e-03,6.390181326019726826e-02,5.980561571012623506e-02,3.102966770529747009e-02,-3.704019611964471520e-02,7.404104166868704512e-03,5.925737610512829545e-02,1.516408891905615675e-02,7.262812820559808036e-03,-8.729123682644834847e-03,0.000000000000000000e+00,0.000000000000000000e+00,0.000000000000000000e+00,5.309759497897731384e-01,-0.000000000000000000e+00,1.723927259445190430e-01,1.364264853497798242e+02,0.000000000000000000e+00
2.148625000000000007e+00,8.059345178269990140e-02,1.728596536813957751e-01,8.531257510185241699e-01,2.535119103838107124e-02,-1.553310114242245632e-02,-3.056245410643449335e-03,6.039427283200990426e-02,5.371671240916239820e-02,4.048760607838630676e-02,2.544322324683736050e-02,-1.897478598692954339e-03,-1.246320374907164928e-02,1.089667570860432255e-02,4.258054703056614494e-03,-8.607445790705992028e-03,0.000000000000000000e+00,0.000000000000000000e+00,0.000000000000000000e+00,5.304154286478977021e-01,-0.000000000000000000e+00,2.204426527023315430e-01,5.442767721266183401e+01,0.000000000000000000e+00
2.170144000000000073e+00,8.201992377784396437e-02,1.735833806732040019e-01,8.528551459312438965e-01,2.554634616875608652e-02,-1.593192309151958419e-02,-2.930613373733736548e-03,6.081096964723858855e-02,5.550992642234898328e-02,3.460392355918884277e-02,5.587227414290067001e-02,-7.509174780919720960e-02,-1.036503788023978266e-02,1.274924543338058422e-02,3.644436957715089988e-03,-8.249254849183540461e-03,0.000000000000000000e+00,0.000000000000000000e+00,0.000000000000000000e+00,5.309680534533316454e-01,-0.000000000000000000e+00,3.175350427627563477e-01,7.610560822310968376e+01,0.000000000000000000e+00
2.198841999999999963e+00,8.407639546513136219e-02,1.745055333872186643e-01,8.525123000144958496e-01,2.577285694665142762e-02,-1.635926351660144107e-02,-2.960145754674678182e-03,6.780467510885127003e-02,5.324387238531839983e-02,3.095395490527153015e-02,1.375041659755936972e-02,-1.019093500050236370e-02,1.746073692074926603e-02,1.042033757076428653e-02,7.736755427075700867e-03,-8.378735397447933941e-03,0.000000000000000000e+00,0.000000000000000000e+00,0.000000000000000000e+00,5.313669527674714788e-01,-0.000000000000000000e+00,3.838375806808471680e-01,8.899020001682680459e+01,0.000000000000000000e+00
2.224985999999999908e+00,8.612946222598422130e-02,1.753041062251732840e-01,8.524168133735656738e-01,2.662082505024118695e-02,-1.669422795519914793e-02,-3.015048326890558232e-03,5.516069264607358774e-02,4.316038007154184009e-02,4.773351177573204041e-02,1.721516675382739293e-03,3.633405528172538312e-02,-2.269948826774535050e-02,-7.007464362301200900e-04,-3.005557634129456257e-03,-8.409580207878186719e-03,0.000000000000000000e+00,0.000000000000000000e+00,0.000000000000000000e+00,5.302397585195318674e-01,-0.000000000000000000e+00,-9.934294223785400391e-02,1.026463982810802520e+02,0.000000000000000000e+00
2.252451999999999899e+00,8.738746305242478529e-02,1.766100146564537343e-01,8.523529171943664551e-01,2.725265796417309858e-02,-1.690974074274165240e-02,-2.897092260192970451e-03,6.336361576096488646e-02,4.636767052827419494e-02,4.496129229664802551e-02,6.349392910141750390e-02,-5.820407523763700824e-02,3.665041493049399357e-02,4.202647885558404711e-04,4.787755082313131447e-03,-8.169895183846809239e-03,0.000000000000000000e+00,0.000000000000000000e+00,0.000000000000000000e+00,5.305536376591994951e-01,-0.000000000000000000e+00,3.348215818405151367e-01,-1.800721659575375355e+01,0.000000000000000000e+00
2.277673000000000059e+00,8.925610173409039005e-02,1.784719669515070217e-01,8.521907925605773926e-01,2.784834492951087509e-02,-1.637789913820397736e-02,-3.145210838266870694e-03,6.899164603996682521e-02,4.462854951294167871e-02,3.985013067722320557e-02,-1.421818401675547247e-03,3.925199420318961629e-02,-8.801561615580471426e-03,-3.590143956547700924e-03,1.282459151236630540e-02,-8.960761294850294600e-03,0.000000000000000000e+00,0.000000000000000000e+00,0.000000000000000000e+00,5.310364811335301916e-01,-0.000000000000000000e+00,-2.819288969039916992e-01,5.196378209222811506e+01,0.000000000000000000e+00
2.298331000000000124e+00,9.049195061506201676e-02,1.796260067877403777e-01,8.522397875785827637e-01,2.848527530619230849e-02,-1.639160585991250585e-02,-3.307175481149753592e-03,5.426425116840457447e-02,3.221993203164608133e-02,5.838377028703689575e-02,8.058784945265370925e-02,-3.232842065656384503e-03,-4.039857255117459967e-02,-1.493230253558112258e-02,2.336358683193192308e-03,-9.289591744581937593e-03,0.000000000000000000e+00,0.000000000000000000e+00,0.000000000000000000e+00,5.297579540701063960e-01,-0.000000000000000000e+00,-2.022850513458251953e-02,9.372177258321811166e+01,0.000000000000000000e+00
2.322700999999999905e+00,9.295816236393623921e-02,1.817950331200425262e-01,8.522775769233703613e-01,2.862996042121297366e-02,-1.568851669819526506e-02,-3.219393003677975540e-03,5.497372498822002129e-02,3.977739794287059316e-02,4.943517223000526428e-02,3.368674306696028964e-02,-1.058733373072361268e-02,1.366528947894326759e-02,-6.717089630268742451e-03,1.121728128002020750e-02,-9.152287036713335766e-03,0.000000000000000000e+00,0.000000000000000000e+00,0.000000000000000000e+00,5.305075282419180471e-01,-0.000000000000000000e+00,2.112778425216674805e-01,8.586148843352988536e+01,0.000000000000000000e+00
2.347194000000000003e+00,9.426111140994845872e-02,1.825381211252604108e-01,8.523240089416503906e-01,2.817568976296162472e-02,-1.540464093449722682e-02,-3.179346513718620156e-03,5.486417295542091871e-02,2.967333553832650003e-02,4.858181253075599670e-02,-6.927494895192291835e-02,6.490079182481908737e-02,1.209798526624046230e-02,-1.146042425212087310e-02,1.413370610545450906e-02,-9.070190311961212615e-03,0.000000000000000000e+00,0.000000000000000000e+00,0.000000000000000000e+00,5.306462895020759296e-01,-0.000000000000000000e+00,8.395091295242309570e-01,-9.011337510696391107e+00,0.000000000000000000e+00
2.377885000000000026e+00,9.673578757080149304e-02,1.838323630176829371e-01,8.521026372909545898e-01,2.752713872650998719e-02,-1.543440354205771747e-02,-2.852226408808964785e-03,6.194491875746418325e-02,2.935456217900643885e-02,5.235955864191055298e-02,-3.170775244950090749e-02,-1.923372009468955757e-02,7.763204807160577203e-04,-4.538917905799398980e-03,2.147546717410714345e-02,-8.239208282741272704e-03,0.000000000000000000e+00,0.000000000000000000e+00,0.000000000000000000e+00,5.304879608624285536e-01,-0.000000000000000000e+00,2.823020219802856445e-01,1.039519206390364872e+02,0.000000000000000000e+00
2.402327000000000101e+00,9.797022896581079887e-02,1.844205536875497820e-01,8.520445823669433594e-01,2.706856024577639075e-02,-1.561940832464880913e-02,-2.651906502418282640e-03,6.232446982357891380e-02,2.536493884395893753e-02,4.637193307280540466e-02,-3.610579240026651898e-02,-2.752866802936405899e-02,4.839709286563285279e-02,-3.800635404416531637e-03,2.070034962431241063e-02,-7.665464176712433186e-03,0.000000000000000000e+00,0.000000000000000000e+00,0.000000000000000000e+00,5.310138590871206210e-01,-0.000000000000000000e+00,1.108464002609252930e-01,6.116751322523906964e+01,0.000000000000000000e+00
2.427608999999999906e+00,9.979770145239168222e-02,1.852556583969986459e-01,8.518412113189697266e-01,2.625914879883252742e-02,-1.571610891185115655e-02,-2.384883050102419143e-03,6.395777787132470027e-02,2.874039015022767860e-02,4.798023030161857605e-02,-1.768400032263729368e-02,1.485809198498751725e-02,-2.738079379248688563e-02,5.773089207045710783e-03,2.294267379433791859e-02,-6.942824209300646476e-03,0.000000000000000000e+00,0.000000000000000000e+00,0.000000000000000000e+00,5.310129131431122751e-01,-0.000000000000000000e+00,8.850276470184326172e-02,9.442773410564146275e+01,0.000000000000000000e+00
