timestamp,x,y,z,roll,pitch,yaw,vx,vy,vz,p,q,r,psp,qsp,rsp,pres,qres,rres,thrust_sp, thrust_res
0.000000000000000000e+00,-2.085161089743762033e-02,2.491583462697814777e-02,9.944273233413696289e-01,1.356599680069516846e-02,-7.231190633727457850e-03,3.379530424925030873e-03,1.794310053538187427e-02,-3.179754708111914852e-02,3.912411164492368698e-03,-8.971350899797735784e-03,-5.068194519679805089e-03,-4.386650527685265200e-02,-3.082183911305455548e-01,1.718643294350413186e-01,-1.421476026971768281e-01,-2.099300086498260554e-01,2.174233138561248724e-01,-1.517280578613281194e-01,5.259557172378995782e-01,7.476129531860351562e-01,-8.278292417526245117e-01,5.928667037311431898e+01,0.000000000000000000e+00
4.125199999999999700e-02,-2.061869688646585097e-02,2.346511840853991726e-02,9.938234686851501465e-01,1.311264191415659024e-02,-7.094011123491616999e-03,3.553259638681063783e-03,1.405583538331742037e-02,-2.825905870065699432e-02,1.366658951155841351e-03,-2.877257488449048387e-03,-3.811626234942531305e-02,-1.583605832180606451e-02,-2.950751354937952708e-01,1.657677796283072436e-01,-1.374547045253241007e-01,-2.063591480255126953e-01,2.160676717758178711e-01,-1.475400209426879772e-01,5.261696860829221389e-01,7.465944290161132812e-01,-7.647455930709838867e-01,9.581682382809280796e+01,0.000000000000000000e+00
7.787199999999999678e-02,-2.024435586929862474e-02,2.216920336843637707e-02,9.931496977806091309e-01,1.247482057185687714e-02,-7.106537608222662783e-03,3.645977387061377639e-03,1.094811220595612831e-02,-3.208968433033957540e-02,5.352220963686704636e-03,-1.261551614563838873e-02,2.209829479803687366e-02,-2.714789750020632844e-02,-2.945318926167948548e-01,1.632147796175647814e-01,-1.369233602505229574e-01,-2.054997146129608210e-01,2.153441011905670166e-01,-1.472583532333373857e-01,5.259062010200590276e-01,7.452442646026611328e-01,-6.669985055923461914e-01,7.993689355500161753e+01,0.000000000000000000e+00
1.185029999999999972e-01,-1.986276946341079472e-02,2.088095339666222808e-02,9.925820231437683105e-01,1.238390983393363592e-02,-7.089242153283770165e-03,3.664097377099975652e-03,1.262520655961418131e-02,-2.818336746596500006e-02,2.345945918932557106e-03,3.927828012702899718e-02,-6.397569092494575019e-03,-2.987932912932845381e-02,-2.904497839114223989e-01,1.655909390616631949e-01,-1.369542875915445157e-01,-2.048844695091247559e-01,2.155697643756866455e-01,-1.473386049270629938e-01,5.261866718141010590e-01,7.461528778076171875e-01,-8.775712251663208008e-01,1.381923761181732573e+02,0.000000000000000000e+00
1.586269999999999902e-01,-1.963223874213159553e-02,1.947720503330379119e-02,9.919263124465942383e-01,1.165418996610676286e-02,-6.752128306716898010e-03,3.838501939342695880e-03,1.480577164591800714e-02,-2.417133619123859600e-02,-1.283306512050330639e-03,1.775818760894154816e-02,4.139394109357160539e-02,-1.750112445773829156e-02,-2.811546359206011925e-01,1.694111179255461674e-01,-1.360328494581768410e-01,-2.020903229713439941e-01,2.155518472194671575e-01,-1.468913555145263672e-01,5.264930825499244404e-01,7.454512119293212891e-01,-5.766807794570922852e-01,8.735064042732192036e+01,0.000000000000000000e+00
1.954079999999999984e-01,-1.952319023130078338e-02,1.867266842283163419e-02,9.916085004806518555e-01,1.073784219366823167e-02,-7.318364808651001141e-03,4.069484469666722129e-03,1.400807409121892361e-02,-2.673692765054643677e-02,8.099412079900503159e-04,-3.284227866809254909e-02,-7.984762125012347111e-02,-2.583639071777231390e-04,-2.785595270635700671e-01,1.645098121691964677e-01,-1.353643407445078162e-01,-2.022549569606781061e-01,2.152560889720916693e-01,-1.468652486801147461e-01,5.263767410277823133e-01,7.457408905029296875e-01,-7.135401964187622070e-01,1.013996018896077942e+02,0.000000000000000000e+00
2.439999999999999947e-01,-1.950519934360253962e-02,1.783003669441411351e-02,9.910827875137329102e-01,6.532952426501643754e-03,-8.449016936676878586e-03,6.118694635559104519e-03,9.144804291031958382e-03,-2.034866660254970594e-02,-5.703982431441545486e-03,-1.947374329010645444e-01,-6.779157695563275965e-02,3.599337058798732225e-02,-2.314143526226725422e-01,1.486381169450539108e-01,-1.222631681429051376e-01,-1.874201595783233643e-01,2.105370640754699596e-01,-1.394794106483459306e-01,5.268112570980283405e-01,7.408752441406250000e-01,-7.851740121841430664e-01,8.620970513779548128e+01,0.000000000000000000e+00
2.938270000000000048e-01,-2.025708965390999802e-02,1.723162200147444409e-02,9.900301694869995117e-01,-5.918675193363307115e-03,-1.460454924077381200e-02,1.040816280063758259e-02,-6.455351715069870301e-03,-1.041574787792609071e-02,-7.178476545959711075e-03,-2.570127425956398315e-01,-1.826302882604054212e-01,8.696547914919278144e-02,-9.516971459164737246e-02,9.601381421089172363e-02,-7.055620156400223275e-02,-1.387857913970947099e-01,1.960138142108917292e-01,-9.957239627838133933e-02,5.267978911577297918e-01,7.292335033416748047e-01,-9.987617731094360352e-01,8.943492729406467845e+01,0.000000000000000000e+00
3.380909999999999749e-01,-2.125622760834479374e-02,1.713115538103719346e-02,9.887346625328063965e-01,-2.101845528413296207e-02,-2.345976300136021209e-02,1.499495061438759110e-02,-6.473474572915607211e-03,5.080715091437533297e-03,-1.789925061166286469e-02,-2.787690040164726435e-01,-2.431895216565226059e-01,1.466334970414874261e-01,1.032796978950500516e-01,9.363753795623777632e-02,-3.923139922419152659e-02,3.279697895050048655e-03,1.936375379562377819e-01,-8.053346872329711359e-02,5.273261580782006019e-01,7.090731859207153320e-01,-5.983330011367797852e-01,8.981524588742932735e+01,0.000000000000000000e+00
3.798090000000000077e-01,-2.227539809065773313e-02,1.804375764331455148e-02,9.871976375579833984e-01,-3.653038690475739897e-02,-3.275832615064322439e-02,2.021730992054616288e-02,-1.237551129239667855e-02,2.395705271884077114e-02,-3.336353600025177002e-02,-3.509342999836939092e-01,-2.233042514670591783e-01,1.004822187540934386e-01,3.102618694305420144e-01,-4.430654048919678567e-02,2.750624011763257992e-01,2.102618694305419811e-01,5.569345951080321988e-02,2.200932383537292369e-01,5.285659470282288996e-01,7.071094512939453125e-01,-9.082943201065063477e-01,9.374149133935193845e+01,0.000000000000000000e+00
4.187790000000000123e-01,-2.310739063233651844e-02,1.908353409583939814e-02,9.862187504768371582e-01,-4.507782022315613701e-02,-3.801578124750393251e-02,2.339686702319234216e-02,-3.552197001719083896e-02,4.261333901993008544e-02,-3.326979279518127441e-02,-2.416682960306972827e-01,-1.705038402564253985e-01,1.242908878780263487e-01,3.168638944625854492e-01,-2.566367506980896107e-01,2.872711438981718213e-01,2.168638944625854437e-01,-1.566367506980896052e-01,2.241748452186584362e-01,5.282119594470172652e-01,6.814758777618408203e-01,-4.425383806228637695e-01,-8.349244585764743931e+00,0.000000000000000000e+00
4.634530000000000038e-01,-2.460053140759479312e-02,2.099921241064632571e-02,9.848114848136901855e-01,-5.592873713530398250e-02,-4.438118622982423211e-02,2.756344822107759454e-02,-3.676159872794879796e-02,6.293099714943692358e-02,-3.769157454371452332e-02,-2.287714792930622965e-01,-1.421270731913553687e-01,1.221056029842581270e-01,3.206444501876831166e-01,-2.929634094238281472e-01,2.996020658715105034e-01,2.206444501876831110e-01,-1.929634094238281139e-01,2.257927000522613470e-01,5.288304784579008766e-01,6.893050670623779297e-01,-7.970892190933227539e-01,9.524799884382497339e+01,0.000000000000000000e+00
5.010400000000000409e-01,-2.708290105874068196e-02,2.388727983773900054e-02,9.827640056610107422e-01,-6.422566130391504924e-02,-5.180084881456714641e-02,3.165717132348320334e-02,-5.593649314046951482e-02,9.044495708091106201e-02,-4.413288086652755737e-02,-1.013338014274331733e-01,-1.016117137755970790e-01,7.286639792628704648e-02,3.225507497787475364e-01,-3.096962451934814342e-01,3.114333033041719601e-01,2.225507497787475586e-01,-2.096962451934814287e-01,2.272655010223388616e-01,5.293334813516747950e-01,6.792554855346679688e-01,-4.508928060531616211e-01,-8.194278351045096542e+01,0.000000000000000000e+00
5.421679999999999833e-01,-2.902099946419289811e-02,2.621593721436600924e-02,9.816676974296569824e-01,-6.377520336812482482e-02,-5.561188678921613615e-02,3.290847744426818322e-02,-6.477347025857245477e-02,9.753683932190389261e-02,-3.771546855568885803e-02,9.986731525615646921e-02,-1.464706126322034840e-01,4.239644202383307386e-02,3.228226184844970592e-01,-3.156404852867126243e-01,3.147666582294265658e-01,2.228226184844970537e-01,-2.156404852867126465e-01,2.273507595062255748e-01,5.287910772274910798e-01,6.675453186035156250e-01,-7.541657686233520508e-01,1.001210792694406138e+02,0.000000000000000000e+00
5.772410000000000041e-01,-3.120628258672323088e-02,3.011724503805190273e-02,9.800897240638732910e-01,-5.674535669965617701e-02,-5.689051520664101247e-02,2.963448997701953816e-02,-7.592615069890693014e-02,1.189809402360852419e-01,-4.058929532766342163e-02,2.790986520832970941e-01,6.479562696672251654e-02,-1.105009143861837018e-01,3.214389562606811412e-01,-3.160997509956359752e-01,3.056280897431407073e-01,2.214389562606811357e-01,-2.160997509956359697e-01,2.266123831272125189e-01,5.289766079512183694e-01,6.560781002044677734e-01,-9.629601240158081055e-01,1.641858494575723739e+02,0.000000000000000000e+00
6.138590000000000435e-01,-3.361219998241882223e-02,3.477890238522994559e-02,9.781177639961242676e-01,-4.457529138691000703e-02,-5.234577509520166316e-02,2.435637539991294953e-02,-8.177203246733275033e-02,1.312871569941826966e-01,-5.130802094936370850e-02,3.393195688636555518e-01,1.584233966954938788e-01,-1.476280881364771536e-01,3.169351339340210072e-01,-3.067874431610107533e-01,2.887474895079004122e-01,2.169351339340210016e-01,-2.067874431610107477e-01,2.230425953865051159e-01,5.295946313906163549e-01,6.354932785034179688e-01,-8.362306356430053711e-01,9.832566159326520960e+01,0.000000000000000000e+00
6.510409999999999808e-01,-3.623026884669695163e-02,3.988186566970539776e-02,9.757199287414550781e-01,-3.040054640270863084e-02,-4.185588297268671987e-02,1.778094466404725113e-02,-9.507078476148717039e-02,1.519990896424717464e-01,-7.322202622890472412e-02,3.213256259493209588e-01,3.052883525733017800e-01,-1.374282486452570173e-01,3.118270635604858398e-01,-2.274836063385009821e-01,2.487403216593095101e-01,2.118270635604858343e-01,-1.274836063385009766e-01,1.997834265232086015e-01,5.320584755033426205e-01,6.683261394500732422e-01,-6.499630212783813477e-01,-4.824828554224081856e+00,0.000000000000000000e+00
6.880990000000000162e-01,-3.825632145742024343e-02,4.346479671438825687e-02,9.738555550575256348e-01,-1.901972980614569445e-02,-3.238927573926364545e-02,1.236546276694448603e-02,-9.391966538575585721e-02,1.599050435841229689e-01,-6.715950369834899902e-02,3.941207844200504407e-01,3.200925617660985156e-01,-1.801734955997832954e-01,2.941419363021850475e-01,-8.883047699928284247e-02,1.655888179374788161e-01,1.941419363021850419e-01,1.116952300071716309e-02,1.308568596839904674e-01,5.321306297831481791e-01,6.838974952697753906e-01,-8.593961000442504883e-01,1.040157009455060688e+02,0.000000000000000000e+00
7.254279999999999617e-01,-4.124845404680054645e-02,4.861861041671462075e-02,9.712366461753845215e-01,-4.402155497029757239e-03,-1.935541604961144024e-02,5.148570938997742291e-03,-1.037226460289238372e-01,1.605233315457851029e-01,-6.632035225629806519e-02,3.770572230557006632e-01,3.398067699923267293e-01,-1.864932274724827033e-01,2.571474790573120006e-01,-2.886785268783570446e-02,5.148335905478507168e-02,1.571474790573119951e-01,7.113214731216430109e-02,3.625971078872680664e-02,5.323192997597356868e-01,6.818885803222656250e-01,-7.228308916091918945e-01,-1.070941833176467100e+02,0.000000000000000000e+00
7.614800000000000457e-01,-4.462196695241152367e-02,5.383132617206002474e-02,9.685401916503906250e-01,1.068052603226457044e-02,-5.279190312471593316e-03,-2.543196905886342674e-03,-1.004438660621034263e-01,1.646425907941876932e-01,-8.366093039512634277e-02,3.478793451513425561e-01,3.717003396924220548e-01,-2.018277780052089576e-01,1.605093988390856041e-01,1.038834333419799694e-01,-2.160361369287728747e-02,8.568402528762816828e-02,2.038834333419799749e-01,-1.540260314941406181e-02,5.344705363158621658e-01,7.150185108184814453e-01,-9.481459856033325195e-01,8.781576947961062274e+01,0.000000000000000000e+00
7.976940000000000142e-01,-4.774711196309228828e-02,5.740813230989803839e-02,9.663441181182861328e-01,2.178554284072124411e-02,5.328772954557248198e-03,-7.792956041652974661e-03,-9.490212060813388306e-02,1.635563738552356927e-01,-8.247902244329452515e-02,3.595037154344293273e-01,3.111312699633287937e-01,-1.510251274533940535e-01,6.251822597606329635e-02,1.605060900728771944e-01,-1.323491708148956669e-01,5.890381336212158203e-02,2.208363711833953857e-01,-1.110993146896362277e-01,5.350913512957213847e-01,7.394049167633056641e-01,-9.045964479446411133e-01,8.707261074696738490e+01,0.000000000000000000e+00
8.343429999999999458e-01,-5.176834682027093432e-02,6.204602330758869633e-02,9.631952047348022461e-01,3.636510828986543042e-02,1.847304047423770079e-02,-1.444529097584958642e-02,-9.354635854449377952e-02,1.551645514802545422e-01,-7.712194323539733887e-02,4.190736531049174540e-01,2.949251677869858534e-01,-1.538269752849414918e-01,-2.757654692814858755e-01,2.456044497211150590e-01,-1.707319210533267684e-01,-1.809589862823486328e-01,2.244481265544891191e-01,-1.300124287605285700e-01,5.350676509644112233e-01,7.411882877349853516e-01,-6.400080919265747070e-01,5.697187486716739357e+01,0.000000000000000000e+00
8.710900000000000309e-01,-5.614541780288011263e-02,6.659529396185824568e-02,9.599159955978393555e-01,5.091204743834012308e-02,2.830783097784350666e-02,-2.012882225968748440e-02,-9.139772257156401902e-02,1.377376376606680719e-01,-8.595452457666397095e-02,4.000201968830506827e-01,2.015282944005838683e-01,-1.595004971067697508e-01,-3.024756312370300293e-01,3.080786140177180776e-01,-2.141074446097378237e-01,-2.024756312370300237e-01,2.256020128726959062e-01,-1.564718842506408747e-01,5.360950479209665165e-01,7.442405223846435547e-01,-7.862612009048461914e-01,8.701758674301376573e+01,0.000000000000000000e+00
9.086229999999999585e-01,-5.966313293873028167e-02,6.983922466562030029e-02,9.572980403900146484e-01,6.089218587832863350e-02,3.287951835054592209e-02,-2.268691905479220533e-02,-8.082814775513025296e-02,1.230055323627086694e-01,-7.610020041465759277e-02,3.040221617897733153e-01,1.154077333699154856e-01,-1.063312158881432740e-01,-3.041260838508605957e-01,3.257149875164031538e-01,-2.385539123808901596e-01,-2.041260838508605902e-01,2.257149875164031760e-01,-1.730030536651611384e-01,5.355931162552187708e-01,7.397367954254150391e-01,-9.745992422103881836e-01,-5.738507057610190287e+01,0.000000000000000000e+00
9.472639999999999949e-01,-6.403895405322544698e-02,7.360747361001136746e-02,9.535546898841857910e-01,7.248865424681989744e-02,3.492167463791173709e-02,-2.474923601678454335e-02,-8.042110966867459243e-02,1.010180639060265922e-01,-7.016490399837493896e-02,2.878891024533636323e-01,-4.979908820493920280e-02,-7.317456155166131293e-02,-3.103859305381774791e-01,3.254268109798431619e-01,-2.455244211478585792e-01,-2.103859305381774736e-01,2.254268109798431285e-01,-1.737961292266845537e-01,5.354856827624179250e-01,7.370928525924682617e-01,-6.907633543014526367e-01,7.131444054866272531e+00,0.000000000000000000e+00
9.846160000000000467e-01,-6.799253108430100556e-02,7.665672212257976237e-02,9.499528408050537109e-01,8.001457139712249422e-02,3.270994226728718424e-02,-2.476186216277402249e-02,-5.720611368763135751e-02,8.898172302723855731e-02,-7.049259543418884277e-02,1.398065856600848034e-01,-4.370801610635205448e-02,-3.504121862066517795e-02,-3.108932077884674072e-01,3.246532976627349854e-01,-2.469605893277730391e-01,-2.108932077884674017e-01,2.246532976627349798e-01,-1.749902844429016002e-01,5.354173376568496234e-01,7.125527858734130859e-01,-9.359620809555053711e-01,9.131953358042210311e+01,0.000000000000000000e+00
1.021533000000000024e+00,-7.149880803113867200e-02,7.903642522976064844e-02,9.465745091438293457e-01,8.006489725926524414e-02,2.757236158773035406e-02,-2.328831791909899765e-02,-6.063952626777266430e-02,7.364881762086773753e-02,-7.032087445259094238e-02,-1.030989448205954506e-01,-1.450582840790239914e-01,2.283922896710699826e-02,-3.144921779632568470e-01,3.082331485750550160e-01,-2.335707183891088112e-01,-2.144921779632568415e-01,2.237506628036498857e-01,-1.666155338287353405e-01,5.358014951587500851e-01,7.149753570556640625e-01,-8.919063806533813477e-01,9.207292393644202377e+01,0.000000000000000000e+00
1.060481999999999925e+00,-7.469057935264046544e-02,8.086278848724161306e-02,9.434611201286315918e-01,7.115431396038286727e-02,1.837722000859010052e-02,-2.024964048651970230e-02,-5.505928742608789256e-02,5.166250068438917042e-02,-6.114024296402931213e-02,-2.546339380120499207e-01,-2.397061003067369744e-01,7.210849346193322351e-02,-3.197224497795104758e-01,2.512067321228058647e-01,-2.167692309409808837e-01,-2.197224497795104980e-01,2.230511426925659013e-01,-1.595510244369506836e-01,5.358381105679159706e-01,7.357268333435058594e-01,-1.235899806022644043e+00,9.059504175478051025e+01,0.000000000000000000e+00
1.097757000000000094e+00,-7.733826406087927763e-02,8.219939285728508627e-02,9.413933753967285156e-01,6.191446665956352319e-02,8.301286271348073953e-03,-1.755088459686486926e-02,-4.672621650222862771e-02,3.785890884815847762e-02,-6.240631639957427979e-02,-2.951923209031565576e-01,-3.684608626091604999e-01,6.147274781413420569e-02,-3.229540467262267955e-01,1.888045474288044534e-01,-1.775420880413109137e-01,-2.229540467262267900e-01,2.215864241123199352e-01,-1.289213418960571123e-01,5.363074460733068261e-01,7.428133487701416016e-01,-8.920887708663940430e-01,7.688845718501987392e+01,0.000000000000000000e+00
1.140527000000000069e+00,-8.069197093091025341e-02,8.340462065543614856e-02,9.390110373497009277e-01,4.839571718218576429e-02,-6.232170087874022713e-03,-1.325710098950461623e-02,-4.444111075852751058e-02,2.736721576998237329e-02,-5.319740995764732361e-02,-3.197842022059663170e-01,-3.614885930929390145e-01,8.621662967172930014e-02,-3.226877927780151256e-01,1.156048297882079912e-01,-1.254606643539884214e-01,-2.226877927780151201e-01,2.156048297882079967e-01,-9.000416994094848078e-02,5.359774671288876080e-01,7.459440231323242188e-01,-7.843931913375854492e-01,1.076157160721013781e+02,0.000000000000000000e+00
1.180199999999999916e+00,-8.409509913235610479e-02,8.413591606152794056e-02,9.370760917663574219e-01,3.400008607006605593e-02,-2.102518028740107958e-02,-7.838076132620296066e-03,-5.908340015534316314e-02,1.094507933565123069e-02,-4.599581286311149597e-02,-3.301162218392844627e-01,-4.104038271552644113e-01,1.326424710770439941e-01,-3.141776800155639537e-01,9.120581150054929420e-02,-6.029604017732702326e-02,-2.141776800155639482e-01,1.912058115005492998e-01,-4.062159061431884488e-02,5.354171598050625480e-01,7.301185131072998047e-01,-1.860901117324829102e-01,-1.538312963362113805e+01,0.000000000000000000e+00
1.218180000000000041e+00,-8.774327618019925334e-02,8.454285405414949106e-02,9.354528784751892090e-01,1.918851786637848500e-02,-3.578666388133355802e-02,-2.355053643473511635e-03,-5.786863501933665888e-02,1.795384583275835095e-03,-4.529563710093498230e-02,-3.841896176084094172e-01,-3.787093203700271915e-01,1.596019986720148554e-01,-2.009612768285813367e-01,-2.940809249877929799e-01,5.212020025146508334e-02,-1.394373178482055664e-01,-1.940809249877929743e-01,5.664192438125609935e-02,5.342667570302850333e-01,6.576795578002929688e-01,-8.649369478225708008e-01,9.379723251316841015e+01,0.000000000000000000e+00
1.256162000000000001e+00,-9.166833439167954012e-02,8.485686481191744013e-02,9.342444539070129395e-01,4.471609590858851083e-03,-4.876090745544181537e-02,3.150685673972379499e-03,-7.657462700455570925e-02,4.346264761157338403e-03,-4.668409749865531921e-02,-3.876943564974974499e-01,-2.848841686221086911e-01,1.700562375220048272e-01,1.026699661574746181e-01,-3.203152179718017356e-01,1.929565545603418586e-01,6.470510959625243308e-02,-2.203152179718017578e-01,1.827535450458526445e-01,5.332782000732174676e-01,5.864357948303222656e-01,-8.799923658370971680e-01,9.028411105319402452e+01,0.000000000000000000e+00
1.295460000000000056e+00,-9.556785819512869651e-02,8.516503885312008693e-02,9.333277940750122070e-01,-1.077589107612643253e-02,-5.892124179755731106e-02,8.425817528240698087e-03,-9.294130058780451786e-02,1.697125523315427126e-02,-3.797700256109237671e-02,-4.204307814151180822e-01,-2.301438392296291657e-01,1.683825880912493411e-01,2.869427442550659402e-01,-3.240785360336303489e-01,2.359478991685229343e-01,1.869427442550659069e-01,-2.240785360336303711e-01,2.122405350208282360e-01,5.324411823560828427e-01,5.649307966232299805e-01,-7.688461542129516602e-01,9.807062232965692772e+01,0.000000000000000000e+00
1.333984999999999976e+00,-9.993461582303804491e-02,8.581342421099601159e-02,9.326409101486206055e-01,-2.579720159369108118e-02,-6.683993184991443570e-02,1.291182136606703994e-02,-1.161412427356833255e-01,2.873789737844638717e-02,-4.209357872605323792e-02,-4.047853528712559434e-01,-1.297947323073209702e-01,1.073752954221961348e-01,3.085511207580566295e-01,-3.266233444213867410e-01,2.577600245170655890e-01,2.085511207580566240e-01,-2.266233444213867076e-01,2.232148468494415117e-01,5.335675716672627633e-01,6.009879112243652344e-01,-8.853901624679565430e-01,9.345741011139277532e+01,0.000000000000000000e+00
1.376319999999999988e+00,-1.049931308525879070e-01,8.696553613559036833e-02,9.321151375770568848e-01,-3.963827223431509728e-02,-7.163897800851026787e-02,1.569873570020175260e-02,-1.287985843025842292e-01,4.336748028152083434e-02,-2.989397570490837097e-02,-3.367471535273267591e-01,-5.901938096864822736e-02,6.802636286101006180e-02,3.180572271347045787e-01,-3.274092674255371094e-01,2.673751310005034187e-01,2.180572271347045732e-01,-2.274092674255371038e-01,2.267840266227721946e-01,5.324351644932985295e-01,5.787905454635620117e-01,-7.091377973556518555e-01,6.518736641973671908e+01,0.000000000000000000e+00
1.418676999999999966e+00,-1.094330916003191378e-01,8.704857086752842976e-02,9.310071468353271484e-01,-5.151383367033351285e-02,-6.840208118053348052e-02,1.592246865746420673e-02,-1.348106636044712203e-01,6.068541901975661040e-02,-4.271126538515090942e-02,-2.231371964828442744e-01,1.843691113457309183e-01,-4.189787607937110053e-02,3.224904179573059304e-01,-3.266385078430175670e-01,2.674778928654066856e-01,2.224904179573058971e-01,-2.266385078430175615e-01,2.275078296661376953e-01,5.346959451719541789e-01,6.416772603988647461e-01,-6.380474567413330078e-02,-4.708744366637837686e+00,0.000000000000000000e+00
1.458895999999999971e+00,-1.143653785419638802e-01,8.781545832982337596e-02,9.295824170112609863e-01,-5.470053207288547159e-02,-5.873758974421794399e-02,1.310315226602902332e-02,-1.499084708531106813e-01,6.729754486451831885e-02,-2.821529470384120941e-02,8.325229857027685587e-02,2.481741535884674221e-01,-8.837975057510055743e-02,3.239191770553588867e-01,-3.239621639251709095e-01,2.593165672099986829e-01,2.239191770553588812e-01,-2.239621639251709040e-01,2.271901667118072510e-01,5.342853515822982846e-01,6.644310951232910156e-01,-9.081615209579467773e-01,9.187175437481762685e+01,0.000000000000000000e+00
1.504046999999999912e+00,-1.192339547675771300e-01,8.864414012451996006e-02,9.280013442039489746e-01,-4.769475717054932895e-02,-4.611113416075940385e-02,8.184028269469515587e-03,-1.614848573226475847e-01,7.855199936780805914e-02,-2.650516293942928314e-02,2.382314171285923599e-01,3.675950882853361024e-01,-1.475521974429443994e-01,3.224723219871520885e-01,-3.124431133270263450e-01,2.457932112869479491e-01,2.224723219871520830e-01,-2.124431133270263672e-01,2.259691894054412786e-01,5.342637151600793111e-01,6.575026512145996094e-01,-6.857184171676635742e-01,-4.267653823623540887e+01,0.000000000000000000e+00
1.547949999999999937e+00,-1.252187420515330774e-01,9.026193398799504941e-02,9.254240989685058594e-01,-3.246083201302332050e-02,-2.850042455536971886e-02,1.159203925404428794e-03,-1.737478095688406998e-01,9.879063978590629791e-02,-3.369640186429023743e-02,3.686721715766957397e-01,3.906274310149784879e-01,-1.465917863486657369e-01,3.203210115432739147e-01,-2.728821396827697532e-01,2.226390617475570155e-01,2.203210115432739091e-01,-1.728821396827697754e-01,2.203587949275970514e-01,5.353079774902530508e-01,6.691515445709228516e-01,-1.097177624702453613e+00,1.072241413269845367e+02,0.000000000000000000e+00
1.586221000000000103e+00,-1.305774467940028494e-01,9.228743803689978820e-02,9.229372739791870117e-01,-1.921710467934436770e-02,-1.452007836150448483e-02,-5.000669901540495156e-03,-1.732251709897979219e-01,1.020256344412218269e-01,-3.520175442099571228e-02,3.325110223761195694e-01,3.301870346952338053e-01,-1.749795787581602813e-01,3.108501315116882213e-01,-1.278548836708068848e-01,1.662506102448269574e-01,2.108501315116882158e-01,-2.785488367080688268e-02,1.801240146160125732e-01,5.357774355606474970e-01,6.734158992767333984e-01,-5.962377786636352539e-01,1.662423237940148226e+02,0.000000000000000000e+00
1.623512000000000066e+00,-1.365749004825660418e-01,9.460252203890344436e-02,9.204032421112060547e-01,-5.203007829124481690e-03,4.331957201024749793e-04,-1.126674569543014565e-02,-1.667228489682572312e-01,1.140964628365219724e-01,-4.046646133065223694e-02,3.123172556817038759e-01,3.661715023736624719e-01,-1.698528150621004540e-01,2.555676579475402721e-01,9.493880271911619984e-02,-1.439627721803384275e-01,1.555676579475402665e-01,1.949388027191162054e-01,-1.131943345069885143e-01,5.368243192291186627e-01,6.938288211822509766e-01,-9.656330347061157227e-01,9.538249892896087090e+01,0.000000000000000000e+00
1.660557000000000061e+00,-1.410024097567018353e-01,9.653047756628096998e-02,9.185310006141662598e-01,5.086387772716773753e-03,1.123271550833182530e-02,-1.577306859717763493e-02,-1.631160595459886509e-01,1.148967859576858763e-01,-3.583277761936187744e-02,3.735339704434704200e-01,3.207414825944757686e-01,-1.112689719781476405e-01,2.570361137390136941e-01,1.144343495368957409e-01,-1.675512050502087624e-01,1.570361137390136608e-01,2.144343495368957464e-01,-1.242183208465576089e-01,5.372858108373880226e-01,7.241799831390380859e-01,-1.187362074851989746e+00,9.255831815999813728e+01,0.000000000000000000e+00
1.698870000000000102e+00,-1.468545500296885298e-01,9.948161181023336408e-02,9.162542819976806641e-01,1.886983578112124901e-02,2.541958975967673062e-02,-2.198814874785703227e-02,-1.534525016118970242e-01,1.120263700284509639e-01,-4.868616908788681030e-02,3.872754718444317845e-01,3.335213527273830914e-01,-1.507050665764265163e-01,1.195492005427576387e-01,1.797177215004154283e-01,-2.237681361564131943e-01,9.756556749343871238e-02,2.226097583770751953e-01,-1.625979781150817816e-01,5.387446356278519088e-01,7.388682365417480469e-01,-9.306088685989379883e-01,1.627011848980650299e+01,0.000000000000000000e+00
1.757019000000000108e+00,-1.541629999323832212e-01,1.034739165219361462e-01,9.139266610145568848e-01,3.604969426675030952e-02,4.203857276308387014e-02,-2.909238859217368536e-02,-1.354801205816988652e-01,1.039679149749563325e-01,-3.863457962870597839e-02,3.826637643040719516e-01,2.857473671123811898e-01,-1.074739807033495836e-01,-9.318770699616407693e-02,2.950286395432114017e-01,-2.562068579752933006e-01,9.404897689819335504e-04,2.246654927730560303e-01,-1.738891482353210338e-01,5.376468549585809997e-01,7.030956745147705078e-01,-1.136579632759094238e+00,2.896189745834874429e+01,0.000000000000000000e+00
1.805655000000000010e+00,-1.613971258885667781e-01,1.074412166950045322e-01,9.122990965843200684e-01,5.242120692768973550e-02,5.198753996073790518e-02,-3.240520790901728343e-02,-1.264801136277957927e-01,8.956336625848659860e-02,-3.596303239464759827e-02,3.084375525534406859e-01,9.622156777756810109e-02,-1.150281929823378582e-02,-2.014477610588073786e-01,3.248547315597534180e-01,-2.977422994732202843e-01,-1.014477610588073730e-01,2.248547315597534124e-01,-2.049376845359802135e-01,5.376354469012154524e-01,7.007596492767333984e-01,-1.496169090270996094e+00,1.273572372264318346e+02,0.000000000000000000e+00
1.849164000000000030e+00,-1.704363195724121760e-01,1.119790560649052968e-01,9.118226766586303711e-01,6.797557467292246469e-02,5.153202511375343242e-02,-3.069326154953005981e-02,-9.927480140884599458e-02,7.210513551434863389e-02,-1.820496842265129089e-02,3.179271595406668593e-01,-5.537355950586862058e-02,3.299901419862182050e-02,-2.635210692882538064e-01,3.254134714603423850e-01,-3.031471791761281565e-01,-1.635210692882537731e-01,2.254134714603424072e-01,-2.145321249961852916e-01,5.368448323473655748e-01,7.215169668197631836e-01,-6.771563291549682617e-01,6.130645976352464288e+01,0.000000000000000000e+00
1.899103999999999903e+00,-1.767316162530176427e-01,1.147481368626715875e-01,9.122071862220764160e-01,7.752994185090697488e-02,4.718339917025593522e-02,-2.790863139313223482e-02,-9.421228060604661114e-02,4.914886994479497617e-02,-1.282949559390544891e-02,2.147825035797419346e-01,-9.621473921162464193e-02,8.445549907137496481e-02,-2.936957776546478271e-01,3.252834737300872581e-01,-2.917604355677637651e-01,-1.936957776546478216e-01,2.252834737300872803e-01,-2.113778114318847490e-01,5.362583950599982829e-01,7.071409225463867188e-01,-8.525196313858032227e-01,6.481165137387264963e+01,0.000000000000000000e+00
1.944625000000000048e+00,-1.857629031225374594e-01,1.193606088772969087e-01,9.134419560432434082e-01,8.318628551640917801e-02,3.759506774647247695e-02,-2.297739149358662275e-02,-8.708681126084902302e-02,1.575175907178459969e-02,1.586935715749859810e-03,2.795716569902721715e-02,-2.191742909449477528e-01,1.151762672378514596e-01,-3.144996881484985463e-01,2.708056621999198055e-01,-2.685439004053766787e-01,-2.144996881484985407e-01,2.240882813930511475e-01,-2.032367706298827958e-01,5.346448166998312157e-01,6.764149665832519531e-01,-9.009712934494018555e-01,9.810882357768481654e+01,0.000000000000000000e+00
1.983305000000000096e+00,-1.936819979798160840e-01,1.225185009635504363e-01,9.151827692985534668e-01,7.994962733399038624e-02,2.379142190292737880e-02,-1.622666277152262290e-02,-7.012102754411493610e-02,1.277296798231506098e-03,1.586873270571231842e-02,-1.320532486155082952e-01,-3.284521711985241010e-01,1.768180824669447482e-01,-3.214515268802642933e-01,1.860053411534169920e-01,-2.384178359324669316e-01,-2.214515268802642878e-01,2.216513693332672064e-01,-1.937150001525878851e-01,5.339281753450207946e-01,6.974513530731201172e-01,-4.209758043289184570e-01,2.371442021337885819e+01,0.000000000000000000e+00
2.026492000000000182e+00,-1.977370824346954270e-01,1.238741902367261616e-01,9.164138436317443848e-01,7.389528573155813851e-02,1.363922851888332843e-02,-1.153007768835858163e-02,-6.618153784424543606e-02,-1.641428397615042958e-02,1.706544309854507446e-02,-1.987806356117312323e-01,-3.471488771834185805e-01,1.281135421241896832e-01,-3.247845649719238170e-01,1.174920320510864091e-01,-1.681292599668806620e-01,-2.247845649719238115e-01,2.174920320510864147e-01,-1.377822160720825195e-01,5.342861066910180590e-01,7.236194610595703125e-01,-9.952119588851928711e-01,9.388963131226034875e+01,0.000000000000000000e+00
2.070924999999999905e+00,-2.037240736976920485e-01,1.250796189073916098e-01,9.187231659889221191e-01,5.957508224040992950e-02,-4.458407633168404161e-03,-2.922340798723249266e-03,-6.081086934189428722e-02,-2.884507907616484096e-02,1.209572516381740570e-02,-3.099567590906726067e-01,-3.317585861452048701e-01,2.357316167396070195e-01,-3.245329022407531516e-01,6.912028789520263672e-02,-1.533039769796820384e-01,-2.245329022407531738e-01,1.691202878952026423e-01,-1.485209584236144853e-01,5.343693452376132580e-01,7.143878936767578125e-01,-8.666502237319946289e-01,-1.074766056092757225e+02,0.000000000000000000e+00
2.135969999999999924e+00,-2.082482997555956672e-01,1.254316006384804671e-01,9.209086298942565918e-01,4.567832369742881593e-02,-1.891754732812511719e-02,4.290454986700062770e-03,-6.457555853490938580e-02,-4.427655147642774180e-02,1.826397702097892761e-02,-4.074272752286129951e-01,-3.036189860190218748e-01,1.897957647141997051e-01,-3.165261149406433105e-01,-3.130223989486694558e-01,-2.703288740248303845e-02,-2.165261149406433050e-01,-2.130223989486694225e-01,-4.293973445892333707e-02,5.322605425212401098e-01,6.279946565628051758e-01,-1.199053168296813965e+00,9.681595073007143526e+01,0.000000000000000000e+00
2.176280000000000214e+00,-2.158424881357464409e-01,1.258152655705468970e-01,9.251953959465026855e-01,1.896500946768445509e-02,-4.092909517609388814e-02,1.717100325602205838e-02,-6.936146245124753806e-02,-5.085052670620666959e-02,1.532336603850126266e-02,-4.198935527920235611e-01,-2.028527960939025265e-01,1.626049807090409749e-01,-1.247995186937431999e-01,-3.224525094032287820e-01,2.007239278527208071e-01,-7.012785673141479215e-02,-2.224525094032287487e-01,1.496724486351013184e-01,5.308628134243694729e-01,5.529338121414184570e-01,-9.913705587387084961e-01,9.275044455116143638e+01,0.000000000000000000e+00
2.215333999999999914e+00,-2.200520952465905289e-01,1.257328404099527230e-01,9.274941086769104004e-01,3.291629130648799847e-03,-4.895020407521211148e-02,2.371467893571655577e-02,-9.509915619903418216e-02,-5.879321072104422286e-02,2.394858188927173615e-02,-4.230860583239247075e-01,-2.213260475148437767e-01,1.841997143194983866e-01,1.958167224750906599e-01,-3.253940343856811523e-01,2.789085011925963586e-01,1.528836965560912975e-01,-2.253940343856811468e-01,2.110000312328338679e-01,5.285677633231802286e-01,4.659826755523681641e-01,-1.048245072364807129e+00,3.915307245476302711e+01,0.000000000000000000e+00
2.261712999999999862e+00,-2.237135424864047928e-01,1.260077361943718888e-01,9.297385215759277344e-01,-1.281683934530462345e-02,-5.437619089261902516e-02,3.038545042152854259e-02,-9.740344831830020922e-02,-3.934890236444130857e-02,1.988210715353488922e-02,-4.355771130362044996e-01,-1.410899699890256487e-01,1.913466493709288230e-01,3.032123804092407005e-01,-3.262927532196044922e-01,3.051561935354313304e-01,2.032123804092407227e-01,-2.262927532196044866e-01,2.201748311519622636e-01,5.300827874112237215e-01,5.384907722473144531e-01,-8.550783395767211914e-01,9.973440860014784448e+01,0.000000000000000000e+00
2.299742000000000175e+00,-2.278986333213797455e-01,1.264553486579743646e-01,9.320157766342163086e-01,-2.797720251201888872e-02,-5.719028795386216224e-02,3.606064611967677719e-02,-1.256120960046185064e-01,-3.679169218793494622e-02,2.182740159332752228e-02,-3.973569616029566376e-01,-6.838533153835928309e-03,1.298094908210330745e-01,3.153522729873657338e-01,-3.270215988159179688e-01,3.239611542849918369e-01,2.153522729873657282e-01,-2.270215988159179632e-01,2.251598775386810247e-01,5.286240695876341933e-01,4.703699350357055664e-01,-1.193616509437561035e+00,6.212610978468285339e+01,0.000000000000000000e+00
2.336276999999999937e+00,-2.308441387289668911e-01,1.278087332783134356e-01,9.338490962982177734e-01,-4.296680374841572309e-02,-5.165140785617694519e-02,3.920098161270355736e-02,-1.141160890450045595e-01,-8.376642615686808943e-03,1.458944007754325867e-02,-3.296796050367660769e-01,2.204827286844815160e-01,3.488985826983082017e-02,3.228048086166381836e-01,-3.252160072326659712e-01,3.262837052345275435e-01,2.228048086166381780e-01,-2.252160072326659934e-01,2.262837052345275657e-01,5.311697237053025766e-01,5.860254764556884766e-01,-8.975025415420532227e-01,9.440243508495574076e+01,0.000000000000000000e+00
2.373190000000000133e+00,-2.335936494966725785e-01,1.297233095814480652e-01,9.352592229843139648e-01,-5.362337487308330153e-02,-4.011537711723422994e-02,3.772897635058519022e-02,-1.254895051359895264e-01,-5.735471081524599180e-05,1.338360644876956940e-02,-1.620847217009387942e-01,2.827102777760495678e-01,-7.616456874551778833e-02,3.248573422431945690e-01,-3.213956475257873646e-01,3.269119679927825484e-01,2.248573422431945634e-01,-2.213956475257873591e-01,2.269119679927825706e-01,5.330321857779367622e-01,6.849012374877929688e-01,-8.429530858993530273e-01,9.857892500768927846e+01,0.000000000000000000e+00
2.421205000000000052e+00,-2.358938562032661668e-01,1.313991615352769204e-01,9.362496137619018555e-01,-5.436190880891997312e-02,-3.088258237632524050e-02,3.509483580116872642e-02,-1.232679233564719645e-01,1.667633017218101213e-02,1.440714858472347260e-02,2.630458459382269479e-02,3.124104589278931532e-01,-1.201648459268881558e-01,3.251696228981018066e-01,-3.129978656768798717e-01,3.215102213797779163e-01,2.251696228981018011e-01,-2.129978656768798662e-01,2.268446803092956376e-01,5.331577258933295482e-01,6.967211961746215820e-01,-1.129711985588073730e+00,-3.145124869381909960e+01,0.000000000000000000e+00
2.473454999999999959e+00,-2.402307928173730289e-01,1.327798352663013270e-01,9.380586743354797363e-01,-4.144238586029647814e-02,-1.053603700537042442e-02,2.722500384185898639e-02,-1.323978591011304440e-01,3.366066149734305013e-02,1.205287221819162369e-02,2.755264203645995114e-01,3.522694366939990718e-01,-1.691962071295141368e-01,3.211828231811523215e-01,1.434861421585081898e-02,2.962832515591898308e-01,2.211828231811523438e-01,1.143486142158508245e-01,2.216246902942657360e-01,5.322660925661811815e-01,6.410946846008300781e-01,-1.193609118461608887e+00,-6.515225924740285279e+01,0.000000000000000000e+00
2.513945999999999792e+00,-2.439747646167682305e-01,1.350525312097856367e-01,9.388310909271240234e-01,-2.569259038506989737e-02,6.697185258990545620e-03,1.995634574558733179e-02,-1.206001165468515296e-01,5.958279788068663457e-02,3.819508012384176254e-03,3.086497664526047235e-01,3.545412138324068319e-01,-1.897825100021604261e-01,3.076846599578857422e-01,1.126265048980712724e-01,1.978884041446159481e-01,2.076846599578857366e-01,2.126265048980712780e-01,1.421429514884948730e-01,5.336900841997692657e-01,6.866989135742187500e-01,-8.937598466873168945e-01,8.957077292646705757e+01,0.000000000000000000e+00
2.554803000000000157e+00,-2.474943138068438908e-01,1.366987425131649669e-01,9.390097856521606445e-01,-1.181940394852546740e-02,2.031617499930993276e-02,1.343029371742719344e-02,-1.081001934355864114e-01,6.556641648557989810e-02,-1.032068952918052673e-02,3.387675157150707994e-01,3.385943164919548165e-01,-1.497337092343718201e-01,2.845847606658935547e-01,1.220260918140411155e-01,-1.588554015976724743e-01,1.845847606658935491e-01,2.220260918140411210e-01,-1.967642784118652233e-01,5.357149582280217315e-01,7.400412559509277344e-01,-8.183480501174926758e-01,9.406485298522785854e+01,0.000000000000000000e+00
2.590847000000000122e+00,-2.497869842568292975e-01,1.381844744834736238e-01,9.389398694038391113e-01,-1.050414614737189270e-03,3.079633261079228745e-02,8.313924025831403303e-03,-9.849079880606315118e-02,7.850267710170094615e-02,-1.411810982972383499e-02,3.832019963737754442e-01,3.562140284804834467e-01,-1.672057879999550578e-01,2.523681402206420787e-01,1.698824027470541009e-01,-1.827325977401365875e-01,1.523681402206420732e-01,2.242603898048400879e-01,-2.062844395637512263e-01,5.361231969863302638e-01,7.431755065917968750e-01,-2.861980199813842773e-01,-8.527398971207124134e+01,0.000000000000000000e+00
2.634212000000000220e+00,-2.527227195195400622e-01,1.402686264804482164e-01,9.385285377502441406e-01,1.232924270459410075e-02,4.493921891735253027e-02,1.104026997663904103e-03,-7.979115010847810663e-02,7.094112550217336610e-02,-1.705647818744182587e-02,3.114302747939940441e-01,3.456913396215715029e-01,-2.170159180821982781e-01,1.190670877364681801e-01,2.722327182345153362e-01,-2.042068288566722123e-01,4.077390432357787947e-02,2.250589013099670299e-01,-2.069236278533935491e-01,5.360151254129371656e-01,7.215790748596191406e-01,-7.096985578536987305e-01,9.602724146585339327e+01,0.000000000000000000e+00
2.686961000000000155e+00,-2.569182457017496479e-01,1.426141266630270021e-01,9.375377893447875977e-01,2.937581747419408529e-02,5.338545883065948239e-02,-6.584649962093147915e-03,-6.523083136024517004e-02,7.090167732474586537e-02,-1.001418288797140121e-02,3.799628278273057824e-01,6.496066593500023079e-02,-1.575040379309242955e-01,-1.346526573301354626e-02,3.252861022949218306e-01,-2.328823548836181367e-01,1.765755414962768416e-02,2.252861022949218528e-01,-2.132246375083923229e-01,5.349287739105448303e-01,6.821870803833007812e-01,-1.141717314720153809e+00,9.435367436447101852e+01,0.000000000000000000e+00
2.733185999999999893e+00,-2.604956234928260672e-01,1.446742564768423445e-01,9.365656971931457520e-01,4.647182068437098745e-02,5.150693154832897136e-02,-1.031706971707098235e-02,-5.483572268363887114e-02,6.043167596247351475e-02,-1.078239455819129944e-02,3.729247604720815068e-01,-9.285021835792439671e-02,1.206206259246150707e-02,-1.378677487373352051e-01,3.209881670408623600e-01,-2.493342596338702644e-01,-3.786774873733520647e-02,2.255041122436523271e-01,-2.190160989761352484e-01,5.347031292519406342e-01,6.598825454711914062e-01,-8.857873678207397461e-01,8.143951468183691134e+01,0.000000000000000000e+00
2.782398999999999845e+00,-2.637994480976680878e-01,1.465763647323374830e-01,9.356357455253601074e-01,6.112215586482421664e-02,4.501572867902692288e-02,-8.355650040893019062e-03,-2.121503469211612550e-02,4.103338439539047644e-02,-7.317543961107730865e-03,2.407591131126410877e-01,-1.673953703842395446e-01,3.732472789768286753e-02,-2.444817662239074652e-01,3.011803350543692526e-01,-2.463828095097987392e-01,-1.444817662239074596e-01,2.258767068386077770e-01,-2.216461300849914551e-01,5.347576439641958945e-01,6.722044944763183594e-01,-8.194011449813842773e-01,1.235928057861359832e+02,0.000000000000000000e+00
2.823703000000000074e+00,-2.656851901384799097e-01,1.473547364880448129e-01,9.351198077201843262e-01,7.106342782989436002e-02,3.676874596276125118e-02,-5.392058587935144066e-03,-1.946683284299177349e-02,1.470894938941097810e-02,1.172739081084728241e-02,2.163728731667590721e-01,-2.186970585890479768e-01,2.574275594899497893e-02,-2.932845413684844749e-01,2.408440376988856546e-01,-2.322376876451220651e-01,-1.932845413684844971e-01,2.249516308307647761e-01,-2.168337821960449052e-01,5.332957804054538897e-01,6.626213788986206055e-01,-7.290872335433959961e-01,7.075614942364234139e+01,0.000000000000000000e+00
2.877104000000000106e+00,-2.674335464331584200e-01,1.499234049970853411e-01,9.347214698791503906e-01,7.840768139117068602e-02,2.323353522496773849e-02,-6.704148125389033843e-04,-1.345740581012446792e-02,-2.494231205256986286e-03,6.507080513983964920e-03,1.355453192933018247e-01,-2.934360558283641840e-01,1.490336064248675707e-01,-3.182592868804931530e-01,1.546529369039258972e-01,-2.121576467400977661e-01,-2.182592868804931474e-01,2.230289340019226130e-01,-2.117055773735046220e-01,5.337584035304756558e-01,6.636059284210205078e-01,-5.003575086593627930e-01,-4.588424437237810594e+01,0.000000000000000000e+00
2.915900999999999854e+00,-2.686673125541618190e-01,1.518864513063478694e-01,9.342342019081115723e-01,7.718429480055126468e-02,6.426353340463153430e-03,4.886143903292144118e-03,1.995323547383091780e-03,-2.557801823104105879e-02,4.370822105556726456e-03,-1.306677086563870771e-01,-3.704930968326103358e-01,1.227332841052031637e-01,-3.238177180290222057e-01,1.176011800765991155e-01,-1.827332004350002981e-01,-2.238177180290222001e-01,2.176011800765991211e-01,-1.997694969177246094e-01,5.343431848769824022e-01,6.839518547058105469e-01,-1.088297963142395020e+00,-5.975360259534389940e+01,0.000000000000000000e+00
2.955709000000000142e+00,-2.685160605487697527e-01,1.532470572942389309e-01,9.338023662567138672e-01,7.161270297441323096e-02,-7.321914993656752912e-03,9.693532292588472044e-03,7.881567093417236316e-04,-4.152666692986531349e-02,6.307587609626352787e-04,-1.780642151969107079e-01,-3.381614201856578128e-01,9.572913829345641723e-02,-3.255900502204894797e-01,9.728146195411679908e-02,-1.579690032806707056e-01,-2.255900502204895020e-01,1.972814619541168046e-01,-1.899446725845336803e-01,5.354178481503814035e-01,7.234570980072021484e-01,-1.294449687004089355e+00,1.111201358710731739e+02,0.000000000000000000e+00
2.994377000000000066e+00,-2.681718090296870138e-01,1.539541124455917065e-01,9.334301352500915527e-01,6.437793716922575460e-02,-1.714059479122687080e-02,1.385151059035578426e-02,6.066026357829490401e-03,-4.600199048408416119e-02,-3.036466659978032112e-03,-2.948248998567930546e-01,-2.903028610315069313e-01,1.473074481174673211e-01,-3.243348121643066517e-01,-2.627223968505859597e-01,-1.464185914300961955e-01,-2.243348121643066462e-01,-1.627223968505859264e-01,-1.906449437141418402e-01,5.357597945012232410e-01,7.232575416564941406e-01,-1.085189938545227051e+00,7.714879667542408015e+01,0.000000000000000000e+00
3.032703000000000149e+00,-2.677769700692196886e-01,1.542100202634197059e-01,9.327864050865173340e-01,5.208452888697309019e-02,-2.930976819658326349e-02,1.928653977139042561e-02,-7.983450057240997974e-03,-6.417013510967974066e-02,-4.491808358579874039e-03,-3.710081173412070887e-01,-3.045896326685168520e-01,1.038017003202328509e-01,-3.217448174953460582e-01,-3.208264827728271595e-01,-1.536489951425565326e-03,-2.217448174953460527e-01,-2.208264827728271540e-01,-6.127191781997680387e-02,5.328577454875362829e-01,5.508399009704589844e-01,-8.016287088394165039e-01,9.441515289719029624e+01,0.000000000000000000e+00
3.070003999999999955e+00,-2.668342454647729123e-01,1.542350244389334712e-01,9.321032762527465820e-01,3.869730044685421727e-02,-3.934130303485261493e-02,2.491102354935953098e-02,2.796973087029947392e-03,-6.911504007737127864e-02,-1.266300212591886520e-02,-3.518894676835859769e-01,-2.601372339611680018e-01,1.051316988704872751e-01,-2.893197894096374290e-01,-3.190734624862671120e-01,1.984575634166071412e-01,-1.893197894096374512e-01,-2.190734624862670787e-01,1.235681176185607910e-01,5.320456783950744395e-01,4.682166576385498047e-01,-1.019128441810607910e+00,6.835569310021969613e+01,0.000000000000000000e+00
3.107031999999999794e+00,-2.662707081953883947e-01,1.537495927497770365e-01,9.312990903854370117e-01,2.443262546339747959e-02,-4.606137092667528243e-02,3.020825941870055806e-02,-9.895415951688298767e-03,-7.708589494076344140e-02,-8.520387113094329834e-03,-4.084453136745864188e-01,-1.733267691507824060e-01,9.574058042160109305e-02,-1.546170317680654049e-01,-3.220749616622924916e-01,2.268997853778844942e-01,-7.615621089935302457e-02,-2.220749616622924860e-01,1.382541775703430009e-01,5.331740361421114516e-01,5.386168956756591797e-01,-9.005037546157836914e-01,7.786891717999685625e+01,0.000000000000000000e+00
3.180963000000000207e+00,-2.659283735672164362e-01,1.528522306861814783e-01,9.302400946617126465e-01,6.229364208051098306e-03,-5.190308185863967694e-02,3.670988397014764149e-02,-3.063522517651164415e-02,-7.570437769083165902e-02,-1.197356078773736954e-02,-3.341704035032915243e-01,-9.960522171543698122e-02,7.451685258314294513e-02,2.040937540173182185e-01,-3.245646238327026256e-01,2.981246232986450306e-01,1.617678880691528209e-01,-2.245646238327026201e-01,1.981246232986450251e-01,5.342146045220026451e-01,5.724303722381591797e-01,-6.420625448226928711e-01,9.873897683051019669e+01,0.000000000000000000e+00
3.226555999999999980e+00,-2.654099942618364794e-01,1.518290155387907736e-01,9.287617206573486328e-01,-1.512763657033778901e-02,-4.327579008564508278e-02,4.118351092086364879e-02,-3.807260501615950671e-02,-5.777939793078235020e-02,-2.139123342931270599e-02,-3.219819955433434466e-01,2.555050267587308799e-01,2.586803400771136435e-02,2.975605010986328014e-01,-3.142866134643554910e-01,2.894488751888275035e-01,1.975605010986327958e-01,-2.142866134643554576e-01,1.894488751888274980e-01,5.358847748474909745e-01,6.160571575164794922e-01,-8.211404085159301758e-01,8.386666338453596836e+01,0.000000000000000000e+00
3.265871999999999886e+00,-2.646907724445405896e-01,1.507515670904699401e-01,9.271860122680664062e-01,-3.174948576544550649e-02,-2.751849275035267439e-02,3.895007468508496912e-02,-3.101310978160856310e-02,-4.067802357274506037e-02,-3.498886525630950928e-02,-2.960660017743594330e-01,3.011589581873767574e-01,-8.198543040107435231e-02,3.130299806594848411e-01,-2.591370344161987305e-01,2.935720384120941162e-01,2.130299806594848633e-01,-1.591370344161987249e-01,1.935720384120941107e-01,5.377234472020987477e-01,6.526396274566650391e-01,-9.677888154983520508e-01,9.079029637258366847e+01,0.000000000000000000e+00
3.303389999999999826e+00,-2.642056846949265014e-01,1.501082556051881178e-01,9.261128306388854980e-01,-3.871778511989706906e-02,-1.693646534595383280e-02,3.595536514256571226e-02,-3.933247594873887087e-02,-3.354750862533863176e-02,-3.136356920003890991e-02,-2.081662383186994869e-01,3.431034130343008082e-01,-1.277268795314319139e-01,3.148367524147033802e-01,3.389540910720822975e-02,3.029496505176939580e-01,2.148367524147033747e-01,1.338954091072082353e-01,2.040007531642913652e-01,5.377224693585058723e-01,6.564126014709472656e-01,-8.940147161483764648e-01,6.423513730414668110e+00,0.000000000000000000e+00
3.348964000000000052e+00,-2.636520551071782070e-01,1.498517581818278877e-01,9.242815971374511719e-01,-4.515652946600050982e-02,-2.520773562892264508e-03,3.115369397705358354e-02,-3.801634310904588449e-02,-2.184515233964982178e-02,-3.610046207904815674e-02,-1.275031094237810136e-01,3.675774470000867100e-01,-1.665239418885141043e-01,3.091821193695068470e-01,1.129703283309936301e-01,1.398134623933510456e-01,2.091821193695068415e-01,2.129703283309936357e-01,5.414115786552429338e-02,5.390688975635441471e-01,6.992983818054199219e-01,-7.718335390090942383e-01,7.140287271539416736e+01,0.000000000000000000e+00
3.384723000000000148e+00,-2.632118348034155897e-01,1.489393429204673436e-01,9.219684004783630371e-01,-4.401005242306726267e-02,1.489716084714531874e-02,2.336112562665099146e-02,-2.242838331625161830e-02,-2.653449355745016777e-03,-3.411356732249259949e-02,1.142540212072685468e-01,3.215722925287369804e-01,-1.866531184257855802e-01,3.106232166290283092e-01,1.250963807106017789e-01,-1.270030361392438523e-01,2.106232166290283037e-01,2.250963807106017844e-01,-1.916863918304443359e-01,5.399465950926067848e-01,7.415950298309326172e-01,-7.813793420791625977e-01,8.908709308039260577e+01,0.000000000000000000e+00
3.421625000000000139e+00,-2.627730234916979546e-01,1.487666816150215177e-01,9.206649065017700195e-01,-3.731926359234482432e-02,2.472409876145897911e-02,1.841774289313657595e-02,-1.481309003588100748e-02,1.153777119919778375e-02,-4.321883991360664368e-02,2.549485620721614332e-01,3.264498401775808856e-01,-1.484304782948079604e-01,2.997531533241272195e-01,1.610424828584598456e-01,-1.409624089236179434e-01,1.997531533241271862e-01,2.251058578491210715e-01,-1.922745108604431152e-01,5.407411469750011968e-01,7.383618354797363281e-01,-8.770080804824829102e-01,1.000461179432997199e+02,0.000000000000000000e+00
3.459429000000000087e+00,-2.619392931296964933e-01,1.488240936386295565e-01,9.190253019332885742e-01,-2.432891507231824124e-02,3.783170802783186737e-02,1.080483593963370813e-02,-6.181084962972967743e-03,2.076049453651912860e-02,-3.653045743703842163e-02,3.230323556001707397e-01,3.069577814140162508e-01,-1.750585180154473341e-01,2.455192089080810436e-01,2.507775561665219755e-01,-1.708009340420932332e-01,1.455192089080810380e-01,2.247976899147033636e-01,-2.010497331619262584e-01,5.401718120107054100e-01,7.209278345108032227e-01,-6.104305982589721680e-01,9.263980914698557001e+01,0.000000000000000000e+00
3.495680000000000121e+00,-2.611327236268952690e-01,1.486307904623677123e-01,9.175171256065368652e-01,-9.926550661030040731e-03,4.545920000546543882e-02,3.295998211768656500e-03,1.010590201626189108e-02,3.282536293126108590e-02,-2.839754335582256317e-02,3.806230023932112849e-01,1.162671673289372432e-01,-1.659904275015272601e-01,1.287358999252319336e-01,3.105606820889069697e-01,-2.016805103234271812e-01,2.873589992523193151e-02,2.247454941272735429e-01,-2.106626987457275446e-01,5.391265529003900214e-01,6.839880943298339844e-01,-8.271716833114624023e-01,1.140323509482481938e+02,0.000000000000000000e+00
3.537017000000000078e+00,-2.602815137836469450e-01,1.488601160415433111e-01,9.164608120918273926e-01,1.062451536047922694e-03,4.627874649694030396e-02,-8.524740246529944731e-04,2.269873986946789601e-02,4.374828081798422252e-02,-2.610857784748077393e-02,3.815377901810074746e-01,-1.844403738975702867e-02,-1.227826283623339593e-01,1.147751450538635337e-01,3.225399900763490368e-01,-2.143665035605219205e-01,1.477514505386352470e-02,2.247019171714782770e-01,-2.114509105682373102e-01,5.389012036668016092e-01,6.710147857666015625e-01,-7.474325895309448242e-01,1.061385373999243740e+02,0.000000000000000000e+00
3.589509000000000061e+00,-2.592940101679908627e-01,1.490489132575348319e-01,9.152431488037109375e-01,1.567036229491588703e-02,4.373597981509180777e-02,-2.392027051185528167e-03,3.121698681921093732e-02,4.255436819938329673e-02,-1.391389779746532440e-02,4.224247585109882075e-01,-7.221322628254484011e-02,-4.972422124434177368e-04,6.586763283691780824e-02,3.098628730408033993e-01,-2.154702933736019344e-01,1.303725242614746024e-02,2.245743155479431041e-01,-2.080490112304687333e-01,5.375440456282778445e-01,6.347255706787109375e-01,-7.502478361129760742e-01,9.460952642059052664e+01,0.000000000000000000e+00
3.641284000000000187e+00,-2.573989005062944924e-01,1.488884092086535937e-01,9.137004613876342773e-01,3.637550562747701027e-02,3.506246359465148288e-02,-1.099437823517051193e-03,5.421649826563224028e-02,2.462061366755959393e-02,7.556394208222627640e-03,3.360508995419689837e-01,-2.457147227453698735e-01,1.409452488059596484e-02,-8.345249265764648205e-02,2.701111890488877565e-01,-2.120712626220652985e-01,1.061843633651733329e-02,2.247120201587677057e-01,-2.084231615066528265e-01,5.346370645803840693e-01,5.511305332183837891e-01,-7.014564275741577148e-01,9.240111452606113573e+01,0.000000000000000000e+00
3.691847000000000101e+00,-2.543954424851349039e-01,1.488361137831310799e-01,9.126988053321838379e-01,5.055538182803387404e-02,2.368301599207400798e-02,2.115171395541625820e-03,7.273287757655613750e-02,1.360501338330922030e-02,3.712803358212113380e-03,2.466781076492818581e-01,-2.664784746532769533e-01,9.051212992950995184e-02,-2.452912747859954945e-01,2.092776799212970329e-01,-2.078221543746923972e-01,-1.452912747859954889e-01,2.247177779674529863e-01,-2.139830231666564886e-01,5.362878118878937617e-01,6.202099323272705078e-01,-1.108436465263366699e+00,-6.129230078137520366e+01,0.000000000000000000e+00
3.740146999999999888e+00,-2.504770002692320308e-01,1.484644088265273387e-01,9.120014309883117676e-01,6.049366649886929459e-02,8.906314912747959056e-03,5.606457728674066852e-03,7.622885478820695671e-02,-5.636897373471168142e-03,1.787226647138595581e-02,1.760684695591665239e-01,-3.881873741190829397e-01,2.488842941130483405e-02,-3.002212524414062389e-01,1.220478713512420654e-01,-1.931556089914459040e-01,-2.002212524414062333e-01,2.220478713512420710e-01,-2.107317924499511608e-01,5.362136930521672618e-01,6.666374206542968750e-01,-1.086346507072448730e+00,9.928619109624411010e+01,0.000000000000000000e+00
3.787008000000000152e+00,-2.458030243785315205e-01,1.483720316289859065e-01,9.115357995033264160e-01,6.622760136426725230e-02,-7.875592787474294809e-03,1.000607370073998068e-02,8.469813094712512480e-02,-1.381216468842572098e-02,9.110019542276859283e-03,1.149766293750871526e-01,-3.285988167801275894e-01,1.040741186287711950e-01,-3.160589098930358665e-01,1.169187366962432806e-01,-1.677978613527859320e-01,-2.160589098930358887e-01,2.169187366962432861e-01,-1.996368527412414606e-01,5.370309461048059507e-01,6.721889972686767578e-01,-9.687377214431762695e-01,8.958478164445475045e+01,0.000000000000000000e+00
3.831749999999999989e+00,-2.403464943307114798e-01,1.488932438987628781e-01,9.111431837081909180e-01,6.836627249037943721e-02,-2.352316497369977277e-02,1.400590323653842437e-02,8.080611737083279178e-02,-4.247419463963889030e-02,1.368949841707944870e-02,-7.988364151209803588e-02,-2.357823239128243320e-01,6.793056383910853202e-02,-3.237709403038024902e-01,1.050398230552673229e-01,-4.817348094995300978e-02,-2.237709403038024847e-01,2.050398230552673284e-01,-9.302161931991577426e-02,5.372612563371645944e-01,6.985836029052734375e-01,-5.292342901229858398e-01,1.060837456224025317e+02,0.000000000000000000e+00
3.882448999999999817e+00,-2.358634668877248597e-01,1.488958230555215145e-01,9.105748534202575684e-01,6.453614305830553122e-02,-3.440232709323209903e-02,1.791830318335423458e-02,5.968472915087866260e-02,-5.905690712991446684e-02,1.575289852917194366e-02,-1.684994828581697079e-01,-2.638812980347814974e-01,8.018745048733971759e-02,-3.248717010021209828e-01,-3.180719971656799094e-01,1.368313444548967528e-01,-2.248717010021209772e-01,-2.180719971656799316e-01,7.995057106018066406e-02,5.352171941058225801e-01,5.872132778167724609e-01,-9.504207372665405273e-01,9.585074254751108924e+01,0.000000000000000000e+00
3.937983000000000011e+00,-2.283517433013463882e-01,1.491904141096107306e-01,9.095569252967834473e-01,5.000610055591737935e-02,-4.727749014289184259e-02,2.422485159370942054e-02,5.382776745685090986e-02,-6.764304353204277087e-02,8.149666711688041687e-03,-2.724676904035731595e-01,-1.744269540981756850e-01,1.520303230485643697e-01,-3.202791512012481689e-01,-3.234978199005126842e-01,2.739937416975913864e-01,-2.202791512012481634e-01,-2.234978199005126787e-01,1.996473670005798340e-01,5.284354306795598921e-01,1.770750284194946289e-01,-1.032205939292907715e+00,8.475429427850330910e+01,0.000000000000000000e+00
4.008636000000000088e+00,-2.228092150847108821e-01,1.490777189626738553e-01,9.087567329406738281e-01,3.356905733310387718e-02,-5.448745121181763906e-02,2.906482366749050042e-02,4.263082215921759621e-02,-8.162764903954027040e-02,2.391054760664701462e-03,-4.094497085545192316e-01,-1.469299716867799865e-01,8.612447980600651531e-02,-2.606673598289489524e-01,-3.238018393516540749e-01,2.900309091060817579e-01,-1.606673598289489746e-01,-2.238018393516540416e-01,2.034658133983612005e-01,5.283976140269069921e-01,1.446264982223510742e-01,-7.280272245407104492e-01,-2.393893877668093140e+01,0.000000000000000000e+00
4.054770999999999681e+00,-2.162699571413668476e-01,1.492135634527220200e-01,9.072353839874267578e-01,8.699036450583659194e-03,-6.248280449287801908e-02,3.211290105566222408e-02,1.724777825442120813e-02,-7.977430610129872257e-02,-2.968286164104938507e-03,-3.350749583705998069e-01,-1.273513867352573173e-02,-3.536465056963980502e-02,1.940261597391000348e-01,-3.259463191032409557e-01,3.067356917585087883e-01,1.667850494384765514e-01,-2.259463191032409501e-01,2.141021132469177191e-01,5.353532703772763135e-01,4.932537078857421875e-01,-1.544321775436401367e+00,1.196827683731138166e+02,0.000000000000000000e+00
4.102909000000000361e+00,-2.126926162847653790e-01,1.484791981123649296e-01,9.061884880065917969e-01,-5.984863174951574917e-03,-5.769801593147683150e-02,2.995034045334684855e-02,2.470912043601953406e-02,-7.210950892535343548e-02,-4.028548486530780792e-03,-3.455859335291615597e-01,1.911724112691678967e-01,-8.594336473581093427e-02,2.834182500839233509e-01,-3.238419651985168235e-01,2.939717976869720140e-01,1.834182500839233454e-01,-2.238419651985168457e-01,2.092352271080017145e-01,5.368748186018503787e-01,5.647833347320556641e-01,-8.584886789321899414e-01,8.911545885601566397e+01,0.000000000000000000e+00
4.150096999999999703e+00,-2.083389355353897077e-01,1.470713214320958917e-01,9.043978452682495117e-01,-2.394003672179319253e-02,-4.302488188466635499e-02,2.373479198847194133e-02,7.552059640148676978e-03,-6.156514528245341650e-02,-2.297688275575637817e-02,-3.507127875233465586e-01,2.958620514160354986e-01,-1.618148560261535585e-01,3.016670703887939231e-01,-3.101241111755371205e-01,2.786100606440893301e-01,2.016670703887939453e-01,-2.101241111755371149e-01,2.131316721439361628e-01,5.394370006474170642e-01,6.176903247833251953e-01,-1.129778027534484863e+00,-9.708243056053949260e+01,0.000000000000000000e+00
