timestamp,x,y,z,roll,pitch,yaw,vx,vy,vz,p,q,r,psp,qsp,rsp,pres,qres,rres,thrust_sp, thrust_res
0.000000000000000000e+00,9.437374130753026626e-05,-8.885401824003369680e-05,2.412417531013488770e-01,2.276434306001170072e-03,-3.948662124763746561e-03,-1.642993178682417010e-01,-2.191664448514215908e-05,4.371228292394652550e-04,1.298037474043667316e-03,1.362725702458726022e-04,8.479849856594831549e-04,-9.245529189275718740e-04,5.044467213856457244e-03,1.099367070437768101e-01,-3.158057570491342170e-01,1.866678938022503509e-02,1.361078845444525509e-01,-2.158057570491342114e-01,5.700177404324151542e-01,2.007762193679809570e-01
2.786900000000000141e-02,1.009510081375203236e-04,-8.959717560992065102e-05,2.412050217390060425e-01,2.252747344132328793e-03,-3.929008667213018668e-03,-1.643162587000066566e-01,-3.498342803587995847e-06,3.813952931264287592e-04,1.210073707625269890e-03,-2.065215632051662763e-03,1.047711117822199695e-03,1.029059729344655337e-03,2.464769728646994465e-02,1.141997428519172519e-01,-3.271831390963411135e-01,3.821046987636185499e-02,1.402068960612338211e-01,-2.271831390963410802e-01,5.663658306692533895e-01,-4.877907037734985352e-02
5.204299999999999898e-02,1.024609229478830688e-04,-8.892181673799177022e-05,2.411929816007614136e-01,2.246588618161532262e-03,-3.922798753947187578e-03,-1.643198789199007415e-01,-1.647861071174973986e-05,5.724930987408672440e-04,1.054824679158627987e-03,-1.276689291556060233e-03,9.034311693255246342e-04,3.286735469683964403e-04,2.927141981419549219e-02,1.137356019478072688e-01,-3.268035614467673655e-01,4.265838148663280566e-02,1.397291435904175205e-01,-2.268035614467673877e-01,5.681354366073876339e-01,1.487159729003906250e-02
7.599400000000000599e-02,1.065736880628475675e-04,-8.329703915285929826e-05,2.411654889583587646e-01,2.248632574962761404e-03,-3.912426346813990818e-03,-1.643187467017526160e-01,1.403732683704718746e-04,6.577782569946990978e-04,8.349168347194790840e-04,2.395806019926715387e-04,-2.505345060067563630e-04,-2.441147959133275146e-04,4.026151139484374086e-02,1.105913564721172915e-01,-3.141937003639524439e-01,5.361133628446329569e-02,1.364119929111246576e-01,-2.141937003639524106e-01,5.726236704192601001e-01,2.363317012786865234e-01
9.824600000000000000e-02,1.109118902343381874e-04,-7.708840304397538269e-05,2.411358356475830078e-01,2.257020979968403940e-03,-3.923034494270671857e-03,-1.643210863841169100e-01,1.923078485666151482e-05,5.936878470089373494e-04,6.072593387216329575e-04,4.539674592074054984e-04,-1.371152331445129637e-04,6.960478755306840704e-04,8.092672772795853758e-03,1.120002083012551081e-01,-3.187712730275169548e-01,2.155714865058785956e-02,1.379844056327923230e-01,-2.187712730275169215e-01,5.665864888708673774e-01,-1.524041295051574707e-01
1.245300000000000018e-01,1.162416351518453850e-04,-7.353803266865188162e-05,2.410906702280044556e-01,2.257400592731360640e-03,-3.939871114432280663e-03,-1.643179980352664771e-01,2.360170857431717183e-04,4.463477172610552787e-04,6.192610599100589752e-04,-8.528865992656205989e-04,2.830413625365608873e-05,2.152289237889934686e-04,3.004352569656030050e-02,1.125857543265450372e-01,-3.244281049261197869e-01,4.357443850898497922e-02,1.385023936319773608e-01,-2.244281049261197813e-01,5.710104516166820687e-01,6.559646129608154297e-02
1.509850000000000081e-01,1.272417398254988745e-04,-7.101709366252322735e-05,2.410314679145812988e-01,2.248339852601367785e-03,-3.940105505204405389e-03,-1.642976987323501170e-01,3.229933191437742222e-04,5.963159987144017998e-04,6.266551790758967400e-04,8.181074418090093997e-04,2.247897495398667566e-04,1.144099861917657239e-03,1.110377485038952124e-02,1.139797475574333419e-01,-3.261151884054873662e-01,2.444881090172588284e-02,1.398728474477316797e-01,-2.261151884054873329e-01,5.674091874013035275e-01,-1.810752749443054199e-01
1.739819999999999978e-01,1.346875957054988518e-04,-6.527048813423744786e-05,2.409867197275161743e-01,2.234636794719431236e-03,-3.921356608284298773e-03,-1.642832179554924998e-01,3.064303323558846266e-04,6.438875849524130016e-04,4.488333652261644602e-04,-1.327362865772297069e-03,1.213212495688385491e-03,1.141705741065362497e-04,2.558137650855832335e-02,1.136379862950228914e-01,-3.261490972307041214e-01,3.882620359636450302e-02,1.394255304091910896e-01,-2.261490972307041158e-01,5.709323293413725020e-01,-1.586782932281494141e-02
1.986970000000000125e-01,1.514795051084130402e-04,-5.984548731934834752e-05,2.409082800149917603e-01,2.248647288547248914e-03,-3.925675330705313826e-03,-1.642686931041215104e-01,7.300120133531873062e-04,5.245781792669184122e-04,3.668045101221650839e-04,9.183558998727791960e-04,4.414648531781191639e-04,-9.211141213101327330e-04,1.118391361397601605e-02,1.122749573424081243e-01,-3.190162001848435569e-01,2.456269277969191575e-02,1.377849481472493420e-01,-2.190162001848435513e-01,5.704297948233560955e-01,-8.359938859939575195e-02
2.238159999999999872e-01,1.753452102016674421e-04,-5.343881709848351166e-05,2.408326566219329834e-01,2.238579087672327821e-03,-3.922187346480754400e-03,-1.642606335932894623e-01,7.538229653292576309e-04,6.650906994769908856e-04,1.594646018929779530e-04,7.253471185672874912e-05,1.187286910526324981e-03,1.402451659252466508e-03,1.626360287467413721e-02,1.170251799520061059e-01,-3.283239747880756232e-01,2.946687463170992102e-02,1.425466227434868116e-01,-2.283239747880756176e-01,5.688638912139920567e-01,-2.134044170379638672e-01
2.491510000000000113e-01,1.970599678305415920e-04,-3.946390338447935590e-05,2.407586574554443359e-01,2.244087796573361604e-03,-3.900429223411272517e-03,-1.642934753458189512e-01,6.279985743016272505e-04,8.821393645568749138e-04,1.108594879042357206e-04,-1.596880200276774506e-03,4.369476634854013069e-04,-4.472129587749162308e-04,3.752832204700656121e-02,1.113356199628051657e-01,-3.213629183044159898e-01,5.064433082345702608e-02,1.368093451169354047e-01,-2.213629183044159843e-01,5.787455023515057917e-01,3.240571022033691406e-01
2.740529999999999911e-01,2.045767408576915341e-04,-3.283381942350944928e-05,2.407143115997314453e-01,2.235455046596006041e-03,-3.918499345930248623e-03,-1.642908622656724660e-01,5.373691216962322992e-04,7.310359909895197163e-04,1.346173085039481521e-04,-2.775742826905930978e-04,-1.035315182472011002e-03,8.090902067434963939e-04,2.656914235773689265e-02,1.092228630092881847e-01,-2.663763477576668315e-01,3.975309663125971282e-02,1.348359688017919666e-01,-1.663763477576668537e-01,5.763903349964498712e-01,1.480449438095092773e-01
3.001889999999999836e-01,2.144195109902615598e-04,-2.915357013965109734e-05,2.406671345233917236e-01,2.235805680769081295e-03,-3.929530829589689134e-03,-1.643154913772089110e-01,7.267714757146783409e-04,5.183694613623986668e-04,2.544200106058269739e-05,-4.710272198930715807e-04,1.080464155269118907e-03,-1.146615119495679761e-03,1.332004710613068910e-02,1.101216815886801453e-01,-3.138164737065882726e-01,2.660575205140080710e-02,1.356461446957485384e-01,-2.138164737065882948e-01,5.795846241703500601e-01,2.967016696929931641e-01
3.243150000000000199e-01,2.233332704399348077e-04,-2.876050537936783284e-05,2.406425029039382935e-01,2.237717026244060489e-03,-3.938480845947278652e-03,-1.643221903665135208e-01,8.360596721216712523e-04,5.185857987978822331e-04,1.196022640215232968e-04,-1.260036547670940685e-03,8.386040528531542087e-04,-4.505203815280121892e-04,3.014937102661215118e-02,1.117183740474159831e-01,-3.219864367277522899e-01,4.341077226573665515e-02,1.372483359624337707e-01,-2.219864367277523121e-01,5.791165864472269664e-01,2.315280437469482422e-01
3.500719999999999943e-01,2.475781701881747850e-04,-2.229062957327719672e-05,2.406042516231536865e-01,2.257923021962654139e-03,-3.930578037028897853e-03,-1.643324440352960103e-01,1.343206583705813936e-03,7.690307908137316390e-04,-1.073315706889843568e-05,1.447349845076449908e-03,6.523188647700736221e-04,3.393639556882236232e-04,1.351019292354108461e-02,1.153179261427215579e-01,-3.270823041274925069e-01,2.668869599704765116e-02,1.404830001493241887e-01,-2.270823041274925014e-01,5.727803529265486082e-01,-1.774791479110717773e-01
3.730140000000000122e-01,2.669794114186963452e-04,-1.906609728441832773e-05,2.405795753002166748e-01,2.269811020826904922e-03,-3.925594472414140057e-03,-1.643286981078881936e-01,1.347582043693445076e-03,5.993474268386264755e-04,-1.573254849063232541e-05,1.758583970873340034e-03,-4.075213963289519604e-04,7.818689885778092562e-04,1.497093696276208946e-02,1.132320020666863630e-01,-3.222265225291967017e-01,2.837426321064474496e-02,1.383946699219003040e-01,-2.222265225291967239e-01,5.748655759175022029e-01,-9.403783082962036133e-02
4.013729999999999798e-01,2.884365784320498585e-04,-1.734433785667741397e-05,2.405530661344528198e-01,2.263364685569677331e-03,-3.925761721849996277e-03,-1.643194461514867477e-01,1.024581624666902075e-03,6.704635042933879130e-04,-1.540288503747433424e-04,4.093143862445729783e-04,8.905865649734514460e-04,-6.987272024094336219e-04,3.113943916570608567e-03,1.120740727658855462e-01,-3.203846065212279104e-01,1.643152221473128186e-02,1.374467955517410522e-01,-2.203846065212278771e-01,5.772773396730302986e-01,8.329510688781738281e-03
4.269270000000000009e-01,3.009574052578530717e-04,-1.488108473585517031e-05,2.405410408973693848e-01,2.271516219649066196e-03,-3.924075263781467982e-03,-1.643392502991285475e-01,1.132816612388701846e-03,4.986119146517700544e-04,-2.534745362936519086e-05,2.372072839259617286e-04,8.001235041998132173e-04,-1.197242890346939242e-03,1.116212716312293962e-02,1.109101151355421644e-01,-3.159414862724588824e-01,2.463766938941804041e-02,1.361380118260746008e-01,-2.159414862724589046e-01,5.815961583938039636e-01,2.244763374328613281e-01
4.524170000000000136e-01,3.208894739661113504e-04,-1.582066706490513512e-05,2.405160367488861084e-01,2.255856011455142484e-03,-3.922681247128689819e-03,-1.643273394376656427e-01,1.174750773156026844e-03,3.991485679451098269e-04,-2.330515999346971512e-04,6.817909442957566495e-04,-3.573070481185683335e-04,2.582009352683679734e-06,2.598092022469109669e-02,1.124017611436889663e-01,-3.198414384710938085e-01,3.939632341667829302e-02,1.375833055854614739e-01,-2.198414384710938307e-01,5.793130988822202676e-01,5.129158496856689453e-02
4.768549999999999733e-01,3.314957039739252248e-04,-2.700165418102866093e-05,2.404918819665908813e-01,2.266099275671230352e-03,-3.923215729668250162e-03,-1.643293436654906792e-01,9.099232871187737251e-04,2.101528949902536642e-04,-3.229110443498939276e-04,-2.133374327643387900e-04,-5.092371598460057385e-04,-1.133605786645380115e-03,5.118996738862517659e-02,1.109438119137008266e-01,-3.165512189534693821e-01,6.481236083345280619e-02,1.362880079991839744e-01,-2.165512189534693488e-01,5.849095544647683331e-01,3.427556753158569336e-01
5.002450000000000507e-01,3.360456857325945534e-04,-3.565562749443697542e-05,2.404721975326538086e-01,2.260975948663303432e-03,-3.932575875210675420e-03,-1.643269707256735934e-01,9.849893770503734790e-04,2.659636139635734235e-04,-3.814834053628146648e-04,-9.262589032206672117e-04,2.294957001998901996e-04,-3.460254703139479648e-04,3.764369314452845755e-02,1.112612726040727446e-01,-3.207061937034743071e-01,5.116391324998792456e-02,1.365859656157435431e-01,-2.207061937034743015e-01,5.856356200846607463e-01,3.474367856979370117e-01
5.234349999999999836e-01,3.409698239424482804e-04,-4.416415262944835209e-05,2.404499650001525879e-01,2.264326734465058749e-03,-3.962648749634922751e-03,-1.643270113618542361e-01,1.026175588857169236e-03,1.257962993671430134e-04,-5.596937262453138828e-04,-9.764157709373273318e-04,-1.612013128129719539e-03,-1.364230499128623979e-03,5.024192420132589376e-02,1.100800624603946176e-01,-3.077566107632943582e-01,6.387719644007919251e-02,1.355642481288379941e-01,-2.077566107632943526e-01,5.864009758748092160e-01,3.539973497390747070e-01
5.491359999999999575e-01,3.487332599111731468e-04,-5.333968198687950472e-05,2.404292970895767212e-01,2.262818434027851627e-03,-3.977226100045028190e-03,-1.643282116022066752e-01,1.236810552048235546e-03,1.959963663693376303e-04,-3.940484893973916769e-04,-1.600412254795645578e-03,-8.164139005588640714e-05,8.426948107374510836e-04,2.198823085605615402e-02,1.131197161059612766e-01,-3.237809590643100366e-01,3.553360622302630806e-02,1.385652812003936585e-01,-2.237809590643100310e-01,5.806496320402029232e-01,-2.311956882476806641e-02
5.770389999999999686e-01,3.645142391685867638e-04,-7.225053251831876910e-05,2.403860390186309814e-01,2.286397430831671462e-03,-3.991289826015043118e-03,-1.643379435471277183e-01,1.041604165411845039e-03,4.516855248056865073e-05,2.103704355249647051e-05,-9.067369472314256752e-04,4.781552957118926001e-04,-6.793707245157992931e-05,3.018879246534974040e-02,1.123189904475391382e-01,-3.238632190595813753e-01,4.401959362659423058e-02,1.379886428348508776e-01,-2.238632190595813976e-01,5.842721179848920920e-01,1.540137529373168945e-01
5.998480000000000478e-01,3.709815617122209984e-04,-8.238418843321598708e-05,2.403830289840698242e-01,2.285195029411019475e-03,-3.992730360989016347e-03,-1.643481655950296272e-01,1.129951774870829309e-03,3.201062486371068490e-04,2.784403841360472143e-05,8.303000142935677017e-04,2.095554279710673529e-04,-2.016369695444768944e-04,9.457604452617836971e-03,1.130338131420570436e-01,-3.226184525713204909e-01,2.307549964451683852e-02,1.386502371686963442e-01,-2.226184525713204576e-01,5.796248533466680231e-01,-1.578418016433715820e-01
6.237709999999999644e-01,3.751658888474881286e-04,-8.809048249220720382e-05,2.403880357742309570e-01,2.291134882346337713e-03,-3.991545979680211076e-03,-1.643702774615571904e-01,8.891564892301084605e-04,4.073553733172934521e-04,-1.042222211253829300e-04,5.075603624623578700e-04,-4.725933234747922468e-04,-2.360707692884819915e-04,3.764303477707184320e-02,1.106907566590017711e-01,-3.140943354371533713e-01,5.129894261428014773e-02,1.364671867805090921e-01,-2.140943354371533380e-01,5.865294278066740530e-01,2.112258672714233398e-01
6.479660000000000419e-01,3.791569292593039049e-04,-9.410480772191853033e-05,2.403910756111145020e-01,2.323004443103418148e-03,-3.981247059783976638e-03,-1.643963749107277827e-01,9.072518504117144415e-04,4.203791115166347070e-04,-2.188011239923071116e-05,3.028729572838264206e-03,2.242158669047125599e-04,-7.978014352204447534e-04,1.324762487422934121e-02,1.127009150935306819e-01,-3.220083301584700797e-01,2.711125572087653979e-02,1.383722905627810251e-01,-2.220083301584701019e-01,5.817770983569733323e-01,-1.073452830314636230e-01
6.742240000000000455e-01,3.767459402920127621e-04,-9.514201323617369084e-05,2.403860688209533691e-01,2.315380760433231270e-03,-3.967229198332589135e-03,-1.643776158355918504e-01,7.898985839207966217e-04,6.733357254615923325e-04,-4.476066169445402920e-05,7.037292483853465220e-04,-1.067084774088851115e-04,9.721464897812401003e-04,8.608350896900131277e-03,1.127474050516900084e-01,-3.215280985381412382e-01,2.227204641354102108e-02,1.384247618116845324e-01,-2.215280985381412049e-01,5.815413939388656139e-01,-1.593243479728698730e-01
7.001650000000000373e-01,3.702173747382272615e-04,-9.267046478562465238e-05,2.403837740421295166e-01,2.302289408228647399e-03,-3.972694451162217533e-03,-1.643803369394878366e-01,7.726133404425376697e-04,6.363784403760826573e-04,-2.023423439823091030e-04,-3.127247283192100512e-03,-8.716705181666459376e-04,-1.694362287122396264e-04,3.702985284527777338e-02,1.142328067741111980e-01,-3.214827412571837906e-01,5.065882673146381715e-02,1.399344105014916351e-01,-2.214827412571838128e-01,5.873473834269471450e-01,1.454017162322998047e-01
7.240130000000000177e-01,3.664129146418243976e-04,-8.914300202162617648e-05,2.403889894485473633e-01,2.306196438593190352e-03,-3.968447115234363665e-03,-1.643813004840311010e-01,8.862459000832300857e-04,7.968642909396547389e-04,-3.135381266474723816e-04,-2.668465247372940347e-04,1.039454007732689041e-03,5.943190508683731256e-05,1.691466039834114282e-02,1.153920024751602796e-01,-3.276699818694335242e-01,3.044839449173617971e-02,1.410051635893411759e-01,-2.276699818694335464e-01,5.828970111238565011e-01,-1.564375162124633789e-01
7.488609999999999989e-01,3.589390783130538636e-04,-7.993521018849899737e-05,2.403895258903503418e-01,2.300663250150246971e-03,-3.969655721238751767e-03,-1.643806975288124583e-01,6.415701062152000993e-04,8.026520099584505668e-04,-5.367314442992210388e-04,-2.018071482610700289e-03,5.104154815909235643e-04,2.979484174379706113e-04,3.298111367573541147e-02,1.128422071580671288e-01,-3.250910549567920249e-01,4.651041143829980073e-02,1.386346698241240349e-01,-2.250910549567920471e-01,5.877486929283572969e-01,9.193253517150878906e-02
7.726340000000000430e-01,3.502849310849409951e-04,-7.306788022983586213e-05,2.403879016637802124e-01,2.304467332495600644e-03,-3.979092092487590548e-03,-1.643867060924386614e-01,5.328758961384692404e-04,8.452155694948391626e-04,-5.140694556757807732e-04,7.295932068670900328e-04,-1.168298269338189678e-03,-5.432544492967585027e-04,4.508267964210611878e-02,1.095980689189416935e-01,-3.041138407515427966e-01,5.860840537327674515e-02,1.355009789131205455e-01,-2.041138407515428188e-01,5.920361171626227215e-01,3.094353675842285156e-01
8.003040000000000154e-01,3.388175910054667798e-04,-6.064102758715827015e-05,2.403830736875534058e-01,2.309968208710419524e-03,-4.007083368907649046e-03,-1.643982606151990211e-01,7.442075071038656113e-04,1.004828572245443450e-03,-3.491337993182241917e-04,-1.097011509007791378e-03,-1.893469749982150440e-03,1.773861220862152843e-03,2.374689852441599566e-02,1.091836958649619327e-01,-2.774009544369594460e-01,3.717684237502005828e-02,1.351379644904965593e-01,-1.774009544369594404e-01,5.893917658224969713e-01,1.143555641174316406e-01
8.241450000000000164e-01,3.353228729893445361e-04,-5.110629481160634905e-05,2.403785139322280884e-01,2.315962192419784935e-03,-4.008299815972060642e-03,-1.644042641733278742e-01,8.861303322526563244e-04,1.020134307530734400e-03,-5.583121674135327339e-04,7.143632142462859455e-04,2.926119179138521944e-05,-4.531234358359177488e-04,1.783948623787801058e-02,1.121008773545913162e-01,-3.207968833843635181e-01,3.130163982794619687e-02,1.379970613702893312e-01,-2.207968833843635403e-01,5.872716448263891609e-01,-5.053883790969848633e-02
8.489849999999999897e-01,3.314253563067730865e-04,-2.978363659673602498e-05,2.403669059276580811e-01,2.312258826866507317e-03,-3.993917538838154258e-03,-1.643890895801933816e-01,8.832481798277069763e-04,1.305664781084225293e-03,-4.123052058275789022e-04,2.326761256130135003e-03,3.178511279950698549e-04,9.891564247794814603e-05,1.382694500524915548e-02,1.133643984238864033e-01,-3.249125530271648188e-01,2.707571880060908112e-02,1.392097626830079982e-01,-2.249125530271647855e-01,5.864910091483481747e-01,-1.343278884887695312e-01
8.760569999999999746e-01,3.267217184370580863e-04,-1.766253099637568884e-05,2.403563112020492554e-01,2.331289957723472854e-03,-4.005606202050815412e-03,-1.644002625253522254e-01,6.757719244784417484e-04,9.906585645804149177e-04,-2.779457427095621824e-04,1.138226099455344996e-03,-1.118186639029089373e-03,-1.670382532840435606e-03,3.944105736856111377e-02,1.107734185873045785e-01,-3.177255151147485579e-01,5.305591007025506345e-02,1.368030095761033071e-01,-2.177255151147485246e-01,5.930338206558517511e-01,2.178887128829956055e-01
8.994849999999999790e-01,3.185808307406832237e-04,-1.212798188885713309e-05,2.403532564640045166e-01,2.337462826424231786e-03,-4.005898333808932676e-03,-1.644036093750265159e-01,5.062952238527113546e-04,9.849009223810085197e-04,-3.141327179037034512e-04,1.776850305395558192e-03,7.729867520889753280e-04,6.582717404588899358e-04,1.378064759792107553e-02,1.144644899754345274e-01,-3.272474784554709748e-01,2.740895798576504019e-02,1.405892878663422552e-01,-2.272474784554709415e-01,5.870903464063261801e-01,-1.744318008422851562e-01
9.269600000000000062e-01,3.045661332404793432e-04,-7.751524155733933595e-06,2.403507679700851440e-01,2.340457769444189134e-03,-4.003066570591240492e-03,-1.644116252808069945e-01,2.997460453771863694e-04,9.555450092054664944e-04,-1.621218689251691103e-04,7.708075252441660670e-04,7.627473577828870104e-04,4.666603867953080572e-04,1.361187641833352946e-02,1.154376614805495971e-01,-3.280086768091774463e-01,2.728970939572475732e-02,1.416612927567104108e-01,-2.280086768091774407e-01,5.871441117167615076e-01,-2.086406350135803223e-01
9.497290000000000454e-01,2.925966219574169941e-04,-2.205222657657300955e-06,2.403499186038970947e-01,2.354978563933718058e-03,-4.001054624448219244e-03,-1.644218126105836397e-01,4.076698955671883228e-04,1.192556158354381689e-03,-1.675379899097606540e-04,1.179486327913598608e-03,7.021200746220255520e-04,-3.528353679451211138e-04,9.734650305265912448e-03,1.129539694665087912e-01,-3.243092960479600495e-01,2.333582001137202155e-02,1.391003164118297664e-01,-2.243092960479600440e-01,5.884387480153663308e-01,-1.697465777397155762e-01
9.773849999999999483e-01,2.733578350488221416e-04,1.251718196588757438e-05,2.403336763381958008e-01,2.363959839514294132e-03,-4.022785741087275824e-03,-1.644133118425767925e-01,2.490582991451434705e-04,1.473589988741406650e-03,-4.740310832858085632e-04,-2.919260479473591600e-04,-1.567896463199240295e-03,9.458029058098070801e-04,3.071682757135326888e-02,1.082669862585250303e-01,-2.674734119999398474e-01,4.422549625235953907e-02,1.346999978264010467e-01,-1.674734119999398418e-01,5.952379121055315636e-01,1.971014738082885742e-01
1.000696999999999948e+00,2.582063150811910379e-04,2.237320070178595789e-05,2.403229027986526489e-01,2.368245661972499545e-03,-4.036808156881344090e-03,-1.644050751805345989e-01,1.635266582596107424e-06,1.231514291794423652e-03,-2.840588276740163565e-04,-4.692686197228649377e-04,2.034545382342394795e-04,1.059312939695828499e-03,1.060494484313700969e-02,1.130983071215731356e-01,-3.259439294466066062e-01,2.433680007455906597e-02,1.397463523262999219e-01,-2.259439294466066006e-01,5.895599431521022504e-01,-1.796032786369323730e-01
1.024243999999999932e+00,2.418353675720942401e-04,2.993010336271622658e-05,2.403120100498199463e-01,2.368037260344006256e-03,-4.048010400637513939e-03,-1.643893045635529404e-01,1.773979604634441315e-05,1.211207942047901878e-03,-1.783821790013462305e-04,-6.168555640852060916e-04,-1.348284685109389517e-03,-3.199943468632266037e-04,4.785046543996815394e-02,1.082107534327281795e-01,-2.933687729360067165e-01,6.155311425518147223e-02,1.349030209500144128e-01,-1.933687729360066831e-01,5.990472542148791435e-01,3.513603210449218750e-01
1.048618999999999968e+00,2.240736408437722887e-04,3.542564472294954799e-05,2.403033524751663208e-01,2.384832343738183674e-03,-4.035078512146128560e-03,-1.643910015193021934e-01,-1.735127491001341247e-04,1.108701899906576038e-03,-2.433595363982021809e-04,8.509250607915047398e-04,4.815290391557213259e-04,-1.002156369027335089e-03,1.155020283373471568e-02,1.108139597820231304e-01,-3.190148606060006498e-01,2.543988993811284807e-02,1.375507095510972166e-01,-2.190148606060006442e-01,5.933176686024627111e-01,-3.117322921752929688e-02
1.074975999999999932e+00,2.011793758363758077e-04,3.691019249351224998e-05,2.402824759483337402e-01,2.374724119127043231e-03,-4.057989423660091077e-03,-1.643779825792859306e-01,1.293280832727920424e-04,8.894851576099524048e-04,-3.234067989978939295e-04,-1.347414342510369796e-03,-7.544580639125056647e-04,4.548614775279104781e-04,2.888370387437378534e-02,1.104968019314605254e-01,-3.179232401889966475e-01,4.280076090475449374e-02,1.371606544746010736e-01,-2.179232401889966420e-01,5.961518060479488179e-01,1.003767251968383789e-01
1.099657000000000107e+00,1.899486337725072172e-04,2.642145780770876852e-05,2.402546703815460205e-01,2.387436092884975478e-03,-4.064286355363710967e-03,-1.644072319630018875e-01,2.975020168540762930e-04,4.831689367488605207e-04,-5.533358198590576649e-04,8.145786976350640493e-05,-6.670103810884674220e-04,-1.225867350758555723e-03,4.724551648008094851e-02,1.098929211545303097e-01,-3.176736461159466729e-01,6.147082591754266662e-02,1.365034994649865219e-01,-2.176736461159466673e-01,6.002152907996960440e-01,3.061413764953613281e-01
1.126336999999999922e+00,1.859350578844566149e-04,1.407490042220121073e-05,2.402306795120239258e-01,2.411145059044206111e-03,-4.074176685954222776e-03,-1.644074559497816779e-01,4.207599634827161234e-04,4.367518703778346719e-04,-5.622163298539817333e-04,7.570929453178569871e-04,-2.166109108977958431e-03,2.356817689935988152e-05,4.728351657288504262e-02,1.081509040617883721e-01,-2.901803452591585897e-01,6.164083970705867138e-02,1.347753224237023817e-01,-1.901803452591585841e-01,6.016590737182601067e-01,3.552932739257812500e-01
1.150719000000000047e+00,1.851034804388290397e-04,-6.890198638347170052e-06,2.401985079050064087e-01,2.441978965537928287e-03,-4.063629466660723111e-03,-1.644158468712233478e-01,4.496652678129036611e-04,2.687529124332904674e-04,-6.610493292100727558e-04,1.165296896805233934e-03,-9.247508640271105002e-04,-8.586662109979875364e-04,3.523333269758038844e-02,1.102909190046358207e-01,-3.173553226403053040e-01,4.990315103842379169e-02,1.368349577012435980e-01,-2.173553226403052707e-01,5.994674192770214072e-01,1.843003034591674805e-01
1.174058000000000046e+00,1.876147323342634181e-04,-2.369279263379780957e-05,2.401670813560485840e-01,2.442512999578671119e-03,-4.057169413715255857e-03,-1.644191515958515204e-01,5.997198007159467489e-04,9.562709073445372092e-05,-7.368909427896142006e-04,5.485895667416503972e-04,1.253163663769693136e-03,-3.948247358460298877e-04,7.372003529632282712e-03,1.131656789913329103e-01,-3.262682461167502601e-01,2.213243753213999659e-02,1.395615270772584959e-01,-2.262682461167502546e-01,5.952067483004385151e-01,-1.105382442474365234e-01
1.202911000000000064e+00,1.976395196407324309e-04,-5.185802386664337284e-05,2.401070594787597656e-01,2.450570135829444919e-03,-4.064645481457906939e-03,-1.644075641339450833e-01,7.385679044736545877e-04,2.939205903217925655e-04,-1.012105960398912430e-03,-4.220784194912122677e-04,8.461907954285911859e-04,3.353198406770939032e-04,2.266338920273752028e-02,1.151154584585009355e-01,-3.280910750839514112e-01,3.733357669357398323e-02,1.415021806063790910e-01,-2.280910750839514334e-01,5.959850512814267587e-01,-1.031823754310607910e-01
1.227527999999999953e+00,2.017077657921155097e-04,-6.011084314476819484e-05,2.400867491960525513e-01,2.457043579887738423e-03,-4.058536699279136073e-03,-1.644249072941583734e-01,7.153195114020509827e-04,2.501816755615420733e-04,-1.075592474080622196e-03,1.197410857921442102e-03,-1.603734532275525519e-04,-2.676059544504777368e-03,3.398784287279708882e-02,1.112315932810937769e-01,-3.219001902395452475e-01,4.875879381562977372e-02,1.376000943640649787e-01,-2.219001902395452419e-01,6.007891749790857938e-01,1.479320526123046875e-01
1.251965999999999912e+00,2.084367733400909882e-04,-7.803883335951884432e-05,2.400380671024322510e-01,2.461999106903996811e-03,-4.068210911076786118e-03,-1.644036868559131115e-01,7.693396953355470221e-04,4.316268406338507008e-05,-1.198570360429584980e-03,-1.450209425963557225e-03,1.068905319411157773e-04,1.400988244831134896e-03,8.867712305315545232e-03,1.129197180838590331e-01,-3.249634258531152176e-01,2.379689430813040213e-02,1.392933650568403958e-01,-2.249634258531151842e-01,5.961255324213894369e-01,-1.718599200248718262e-01
1.278331000000000106e+00,2.189400779426490943e-04,-9.953672793714651835e-05,2.399887442588806152e-01,2.470605951735679699e-03,-4.055136161608130507e-03,-1.643998454842634516e-01,9.532452159660182063e-04,-1.132642554992440678e-04,-1.170247560366988182e-03,-7.309864398371957285e-04,5.003090789842341889e-04,5.381247452907617903e-04,2.094614102296423960e-02,1.148171204929858275e-01,-3.278121928326633849e-01,3.600433436722266789e-02,1.409808151859403003e-01,-2.278121928326633794e-01,5.979558999653910023e-01,-9.990310668945312500e-02
1.305455999999999950e+00,2.272569732196272633e-04,-1.199102316184135039e-04,2.399554401636123657e-01,2.482005445248107282e-03,-4.047978950508790419e-03,-1.643993285163496409e-01,1.052678754277913600e-03,-1.047177419029319455e-04,-1.224444829858839512e-03,-7.750474672488012360e-04,2.185150320629111547e-04,2.309757878076374750e-04,2.724320498344644237e-02,1.130825170878866082e-01,-3.260160345592891806e-01,4.235823997108077027e-02,1.391565963204836887e-01,-2.260160345592891751e-01,6.007213603775171107e-01,2.854537963867187500e-02
1.328271999999999897e+00,2.312017823470011450e-04,-1.294902128445866367e-04,2.399420738220214844e-01,2.487632675963684370e-03,-4.050957097037732879e-03,-1.644081762469546959e-01,8.741408963403644828e-04,-9.996433414147827404e-05,-1.181711792014539242e-03,1.739814652168315563e-03,-3.513696621090287671e-04,4.654017906622691619e-04,1.309602647177087603e-02,1.123035947802741574e-01,-3.229547174426724010e-01,2.826549372926129289e-02,1.385165680608778094e-01,-2.229547174426723954e-01,5.992017531805762243e-01,-1.011642217636108398e-01
1.351741000000000081e+00,2.356377833927199099e-04,-1.453637952169100863e-04,2.399197518825531006e-01,2.482235362900745649e-03,-4.050454332565900373e-03,-1.644314923389762484e-01,7.583924061412023604e-04,1.538742162867513374e-04,-9.944580961018800735e-04,-9.664098258826628188e-04,2.666675347594151891e-04,-1.326551638556573319e-03,3.368705828977203859e-02,1.095051069078593758e-01,-3.179266850475083173e-01,4.867812265789761561e-02,1.357808471486505186e-01,-2.179266850475082840e-01,6.082224249296596108e-01,4.088840484619140625e-01
1.375950999999999924e+00,2.376253306417747992e-04,-1.551650240194129193e-04,2.398967146873474121e-01,2.486503709790787928e-03,-4.064102539668823511e-03,-1.644534328247555521e-01,6.136085951002496477e-04,4.409415999227438393e-04,-6.282354588620364666e-04,-6.370214031347876896e-04,-6.350837095224399782e-04,-9.074943895498837872e-04,4.979632742720380145e-02,1.095260378284436814e-01,-3.142437613212009651e-01,6.467634542520384056e-02,1.359846390525828452e-01,-2.142437613212009595e-01,6.078498038331696662e-01,3.494595289230346680e-01
1.403308000000000000e+00,2.352932173353920048e-04,-1.672269725282527007e-04,2.398641258478164673e-01,2.497099345583846716e-03,-4.074285641169961281e-03,-1.644916796622246657e-01,4.705425550543757343e-04,1.978647798449476936e-04,-3.188331320416182280e-04,-1.753602643222363115e-03,2.012679390945812472e-03,1.571586325276861469e-03,2.269325087541973138e-02,1.148617485055170168e-01,-3.280814547154626837e-01,3.783789680768452623e-02,1.414367699137628609e-01,-2.280814547154627059e-01,6.011190659360537980e-01,-9.636634588241577148e-02
1.425955000000000084e+00,2.319330364337966028e-04,-1.785135115758717693e-04,2.398517131805419922e-01,2.506798864168767113e-03,-4.073640298877023724e-03,-1.645016953698954509e-01,3.758332826000102380e-04,9.272550082279797784e-05,-2.826217969413846731e-04,2.054710029548329018e-03,5.709685227392190298e-04,7.847302573035005308e-04,1.276938094425212819e-02,1.135864873242556083e-01,-3.268959736592923493e-01,2.802600221910073533e-02,1.401970576747529063e-01,-2.268959736592923715e-01,6.007350648275443517e-01,-1.575121879577636719e-01
1.451804000000000094e+00,2.190949952779903129e-04,-1.962340772043727694e-04,2.398419827222824097e-01,2.510737991020494699e-03,-4.060079620450851579e-03,-1.645019124124007526e-01,3.998545308365410893e-05,-4.360084945400764217e-06,-2.431493485346436501e-04,-3.542745321842388599e-04,1.102342594915727003e-03,3.179905409452093447e-04,1.846700648683949689e-02,1.148701219862698214e-01,-3.281011188303152859e-01,3.383576335511356142e-02,1.415887639543045029e-01,-2.281011188303152804e-01,6.016066914076103611e-01,-1.426954269409179688e-01
1.476623999999999937e+00,1.950778007302922553e-04,-2.155665479078444093e-04,2.398448139429092407e-01,2.522334080079692651e-03,-4.076527078246794389e-03,-1.644848847893563004e-01,-2.685534969959719803e-04,-1.470900694278648002e-04,-8.747042738832533360e-05,5.821080367733135787e-04,-1.217415826603182290e-03,-1.135285390108230425e-03,4.428061107086308373e-02,1.087523606604434562e-01,-3.092625335176198420e-01,5.982950969133254276e-02,1.357334739713268457e-01,-2.092625335176198365e-01,6.096946213409036863e-01,3.120249509811401367e-01
1.500779000000000085e+00,1.657580497664553688e-04,-2.346210741372111428e-04,2.398642897605895996e-01,2.510561769107883846e-03,-4.066904538331916896e-03,-1.644757504791769520e-01,-3.847424434900200275e-04,-2.492777927195919600e-04,-1.441532949684187770e-04,-7.145568958986099443e-04,7.717901700201588219e-04,7.659323994730162823e-05,2.271761981628249785e-02,1.127502746704054926e-01,-3.266983247221565412e-01,3.825603985876216417e-02,1.397102713442736344e-01,-2.266983247221565356e-01,6.046376378263323970e-01,-3.444296121597290039e-02
1.526551999999999909e+00,1.451614045872357992e-04,-2.557710627580206918e-04,2.398616224527359009e-01,2.540566298830250654e-03,-4.080274312963538819e-03,-1.644389043290872543e-01,-1.441905086119985870e-04,-3.662598696994732637e-04,-3.077789151575416327e-04,-3.447481211326126481e-05,-9.894905868199099265e-04,9.680773892743713312e-04,2.018699925016412267e-02,1.081479279375749530e-01,-2.728888679968615727e-01,3.596974794520473723e-02,1.350414240329756432e-01,-1.728888679968615671e-01,6.074562812812226431e-01,9.846687316894531250e-02
1.551318999999999892e+00,1.306666364139401685e-04,-2.783653340978868161e-04,2.398490756750106812e-01,2.510350809618766294e-03,-4.069879610811177884e-03,-1.644230066250793598e-01,8.940261942878680417e-07,-4.379181679259298659e-04,-3.719248925335705280e-04,-5.412461057017894451e-04,1.449985398995871921e-04,-1.017034998554277236e-03,3.454032039447698516e-02,1.091359592216344376e-01,-3.189612044447601158e-01,5.016525960488711633e-02,1.358941747253216148e-01,-2.189612044447601102e-01,6.132356295249022926e-01,4.139646291732788086e-01
1.575366999999999962e+00,1.168285124588896003e-04,-3.050312598050882373e-04,2.397972345352172852e-01,2.515086309588440532e-03,-4.044952208076324496e-03,-1.644242733617797825e-01,-2.366447524579923578e-05,-2.606842031792168455e-04,-4.122495593037456274e-04,6.891996267656114563e-04,2.779611939449385771e-04,-1.992318295968478759e-03,2.714281301848508327e-02,1.105987266973451205e-01,-3.212956183778215014e-01,4.270646726239843427e-02,1.372473634618941174e-01,-2.212956183778214958e-01,6.101134957996536823e-01,1.840906143188476562e-01
1.601264999999999938e+00,1.049019622439491571e-04,-3.206773006943053990e-04,2.397557497024536133e-01,2.531584278001025763e-03,-4.038330040642579277e-03,-1.644344985342494070e-01,-3.355720038946549623e-04,-3.512724301460789329e-04,-4.834811552427709103e-04,7.738111633874655663e-04,9.094882736104239942e-04,-1.437894137906546316e-03,7.439037194785107221e-03,1.102595313594791071e-01,-3.182827071943239439e-01,2.322058273195188455e-02,1.370524448538881501e-01,-2.182827071943239106e-01,6.085500773869373381e-01,5.002009868621826172e-02
1.626991000000000076e+00,8.541068614679882644e-05,-3.387833369528993918e-04,2.397163808345794678e-01,2.511646344532133916e-03,-4.032567019473631831e-03,-1.644548570880020044e-01,-5.511335785360690779e-04,-3.369261259756192381e-04,-3.756303340196609497e-04,-6.329379987491802299e-04,-6.262457851419781169e-04,-6.122866327660163137e-04,4.700474307468882618e-02,1.090879710677038622e-01,-3.130868450012939119e-01,6.266303465132330719e-02,1.359472918534045949e-01,-2.130868450012938786e-01,6.137566093507930143e-01,3.313536643981933594e-01
1.650822999999999929e+00,5.965544030332560282e-05,-3.547788505897924859e-04,2.396860420703887939e-01,2.499803760385892366e-03,-4.022776139458450473e-03,-1.644518145961280098e-01,-6.986201391711337671e-04,-2.707579613828297867e-04,-1.643725408939644694e-04,-9.626874439058834537e-04,1.389832191443787172e-03,-1.012552274524522802e-03,1.674304090589169916e-02,1.099266523562764664e-01,-3.201013335882926247e-01,3.230715401012908272e-02,1.368030897620750586e-01,-2.201013335882925914e-01,6.123355129686296472e-01,2.067321538925170898e-01
1.674508000000000107e+00,4.519847253941962497e-05,-3.627282000825747359e-04,2.396705001592636108e-01,2.498787043645605069e-03,-4.003936358316639854e-03,-1.644600904481237080e-01,-5.986894377446942391e-04,-4.253927251936682140e-04,-2.983421727549284697e-04,1.501420859295317899e-03,1.434873221001788622e-03,-8.833065674990039961e-04,7.260721396901984731e-03,1.121214382334846105e-01,-3.233743288800765003e-01,2.292039512711641774e-02,1.387923544910546481e-01,-2.233743288800764948e-01,6.068800118994300830e-01,-1.655656099319458008e-01
1.698140999999999901e+00,3.057411724408504161e-05,-3.707228944368025423e-04,2.396649718284606934e-01,2.486966840451513682e-03,-4.007643280740547098e-03,-1.644694973931040138e-01,-7.917887734199950157e-04,-2.053522853357674463e-04,-3.667973214760422707e-04,-3.577290036389163606e-04,-1.547685838515905398e-03,-6.052895002783690356e-04,4.814539145289099820e-02,1.079240691987572859e-01,-2.923415252752029625e-01,6.359927579972225742e-02,1.347723290568695331e-01,-1.923415252752029292e-01,6.162567052524811073e-01,3.710957765579223633e-01
1.726029999999999953e+00,2.704911455025440082e-06,-3.776175624580886355e-04,2.396568059921264648e-01,2.482071367313138429e-03,-4.010086400968226883e-03,-1.644591434878734937e-01,-9.689193000413727670e-04,-1.594055832076382117e-04,-3.827792534139007330e-04,-4.385688753711203909e-04,1.577689354702196771e-04,-8.099750611213251197e-04,3.296558700091051231e-02,1.088717863907430611e-01,-3.185698575099930041e-01,4.840118826705832461e-02,1.358359167206002194e-01,-2.185698575099929708e-01,6.175300141690540645e-01,4.115906953811645508e-01
1.750251000000000001e+00,-2.645639999963190624e-05,-3.846123468570236226e-04,2.396594136953353882e-01,2.479286237878389112e-03,-4.002711371957623498e-03,-1.644491320064820350e-01,-1.053262033103496195e-03,-2.444106868757873943e-04,-3.136587911285459995e-04,9.361872655015398073e-04,-3.446380387538092193e-04,-5.017761806602776464e-04,2.686617853981544679e-02,1.106135156116557355e-01,-3.206667339516214854e-01,4.235275544053278274e-02,1.375686525768046453e-01,-2.206667339516214799e-01,6.127818281182950688e-01,8.130586147308349609e-02
1.774291000000000063e+00,-4.700285650612449667e-05,-3.899900923777686271e-04,2.396661043167114258e-01,2.481373460668421637e-03,-4.002227382712497672e-03,-1.644486043831081545e-01,-1.129868755899686179e-03,-1.739484085662158211e-04,-3.150119446218013763e-04,2.356100238450490117e-04,1.303505255439905064e-03,3.183763821492875722e-04,1.350060239733242087e-02,1.150236320865368755e-01,-3.282150965563372935e-01,2.895892809681944666e-02,1.420315197138611318e-01,-2.282150965563372880e-01,6.087316454530693477e-01,-2.048022747039794922e-01
1.797967000000000093e+00,-8.175052631718900424e-05,-3.974649260968472005e-04,2.396783083677291870e-01,2.486437118716429678e-03,-3.997837670273396427e-03,-1.644345435287135615e-01,-1.329914305306042349e-03,-4.421487486887313548e-04,-2.669653331395238638e-04,7.478691178673338045e-04,-5.515036472370629444e-04,-7.201975413370502758e-04,3.332320303143522511e-02,1.099642529083410952e-01,-3.188517363150004114e-01,4.900743859550895504e-02,1.370536069917100142e-01,-2.188517363150004336e-01,6.154223994308600787e-01,1.679643392562866211e-01
1.825611000000000095e+00,-1.047982115794882861e-04,-4.068211917416020068e-04,2.396847754716873169e-01,2.476512177122803127e-03,-3.976836795950067227e-03,-1.644296321085931822e-01,-1.263284495442571886e-03,-6.365564489021115907e-04,-2.143002202501520514e-04,-1.697202881445970118e-03,2.432489802376341069e-03,4.865742148584349517e-04,2.237938365665628412e-02,1.136402938227769471e-01,-3.275496864716304635e-01,3.809181117592173177e-02,1.405301862387558498e-01,-2.275496864716304579e-01,6.122825236005625671e-01,-6.294655799865722656e-02
1.850761000000000100e+00,-1.375613208216994404e-04,-4.209763885949150785e-04,2.396901845932006836e-01,2.485668955838418303e-03,-3.952226139553705053e-03,-1.644235278710541870e-01,-1.283915995559468471e-03,-5.412533130416309233e-04,-9.622536890674382448e-05,-1.332654201062348151e-03,1.246441132460684607e-03,1.154661946110184089e-03,2.090191478495883118e-02,1.145673457954107244e-01,-3.280265793039491284e-01,3.661428585973731942e-02,1.413465652201905121e-01,-2.280265793039491229e-01,6.121998839115687652e-01,-1.055511236190795898e-01
1.873340999999999923e+00,-1.485796518896881466e-04,-4.289535941008612639e-04,2.396953999996185303e-01,2.511637058927584758e-03,-3.955721798869049621e-03,-1.644305343999481472e-01,-1.002567787326833068e-03,-5.368831008514077805e-04,1.470046117901802063e-04,5.839938813885788655e-04,-1.563704927373846731e-03,-1.131652318356621148e-03,4.477736815460269665e-02,1.088103447634245213e-01,-3.052344572969910574e-01,6.064984203166447901e-02,1.354528108342232529e-01,-2.052344572969910241e-01,6.198231872675625809e-01,3.276188373565673828e-01
1.901149999999999896e+00,-1.557165927952374287e-04,-4.348765985975019174e-04,2.397123128175735474e-01,2.524256652369832529e-03,-3.955552934564510181e-03,-1.644005236599488384e-01,-7.431881889145330921e-04,-4.422288494803804288e-04,1.599334500497207046e-04,-1.437851585238463566e-03,-7.897258280970702099e-04,1.494621192304241121e-03,1.529614127837967616e-02,1.104642297601986234e-01,-3.133925495498075531e-01,3.118350204305079046e-02,1.369956257602770455e-01,-2.133925495498075475e-01,6.148092501639557117e-01,-2.005016803741455078e-02
1.924795999999999951e+00,-1.574331442746925434e-04,-4.398142819406847888e-04,2.397240549325942993e-01,2.508619105728865893e-03,-3.954219743008913213e-03,-1.644056448525619274e-01,-8.212085711859312643e-04,-4.052879430646724127e-04,1.904992532217875123e-04,-2.235855376279098292e-03,-3.426638274566799389e-04,-2.332516164522936914e-04,3.383275672959102504e-02,1.115500285605708769e-01,-3.222554961302061538e-01,4.962113837409116296e-02,1.381481454019655442e-01,-2.222554961302061483e-01,6.181781630287421780e-01,1.500340700149536133e-01
1.948744000000000032e+00,-1.528437497984799233e-04,-4.347340849319504584e-04,2.397470325231552124e-01,2.503575021391836290e-03,-3.928594638064941691e-03,-1.644115929432250489e-01,-4.386777753372007481e-04,2.910520167692714889e-05,3.669100697152316570e-04,3.350628746375913683e-04,4.766135286155530489e-04,-2.809039229968704390e-04,5.349320083079129803e-03,1.123124615682010718e-01,-3.235380786443621814e-01,2.082272398369020006e-02,1.385382986405883088e-01,-2.235380786443621759e-01,6.146695489270509460e-01,-1.036962866783142090e-01
1.975719999999999921e+00,-1.461614491767138752e-04,-4.280805203099347935e-04,2.397655695676803589e-01,2.491637580509434898e-03,-3.931706912126520237e-03,-1.644160716313027848e-01,-5.577851887879634388e-04,4.542558956449429023e-05,3.829838824458420277e-04,-1.091593575358773506e-03,-1.166776656505918216e-03,3.523696106393739186e-04,3.433527580459567324e-02,1.094122756366208288e-01,-3.044650734921732216e-01,4.978014059172903433e-02,1.357622431832258558e-01,-2.044650734921732160e-01,6.204692460259676468e-01,2.168939113616943359e-01
1.999894000000000061e+00,-1.362815421581225193e-04,-4.132767894778979507e-04,2.397862672805786133e-01,2.473967009168099099e-03,-3.925770545037954307e-03,-1.644364129852653456e-01,-4.851714019116953923e-04,2.191230662167268674e-04,5.406731506809592247e-04,-8.204467409507757358e-04,1.931877064588221086e-03,-5.829528365523307422e-04,1.544912219237444193e-02,1.124057615453707970e-01,-3.251399116153974589e-01,3.066455897707284078e-02,1.386677387659722149e-01,-2.251399116153974533e-01,6.179261960986196511e-01,2.211010456085205078e-02
2.023114000000000079e+00,-1.277392809989380171e-04,-4.012737380388461342e-04,2.398006916046142578e-01,2.477922501993990237e-03,-3.944141383928512212e-03,-1.644282042397571253e-01,-4.073849968758097117e-04,3.768870718531332101e-04,6.069426308386027813e-04,-1.544171772275395975e-03,-7.761786698102441425e-04,5.387755610959403443e-04,2.706929498908078324e-02,1.110124577661798922e-01,-3.194053692631432240e-01,4.222044366322822567e-02,1.373639362698372002e-01,-2.194053692631432462e-01,6.195808143952764580e-01,8.686947822570800781e-02
2.048678999999999917e+00,-1.185553154471810910e-04,-3.866600617804294470e-04,2.398134022951126099e-01,2.473518007858431424e-03,-3.919906262284111875e-03,-1.644396146629527600e-01,-4.017575786961615023e-04,4.944932691527629404e-04,4.456893657334148884e-04,-1.011077577485365066e-03,1.348843695271290371e-03,6.819732280307227469e-05,2.152658501716334452e-02,1.136875264495647297e-01,-3.268528117489628571e-01,3.659523750786666807e-02,1.398903443539491198e-01,-2.268528117489628237e-01,6.178731392266092470e-01,-5.740511417388916016e-02
2.073878000000000110e+00,-1.056535393374351180e-04,-3.652992299321044709e-04,2.398419082164764404e-01,2.488483941569703383e-03,-3.913250631266906865e-03,-1.644229537390895501e-01,-5.343624515855693174e-04,4.921431706229665009e-04,4.902550135739147663e-04,3.812579633601368605e-04,-5.766191559324503318e-04,2.435768368849746367e-03,4.758949534167580125e-03,1.106480076393522860e-01,-3.076395035297758707e-01,1.994021636023533481e-02,1.368851446818369344e-01,-2.076395035297758374e-01,6.172060168624393661e-01,-1.363292932510375977e-01
2.102024999999999810e+00,-1.048066218041274872e-04,-3.435052111301138515e-04,2.398740351200103760e-01,2.488251442232738194e-03,-3.917133168110709107e-03,-1.644175387244017905e-01,-8.034639927214424051e-04,5.969126719689958616e-04,4.671227361541241407e-04,-7.198958892450997744e-04,-2.309314033411557186e-03,2.281491982864616050e-04,4.774722218202406832e-02,1.081141382363295794e-01,-2.843098255795251106e-01,6.287234468974298163e-02,1.345323676483771713e-01,-1.843098255795250773e-01,6.259973946213134299e-01,3.719224929809570312e-01
2.127305999999999919e+00,-1.050271521654568663e-04,-3.371522475299949416e-04,2.398865818977355957e-01,2.482496307159846437e-03,-3.926472245248779913e-03,-1.644207488565077036e-01,-6.950125864140635273e-04,6.096635778696529338e-04,3.738640807569026947e-04,-1.581491754522834810e-03,-7.148466822813834016e-04,-1.393392917067016751e-03,4.197903243165548165e-02,1.097749786950391743e-01,-3.184184512144946355e-01,5.705311980039780989e-02,1.361610977677067957e-01,-2.184184512144946577e-01,6.266457348822163098e-01,3.741438388824462891e-01
2.154288000000000203e+00,-1.013249790678851902e-04,-3.226067600264883803e-04,2.399086654186248779e-01,2.491719704486244392e-03,-3.956632645257807113e-03,-1.644132208010700147e-01,-4.204677491580586656e-04,6.419118736299820509e-04,1.949607540154829621e-04,-1.646465599120891738e-03,-2.202503171810997907e-03,-6.095407221466558369e-04,4.412911419146966358e-02,1.089566642910453076e-01,-3.032473012866498951e-01,5.921173890356837277e-02,1.353931048373684942e-01,-2.032473012866498618e-01,6.263457771129445906e-01,3.167753219604492188e-01
2.185980999999999952e+00,-9.292981256787372253e-05,-3.089347633528677535e-04,2.399255335330963135e-01,2.495261735948574137e-03,-3.962522457623851579e-03,-1.644160550364190954e-01,-1.901696727491560945e-04,6.129264004226267709e-04,1.392721023876219988e-04,-1.410982940966664040e-03,7.797132983039317070e-04,-7.251817305101118281e-05,2.814301999394096254e-02,1.117554930871426933e-01,-3.241997677205239459e-01,4.324685230669150782e-02,1.381199009713608983e-01,-2.241997677205239126e-01,6.239219052855718983e-01,1.273431777954101562e-01
2.205201999999999884e+00,-8.832169935617775649e-05,-3.030196292050945143e-04,2.399339675903320312e-01,2.503074513813165723e-03,-3.943894867517228064e-03,-1.644075027818874268e-01,-1.973231022350287460e-04,6.004991902790421951e-04,3.497437282931059599e-04,1.896682793439219286e-03,1.847186250309663415e-03,4.340105797655025607e-04,1.131152664620250700e-02,1.148391405688641009e-01,-3.277195562050126409e-01,2.647497560483066947e-02,1.411117280133733221e-01,-2.277195562050126354e-01,6.192370459869281918e-01,-2.008350491523742676e-01
2.225906999999999858e+00,-7.703984079498863748e-05,-2.887076649219735185e-04,2.399499714374542236e-01,2.507854937723934859e-03,-3.919929523599874344e-03,-1.644056625106617986e-01,-8.399680757759092750e-05,8.511233104106085291e-04,2.203153999289497733e-04,-8.619288780857910139e-04,1.238874043753257145e-03,-4.911732335350217464e-04,1.846350442283854060e-02,1.119996464207162479e-01,-3.235675482053033125e-01,3.349805740586597053e-02,1.380658444885180802e-01,-2.235675482053033070e-01,6.241368719315887326e-01,6.518018245697021484e-02
2.250764000000000209e+00,-6.229753548305916983e-05,-2.631425145999714225e-04,2.399739623069763184e-01,2.515922653887571123e-03,-3.891708150446593351e-03,-1.644120002783573398e-01,-3.085679876221481140e-04,9.488402864336060571e-04,2.410977613180875778e-04,2.847287703921664984e-05,9.773089394651188460e-04,-3.368032379475818252e-04,5.343702106281033107e-03,1.128834543265014312e-01,-3.258084181624701925e-01,2.041164743536640069e-02,1.389118175921637832e-01,-2.258084181624702147e-01,6.234279480680192664e-01,-1.680141687393188477e-02
2.275653999999999844e+00,-5.855200462780798837e-05,-2.368448066422091075e-04,2.399959713220596313e-01,2.500854545682353307e-03,-3.912195825590769616e-03,-1.644211343632129285e-01,-4.129160979929303275e-04,9.597518420359542075e-04,1.709782372927293181e-04,-1.583586162040140745e-03,-5.858014235237325208e-04,3.363109582090877971e-04,2.946906275682831602e-02,1.115360129018061475e-01,-3.218943570875280047e-01,4.442985990135561725e-02,1.377316257761031781e-01,-2.218943570875279991e-01,6.258834151007209856e-01,9.817636013031005859e-02
2.299987999999999921e+00,-5.106847143876031014e-05,-2.156688459628733432e-04,2.400207817554473877e-01,2.505854738563787452e-03,-3.948026231483714454e-03,-1.644273430612632758e-01,-3.038450495623283782e-04,9.357487197080193364e-04,3.876675618812441826e-04,-2.788757815278701860e-04,-3.218215938345798379e-04,6.440267414042661221e-04,1.040739328020890038e-02,1.098271012071553310e-01,-2.978396555303676196e-01,2.538658379097765219e-02,1.361785750756627222e-01,-1.978396555303676141e-01,6.240202662098951469e-01,-5.510741472244262695e-02
2.324802000000000035e+00,-3.937346217566495109e-05,-2.079165048860485705e-04,2.400481551885604858e-01,2.512602816947043932e-03,-3.935345680265101009e-03,-1.644306745940169456e-01,6.896810029714246597e-05,3.471232410870872683e-04,2.210648526670411229e-04,1.349230238294703071e-03,1.281773844644094407e-03,1.061188561278781744e-04,1.080212221081837572e-02,1.148758106728585277e-01,-3.275487322557034120e-01,2.613800512771857418e-02,1.408914655205183164e-01,-2.275487322557034064e-01,6.223516697721153124e-01,-1.975249052047729492e-01
2.349671999999999983e+00,-2.666305048501267712e-05,-2.194041610916379695e-04,2.401420176029205322e-01,2.510768994746414608e-03,-3.923235929692570068e-03,-1.644384034062058575e-01,-1.832353644788912040e-04,4.848355278504786880e-05,3.602109791245311499e-04,1.364186601146008060e-03,-9.896637546462096994e-06,1.428024436999540897e-04,1.097515342475352713e-02,1.128695547528327514e-01,-3.243534062203050627e-01,2.644238717374387815e-02,1.389724440378073689e-01,-2.243534062203050572e-01,6.239551754324984545e-01,-1.347548961639404297e-01
2.374229999999999841e+00,-1.795906502910178860e-05,-2.316386454950139062e-04,2.402406334877014160e-01,2.505154374618308050e-03,-3.901708393017289112e-03,-1.644359128629750977e-01,-1.990254409100887935e-04,1.255380713052065206e-04,4.730843356810510159e-04,5.152866353282822788e-04,1.661930786448668606e-03,-2.851295768311099977e-05,1.125968734477788072e-02,1.152584589480361299e-01,-3.277901226405331991e-01,2.662188775423835960e-02,1.412083695112479609e-01,-2.277901226405332213e-01,6.234665458162524931e-01,-2.023248672485351562e-01
2.403382999999999825e+00,-1.003838642495051770e-05,-2.473683044095243691e-04,2.403405010700225830e-01,2.522433750891764706e-03,-3.906248828218661373e-03,-1.644253621820732647e-01,-4.065243148457563856e-05,-1.785692814010393832e-04,6.227141129784286022e-04,9.984008248766177308e-04,3.031254792339985768e-04,1.274012093530503802e-03,9.225360274346221245e-03,1.142193106682442699e-01,-3.266134444503579481e-01,2.487910023468383261e-02,1.400805727186913430e-01,-2.266134444503579426e-01,6.243342339072553981e-01,-1.852220296859741211e-01
2.424345000000000194e+00,2.916102492185829453e-07,-2.649788203197406527e-04,2.403988987207412720e-01,2.515928006529719648e-03,-3.912441149257039896e-03,-1.644017414026159862e-01,3.277478010067843162e-04,-3.320848605038484750e-04,6.823443109169602394e-04,-1.218651580222073144e-03,7.666646841008643528e-05,1.290845793259299493e-03,7.937706349063516909e-03,1.135544447879971858e-01,-3.248624318329823568e-01,2.358764472627206815e-02,1.392436750454526251e-01,-2.248624318329823790e-01,6.251394954959226258e-01,-1.724684238433837891e-01
2.452186999999999895e+00,2.213176657423369861e-05,-2.937213413498297385e-04,2.404699325561523438e-01,2.532147525507685328e-03,-3.886232236570696941e-03,-1.644143362126251340e-01,5.826720722205641721e-04,-4.305722843959631564e-04,8.162671001628041267e-04,1.235979767310851473e-03,1.612987800930295798e-03,9.163338880485584600e-05,1.052150428450070521e-02,1.156186982044874745e-01,-3.276569756922572685e-01,2.632243494930797123e-02,1.410147382765735702e-01,-2.276569756922572629e-01,6.253018167444013287e-01,-1.994624137878417969e-01
2.475134999999999863e+00,4.079832052233489485e-05,-3.114359405075441210e-04,2.405198812484741211e-01,2.537009869567962133e-03,-3.874792312329011779e-03,-1.644242261834487628e-01,6.946659048724627842e-04,-5.288892577437168292e-04,7.731075747869908810e-04,8.021418058104631994e-04,7.117469613314471983e-05,-4.967482643995591940e-04,1.265320248582684631e-02,1.127819350236484441e-01,-3.209100749279171771e-01,2.853819673231809337e-02,1.380500398757113500e-01,-2.209100749279171716e-01,6.277681096484835077e-01,-8.316302299499511719e-02
2.498829999999999885e+00,6.087491333698503559e-05,-3.273991056205769823e-04,2.405705302953720093e-01,2.525927945106786962e-03,-3.868366442008053241e-03,-1.644339899150097928e-01,9.023411388658958594e-04,-6.599622234344855887e-04,6.910599768161773682e-04,-9.183359385864844080e-04,1.396918065435290247e-03,-1.970254824615904590e-04,1.809165342253652581e-02,1.142079853673532708e-01,-3.258274224554546517e-01,3.396506822091645283e-02,1.393033516463814403e-01,-2.258274224554546461e-01,6.287083548801920552e-01,-6.230509281158447266e-02
2.523471999999999937e+00,9.373022920102968213e-05,-3.577362997713551913e-04,2.406429499387741089e-01,2.521588365824653944e-03,-3.878226076267088374e-03,-1.644428265873276729e-01,9.543133862467944586e-04,-9.556228905259582518e-04,6.691091111861169338e-04,1.274292644638879172e-03,2.336143602975368581e-03,-1.141426539968052548e-03,4.508055374830569756e-03,1.136296678632209844e-01,-3.245830864625223189e-01,2.052055927537703439e-02,1.387410292355124031e-01,-2.245830864625223133e-01,6.289392608961746900e-01,-8.555996417999267578e-02
2.548386999999999958e+00,1.232718480251460288e-04,-3.846209691720996302e-04,2.407125234603881836e-01,2.506975455031375689e-03,-3.880278924136337793e-03,-1.644614663297558899e-01,6.869736163864993608e-04,-7.738142875103895752e-04,4.110343870706856251e-04,1.093817294112669949e-03,3.104100321176774999e-04,1.059847244343656519e-04,1.036808036747728298e-02,1.145913937688191886e-01,-3.263530065478641995e-01,2.618231813156712828e-02,1.398733485709325319e-01,-2.263530065478641939e-01,6.282796434199995339e-01,-1.656018495559692383e-01
2.576242000000000143e+00,1.426691711459378341e-04,-4.066339539123577898e-04,2.407670319080352783e-01,2.511297051370963915e-03,-3.885334745621582542e-03,-1.644667761215896640e-01,5.441188666664840317e-04,-7.072795675359528061e-04,2.502683855709619820e-05,6.529900358001399733e-04,3.176722719128462604e-04,1.151872077486473800e-03,9.455659194572266224e-03,1.149900380653024190e-01,-3.269856678920868842e-01,2.529529683367800347e-02,1.403510334484100730e-01,-2.269856678920868787e-01,6.285279001823770306e-01,-1.893117427825927734e-01
2.604788000000000103e+00,1.615020833372444401e-04,-4.257692750527405077e-04,2.408220022916793823e-01,2.518073590759155583e-03,-3.899038640610807960e-03,-1.644691573875158852e-01,7.435010891345333406e-04,-7.089984177041449990e-04,-9.397158282808959484e-05,1.620598573514189593e-04,-6.643049537015989232e-04,-2.851626993631465419e-04,4.519679740996791067e-02,1.097872979121574666e-01,-2.985933655102429585e-01,6.107785147306626916e-02,1.350971025961965888e-01,-1.985933655102429529e-01,6.375477116396345290e-01,3.411693572998046875e-01
2.625976000000000088e+00,1.701148257157198568e-04,-4.311506231925406394e-04,2.408369779586791992e-01,2.521967305782756713e-03,-3.890130584282003312e-03,-1.644742849229192672e-01,8.935146973017315305e-04,-5.781852109210895620e-04,-1.924548705574125051e-04,1.092501617667836862e-03,7.668613958974273377e-04,-1.142330489905884301e-03,3.942348659302482433e-03,1.124639576083745207e-01,-3.191399651678091809e-01,1.977069858947398326e-02,1.376552320791871731e-01,-2.191399651678091753e-01,6.313935727206995141e-01,-8.585578203201293945e-02
2.651520000000000099e+00,2.038162417627661937e-04,-4.480478865425453500e-04,2.408803850412368774e-01,2.534878623665569666e-03,-3.872319067591112329e-03,-1.644780906369325280e-01,1.169895195778886598e-03,-6.143661400218288545e-04,-1.758516882546246052e-04,-2.620216098259132141e-04,-1.215857589592352436e-04,1.496201380890243128e-03,5.456558985170913839e-03,1.128958895830672327e-01,-3.179856812022469059e-01,2.139601017815552161e-02,1.378088881872172322e-01,-2.179856812022469004e-01,6.309624588696230996e-01,-1.507006883621215820e-01
2.677534000000000081e+00,2.336594686616390586e-04,-4.599971602515786294e-04,2.409196346998214722e-01,2.530073632251625924e-03,-3.850276400526597698e-03,-1.644715942697030364e-01,9.162618891422209247e-04,-5.200267142925665397e-04,-2.639933663886040449e-04,8.694825406206759194e-04,1.075887524229440328e-04,6.471712535393034718e-04,8.688610743527582642e-03,1.149486336910403861e-01,-3.262961411978757553e-01,2.457200977978066941e-02,1.398823804476145571e-01,-2.262961411978757775e-01,6.310675563464531734e-01,-1.822516918182373047e-01
2.702547000000000033e+00,2.508105734371069546e-04,-4.651578766573786941e-04,2.409557253122329712e-01,2.533895278484898754e-03,-3.878558134870591090e-03,-1.644594311308145151e-01,7.418352608849381521e-04,-4.770655030575879775e-04,-3.008716448675841093e-04,-6.681746513885085653e-04,1.183381168820501719e-04,1.394843946760385145e-03,7.641912677919759228e-03,1.140244192561067627e-01,-3.247803282861392304e-01,2.354135482660757797e-02,1.392078694481515000e-01,-2.247803282861392526e-01,6.318338553739681895e-01,-1.720049381256103516e-01
2.722947000000000006e+00,2.546496253652877329e-04,-4.667489458863385040e-04,2.409668713808059692e-01,2.544201655988265285e-03,-3.893555262791448257e-03,-1.644541751369956728e-01,6.407964102105131359e-04,-5.303130740027491626e-04,-1.555169146740809083e-04,2.869485470794588388e-03,-1.865648583451139965e-03,5.186751451544002354e-04,2.411583834667274662e-02,1.119311430463124368e-01,-3.182330979001533056e-01,4.012088059385986172e-02,1.372456989400021310e-01,-2.182330979001533000e-01,6.362255758657903160e-01,6.790184974670410156e-02
2.748736000000000068e+00,2.648254654055847302e-04,-4.667275201896135578e-04,2.409954071044921875e-01,2.519634257484449757e-03,-3.917370425303712267e-03,-1.644605147720050731e-01,6.387428696051004710e-04,-3.863595710362374117e-04,-4.234096268191933632e-04,2.757904048031543627e-04,1.415483849213064601e-03,8.443652178752692828e-04,1.473771758844516153e-02,1.170847653981273162e-01,-3.283861718926719409e-01,3.048983820842698575e-02,1.425442034547659831e-01,-2.283861718926719075e-01,6.325069436720309746e-01,-2.058719396591186523e-01
2.772432999999999925e+00,2.717801262895333590e-04,-4.688819886296940998e-04,2.410139590501785278e-01,2.530647083277652153e-03,-3.897073325143107780e-03,-1.644654384007258052e-01,6.327976589679185819e-04,-6.894972337060325694e-04,-6.460481090471148491e-04,5.079858698665743562e-04,-1.464634005935686761e-04,-6.358677728883346337e-04,2.878243030782381973e-02,1.124224264985865668e-01,-3.219735672266981763e-01,4.480068685615755386e-02,1.377264972182290770e-01,-2.219735672266981708e-01,6.379891554353281924e-01,1.019685268402099609e-01
