timestamp,x,y,z,roll,pitch,yaw,vx,vy,vz,p,q,r,psp,qsp,rsp,pres,qres,rres,thrust_sp, thrust_res
0.000000000000000000e+00,3.335012777958232168e-03,9.732790091835221563e-03,9.998424649238586426e-01,1.308348934478819822e-02,-5.775138537361002022e-03,7.883349189281498460e-04,7.731163733426040484e-03,5.313502200504878654e-03,6.236807093955576420e-04,2.469015399732105154e-02,-1.491688258060944877e-02,-3.175956239661457958e-02,-2.888480066428150694e-01,-1.908383564143052158e-01,9.953899916239759837e-02,-2.142358124256134033e-01,-1.616905689239502009e-01,9.723944664001464566e-02,5.168403807476518175e-01,2.633253335952758789e-01,-9.561237096786499023e-01,9.662980075443191197e+01,-1.043574810028076102e-02
3.620199999999999807e-02,4.281303819844144154e-03,1.014832720403299401e-02,1.000130772590637207e+00,1.379839440234725302e-02,-5.796582036628139534e-03,6.750344944789775413e-04,-3.499781689196444692e-03,-1.615596950628061038e-03,-2.519111731089651585e-04,-7.067363951343170157e-03,-3.463048651511248938e-02,6.253827572739816508e-05,-2.999019872991612878e-01,-2.098058720798941790e-01,1.175675474359079986e-01,-2.145642220973968395e-01,-1.709046721458435114e-01,1.155562341213226263e-01,5.175514302758703611e-01,2.992315292358398438e-01,-3.415948152542114258e-01,1.023345933152800029e+02,-1.043574810028076102e-02
7.006400000000000128e-02,4.966069498726368402e-03,1.015906678959803931e-02,1.000343561172485352e+00,1.461692692442870950e-02,-5.859408642564734038e-03,7.796275389252204984e-04,1.041857049222580031e-02,5.942974455861236953e-03,-3.582922741770744324e-03,-4.260316122853247123e-02,-2.015367411922422761e-02,3.397617297276672027e-02,-2.983383944871295101e-01,-1.839928245638738635e-01,1.064345686859259482e-01,-2.148473560810089111e-01,-1.580539941787719727e-01,1.041600465774536050e-01,5.172469770475860429e-01,2.703375816345214844e-01,-2.632323503494262695e-01,-9.902869296453462766e+01,-1.043574810028076102e-02
1.052990000000000037e-01,5.345683648335037078e-03,1.003945447392550275e-02,1.000428438186645508e+00,1.487032057082736738e-02,-6.052904890292865048e-03,7.171409488073801110e-04,-7.230657690014328370e-03,2.576707791539485995e-04,-4.654153250157833099e-03,-6.120474168095675280e-03,1.900987986709677972e-03,2.139138147166082596e-02,-3.055379494765749215e-01,-2.179080823165252534e-01,1.217432550884837150e-01,-2.146727800369262751e-01,-1.746554017066955511e-01,1.195884346961975098e-01,5.180028938995830945e-01,3.069138526916503906e-01,-1.363102316856384277e+00,1.124651230620537490e+02,-1.043574810028076102e-02
1.391110000000000124e-01,5.664892952190217663e-03,9.891446675509963857e-03,1.000742793083190918e+00,1.505454161293596702e-02,-6.661361506392182719e-03,7.295831722804622596e-04,1.393158555381050247e-02,4.011333326966195177e-03,-4.825771786272525787e-03,1.137152295900404134e-02,-9.079232033885102637e-03,1.031784827264647236e-02,-3.031659697787374985e-01,-1.885954071788647213e-01,1.095945265908587901e-01,-2.149107277393340898e-01,-1.613213896751403698e-01,1.074545860290527372e-01,5.174229398062053509e-01,2.760305404663085938e-01,-1.490471482276916504e+00,1.287503089491692947e+02,-1.043574810028076102e-02
1.767720000000000125e-01,6.238647481298139306e-03,9.796361981401963126e-03,1.001098036766052246e+00,1.508501856896912567e-02,-6.965087224110266817e-03,6.353751120444190792e-04,-1.817062953171331291e-03,-2.360257737088744794e-03,-6.634490564465522766e-03,-1.035935114406788538e-02,-3.161418144539752256e-02,2.051135225276311605e-02,-3.088500652860643458e-01,-2.211791633409624647e-01,1.210783064945259446e-01,-2.146823108196258545e-01,-1.764865636825561357e-01,1.191483020782470592e-01,5.180853011988783008e-01,3.056951761245727539e-01,-9.919625520706176758e-01,7.650083711943247522e+01,-1.043574810028076102e-02
2.112739999999999896e-01,7.022505886670930321e-03,9.904588479814511667e-03,1.001088857650756836e+00,1.180587727331099297e-02,-5.820249042513880866e-03,-5.108680500305616589e-04,1.447996307584884478e-02,1.372182681731500334e-02,-2.229101583361625671e-02,-1.249125630648653396e-01,7.149453831550935112e-02,-2.593476315701462656e-02,-2.723688266898511845e-01,-1.789738717180155980e-01,4.989882722797291809e-02,-2.135191977024078203e-01,-1.576539516448974554e-01,5.126241445541381697e-02,5.172804021052029855e-01,1.993621587753295898e-01,-1.354178071022033691e+00,1.172006929966568123e+01,-1.043574810028076102e-02
2.472590000000000066e-01,7.762118835304254727e-03,1.020575293108309453e-02,1.000470995903015137e+00,5.407495388663407891e-03,-1.555848555143679590e-03,-2.287618151028972258e-03,6.960765312755159279e-03,8.724117796891275173e-03,-4.437930881977081299e-02,-2.609107719128173630e-01,1.777361576867512449e-01,-9.224679673793781398e-02,-2.366823500139144665e-01,-1.241178464656504804e-01,-3.099797009214566666e-03,-2.132536768913269043e-01,-1.225341081619262668e-01,3.303086757659912023e-03,5.175982651611752416e-01,1.246398687362670898e-01,-1.153831601142883301e+00,9.783014502935913015e+01,-1.043574810028076102e-02
2.839409999999999989e-01,9.061610700815547412e-03,1.046050716623243490e-02,9.986988306045532227e-01,-5.976509452881666705e-03,6.146537661096740379e-03,-4.223251175106182941e-03,2.379655079696179135e-02,2.280787011402855835e-02,-7.825141400098800659e-02,-3.119324827149313473e-01,1.554576465519201811e-01,-1.689497951388859234e-02,-1.189127714947588316e-01,1.555305891155330522e-01,-1.182748250788315109e-01,-1.815665066242218018e-01,9.177575111389159324e-02,-1.064816236495971652e-01,5.127586501133262198e-01,-2.795363068580627441e-01,-1.127769827842712402e+00,9.248608890952526451e+01,-1.043574810028076102e-02
3.191550000000000220e-01,1.018556908664291008e-02,1.079060356425470824e-02,9.966334104537963867e-01,-1.523166945055395675e-02,1.269961705382338657e-02,-5.939924960044909094e-03,2.036418314551971878e-02,2.896865948447379865e-02,-8.330196142196655273e-02,-2.957744022908976311e-01,2.676162683382101171e-01,-5.328089804521814188e-02,2.190797448158264271e-01,2.951252162456512451e-01,-1.718027368042983893e-01,1.190797448158264077e-01,1.951252162456512396e-01,-1.554150938987731989e-01,5.065518037180747335e-01,-6.416463851928710938e-01,-1.070373892784118652e+00,1.012208011975152004e+02,-1.043574810028076102e-02
3.575280000000000125e-01,1.187322603186319325e-02,1.159840700615726722e-02,9.930562973022460938e-01,-2.750460164568519633e-02,2.080946667135163963e-02,-8.620688415444745928e-03,2.719943250837674950e-02,3.265955089207101675e-02,-1.144729629158973694e-01,-2.773154971831390814e-01,1.912419809992849939e-01,-9.965932923812867439e-02,3.032176733016967995e-01,3.151836156845092551e-01,-2.059410256029229058e-01,2.032176733016967662e-01,2.151836156845092773e-01,-1.826055765151977373e-01,5.088885099973465831e-01,-6.613218784332275391e-01,-7.960611581802368164e-01,9.423873594111803698e+01,-1.043574810028076102e-02
3.946930000000000160e-01,1.370344764427374601e-02,1.242492169091591325e-02,9.884373545646667480e-01,-3.965945347699847967e-02,2.951283792580561283e-02,-1.056120565084089045e-02,5.566319125431402198e-02,5.441615678122835309e-02,-1.418150961399078369e-01,-3.182693065478149896e-01,2.075372027396455710e-01,-3.335739636018793947e-02,3.202566027641296498e-01,3.188538789749145730e-01,-2.268888429926821659e-01,2.202566027641296442e-01,2.188538789749145397e-01,-1.990085363388061357e-01,5.109363362280369136e-01,-6.870672702789306641e-01,-3.284429311752319336e-01,-5.967647695300976274e+00,-1.043574810028076102e-02
4.313489999999999824e-01,1.530234839137687916e-02,1.355771991842762668e-02,9.843554496765136719e-01,-4.842448350662578727e-02,3.523327622199756703e-02,-1.084842308544523536e-02,3.344726506124457571e-02,6.183730209473760342e-02,-1.616937667131423950e-01,-2.927949568804924518e-01,1.736205471215722385e-01,3.061965567411305961e-02,3.219738245010376199e-01,3.211907088756561501e-01,-2.375254379788505343e-01,2.219738245010375866e-01,2.211907088756561168e-01,-2.094199419021606501e-01,5.127109814625794293e-01,-6.957432031631469727e-01,-1.022748589515686035e+00,9.688818681073350092e+01,-1.043574810028076102e-02
4.738760000000000194e-01,1.762184452427881243e-02,1.578338681133027721e-02,9.784035682678222656e-01,-5.615392273948893731e-02,3.785237107845884630e-02,-9.371979373868369323e-03,5.448848850725664800e-02,8.278104319795596966e-02,-1.759115159511566162e-01,-1.403746248158638799e-01,-4.750959061371517328e-02,1.102178340011498447e-01,3.233380317687988281e-01,3.224494159221649170e-01,-2.347591491536366592e-01,2.233380317687988226e-01,2.224494159221649114e-01,-2.114499092102050670e-01,5.147109741787220250e-01,-6.791814565658569336e-01,-1.160303950309753418e+00,1.116161305482211645e+02,-1.043574810028076102e-02
5.133299999999999530e-01,1.967665667450812367e-02,1.831273517490236702e-02,9.719561338424682617e-01,-5.573128379127012533e-02,3.196880809001001467e-02,-5.519356231573927137e-03,6.927957240910626036e-02,1.043071275237523465e-01,-1.850927025079727173e-01,8.458022545005419723e-02,-2.012007954573629409e-01,1.358802594107371975e-01,3.232187986373901145e-01,3.217378437519073375e-01,-2.244369897367226030e-01,2.232187986373901367e-01,2.217378437519073320e-01,-2.114685773849487305e-01,5.164763594487904452e-01,-6.576907038688659668e-01,-8.362177610397338867e-01,9.966227497232334542e+01,-1.043574810028076102e-02
5.552970000000000406e-01,2.189276235510107665e-02,2.154495803238310261e-02,9.648341536521911621e-01,-4.805747856605046414e-02,1.955026540047133388e-02,-7.533836172750454701e-05,7.396984483133989263e-02,1.218012285765500413e-01,-2.078440338373184204e-01,2.040776724114681528e-01,-2.993357836890131463e-01,1.241581550384404653e-01,3.220210313796997292e-01,3.195305109024048074e-01,-2.101335810698046203e-01,2.220210313796996959e-01,2.195305109024047741e-01,-2.112904787063598633e-01,5.192045949226208323e-01,-6.416931748390197754e-01,-9.133738279342651367e-01,-1.648814666584977218e+01,-1.043574810028076102e-02
5.970670000000000144e-01,2.436387357770799719e-02,2.596556888223515783e-02,9.549481868743896484e-01,-3.227270733302151778e-02,1.846710192218825597e-03,7.984013830864351152e-03,7.846002059274505280e-02,1.372506317217483118e-01,-2.306355535984039307e-01,3.689660742277696692e-01,-3.375297957195335652e-01,1.236426496239859396e-01,3.179686784744262806e-01,2.779245046651958595e-01,-1.707979474433742317e-01,2.179686784744262751e-01,1.998830616474151500e-01,-1.934212446212768555e-01,5.234568415717900658e-01,-5.553552508354187012e-01,-8.917528390884399414e-01,3.764674253520841773e+01,-1.043574810028076102e-02
6.340590000000000392e-01,2.613158154422705326e-02,2.994886573734650836e-02,9.461860656738281250e-01,-1.821989726594129902e-02,-1.173086090603003839e-02,1.480039180887374010e-02,7.126237149945241489e-02,1.483158625667192754e-01,-2.502960860729217529e-01,3.350970340019097660e-01,-3.082143277786589253e-01,1.585954913410613787e-01,3.019404411315917969e-01,-2.712216524785383137e-02,-1.339570871564177978e-01,2.019404411315917913e-01,-1.243844032287597622e-02,-1.753934025764465332e-01,5.287962450572679662e-01,-3.924397230148315430e-01,-9.069331884384155273e-01,8.833643480004069204e+01,-1.043574810028076102e-02
6.733470000000000288e-01,2.737333960913677922e-02,3.324284946026134779e-02,9.391484260559082031e-01,-7.940806681943267387e-03,-2.187162177059054358e-02,2.010340545845549706e-02,5.031152092741777299e-02,1.356547960203474401e-01,-2.643166184425354004e-01,3.268525202368434135e-01,-3.191589294880863292e-01,1.677379749748307836e-01,2.068616390228271706e-01,-2.493272765355565579e-01,-4.999713442249675843e-02,1.068616390228271512e-01,-1.551991224288940263e-01,-1.064481139183044434e-01,5.327183936189971991e-01,-2.761232852935791016e-01,-1.041554331779479980e+00,9.511536340033249814e+01,-1.043574810028076102e-02
7.071199999999999708e-01,2.889304421782691937e-02,3.938809413337114596e-02,9.293288588523864746e-01,6.341805340925842083e-03,-3.626056527465593149e-02,2.696545810770209842e-02,4.604047663544549862e-02,1.319349551997499037e-01,-2.865705490112304688e-01,3.472781389923794704e-01,-3.826337729564184831e-01,1.658477948158202653e-01,-7.655655545266504269e-02,-2.902842760086059570e-01,1.055626846548135267e-01,-1.399200260639190674e-01,-1.902842760086059515e-01,2.915638089179992468e-02,5.377883860420111795e-01,-1.410756111145019531e-01,-9.678968191146850586e-01,9.472994265565785099e+01,-1.043574810028076102e-02
7.421010000000000106e-01,2.995496167023444997e-02,4.554229311711505829e-02,9.188688397407531738e-01,2.062108793856866698e-02,-4.996632290273961274e-02,3.331057865990692812e-02,3.851884968868065501e-02,1.374382672298911923e-01,-3.049594759941101074e-01,3.317405245100962241e-01,-3.647456850619230084e-01,1.701256883765483174e-01,-2.053524777966239112e-01,-2.903119921684265137e-01,5.378588047731158034e-02,-1.828148961067199707e-01,-1.903119921684265081e-01,-4.175602197647094310e-02,5.346664002889931488e-01,-4.471700787544250488e-01,-9.955307245254516602e-01,9.952986492507348260e+01,-1.043574810028076102e-02
7.788939999999999753e-01,3.040970367936489047e-02,5.006553976237972797e-02,9.107048511505126953e-01,3.092140360126504131e-02,-5.967751661673825758e-02,3.776607966736082733e-02,2.967655503931614092e-02,1.542469989292166999e-01,-3.187550902366638184e-01,3.512854674778139175e-01,-2.727147561522516583e-01,1.956121051982817327e-01,-2.730601659813546300e-01,-2.934523582458495872e-01,5.065490007400513112e-02,-1.970212161540985107e-01,-1.934523582458496094e-01,-4.934509992599487443e-02,5.342599906595011383e-01,-5.774300098419189453e-01,-8.419121503829956055e-01,6.774036135789324931e+01,-1.043574810028076102e-02
8.149450000000000305e-01,3.071349945757230124e-02,5.617134332989009993e-02,8.993123769760131836e-01,4.394510276428055529e-02,-6.954761575446655186e-02,4.279162179254414333e-02,-2.854510122136220290e-04,1.355283191653439689e-01,-3.286938071250915527e-01,3.256837424693492800e-01,-1.215074101659903011e-01,1.410513047096226269e-01,-3.149125695228576771e-01,-3.045656800270080677e-01,1.443294584751129150e-01,-2.149125695228576716e-01,-2.045656800270080622e-01,4.432945847511291643e-02,5.339749934313877677e-01,-6.979117989540100098e-01,-1.166391015052795410e+00,1.076383649793891379e+02,-1.043574810028076102e-02
8.526719999999999855e-01,3.066564606228358233e-02,6.038353309169735422e-02,8.904305100440979004e-01,5.276517561278482732e-02,-7.090086976802068008e-02,4.548451620704262871e-02,4.956365943500180664e-03,1.129806591497804491e-01,-3.392336964607238770e-01,2.983084574370726272e-01,1.823533474146813577e-02,7.549381292366537377e-02,-3.146937727928161843e-01,-3.059814214706421120e-01,2.509355366230011097e-01,-2.146937727928161510e-01,-2.059814214706420787e-01,1.509355366230011042e-01,5.358730893205038148e-01,-6.918862462043762207e-01,-9.156054258346557617e-01,5.784346506186896875e+01,-1.043574810028076102e-02
8.869949999999999779e-01,3.063616178743313115e-02,6.585660345714047792e-02,8.781974911689758301e-01,5.996958195923336732e-02,-6.281441173862467586e-02,4.702124908438964218e-02,-3.515191648391988838e-04,1.102886970800168037e-01,-3.573245108127593994e-01,3.865790265328637038e-02,2.973467960759446083e-01,5.824607379826523407e-02,-3.112305223941803090e-01,-3.038787841796875000e-01,2.799178421497344749e-01,-2.112305223941803034e-01,-2.038787841796874944e-01,1.799178421497344971e-01,5.394941414251256395e-01,-6.352849602699279785e-01,-9.543448686599731445e-01,1.006348734195656505e+02,-1.043574810028076102e-02
9.236799999999999455e-01,3.085575715924407034e-02,7.189666915250751689e-02,8.658969998359680176e-01,5.906046261358864624e-02,-4.967232038941649108e-02,4.813308897550071241e-02,-3.070745224330086176e-02,1.057894640894645744e-01,-3.718192279338836670e-01,-1.521067211871106328e-01,3.602277393743980038e-01,6.530899725088586127e-02,-2.945110261440276878e-01,-2.926068186759948619e-01,2.791657149791717529e-01,-1.945110261440277100e-01,-1.926068186759948564e-01,1.791657149791717474e-01,5.450920682830407982e-01,-4.543215036392211914e-01,-9.334660768508911133e-01,-1.645707784286267739e+01,-1.043574810028076102e-02
9.593070000000000208e-01,3.059696128248207830e-02,7.610927515743942662e-02,8.564811348915100098e-01,5.429431359762630638e-02,-3.939666138623065805e-02,4.876332215824439459e-02,-2.913988302831829399e-02,9.515359072630008574e-02,-3.744041919708251953e-01,-1.765194384898342850e-01,3.398703960869265406e-01,-1.760233104676466390e-02,-2.822444081306457742e-01,-2.768409013748168723e-01,2.762011587619781494e-01,-1.822444081306457409e-01,-1.768409013748168945e-01,1.762011587619781439e-01,5.520749593191740523e-01,-1.346228122711181641e-01,-7.867661714553833008e-01,8.401229667801898415e+01,-1.043574810028076102e-02
9.950980000000000381e-01,2.989046696332509079e-02,8.141975891736262516e-02,8.439781665802001953e-01,4.456017589280190233e-02,-2.589396532168675158e-02,4.813340522595841581e-02,-4.484833858661409905e-02,8.051518410988288410e-02,-3.767465949058532715e-01,-2.803067495125268205e-01,3.211496923895809652e-01,-6.827691751888524674e-02,-2.803028643131256215e-01,-2.674929738044738992e-01,2.814847886562347190e-01,-1.803028643131256159e-01,-1.674929738044738659e-01,1.814847886562347412e-01,5.562605513065018714e-01,1.768624782562255859e-02,-1.029930472373962402e+00,1.047378226955056704e+02,-1.043574810028076102e-02
1.032000000000000028e+00,2.925300754766991390e-02,8.519177460183786910e-02,8.346469998359680176e-01,3.553667880976758148e-02,-1.500823537037199173e-02,4.608116450362127747e-02,-4.199792946452184095e-02,8.245574843929720510e-02,-3.872411847114562988e-01,-3.629437000616654307e-01,4.057841481457017951e-01,-5.543015457971073312e-02,-2.838390529155730979e-01,-2.550158734155376083e-01,2.821813583374023215e-01,-1.838390529155731201e-01,-1.592216849327087458e-01,1.821813583374023438e-01,5.574652717348574926e-01,-1.994699239730834961e-02,-1.747355580329895020e+00,1.056503564591868809e+02,-1.043574810028076102e-02
1.069798000000000027e+00,2.832043273449600523e-02,8.995695117785827699e-02,8.221883773803710938e-01,2.245531398269472872e-02,-1.616875809387741114e-03,4.180767854186145938e-02,-3.233504323448482126e-02,7.554065435019208241e-02,-3.843542337417602539e-01,-3.066893949498322169e-01,2.449897937681863869e-01,-9.635186896772340859e-02,-2.105584588082511366e-01,-1.342062717601762156e-01,2.755899727344512939e-01,-1.661853611469268632e-01,-1.299449801445007324e-01,1.755899727344512884e-01,5.588809596742566610e-01,-5.028307437896728516e-03,-1.059103846549987793e+00,9.191283796267525474e+01,-1.043574810028076102e-02
1.106645000000000101e+00,2.669737361407945389e-02,9.461800274711716641e-02,8.101173639297485352e-01,9.411030971033249384e-03,1.140780934953755654e-02,3.628705165284987905e-02,-4.158575145785084470e-02,6.872587428437831880e-02,-3.731561601161956787e-01,-2.800727083058867639e-01,2.991797448316531050e-01,-1.439673272341550347e-01,-2.870885091423268365e-02,9.720958726992329213e-03,2.478970408439636341e-01,-6.905624270439147949e-02,-6.068744659423827570e-02,1.478970408439636286e-01,5.611360817095347731e-01,9.232902526855468750e-02,-1.352273344993591309e+00,6.504596101334993818e+01,-1.043574810028076102e-02
1.149934000000000012e+00,2.469099993555439257e-02,9.936682043008733534e-02,7.987895607948303223e-01,-3.050228102376447478e-03,2.440525071836274762e-02,2.982435486277609793e-02,-2.056687234308211473e-02,8.269437397287068836e-02,-3.723020255565643311e-01,-3.273437795092831171e-01,3.667724607355904443e-01,-2.083802684300696262e-01,2.626431107521057240e-01,2.826661407947540505e-01,1.129962106362661645e-01,1.626431107521057184e-01,1.826661407947540172e-01,3.001683354377746374e-02,5.621394117286712122e-01,7.906699180603027344e-02,-9.024044275283813477e-01,1.072756272929481014e+02,-1.043574810028076102e-02
1.190625999999999962e+00,2.314094598332915032e-02,1.042322383465445895e-01,7.880839109420776367e-01,-1.539314046738923976e-02,3.650633514595780227e-02,2.290996630773711046e-02,-9.685592192788684135e-03,8.405270266137861157e-02,-3.465946614742279053e-01,-3.133846383117052659e-01,2.589071705447962835e-01,-1.939104362379812374e-01,3.109729409217834584e-01,3.107322931289672741e-01,2.019253990301427687e-02,2.109729409217834528e-01,2.107322931289672685e-01,-4.380719661712646068e-02,5.564788979435431049e-01,-2.130482196807861328e-01,-4.210737943649291992e-01,-4.830835364089649886e+01,-1.043574810028076102e-02
1.228496000000000032e+00,2.155348418308734512e-02,1.071651874599428150e-01,7.781021595001220703e-01,-2.762475021070169567e-02,4.737317542086350031e-02,1.530798782103331805e-02,-2.142926607180115127e-04,9.484107595768287435e-02,-3.281218111515045166e-01,-3.163805769061000528e-01,2.334506217458095778e-01,-1.967312997619999893e-01,3.178957581520080455e-01,3.165458559989929310e-01,-5.662452813141813368e-02,2.178957581520080400e-01,2.165458559989929255e-01,-1.000463604927062933e-01,5.531777670778968981e-01,-3.949489593505859375e-01,-1.164203047752380371e+00,9.897589560225041794e+01,-1.043574810028076102e-02
1.261873999999999940e+00,2.077961337694249691e-02,1.106122450186760170e-01,7.691057324409484863e-01,-3.777791560395675485e-02,5.525277200801270716e-02,7.486253784415834375e-03,2.252603330878581375e-02,1.173667562137857279e-01,-2.973168194293975830e-01,-2.196972341896266667e-01,1.168225045684737340e-01,-2.216823385002745506e-01,3.222424745559692161e-01,3.214465379714965820e-01,-1.258760239663080649e-01,2.222424745559692383e-01,2.214465379714965765e-01,-1.481442689895629827e-01,5.501876484395500366e-01,-5.054352879524230957e-01,-1.008845210075378418e+00,7.837936453742860010e+01,-1.043574810028076102e-02
1.297644999999999937e+00,2.065099976044762822e-02,1.135885415909149709e-01,7.630119919776916504e-01,-4.264224207853520993e-02,5.781864430845984337e-02,1.998178868027506404e-03,4.133944668550140061e-02,1.183191501931896567e-01,-2.799158692359924316e-01,-1.387811776989071322e-01,1.201122691300339019e-03,-1.548593442460156344e-01,3.237352132797240989e-01,3.231541752815246804e-01,-1.500539081668519070e-01,2.237352132797241211e-01,2.231541752815246471e-01,-1.574855804443359431e-01,5.492435205974868229e-01,-5.400039553642272949e-01,-1.408974528312683105e+00,8.979386739532718309e+01,-1.043574810028076102e-02
1.330970999999999904e+00,1.917550371395337211e-02,1.175630906640590112e-01,7.562813758850097656e-01,-4.145506166183250685e-02,5.305190455792185844e-02,-3.028759043780948710e-03,4.551710036669089077e-02,1.328028646759198128e-01,-2.309498786926269531e-01,1.295310386349085019e-01,-2.595850327150389103e-01,-1.351481199806090217e-01,3.241930842399597390e-01,3.234293520450591819e-01,-1.799541686370479676e-01,2.241930842399597057e-01,2.234293520450592041e-01,-1.728996992111206110e-01,5.466549240323450576e-01,-5.433651804924011230e-01,-1.212139010429382324e+00,-2.537681312527908872e+01,-1.043574810028076102e-02
1.367289999999999894e+00,1.851300491253029395e-02,1.208769379947537553e-01,7.521462440490722656e-01,-3.501771995054082931e-02,4.439331514644173637e-02,-5.291232970978486730e-03,5.423638523222906044e-02,1.481388843490943907e-01,-2.058711647987365723e-01,2.601174196382579074e-01,-3.521140655827156296e-01,-1.320149736829456244e-01,3.236698031425476185e-01,3.227075695991515891e-01,-1.899524915516770662e-01,2.236698031425476130e-01,2.227075695991516113e-01,-1.757757425308227595e-01,5.456638900605997877e-01,-5.399242639541625977e-01,-1.148447871208190918e+00,6.057985057924034322e+01,-1.043574810028076102e-02
1.403899999999999926e+00,1.827510273428789578e-02,1.257559812903988328e-01,7.473497390747070312e-01,-2.271417175311066239e-02,3.075945286879022689e-02,-6.789474030237737864e-03,5.744399318249365782e-02,1.592509368133060155e-01,-1.825070083141326904e-01,3.750870748116662545e-01,-3.525170910237391264e-01,-8.034373389659985043e-02,3.212429046630859153e-01,3.203850090503692627e-01,-1.623544911861433682e-01,2.212429046630859375e-01,2.203850090503692571e-01,-1.430753946304321178e-01,5.445120026007176373e-01,-5.536476373672485352e-01,-8.430429697036743164e-01,-1.046205551776457270e+02,-1.043574810028076102e-02
1.437837000000000032e+00,1.852694719613921098e-02,1.295359725581473054e-01,7.443554401397705078e-01,-1.270755257585830418e-02,2.055052073335694729e-02,-6.852617070781754673e-03,7.870018290203979749e-02,1.700388324839989529e-01,-1.695966720581054688e-01,3.234374996099408373e-01,-3.540206589786955571e-01,-4.950110088232515665e-02,3.176051855087280162e-01,3.170717298984527810e-01,-1.510485216155325328e-01,2.176051855087280107e-01,2.170717298984527477e-01,-1.311603426933288519e-01,5.452880670364186333e-01,-4.935427308082580566e-01,-1.179672837257385254e+00,1.043039212681022718e+02,-1.043574810028076102e-02
1.471595999999999904e+00,1.919614503369507230e-02,1.349560227699307946e-01,7.407048344612121582e-01,1.161047227122719407e-03,6.518192387808818822e-03,-5.539062818213754541e-03,7.762850920924878328e-02,1.752239746726782510e-01,-1.560134589672088623e-01,3.585802874708339805e-01,-3.714519742026149984e-01,2.485902466722866855e-02,3.084501266479492410e-01,3.077022194862365501e-01,-1.228850599276783556e-01,2.084501266479492076e-01,2.077022194862365723e-01,-1.066788196563720620e-01,5.458993511897033413e-01,-4.413351416587829590e-01,-1.217667698860168457e+00,1.035250611366673752e+02,-1.043574810028076102e-02
1.505552999999999919e+00,2.000899831571217521e-02,1.393360347362889995e-01,7.382246851921081543e-01,1.203825901563809579e-02,-4.396400959619573001e-03,-3.987259136526812367e-03,7.302418368110315250e-02,1.715404512956321681e-01,-1.285996884107589722e-01,4.067713188452479756e-01,-4.070766384929158654e-01,7.728293144092041045e-02,2.894810438156127930e-01,2.031941831794560893e-01,-3.489380735294722591e-02,1.894810438156127874e-01,1.735560357570648249e-01,-2.345538139343261719e-02,5.441497877049678022e-01,-4.602586627006530762e-01,-1.243744254112243652e+00,7.866733897321466884e+01,-1.043574810028076102e-02
1.537800999999999974e+00,2.118827606001787850e-02,1.440695615198836765e-01,7.360980510711669922e-01,2.287973644631625600e-02,-1.479560216395392480e-02,-2.509429478807733999e-03,6.775232247574661248e-02,1.743189681441797423e-01,-1.275208890438079834e-01,3.711298249392959714e-01,-3.103368176628014674e-01,2.559325219395998732e-02,1.874840428028389239e-01,-3.723337529200421853e-02,4.857279797198222476e-02,1.329294919967651256e-01,2.792590856552124110e-03,5.513496994972228588e-02,5.465088248518331637e-01,-3.523963093757629395e-01,-1.438565373420715332e+00,-9.922241078977452844e+01,-1.043574810028076102e-02
1.572603999999999891e+00,2.265515256764882163e-02,1.501861880504749558e-01,7.335359454154968262e-01,3.741284191032288875e-02,-2.865213952860301561e-02,-1.970361830482556323e-04,4.983310797134696268e-02,1.609193461571139516e-01,-1.117863878607749939e-01,3.954171881034959646e-01,-3.647873516534080318e-01,6.544237957937248940e-02,-1.717389015434221677e-01,-2.905801057815551869e-01,1.563140596634813029e-01,-1.264815688133239802e-01,-1.905801057815551813e-01,1.548101663589477595e-01,5.503521196498715184e-01,-1.023678183555603027e-01,-4.775456190109252930e-01,6.120746300169447807e+01,-1.043574810028076102e-02
1.604708000000000023e+00,2.354280161171495855e-02,1.545382639344599629e-01,7.317419052124023438e-01,4.780789337707675585e-02,-3.905714062815812682e-02,1.320212940369102760e-03,5.625139560704494474e-02,1.535083420991323333e-01,-1.089059635996818542e-01,3.862861067105967106e-01,-3.520893952386588421e-01,1.468061791084539734e-02,-2.765523493289947510e-01,-3.019105434417724831e-01,1.724797116480949744e-01,-1.765523493289947454e-01,-2.019105434417724498e-01,1.654087543487548773e-01,5.495986124745900758e-01,-1.595609188079833984e-01,-1.365332007408142090e+00,1.196617723716051955e+02,-1.043574810028076102e-02
1.638090999999999964e+00,2.466807762951223754e-02,1.606853443995220621e-01,7.300018668174743652e-01,5.813820659046142064e-02,-4.962833009956302277e-02,2.416628526560849703e-03,3.850016423516584851e-02,1.325652971464683361e-01,-9.203769266605377197e-02,3.446018312017812280e-01,-3.949981916003173499e-01,9.007771017454126172e-03,-3.001815915107727273e-01,-3.111164569854736328e-01,1.890841848108835987e-01,-2.001815915107726940e-01,-2.111164569854736273e-01,1.770383477210998591e-01,5.425900941567852742e-01,-5.095860958099365234e-01,-1.212916731834411621e+00,6.715503463659067052e+01,-1.043574810028076102e-02
1.677724999999999911e+00,2.543148413653690057e-02,1.663158311768615782e-01,7.283495664596557617e-01,6.839391088420918030e-02,-5.921574767964554731e-02,3.024267852201885636e-03,3.010011839021060551e-02,1.236201306996455723e-01,-9.704928845167160034e-02,3.051000937347748687e-01,-2.910612064078137440e-01,8.548925859248948655e-03,-3.086922585964202992e-01,-3.150422811508178933e-01,2.016346652446688592e-01,-2.086922585964202936e-01,-2.150422811508178600e-01,1.858984351158141923e-01,5.408721018461217778e-01,-6.499892473220825195e-01,-1.335889697074890137e+00,1.098937754055973812e+02,-1.043574810028076102e-02
1.714615000000000000e+00,2.597916912279091620e-02,1.730088104485400513e-01,7.259146571159362793e-01,8.043111750184962772e-02,-6.833572614811456170e-02,2.201997664105599748e-03,8.224408048659811316e-03,1.020177308670381366e-01,-9.786662459373474121e-02,2.407248699686345139e-01,-1.554060303821425959e-01,-3.931209022170193551e-02,-3.125142812728881614e-01,-3.162070035934448353e-01,2.184254635071171680e-01,-2.125142812728881836e-01,-2.162070035934448298e-01,2.024997174739837646e-01,5.406823615012731343e-01,-6.909352540969848633e-01,-1.498419523239135742e+00,9.960358315678541885e+01,-1.043574810028076102e-02
1.751277999999999890e+00,2.780128356825718391e-02,1.809809979396900803e-01,7.223753929138183594e-01,8.769666662221257958e-02,-6.767258335869597019e-02,-6.503647472786797546e-04,-3.480776362147728568e-03,8.362994317565951297e-02,-9.552239626646041870e-02,1.437022792052639747e-02,1.651348983347378507e-01,-6.734253929021878637e-02,-3.130687296390533558e-01,-3.149951457977294700e-01,2.151665155670685892e-01,-2.130687296390533503e-01,-2.149951457977294922e-01,2.066225945949554388e-01,5.410615563643943471e-01,-6.927474141120910645e-01,-4.565918445587158203e-02,-4.429691523945631104e+01,-9.131836891174315712e-03
1.784877000000000047e+00,2.855353074269174549e-02,1.851797108292141669e-01,7.198638916015625000e-01,8.454710342332902306e-02,-5.955711540635544310e-02,-3.221203681916637480e-03,-8.291918569301188341e-03,7.577108266231283307e-02,-1.098470091819763184e-01,-1.809425166438574373e-01,3.289529557882464594e-01,-6.187999724034742161e-02,-3.121351599693298340e-01,-3.139802336692810170e-01,2.028987732445608205e-01,-2.121351599693298284e-01,-2.139802336692810114e-01,2.030598342418670488e-01,5.437177028911374110e-01,-6.306194663047790527e-01,-1.523879647254943848e+00,1.324230929111819250e+02,-9.131836891174315712e-03
1.820718000000000059e+00,2.937709089622485975e-02,1.889864722206414660e-01,7.172167301177978516e-01,7.784895242315709174e-02,-4.916357448062602664e-02,-5.982102215336590999e-03,-1.617160535367234697e-02,6.019486700859451311e-02,-1.072563827037811279e-01,-2.214046009215676625e-01,3.439104417094124844e-01,-1.457049233455585679e-01,-3.098945856094360574e-01,-3.117749929428100808e-01,1.900525671335186184e-01,-2.098945856094360241e-01,-2.117749929428100475e-01,1.999578416347503607e-01,5.460641202236503622e-01,-5.184466838836669922e-01,-6.627522706985473633e-01,-5.464327554890787297e+01,-9.131836891174315712e-03
1.852432999999999996e+00,3.085207300011328160e-02,1.934153753702857748e-01,7.136677503585815430e-01,6.556830608127257876e-02,-3.509259134757769516e-02,-9.832526298491909428e-03,-2.657914909102211329e-02,4.403448514553529730e-02,-1.033833101391792297e-01,-3.329264687208384199e-01,3.359209210608971041e-01,-1.268989435551683420e-01,-2.996165215969085471e-01,-3.021133184432983620e-01,1.674228565252944279e-01,-1.996165215969085693e-01,-2.021133184432983287e-01,1.906436383724212646e-01,5.564504177578589728e-01,5.031907558441162109e-02,-1.232592701911926270e+00,1.116704715332577820e+02,-9.131836891174315712e-03
1.886579000000000006e+00,3.160509144487907290e-02,1.961557888917539738e-01,7.108866572380065918e-01,5.548750904833520819e-02,-2.479065688362847020e-02,-1.325682055998046380e-02,-3.936732220401396171e-02,2.849306021515326734e-02,-1.044595539569854736e-01,-3.596460317976891141e-01,3.564800739684307329e-01,-1.272903698224667757e-01,-2.970717668533325306e-01,-2.952950716018676869e-01,1.517328923240037486e-01,-1.970717668533325251e-01,-1.952950716018676813e-01,1.860839366912841741e-01,5.590457450905057524e-01,1.638215780258178711e-01,-1.405655503273010254e+00,7.553496640852263511e+01,-9.131836891174315712e-03
1.918757999999999964e+00,3.218952700461005095e-02,1.984796442020138052e-01,7.079781889915466309e-01,4.576746359002416970e-02,-1.451716857867291210e-02,-1.713719633871409187e-02,-3.052388631984890091e-02,2.115841987756511902e-02,-1.037167459726333618e-01,-3.128928548821760525e-01,3.285951030717982335e-01,-1.163302059543963873e-01,-3.022422790527343750e-01,-2.755917249238805655e-01,1.388086280449334908e-01,-2.022422790527343694e-01,-1.862233400344848466e-01,1.854836046695709229e-01,5.581141528915039007e-01,8.240914344787597656e-02,-1.490066885948181152e+00,1.013264642239752931e+02,-9.131836891174315712e-03
1.951861999999999986e+00,3.184090300714026434e-02,2.013233520373356733e-01,7.039085626602172852e-01,3.212225712315704140e-02,-4.496401571814079290e-04,-2.241061953151128605e-02,-3.925851764195746607e-02,1.530282206846306052e-02,-1.085839569568634033e-01,-3.127066170874209239e-01,3.150447156454720954e-01,-1.253923129371540823e-01,-2.270272724012252219e-01,-9.766412321830354737e-02,1.157194338173075931e-01,-1.668475985527038408e-01,-9.164389371871947687e-02,1.784167885780334473e-01,5.526218591258353907e-01,-2.849646806716918945e-01,-5.045998096466064453e-02,-2.678329250935728467e+01,-9.131836891174315712e-03
1.987853000000000092e+00,3.154934207319081557e-02,2.031909298111392037e-01,7.007513046264648438e-01,2.142904919511263648e-02,9.801689751772979520e-03,-2.641718839306650413e-02,-3.684285276223939892e-02,1.455729886454233332e-02,-1.021026521921157837e-01,-3.538399239090745940e-01,3.975272388213410002e-01,-1.660691284473570783e-01,8.483899548229190124e-02,2.268259813300524952e-01,7.178859732248613068e-02,7.396913766860961637e-02,1.638732254505157471e-01,1.463792860507965032e-01,5.478615693955602994e-01,-5.604385733604431152e-01,-1.411911129951477051e+00,1.004304048765721546e+02,-9.131836891174315712e-03
2.020509999999999806e+00,3.134342558841268778e-02,2.049260537138485883e-01,6.975511312484741211e-01,1.101058097563642306e-02,1.911151212907613584e-02,-3.008553918156240195e-02,-1.629711055098371705e-02,1.293722932018393293e-02,-1.002026274800300598e-01,-3.398979100268201825e-01,2.827519297242502838e-01,-9.177271442479303931e-02,2.648875438341280475e-01,3.161483526229858509e-01,-1.099400209601670009e-01,1.860200643539428600e-01,2.161483526229858454e-01,-2.467342615127563268e-02,5.468061660045705485e-01,-6.450695395469665527e-01,-1.313116431236267090e+00,9.620567332773080693e+01,-9.131836891174315712e-03
2.055982000000000198e+00,3.032851073903340688e-02,2.062309223982484729e-01,6.935375332832336426e-01,-1.857915110407016342e-03,3.193376777399170585e-02,-3.538953583090245769e-02,-1.764421030476461677e-02,1.184456063989990440e-02,-8.181694895029067993e-02,-3.548754141906483306e-01,3.372390028677840212e-01,-9.583283834612690844e-02,3.157403707504272683e-01,3.204972505569457786e-01,-1.849600791931152455e-01,2.157403707504272350e-01,2.204972505569458008e-01,-8.496007919311522605e-02,5.458377630495085953e-01,-6.620491743087768555e-01,-1.404808402061462402e+00,8.060576032004263425e+01,-9.131836891174315712e-03
2.092738000000000209e+00,2.993418588883680134e-02,2.073801460121349749e-01,6.907501816749572754e-01,-1.165158941365368114e-02,4.146570955663708702e-02,-3.907367727029087412e-02,-6.724996705081730860e-04,2.792322341699251739e-02,-6.983494758605957031e-02,-3.158221677085298884e-01,3.694093582982991286e-01,-7.668297699918369403e-02,3.212258815765380859e-01,3.220863699913024680e-01,-2.273189544677734486e-01,2.212258815765380804e-01,2.220863699913024902e-01,-1.273189544677734431e-01,5.453833795391089811e-01,-6.712214946746826172e-01,-3.370982408523559570e-01,-2.870807396841273018e+01,-9.131836891174315712e-03
2.126703000000000010e+00,2.975277703168686255e-02,2.089625178293173235e-01,6.874560117721557617e-01,-2.481684552434108501e-02,5.164920444864962157e-02,-4.370851171970345506e-02,4.279259744441992960e-03,3.735979583957391853e-02,-5.728888884186744690e-02,-3.094752782252555567e-01,2.195919329221240612e-01,-7.187534240383341988e-02,3.236277461051940696e-01,3.243227422237396351e-01,-2.667255401611328125e-01,2.236277461051940918e-01,2.243227422237396296e-01,-1.667255401611328069e-01,5.447804987065519855e-01,-6.874310374259948730e-01,-9.006208181381225586e-01,1.289817157582493223e+02,-9.131836891174315712e-03
2.167046000000000028e+00,2.953561109677789454e-02,2.098591451020046517e-01,6.853994131088256836e-01,-3.112665573764550678e-02,5.373712840375466371e-02,-4.640692805076858385e-02,2.128538301723387899e-02,4.341396037150432874e-02,-2.521360106766223907e-02,-1.388486508800572394e-01,2.234947601140043968e-02,-3.741137776862079461e-02,3.246197700500488281e-01,3.251958727836609109e-01,-2.692480325698852761e-01,2.246197700500488226e-01,2.251958727836608776e-01,-1.692480325698852428e-01,5.430408834479540925e-01,-6.836189627647399902e-01,-1.018793225288391113e+00,1.191057676524094688e+02,-9.131836891174315712e-03
2.201068999999999942e+00,2.961719816889656076e-02,2.113132323465258811e-01,6.837903261184692383e-01,-3.049243076883947565e-02,4.695593130790709502e-02,-4.765075634700552398e-02,1.919436355582736231e-02,4.732958341474838293e-02,6.321294233202934265e-03,8.901636654872832621e-02,-2.772459045536702638e-01,1.833724741335338027e-02,3.238477230072021595e-01,3.248188257217407005e-01,-2.726077318191528209e-01,2.238477230072021540e-01,2.248188257217407227e-01,-1.726077318191528154e-01,5.412999718732508514e-01,-6.782180070877075195e-01,-1.066681265830993652e+00,1.424380217062531813e+02,-9.131836891174315712e-03
2.234674000000000049e+00,2.999223388110525135e-02,2.130026317241280609e-01,6.829143762588500977e-01,-2.298086904894218810e-02,3.380524838193177395e-02,-4.562692137587617824e-02,5.510279898819817057e-02,6.619698043146164668e-02,3.243159875273704529e-02,1.981959722332377882e-01,-3.621678972624151061e-01,2.657051148292293580e-02,3.225886940956115834e-01,3.239009737968444602e-01,-2.806055784225464089e-01,2.225886940956115778e-01,2.239009737968444824e-01,-1.806055784225463756e-01,5.395602411372572016e-01,-6.914468407630920410e-01,-1.254346489906311035e+00,1.764661197739050920e+02,-9.131836891174315712e-03
2.272780000000000022e+00,3.026011050749124673e-02,2.141206556279888207e-01,6.824832558631896973e-01,-1.529511027052523307e-02,2.269728113026880933e-02,-4.286309489984067855e-02,3.684447030835966141e-02,5.783242720952445209e-02,4.173891246318817139e-02,2.419233165239541850e-01,-4.261943717718200131e-01,3.789065877882528272e-02,3.201261401176452859e-01,3.221374571323394886e-01,-2.718802809715271107e-01,2.201261401176452526e-01,2.221374571323394831e-01,-1.718802809715271052e-01,5.391698151055035471e-01,-6.907883882522583008e-01,-1.328110337257385254e+00,1.085249508544134756e+02,-9.131836891174315712e-03
2.307192000000000132e+00,3.098695686216163675e-02,2.158720340204758892e-01,6.823251247406005859e-01,-2.315252148450707304e-03,8.495480292524781873e-03,-3.792627921766551780e-02,5.519602086804675789e-02,7.130480995948991485e-02,5.245599150657653809e-02,3.957239991738449869e-01,-4.102267577685518307e-01,8.178705361641144811e-02,3.150426030158996471e-01,3.178190827369690163e-01,-2.506006717681884544e-01,2.150426030158996415e-01,2.178190827369689830e-01,-1.506006717681884766e-01,5.389946360429018757e-01,-6.736400723457336426e-01,-1.037285685539245605e+00,1.002360518437394319e+02,-9.131836891174315712e-03
2.342292000000000041e+00,3.194464414456975321e-02,2.174774501609511856e-01,6.823884844779968262e-01,7.692082614638908605e-03,-1.370506401832338739e-03,-3.368466989501619352e-02,6.077098298447827784e-02,7.623196730979552027e-02,6.004444882273674011e-02,3.240594710960864600e-01,-3.274805325140697221e-01,1.292549166000652172e-01,3.129034519195556530e-01,2.607125277467571833e-01,-2.272847015696093653e-01,2.129034519195556474e-01,2.124587953090667780e-01,-1.325280904769897405e-01,5.389521504906893412e-01,-6.590756177902221680e-01,-1.080648541450500488e+00,-8.418751152079731526e+01,-9.131836891174315712e-03
2.375583999999999918e+00,3.379295136914844261e-02,2.201677979496724225e-01,6.823087334632873535e-01,2.093611221011192763e-02,-1.509328701787326921e-02,-2.737525419502724253e-02,4.720679140286005576e-02,6.942796554659266817e-02,5.965148285031318665e-02,3.430340281646308553e-01,-3.638110034974271212e-01,1.893823296196397443e-01,2.620174046174904570e-01,7.652653618490230791e-02,-5.067450661249437577e-02,1.930357933044433427e-01,1.260204792022704967e-01,2.544579505920410017e-02,5.406196612881966068e-01,-5.806704759597778320e-01,-8.418596982955932617e-01,7.037645237749215710e+01,-9.131836891174315712e-03
2.412243999999999833e+00,3.508255633613426017e-02,2.220808645742081422e-01,6.822748184204101562e-01,3.144739563326675452e-02,-2.584410999197928049e-02,-2.262260522229482540e-02,4.866229408197100120e-02,7.359518910731709107e-02,6.815354526042938232e-02,4.033440582821198883e-01,-3.760880417662272324e-01,1.669463898463436347e-01,1.253362553587554218e-01,-2.622314453124999778e-01,8.814955130747392786e-02,1.184243559837341309e-01,-1.622314453125000000e-01,1.499380767345428467e-01,5.442728652437539560e-01,-3.566958308219909668e-01,-9.995077848434448242e-01,1.000724141716042652e+02,-9.131836891174315712e-03
2.445993000000000084e+00,3.617017610627648594e-02,2.238333241459481704e-01,6.823000907897949219e-01,4.195064560111564506e-02,-3.607436795622986914e-02,-1.774218640965657262e-02,3.338046872831839512e-02,5.980831899207923047e-02,7.141480594873428345e-02,3.685394098458376622e-01,-3.268383553276949516e-01,1.314934893431179141e-01,-1.690881054571372055e-01,-3.017869472503661998e-01,1.414324516921938169e-01,-9.891244769096374512e-02,-2.017869472503661943e-01,1.881289780139923096e-01,5.508655297759249558e-01,1.534569263458251953e-02,-1.196773886680603027e+00,1.016687659844196503e+02,-9.131836891174315712e-03
2.481822000000000195e+00,3.807978182108513049e-02,2.268084761654855785e-01,6.823376417160034180e-01,5.551067305781279271e-02,-4.982872465490784109e-02,-1.099044663815275380e-02,1.326871415603989891e-02,4.520733533267182191e-02,6.888479739427566528e-02,3.764833876921354627e-01,-4.041704072384307289e-01,1.543372255796552350e-01,-2.994241535663604847e-01,-3.114376068115234375e-01,1.717526971542564229e-01,-1.994241535663604792e-01,-2.114376068115234319e-01,1.971905171871185247e-01,5.442173591156636014e-01,-3.795343637466430664e-01,-1.292673945426940918e+00,1.023066100302504680e+02,-9.131836891174315712e-03
2.514111000000000207e+00,3.930025210038398664e-02,2.290537348705742604e-01,6.822280287742614746e-01,6.965150278461947064e-02,-6.375022224843585050e-02,-4.602007979319161328e-03,1.153802812115727397e-02,3.087330195754999299e-02,5.653238296508789062e-02,4.053254762412774048e-01,-3.670593975333188430e-01,1.677941656821017591e-01,-3.105187714099884033e-01,-3.173153281211852916e-01,1.933101297110321193e-01,-2.105187714099883978e-01,-2.173153281211852861e-01,1.981931805610656627e-01,5.406484890735619997e-01,-6.402456164360046387e-01,-1.022679924964904785e+00,1.053848943269051688e+02,-9.131836891174315712e-03
2.546835000000000182e+00,3.997655140528973833e-02,2.302423014420986180e-01,6.820807456970214844e-01,7.983998752524801290e-02,-7.192833636267037534e-02,-1.873255443636445824e-03,-8.934848630900167621e-03,7.170358053915609764e-03,6.415265798568725586e-02,3.140139149336905189e-01,-2.029765429943963251e-01,8.056627832200466410e-02,-3.144372284412383922e-01,-3.172456264495849831e-01,2.097767408076646189e-01,-2.144372284412383867e-01,-2.172456264495849498e-01,2.048359394073486217e-01,5.394835462691915939e-01,-6.867809295654296875e-01,-1.100971102714538574e+00,9.668883407942833230e+01,-9.131836891174315712e-03
2.582205999999999779e+00,4.070089871092848893e-02,2.310102410252818927e-01,6.814746856689453125e-01,8.777820690996226971e-02,-7.521848798912089684e-02,-5.602912330427927247e-04,-9.173434570069704391e-03,-3.088498359189510451e-03,3.899253159761428833e-02,2.298411077368394395e-01,-3.278300470249389392e-02,5.477780053991426062e-02,-3.156991183757781871e-01,-3.161104440689087025e-01,2.175480329205815855e-01,-2.156991183757781816e-01,-2.161104440689086970e-01,2.077877461910247747e-01,5.410843425975168097e-01,-7.133031487464904785e-01,-1.049777150154113770e+00,1.207652713942907923e+02,-9.131836891174315712e-03
2.614001000000000019e+00,4.130383344970250947e-02,2.313163297817067143e-01,6.802591681480407715e-01,9.277915094847051514e-02,-6.963585244667425123e-02,-1.227002846064239867e-04,-1.559103593936468114e-02,-2.066133539113410716e-02,2.885525673627853394e-02,3.560043690827658508e-02,2.580612974274199001e-01,1.859093937168016311e-02,-3.171650171279907227e-01,-3.146964550018310769e-01,2.195723723744905931e-01,-2.171650171279907171e-01,-2.146964550018310436e-01,2.090682327747344915e-01,5.423024115846311055e-01,-7.039768099784851074e-01,-1.081242680549621582e+00,1.212386718056643815e+02,-9.131836891174315712e-03
2.647029999999999994e+00,4.163220848981092487e-02,2.311205622428203488e-01,6.791037321090698242e-01,9.099534876674851558e-02,-6.132051596857790443e-02,-4.900432317680762043e-04,-3.125472254498790764e-02,-3.822017547494149792e-02,3.136019036173820496e-02,-1.174137735900867563e-01,2.986841881844598534e-01,-3.400329296002269769e-02,-3.168429017066955455e-01,-3.109093546867370828e-01,2.196775989418050246e-01,-2.168429017066955400e-01,-2.109093546867370494e-01,2.115813016891479326e-01,5.431711650416861659e-01,-6.638678312301635742e-01,-1.151456713676452637e+00,9.715554773560447188e+01,-9.131836891174315712e-03
2.680959000000000092e+00,4.209954897808319135e-02,2.308255923286229028e-01,6.774783134460449219e-01,8.480044420903998237e-02,-5.101593400032555792e-02,-1.333134217343695700e-03,-4.409556455669143976e-02,-4.941506073081389228e-02,4.877394996583461761e-03,-2.760298643744721336e-01,3.430089675298437224e-01,-2.200226722985873865e-02,-3.153060853481292614e-01,-3.066333055496215931e-01,2.136091698696809260e-01,-2.153060853481292558e-01,-2.066333055496215876e-01,2.098441600799560436e-01,5.473174433851830667e-01,-5.582385063171386719e-01,-9.821621179580688477e-01,8.585133194223408282e+01,-9.131836891174315712e-03
2.712689000000000128e+00,4.210523983622956740e-02,2.295994631260485641e-01,6.750524044036865234e-01,7.278913108240732399e-02,-3.745998804260586290e-02,-3.271768227195722724e-03,-5.549487726821045880e-02,-6.716705116729439207e-02,2.117539756000041962e-03,-3.225330375471021083e-01,3.539365018401657847e-01,-4.771060532348547073e-02,-3.114182054996490479e-01,-3.016123533248901145e-01,1.945784570109409251e-01,-2.114182054996490423e-01,-2.016123533248901367e-01,1.988380193710327093e-01,5.563887753033611716e-01,-8.146458864212036133e-02,-1.089206099510192871e+00,9.614314294587933318e+01,-9.131836891174315712e-03
2.746331000000000078e+00,4.173566211958324584e-02,2.281066419063734196e-01,6.728579998016357422e-01,6.223861061920001742e-02,-2.797746752323249098e-02,-5.460813299717239867e-03,-5.415164349054046172e-02,-8.606544047433951905e-02,3.065712517127394676e-04,-3.629605679520172545e-01,3.070017427729946902e-01,-9.007442631088322105e-02,-3.026406407356262429e-01,-2.865861177444458119e-01,1.761298846567441734e-01,-2.026406407356262096e-01,-1.865861177444458063e-01,1.882729411125182994e-01,5.630058783556218804e-01,2.651941776275634766e-01,-1.160047888755798340e+00,1.006456446278867674e+02,-9.131836891174315712e-03
2.781321000000000154e+00,4.069090473236496031e-02,2.259484583243864531e-01,6.705124378204345703e-01,5.140374206267603330e-02,-1.853394559400856068e-02,-7.977806204319783795e-03,-7.251614056476803072e-02,-9.634216226941968997e-02,-1.564637199044227600e-02,-3.549525518470300067e-01,3.044724194371975501e-01,-8.527100299636777847e-02,-3.062091052532195934e-01,-2.891209125518798828e-01,1.691357684520108928e-01,-2.062091052532195878e-01,-1.891209125518798773e-01,1.894902884960174561e-01,5.634125008857279182e-01,1.993018388748168945e-01,-1.162778973579406738e+00,-8.170903394648561857e+01,-9.131836891174315712e-03
2.813677999999999901e+00,3.914496707604561698e-02,2.225202584417843299e-01,6.672886013984680176e-01,3.758785104031362595e-02,-5.363812390434929966e-03,-1.186341568905587007e-02,-5.638058856583107875e-02,-1.064751442757078809e-01,-1.715155877172946930e-02,-3.505138468592208234e-01,3.524857819752698074e-01,-8.930498955067808775e-02,-3.137923002243042103e-01,-2.072317911854378025e-01,1.611564322936057114e-01,-2.137923002243042048e-01,-1.712862968444824052e-01,1.939628899097442516e-01,5.623360789363855972e-01,1.017704010009765625e-01,-1.186902165412902832e+00,1.051897011808045477e+02,-9.131836891174315712e-03
2.847836000000000034e+00,3.798002333914178574e-02,2.196566979349139914e-01,6.646925210952758789e-01,2.706044250980269711e-02,4.830471837988348227e-03,-1.511986344773001527e-02,-6.288035083233728395e-02,-1.079666350999362451e-01,-1.761569082736968994e-02,-3.176287426610012732e-01,3.436582955199684597e-01,-1.012867919262975119e-01,-2.874509971350632243e-01,-3.411185872490378468e-02,1.491682433123784624e-01,-2.164961636066436712e-01,-5.688561201095580777e-02,1.917227447032928411e-01,5.597461761646257417e-01,-7.619899511337280273e-02,-1.049579024314880371e+00,1.412558662250857253e+02,-9.131836891174315712e-03
2.884418000000000148e+00,3.660046825696016554e-02,2.153863827630541350e-01,6.621521711349487305e-01,1.616539467232132668e-02,1.469703516521603248e-02,-1.852240777466211338e-02,-6.000139059598106478e-02,-1.188026824136577675e-01,-2.019869163632392883e-02,-3.707670479851621903e-01,3.244353195106262078e-01,-1.391580229915368727e-01,-2.088981810339031742e-01,2.692737896256432450e-01,1.293729855362735215e-01,-1.988853335380554033e-01,1.803390383720397949e-01,1.818310618400573730e-01,5.552947906592479166e-01,-3.674632906913757324e-01,-1.014083504676818848e+00,1.166389628713893245e+02,-9.131836891174315712e-03
2.920869000000000160e+00,3.509169122449557615e-02,2.096599207225957329e-01,6.592860221862792969e-01,2.027358754842315761e-03,2.751058965455643879e-02,-2.313389099147004913e-02,-3.670981180918574810e-02,-1.158903205425295679e-01,-6.425290834158658981e-03,-4.050878413595839223e-01,3.259843185586331349e-01,-1.067174866511144682e-01,1.563849643440362869e-01,3.173973679542541615e-01,-7.099485566341615095e-02,7.406505346298217218e-02,2.173973679542541559e-01,-5.542480945587157856e-03,5.500390468538960409e-01,-6.391462683677673340e-01,-1.634540557861328125e+00,1.143559926318800706e+02,-9.131836891174315712e-03
2.956217000000000095e+00,3.411344627379139793e-02,2.041706761237921663e-01,6.571160554885864258e-01,-1.209691791013957698e-02,4.036747062115053630e-02,-2.807135975952179674e-02,-2.732246745027474416e-02,-1.029196363032160166e-01,7.901153527200222015e-03,-4.034377602033120680e-01,2.849766087806375747e-01,-1.009265924995903230e-01,3.070086717605590709e-01,3.207240939140320046e-01,-1.426376105526564464e-01,2.070086717605590654e-01,2.207240939140319713e-01,-6.383585929870605469e-02,5.486344977478484486e-01,-6.872761249542236328e-01,-9.426535367965698242e-01,1.101687861423387744e+02,-9.131836891174315712e-03
2.992250999999999994e+00,3.280243870452581589e-02,1.992567560033428886e-01,6.560148000717163086e-01,-2.331207753027963667e-02,4.937527727142421163e-02,-3.156132982375355056e-02,-1.697394266357963796e-02,-9.502336915263076556e-02,1.248711999505758286e-02,-4.116086058278386473e-01,3.417806096905681712e-01,-7.482057906089059629e-02,3.239495038986205944e-01,3.245753705501556174e-01,-2.239363263189077247e-01,2.239495038986205888e-01,2.245753705501556396e-01,-1.361262559890747126e-01,5.480931048792776483e-01,-7.206454873085021973e-01,2.403732538223266602e-01,-1.156064670802205896e+01,4.807465076446533481e-02
3.027686999999999795e+00,3.173479886372150560e-02,1.933398999449538191e-01,6.551894545555114746e-01,-3.797494000403273812e-02,5.699587967750741058e-02,-3.640389752921411454e-02,5.196902063185081938e-03,-8.391474887605064603e-02,4.479080066084861755e-02,-3.651290077595946704e-01,1.506675649702197695e-01,-8.827086608020889846e-02,3.248457193374633678e-01,3.253974497318267711e-01,-2.855317950248718040e-01,2.248457193374633623e-01,2.253974497318267656e-01,-1.855317950248718262e-01,5.461818142401518861e-01,-7.189761400222778320e-01,-1.128823637962341309e+00,3.850685118191519507e+01,4.807465076446533481e-02
3.063476000000000088e+00,3.140832955580549063e-02,1.893799025086788101e-01,6.550370454788208008e-01,-4.738837321726757645e-02,5.764664581081690997e-02,-3.955204218923952936e-02,1.306781362507667722e-02,-6.807830450671449596e-02,5.476633831858634949e-02,-3.067598955975750497e-01,-5.086982473601284888e-02,-3.777324049588332011e-02,3.260419130325317161e-01,3.256520628929138184e-01,-2.953965663909912109e-01,2.260419130325317383e-01,2.256520628929138128e-01,-1.953965663909912054e-01,5.458973095280991172e-01,-7.111021280288696289e-01,-8.788706064224243164e-01,9.616432336249555135e+01,4.807465076446533481e-02
3.097770000000000135e+00,3.102670832069470003e-02,1.848436763096673319e-01,6.555407047271728516e-01,-5.327232692246824247e-02,5.306581624420991794e-02,-4.083836220309342707e-02,1.838973107532580406e-02,-6.068777150955995126e-02,7.965237647294998169e-02,-1.388084288659624521e-01,-1.540188245705487180e-01,1.809425027015001616e-02,3.262012720108031782e-01,3.260689139366149680e-01,-3.035137176513671986e-01,2.262012720108032005e-01,2.260689139366149902e-01,-2.035137176513671931e-01,5.443085800005812436e-01,-7.130947709083557129e-01,-7.203606367111206055e-01,9.258097389747507577e+01,4.807465076446533481e-02
3.129986000000000157e+00,3.100318614979559809e-02,1.795392793700575917e-01,6.571689248085021973e-01,-5.242364867883023832e-02,4.004207512266932945e-02,-3.966319948840402870e-02,3.704442911819635920e-02,-4.636425285154775755e-02,1.082184091210365295e-01,1.038978905671048836e-01,-4.126212383015646634e-01,3.562943116428410328e-02,3.255347967147826926e-01,3.256385445594787154e-01,-3.065385341644287220e-01,2.255347967147827148e-01,2.256385445594787376e-01,-2.065385341644287165e-01,5.426214738175847430e-01,-7.004391551017761230e-01,-9.876798391342163086e-01,1.642307784419327277e+02,4.807465076446533481e-02
3.162068999999999797e+00,3.136267749347407957e-02,1.760513811898516690e-01,6.588160991668701172e-01,-4.632103050472304723e-02,2.898705487630892641e-02,-3.707093526597609462e-02,4.385305906817271032e-02,-3.863624327530108121e-02,1.243461966514587402e-01,1.735596341472728232e-01,-3.311628800528895189e-01,9.936132534857718135e-02,3.243924617767334206e-01,3.253381907939910667e-01,-3.075345277786254994e-01,2.243924617767333873e-01,2.253381907939910889e-01,-2.075345277786254938e-01,5.414154415530171294e-01,-7.084828615188598633e-01,-6.729699373245239258e-01,6.557553290045771632e+01,4.807465076446533481e-02
3.194088999999999956e+00,3.178085570413256150e-02,1.710167034518666473e-01,6.615024805068969727e-01,-3.364171861385745199e-02,1.523165207381471653e-02,-3.240216358117588985e-02,4.902665971512622928e-02,-2.366866590974199200e-02,1.466311514377593994e-01,3.357699244145007089e-01,-3.778501321463205720e-01,1.032340869929433413e-01,3.217162609100341908e-01,3.234142780303955189e-01,-2.981856054084123242e-01,2.217162609100341852e-01,2.234142780303955134e-01,-2.078935861587524470e-01,5.398472329229888622e-01,-7.072107791900634766e-01,-7.672387361526489258e-01,8.430583771797861914e+01,4.807465076446533481e-02
3.226712000000000025e+00,3.231034749407665774e-02,1.677335533649323696e-01,6.637969017028808594e-01,-2.293774522847604608e-02,5.711103009336859770e-03,-2.781353848513414689e-02,5.869875598518711074e-02,-1.349366447629620630e-02,1.525203734636306763e-01,3.765326663125593831e-01,-3.386638199245480818e-01,1.310962564882535708e-01,3.195598363876342995e-01,3.209311470490467388e-01,-2.833522419891830180e-01,2.195598363876342662e-01,2.212992131710052324e-01,-2.055062055587768555e-01,5.394603655873685399e-01,-7.060134410858154297e-01,-7.144595384597778320e-01,1.010532976383098003e+02,4.807465076446533481e-02
3.261913999999999980e+00,3.291853717426703602e-02,1.648353169770445104e-01,6.663191318511962891e-01,-1.226899655952893436e-02,-4.233755658193949500e-03,-2.293351121081866131e-02,5.421709442466222245e-02,-6.977689731284195118e-03,1.500187218189239502e-01,3.154014903994446506e-01,-3.627659460150284287e-01,1.137673998583648288e-01,3.193696498870849387e-01,2.482594843262820872e-01,-2.632145985488860140e-01,2.193696498870849609e-01,2.171589732170104980e-01,-1.989346146583557129e-01,5.396765245687392687e-01,-7.031437158584594727e-01,-7.899125814437866211e-01,7.056096310773088476e+01,4.807465076446533481e-02
3.295072999999999919e+00,3.476163672246369157e-02,1.617658809630621586e-01,6.700090765953063965e-01,2.240280096931798401e-03,-1.822638302752266348e-02,-1.567337075872289945e-02,4.369914080766860998e-02,-5.368601968627809660e-03,1.566056013107299805e-01,3.901174318235107186e-01,-3.918702140848627224e-01,1.351153243383470814e-01,3.137855052947998158e-01,9.868284510443152413e-02,-1.955290739296886571e-01,2.137855052947998102e-01,1.637328922748565729e-01,-1.519775390625000000e-01,5.393305568676678430e-01,-6.902197599411010742e-01,-1.019798159599304199e+00,1.045531070595918521e+02,4.807465076446533481e-02
3.329455999999999971e+00,3.601072103107133549e-02,1.596118042898734546e-01,6.730404496192932129e-01,1.361327970668895805e-02,-2.881021000340200366e-02,-1.016747880924987607e-02,5.058337427596944214e-02,-9.745061462075439718e-03,1.697198152542114258e-01,4.049381709837954757e-01,-3.956836439791152626e-01,1.768206041867605993e-01,6.617177343431718262e-02,-2.682308673858642689e-01,1.446502341796741253e-01,1.614586114883422713e-02,-1.682308673858642634e-01,1.721763074398040827e-01,5.457892553713865613e-01,-2.740913629531860352e-01,-9.245439767837524414e-01,5.504386955882370103e+01,4.807465076446533481e-02
3.363202999999999943e+00,3.732958401715590069e-02,1.568683221692142860e-01,6.769918203353881836e-01,2.830428229840755913e-02,-4.251012716333102404e-02,-2.717699563856037018e-03,3.582415750530805465e-02,-1.140705108014408720e-02,1.600263267755508423e-01,3.686353261679999882e-01,-3.568360798685780155e-01,1.967831732581571957e-01,-2.213715485799942762e-01,-3.043840765953064187e-01,1.961753044460808615e-01,-1.734120011329650934e-01,-2.043840765953063854e-01,2.014048039913177435e-01,5.591314224170160774e-01,4.501312971115112305e-01,-1.064797282218933105e+00,8.636369175263341447e+01,4.807465076446533481e-02
3.397406999999999844e+00,3.850844536273488605e-02,1.545792358895025642e-01,6.800189614295959473e-01,3.871488077915170162e-02,-5.287318893290682276e-02,2.808849737653290428e-03,1.282565317098350449e-02,-2.287742627752065508e-02,1.577147692441940308e-01,3.674556497368812735e-01,-3.568506387072816199e-01,1.705400457273185122e-01,-3.033874034881591797e-01,-3.075548410415649414e-01,2.181470545975731368e-01,-2.033874034881591741e-01,-2.075548410415649359e-01,2.064601242542266901e-01,5.571399688329289335e-01,3.321346044540405273e-01,-7.496262788772583008e-01,1.053737884393147226e+02,4.807465076446533481e-02
3.430728000000000222e+00,3.926530386744347262e-02,1.521196897293115025e-01,6.830592155456542969e-01,4.902978895455080421e-02,-6.333847575766271554e-02,8.483321731735077309e-03,8.985506541862446281e-03,-3.630647388154418370e-02,1.532372683286666870e-01,3.526267975741420591e-01,-3.283714047106128797e-01,1.817235374463993802e-01,-3.133591413497924805e-01,-3.153866052627563588e-01,2.311651854873514045e-01,-2.133591413497924749e-01,-2.153866052627563532e-01,2.020549714565277044e-01,5.461761810708359866e-01,-3.006354570388793945e-01,-5.213378667831420898e-01,5.420465787588257456e+01,4.807465076446533481e-02
