timestamp,x,y,z,roll,pitch,yaw,vx,vy,vz,p,q,r,psp,qsp,rsp,pres,qres,rres,thrust_sp, thrust_res
0.000000000000000000e+00,1.639967860380403628e-03,9.026921508246191477e-04,9.920927286148071289e-01,1.227181173002826579e-02,-8.964852309531146091e-03,5.242214894027874550e-04,-1.117760609963608029e-02,-5.480839928666083639e-04,3.499431535601615906e-03,6.599726267577266103e-02,1.121870499988955258e-02,1.789206893298375678e-02,-2.770032290759351090e-01,1.583525622836973179e-01,1.326236749943894011e-01,-1.973602341192692566e-01,2.246347779553764246e-01,1.309804033087666741e-01,5.094437709013435178e-01,-1.510921120643615723e-01
2.532900000000000082e-02,1.481373999914963133e-03,1.447522789337683238e-03,9.922387003898620605e-01,1.222316385236399926e-02,-9.144016681468691843e-03,4.863063017903623830e-04,5.238506952856908589e-04,-3.431061945044662324e-03,9.092207998037338257e-03,3.702051798972447877e-02,-2.821247244121414394e-02,-2.908615276655098641e-02,-2.889058096374541584e-01,1.631120959886517841e-01,1.243861252617529528e-01,-2.076620873758157071e-01,2.195695971678603142e-01,1.228791994169574492e-01,4.985079572762092237e-01,-7.041978240013122559e-01
5.012799999999999895e-02,1.386809686927759164e-03,1.804654361158568917e-03,9.923838973045349121e-01,1.201418992604330951e-02,-8.935668686246955872e-03,3.341968030041719828e-04,-2.582338962878510859e-03,-4.199218766795439865e-03,9.143600473180413246e-04,-3.433348518666577698e-02,3.565097316591949589e-02,-9.379080526745872323e-03,-2.788397140691789011e-01,1.609484244852785462e-01,1.395748028096253750e-02,-1.989808444965679157e-01,2.203481877788822096e-01,1.287150950629182937e-02,5.050689807038722945e-01,-3.919297456741333008e-01
7.184699999999999420e-02,1.298144003979305157e-03,2.132886816654253840e-03,9.925000667572021484e-01,1.190368470498443659e-02,-8.860684540503038775e-03,3.915882433931372475e-04,-4.385466609118686236e-03,-1.075473732266910920e-03,5.188975948840379715e-03,1.682210618375747785e-02,-3.356352216021023932e-03,1.452965885135448082e-02,-2.705024825134449973e-01,1.620720258692467663e-01,1.548920281909426933e-01,-1.942014479396518556e-01,2.220477324626879689e-01,1.536396882724781199e-01,5.069560214890889149e-01,-2.750260233879089355e-01
9.894600000000000617e-02,1.152574145132212414e-03,2.681045497449874217e-03,9.925615191459655762e-01,1.015595291289598211e-02,-9.587721216923084100e-03,-9.226157248769517594e-04,-1.029393151847600441e-02,2.773439231480134262e-04,-6.497461814433336258e-03,-8.433737492335768859e-02,-2.441636899872580077e-02,-8.612191386910025837e-02,-2.190884750855745244e-01,1.554457987764200633e-01,1.142396041362737646e-01,-1.551383993865973476e-01,2.247748194068323879e-01,1.166665317000092350e-01,5.051508416558072589e-01,-4.170092344284057617e-01
1.246879999999999933e-01,8.688862309502232758e-04,3.390134314017999480e-03,9.921277165412902832e-01,5.065470883175333949e-03,-1.199761871226079357e-02,-1.934266865084133258e-03,-3.050003862595783346e-03,4.994043710946447640e-03,-2.975296787917613983e-02,-2.581558236165219511e-01,-1.166115566071150300e-01,-5.130746678544167300e-02,1.277367908338329638e-03,1.340502875723434406e-01,-1.585889444721339248e-01,2.808023457557199537e-02,2.125393395726891954e-01,-1.532745596329761761e-01,5.100624598231715545e-01,-2.523910999298095703e-01
1.488919999999999966e-01,5.894565488230652569e-04,3.929415135887591448e-03,9.915445446968078613e-01,8.331839863810848110e-04,-1.452194440046827850e-02,-3.075655343343974835e-03,-7.880056330524248462e-03,1.763738285108693016e-02,-3.669347241520881653e-02,-1.780790461837814254e-01,-1.332082974526102581e-01,-7.880814660736026878e-02,1.328553391917712545e-01,7.715720622978322618e-02,-1.590393077269597333e-01,1.223210254312599721e-01,1.771572062297832317e-01,-1.504983105906848584e-01,5.125437929202174558e-01,-1.522946357727050781e-01
1.731610000000000094e-01,8.612411497321468233e-05,4.890684357585698208e-03,9.902706146240234375e-01,-6.758028897083364316e-03,-1.929288583516575173e-02,-3.822977324351661821e-03,-2.573090299945489726e-02,8.212991506433873351e-03,-5.412655696272850037e-02,-2.552909470212199050e-01,-1.731852173733513800e-01,1.101962696807672277e-03,1.865543560439682502e-01,-1.838368913124957260e-01,-1.562245286113052856e-01,1.354466320794722733e-01,-8.383689131249572046e-02,-1.453440051388085463e-01,5.160889194765531096e-01,-3.978240489959716797e-02
1.968519999999999992e-01,-3.592947743162460154e-04,5.586829608172038525e-03,9.892176985740661621e-01,-1.034206209514525535e-02,-2.268697330907576415e-02,-2.693104655451472595e-03,-1.612736536657516373e-02,2.896860977493201372e-02,-6.842943280935287476e-02,-1.447101413862221519e-01,-1.371052110040398841e-01,6.343092499523710071e-02,2.280744430657412058e-01,-1.946428475280959081e-01,-1.428493102039982421e-01,1.353189189128168879e-01,-9.464284752809588863e-02,-1.350919031138881066e-01,5.247929655922839443e-01,3.654075860977172852e-01
2.280600000000000127e-01,-1.094898665271231515e-03,6.479387548912572160e-03,9.874631166458129883e-01,-1.224960462514334061e-02,-2.799183815383798901e-02,-3.909814054079419066e-04,-3.290331779879895890e-02,1.342542554312593783e-02,-6.593021750450134277e-02,3.351941248970553844e-02,-1.945243011406604383e-01,8.874603600034389195e-02,1.722224410216138257e-01,-1.725191200986464224e-01,-7.258676615207296234e-02,8.183655963612695983e-02,-7.251912009864641684e-02,-7.102050500182979786e-02,5.250233555082056691e-01,3.769475221633911133e-01
2.475350000000000050e-01,-1.309124805222820331e-03,6.741881490277105288e-03,9.868267178535461426e-01,-1.206683114529153583e-02,-2.882965892236133421e-02,4.409554123001591108e-04,-3.093367010295579658e-02,1.678105929473191343e-02,-7.348950207233428955e-02,2.509562333027380229e-02,-7.809518205095303256e-02,1.030546001454279853e-01,1.905350805973812234e-01,-2.479649020098766143e-01,-4.717945979985428695e-02,9.623461077409363462e-02,-1.479649020098766088e-01,-4.798218337290928448e-02,5.319914765485386221e-01,7.209364175796508789e-01
2.726100000000000190e-01,-2.010530298084078210e-03,7.582754408233432011e-03,9.847280383110046387e-01,-9.013551815678632131e-03,-2.908262654477788978e-02,2.705014411591433188e-03,-2.149096524295792190e-02,2.754556331437352235e-02,-8.046463131904602051e-02,1.600813670370502817e-01,5.253223728558856914e-02,1.117988472926912807e-01,1.125981176103779402e-01,-1.979025757369521354e-01,-7.827895526080078104e-02,2.959345169081354504e-02,-9.790257573695214377e-02,-8.562268098499284386e-02,5.329917370253399733e-01,7.352517843246459961e-01
3.001570000000000071e-01,-2.682164753552893164e-03,8.490491313225706840e-03,9.824839830398559570e-01,-3.999320941024385803e-03,-2.527231747817926255e-02,4.312300800598967143e-03,-2.622588008741079391e-02,2.741733243119046093e-02,-8.298120647668838501e-02,2.122243718751034292e-01,2.122445753549446479e-01,1.362197604928667635e-02,5.462053276644256161e-02,-1.401694890686838724e-01,-1.156422822680356621e-01,5.203308709520288247e-03,-4.016948906868388069e-02,-1.277008245614325299e-01,5.336629378836876825e-01,7.483216524124145508e-01
3.268869999999999831e-01,-3.174544612477824598e-03,9.536381060705907339e-03,9.801516532897949219e-01,1.889355367311269405e-03,-1.932852682775676456e-02,5.409241813925769193e-03,-2.523995766106509539e-02,1.777076392644848582e-02,-8.576242625713348389e-02,1.743460633156032613e-01,1.748653699268700179e-01,-5.439337960724413036e-03,-1.407025194530588663e-01,-8.988808500580777738e-02,-1.145120153066368218e-01,-1.450003975409705215e-01,1.011191499419223337e-02,-1.297957866426503182e-01,5.341283494408088917e-01,7.485389709472656250e-01
3.466389999999999749e-01,-3.323205389033691629e-03,9.922324097644928328e-03,9.793436527252197266e-01,4.027439985805131815e-03,-1.681702384059424737e-02,5.959123204978933330e-03,-3.041496165313823871e-02,3.425854992874485111e-02,-8.127544075250625610e-02,2.385752559566153286e-01,2.318832881796605572e-01,2.473136153451204779e-03,-1.570230416266854556e-01,-7.238571357964476705e-02,-1.108589157297606431e-01,-1.622264642776405086e-01,2.761428642035524197e-02,-1.277968913339970758e-01,5.338540608471979976e-01,7.426763772964477539e-01
3.755890000000000062e-01,-4.014720502726180397e-03,1.160734097123675493e-02,9.761771559715270996e-01,1.016913122389265234e-02,-7.742708835376088672e-03,8.503802497247470171e-03,-2.976786907973773266e-02,4.155394534838082604e-02,-8.636905997991561890e-02,1.589408584615892572e-01,1.835332749589922985e-01,5.757601892510962743e-02,-2.395097320184417788e-01,6.650527597432670524e-02,-1.159832004898232738e-01,-2.093956836432500079e-01,1.389660172434835084e-01,-1.400392407649498627e-01,5.344200982623414919e-01,7.356616258621215820e-01
4.005569999999999964e-01,-4.396850477613409650e-03,1.254261607189243941e-02,9.746114611625671387e-01,1.102720296147587965e-02,-3.631401322472527227e-03,9.878876088483146134e-03,-3.129989016113047390e-02,3.995926118331017546e-02,-9.464474022388458252e-02,-3.248434515897089675e-02,2.212960118841204027e-01,7.562533819315597761e-02,-2.316206193436167182e-01,1.157380079848853993e-01,-1.231742108226893673e-01,-1.943785998771112855e-01,1.630151934907600186e-01,-1.510016157097959222e-01,5.348346476808819583e-01,7.136464118957519531e-01
4.287770000000000192e-01,-5.333304605497551053e-03,1.428347915511644570e-02,9.723681211471557617e-01,9.875023412646255841e-03,1.071981603634863944e-03,1.222373298348444770e-02,-3.259564605329227233e-02,4.632881908925487457e-02,-8.940705657005310059e-02,-1.106070052195142900e-01,1.658064313221747077e-01,8.894064022982658968e-02,-1.419603924735941824e-01,1.508326772450329090e-01,-1.168181829743485112e-01,-1.188390838846233033e-01,1.689051066126557310e-01,-1.511082000368720035e-01,5.343480326801183233e-01,6.926776170730590820e-01
4.485359999999999903e-01,-5.697049542769696412e-03,1.490727169220595894e-02,9.716154336929321289e-01,8.964640902390319868e-03,1.970437414233083828e-03,1.286170125245611473e-02,-2.969826199175491441e-02,4.445145693273946930e-02,-8.131542801856994629e-02,-1.194231995176789907e-01,8.401696174349157498e-02,4.106322492825965897e-02,-1.578180344495654433e-02,1.435858283302139382e-01,-1.134562106765982792e-01,3.156585919027214953e-03,1.537442164751353368e-01,-1.495023397491929695e-01,5.339107211218279136e-01,6.921443939208984375e-01
4.750849999999999795e-01,-6.868060352223734170e-03,1.690817149527836655e-02,9.696729183197021484e-01,3.926279827709731884e-03,2.999188845438149897e-03,1.552730450468553514e-02,-3.780415733698319625e-02,5.241456093801551142e-02,-8.495846390724182129e-02,-2.180015510260158162e-01,-1.053408975273364100e-02,8.367132394898299519e-02,9.686736439200538396e-02,9.947147764977729012e-02,-6.837638549353505790e-02,7.497541804851427794e-02,1.104418079565315514e-01,-1.118796882914848412e-01,5.344059755230713415e-01,6.913633346557617188e-01
5.018299999999999983e-01,-8.047816797083629306e-03,1.897593193116827240e-02,9.678532481193542480e-01,-1.902356171569920826e-03,8.712175657326071132e-04,1.822490231824591689e-02,-2.550398929746679200e-02,5.549338998715719340e-02,-8.030409365892410278e-02,-2.273957643288717634e-01,-1.068738216062885826e-01,9.300410804035569301e-02,1.855275735105107460e-01,6.450509628958342456e-02,-5.245663929401776782e-02,1.230614209791623948e-01,7.934559473735715296e-02,-1.035051423692983502e-01,5.348241451331464669e-01,7.200429439544677734e-01
5.273520000000000429e-01,-9.487630158171471081e-03,2.127816455054265879e-02,9.662199020385742188e-01,-5.374983600745717773e-03,-3.092355531721935336e-03,2.085010626527505906e-02,-3.623731775215818796e-02,5.646197616357249982e-02,-7.757440209388732910e-02,-9.382379235414357865e-02,-1.425217736151153936e-01,1.287313726413644999e-01,2.062090375669048403e-01,-3.053729280036648203e-02,-9.272249777700386497e-03,1.190691538538337091e-01,2.124780755517722414e-02,-6.768154801521733543e-02,5.347990477248758534e-01,7.172493934631347656e-01
5.489979999999999860e-01,-1.011916358809328287e-02,2.223144471915273340e-02,9.657204151153564453e-01,-5.843515857251558449e-03,-4.745711395482521411e-03,2.141200656386677004e-02,-3.639733532583776937e-02,5.112417351254990028e-02,-6.053429469466209412e-02,-5.081337565062064854e-02,-1.927604993536289613e-01,5.968058299604780265e-02,1.860813212306295650e-01,-1.049762594733903709e-02,7.514414461181909144e-03,9.926858580961321621e-02,5.132865288635739265e-02,-5.246064369207036060e-02,5.332423606352770795e-01,6.921913623809814453e-01
5.742690000000000294e-01,-1.196482082813554552e-02,2.494133878112590047e-02,9.643807411193847656e-01,-5.437255694707942427e-03,-9.115666200147476417e-03,2.328482930647512994e-02,-2.700994937188449727e-02,5.713292519290651128e-02,-5.942398309707641602e-02,1.518346503236553402e-02,-9.660079815801772551e-02,5.398169578436123883e-02,1.828910833657022839e-01,-5.116882114014933286e-02,4.228284435738678682e-02,9.152329182478978475e-02,3.270779639082740248e-02,-2.297173799030536798e-02,5.318313418583329177e-01,6.088967323303222656e-01
6.013739999999999641e-01,-1.370981846145684878e-02,2.762920308389184287e-02,9.631762504577636719e-01,-2.190734112066715887e-03,-1.221310042594336842e-02,2.471725712066352720e-02,-2.854016367972131082e-02,6.244757025893105107e-02,-6.945534795522689819e-02,1.158675070676290914e-01,-7.237238044192723097e-02,6.667980588702979161e-02,-1.224210791477650662e-03,-5.801571216802780401e-02,7.562666962150850491e-02,-7.657025789896662604e-02,4.198428783197220154e-02,6.251541978730632346e-03,5.346396332171032828e-01,7.135212421417236328e-01
6.259730000000000016e-01,-1.553358748997308962e-02,3.009552346682864421e-02,9.619842171669006348e-01,2.905186166689042917e-03,-1.318361947338186901e-02,2.536962269823739291e-02,-2.972156669578678370e-02,5.793541039971493445e-02,-5.439165607094764709e-02,1.946329599209269678e-01,1.908726704867428139e-02,4.480409821278234089e-02,-1.286029233757822188e-01,1.098076730629589381e-02,8.105324028856109031e-03,-1.685138268687405294e-01,1.109807673062958994e-01,-6.322775157314780570e-02,5.336151550401061483e-01,7.072958946228027344e-01
6.504069999999999574e-01,-1.695027714519737466e-02,3.141554251962296040e-02,9.611689448356628418e-01,6.693646397762976347e-03,-1.298922905978550091e-02,2.498723335841646076e-02,-1.913521154466565552e-02,6.281103992829413507e-02,-5.722288787364959717e-02,1.574159591571353545e-01,3.660887210958389121e-02,-6.333623251172618152e-02,-1.610412929857404918e-01,1.897719775664664932e-02,2.000945767306180900e-03,-1.817368533833167987e-01,1.189771977566466549e-01,-6.834571138409419044e-02,5.344367267903994412e-01,7.332806587219238281e-01
6.746830000000000327e-01,-1.901388501258419531e-02,3.349735873464105423e-02,9.599723815917968750e-01,1.054254823321787264e-02,-1.149506459297611194e-02,2.501708040371397601e-02,-2.846390593201724578e-02,6.725239624674371475e-02,-6.303103268146514893e-02,5.900083910766609763e-02,3.213396629187720288e-02,3.374652538596206730e-02,-1.964143738623028712e-01,3.436895754328558872e-02,-4.886475548960371451e-02,-1.966349256616782282e-01,1.343689575432855943e-01,-1.194011651947964187e-01,5.338673722351816586e-01,6.688444614410400391e-01
6.999859999999999971e-01,-2.037610071584904786e-02,3.500483857283188255e-02,9.591137170791625977e-01,1.164863058197197591e-02,-1.025495264635933879e-02,2.491599521165910325e-02,-3.912585660256762826e-02,7.128834442501320867e-02,-5.375781282782554626e-02,7.146916225802270317e-02,7.097145814468763803e-02,-2.263518853645366327e-02,-1.828631629487348087e-01,1.711513623335246537e-02,-6.841726970920963824e-02,-1.800279609426338745e-01,1.171151362333524709e-01,-1.387105768173459430e-01,5.341984065226651479e-01,7.153329849243164062e-01
7.242229999999999501e-01,-2.237387487477177778e-02,3.713826743487679688e-02,9.579181671142578125e-01,9.751531558521158924e-03,-9.152159963359496331e-03,2.528945454119191361e-02,-2.382630078809481675e-02,7.295907106279846122e-02,-5.555893480777740479e-02,-1.154595540005887572e-01,-2.111971250305513109e-02,-3.249863927632951066e-02,1.244945568241873080e-01,-7.066978522598137136e-02,1.718973578538908475e-02,1.128446691562434573e-01,1.682013672642182142e-02,-5.402516866444455335e-02,5.341568191726219217e-01,6.964354515075683594e-01
7.477700000000000458e-01,-2.372132636836877737e-02,3.845031917347131040e-02,9.570937156677246094e-01,7.256154050095750367e-03,-8.831532264571784197e-03,2.606351132993078856e-02,-3.421188247743123245e-02,7.822142823501930520e-02,-6.232295557856559753e-02,-1.222595638436265036e-01,1.458137682323194448e-02,6.098151378631261332e-02,1.328495691940195234e-01,-6.309419954087061577e-02,2.700142457307711658e-02,9.978866236819801394e-02,3.352557198058966209e-02,-4.638674456945481722e-02,5.345857590974438800e-01,6.844968795776367188e-01
7.740700000000000358e-01,-2.573156816159617721e-02,4.048480434697387248e-02,9.559207558631896973e-01,2.468637966470053815e-03,-9.180375380709593358e-03,2.715956977443911846e-02,-3.491050147272093535e-02,8.455902003882277695e-02,-6.487462669610977173e-02,-1.168731184268399781e-01,-3.394893429234132481e-02,2.623945178463844147e-02,1.976651677502325732e-01,-8.764251759687696763e-02,2.071631159390769500e-02,1.276821624782825404e-01,1.167325095661828939e-02,-5.566836445403294115e-02,5.352836466937704873e-01,7.026095390319824219e-01
7.978950000000000209e-01,-2.703087668641793520e-02,4.184636448432106637e-02,9.551990628242492676e-01,4.040892253076364392e-05,-9.400458065903727345e-03,2.739752110406068475e-02,-3.844942166579135706e-02,7.229189277803556302e-02,-4.892717301845550537e-02,-1.037529272337790881e-01,-1.678188059487300057e-02,-2.361557263188778649e-02,2.170628006565595014e-01,-8.188551879641381426e-02,9.243917494843406635e-03,1.402556265373365862e-01,1.811448120358619129e-02,-6.773810458962989389e-02,5.340302315139454636e-01,6.892156600952148438e-01
8.254019999999999690e-01,-2.888884216228825366e-02,4.376763603134298242e-02,9.543332457542419434e-01,3.745186140633581669e-04,-9.213282216614882003e-03,2.749025674837546340e-02,-2.821869355920438374e-02,7.261662046715931795e-02,-4.719797521829605103e-02,4.071288193672599476e-02,3.194631749198577342e-02,-8.648028923180998539e-04,3.770310993906113295e-02,8.034364741505821417e-02,-5.214315984736284104e-02,-4.037178828645231199e-02,1.766702721059646430e-01,-1.293818729036533832e-01,5.341212372504424710e-01,6.930041313171386719e-01
8.467609999999999859e-01,-2.950768713166479831e-02,4.459251427285800679e-02,9.541058540344238281e-01,1.632225898964807494e-03,-8.892807094586396843e-03,2.745852119842440153e-02,-3.537967681104364770e-02,7.188959349340356964e-02,-3.142782300710678101e-02,1.526267857765370994e-01,3.386929569593849498e-02,-4.399167445435993307e-02,-6.799192721597555056e-03,1.055988922679546305e-01,1.122232776037662416e-01,-7.742996955794854974e-02,2.055988922679546360e-01,3.502795998248068449e-02,5.169069907067501690e-01,-1.859350204467773438e-01
8.712879999999999514e-01,-3.130736056855402960e-02,4.699948016793504407e-02,9.534781575202941895e-01,6.013391124532248971e-03,-7.215598212978457937e-03,2.755056390692134372e-02,-2.788406554220478756e-02,6.626802933103331794e-02,-4.155232757329940796e-02,1.259926034642434578e-01,5.136016809454024834e-02,-1.140465643359503053e-02,-1.364087758987069243e-01,1.103030722666597796e-01,5.023712016520832935e-02,-1.758562825497304027e-01,1.955756575013479770e-01,-2.723907944796975442e-02,5.227943900621149220e-01,8.492243289947509766e-02
8.994459999999999678e-01,-3.305032290333288075e-02,4.941040548086802348e-02,9.529826045036315918e-01,1.130247296262445848e-02,-5.718781037507891796e-03,2.773098497456771838e-02,-3.295274989999773946e-02,7.449017162290298699e-02,-4.429043456912040710e-02,1.244494235310844299e-01,5.364293835297069546e-02,2.522105764745214557e-02,-1.923851294534357492e-01,1.079540192852099512e-01,-1.667030743760963829e-02,-2.067309164326842919e-01,1.893794549462584909e-01,-9.475621072172660253e-02,5.334722719567723814e-01,6.501832008361816406e-01
9.269279999999999742e-01,-3.473588063962736866e-02,5.187999636095690786e-02,9.524241089820861816e-01,1.449317703837078170e-02,-5.844426955218917641e-03,2.692599166460407645e-02,-3.872534155702819780e-02,8.304761157551934780e-02,-4.439610987901687622e-02,9.278384782292838084e-02,-4.374322506394144605e-02,-1.025053064701145732e-02,-2.013584235502303421e-01,8.141610352452735566e-02,1.323694520503968519e-01,-2.025155955904101024e-01,1.685076884143213716e-01,5.642447558110923189e-02,5.269630379459746550e-01,2.860481739044189453e-01
9.474759999999999849e-01,-3.521859094524371070e-02,5.238013799974860357e-02,9.521887302398681641e-01,1.458495561450157130e-02,-6.155741698741445944e-03,2.662079628823788013e-02,-3.758079419739399074e-02,8.188617382965374114e-02,-5.274536833167076111e-02,-1.863748540510213767e-03,-1.187820596796464352e-02,-4.474863534605346034e-03,-1.753446076191739200e-03,7.599713124535742437e-02,3.439410541034973456e-02,-7.079649022737481744e-04,1.638873767881201260e-01,-4.069827228374009453e-02,5.314228842395853913e-01,4.910966157913208008e-01
9.709969999999999990e-01,-3.668392582485341391e-02,5.397706346696255764e-02,9.512671232223510742e-01,1.291715430479872632e-02,-8.258724235620240606e-03,2.659172083047467439e-02,-3.649051886916586385e-02,8.039365482244482941e-02,-5.507627502083778381e-02,-8.847600679812313296e-02,-8.645784044652315981e-02,2.137735143125830180e-03,8.847212896798703485e-02,-9.017240304724985500e-02,1.621634631861085252e-02,7.840078556127781650e-02,9.827596952750155754e-03,-5.884673071053470039e-02,5.333020466705540308e-01,5.762807130813598633e-01
1.001376000000000044e+00,-3.814445251461896086e-02,5.571982387657809649e-02,9.501258730888366699e-01,8.518549931522546859e-03,-1.104165701710102532e-02,2.581873498768971764e-02,-3.306996690476635137e-02,9.009077240416642207e-02,-5.129866674542427063e-02,-1.214851019047798741e-01,-1.254567821399982519e-01,-2.263766757474929697e-02,1.420087447608997799e-01,-9.494662542452977916e-02,1.694715915009978313e-02,9.411261138985307917e-02,5.053374575470227260e-03,-5.597413990262126160e-02,5.328096217656359546e-01,5.541865825653076172e-01
1.023935000000000040e+00,-3.912117242582609927e-02,5.690114771433312651e-02,9.493895173072814941e-01,5.817365175478072734e-03,-1.294894444850269721e-02,2.529064389851742867e-02,-4.084038114043432588e-02,8.043310530818241488e-02,-6.010483950376510620e-02,-1.150901977854402458e-01,-1.386362569622945073e-01,-2.056355630114593130e-02,1.555048316963051624e-01,-1.138740187782781993e-01,3.535164074590941424e-02,9.794383665139989870e-02,-1.387401877827819201e-02,-3.607666366327832302e-02,5.356443154174115318e-01,6.672959327697753906e-01
1.053657999999999983e+00,-4.045552347411724564e-02,5.855606733628364313e-02,9.482671618461608887e-01,3.753570494904334004e-03,-1.464375692498132153e-02,2.510612673619383450e-02,-3.864005643011776681e-02,8.191758582756722418e-02,-5.610045790672302246e-02,-6.360231804553467816e-02,1.475254597648930840e-02,4.137847702133861522e-02,1.881489300020710576e-01,-1.053221611983902600e-01,2.973553825782956211e-02,1.132172811164075532e-01,-5.322161198390257947e-03,-4.117071665721969836e-02,5.349045403559890000e-01,6.323421001434326172e-01
1.075906000000000029e+00,-4.129120914047904739e-02,5.960729753195478930e-02,9.475899934768676758e-01,4.421986519464155864e-03,-1.490445066980639055e-02,2.461822498591303976e-02,-2.831616864976075829e-02,7.947809837016329981e-02,-5.402074381709098816e-02,5.660660324598915105e-02,6.463256206377875307e-05,-6.093575979118925207e-02,-1.197319519076381344e-03,7.253795329464288177e-02,6.263160413231289025e-02,-7.063989639127062070e-02,1.725379532946428873e-01,-6.902772387079420327e-03,5.350941387216465728e-01,6.432156562805175781e-01
1.100117000000000012e+00,-4.207007777123700915e-02,6.064860652639728761e-02,9.469707012176513672e-01,6.095535159704759849e-03,-1.399314941004914381e-02,2.456396970238139410e-02,-4.343098543317606280e-02,7.821737664892734754e-02,-5.838125944137573242e-02,7.734196108133425951e-02,8.921036462774484255e-02,1.862884973163483199e-02,-4.443074646755445362e-02,4.919220037341223706e-02,-6.326309637764371274e-02,-1.036378515373071879e-01,1.491922003734122426e-01,-1.327357391688051003e-01,5.332587519288157774e-01,5.165152549743652344e-01
1.124400000000000066e+00,-4.284033358890033255e-02,6.164921841445498291e-02,9.463338255882263184e-01,8.904916190009864313e-03,-1.224478547917895455e-02,2.397332058691903356e-02,-3.350584401314802424e-02,6.815138262353891141e-02,-4.910089448094367981e-02,1.627590582190266699e-01,8.698360988880818323e-02,-6.167679151734638265e-02,-1.425907315295212030e-01,4.393537025004659591e-02,4.171674444590345310e-02,-1.769531697480967170e-01,1.439353702500466015e-01,-2.606011034573730081e-02,5.314977125768731714e-01,4.492535591125488281e-01
1.150449999999999973e+00,-4.382245968534673186e-02,6.290257987285301222e-02,9.454222321510314941e-01,1.357850617291412633e-02,-9.656223797390284247e-03,2.312451200128506912e-02,-3.298793217636623865e-02,6.670369849935264828e-02,-3.679071739315986633e-02,1.308350555928018133e-01,4.814249162234475465e-02,-4.787826425740591280e-02,-1.929474642399431616e-01,9.582081009926024517e-02,1.388338070315804362e-01,-1.987543881998327377e-01,1.958208100992602507e-01,7.338371748933791849e-02,5.190281520634254520e-01,-1.883884072303771973e-01
1.174655000000000005e+00,-4.465737329035714825e-02,6.371816789819575999e-02,9.445235133171081543e-01,1.641744402854585644e-02,-8.201361316407584923e-03,2.331283023622710004e-02,-4.111658330573574743e-02,7.542427703307720555e-02,-4.260602220892906189e-02,2.962636628098066355e-02,2.959921685852424239e-02,-1.906344348904442801e-03,-2.107811473746737663e-01,8.956581272009433992e-02,-1.451694456887227258e-02,-2.061467140495671646e-01,1.895658127200943455e-01,-8.057867338125786205e-02,5.344778919237294090e-01,6.215529441833496094e-01
1.199281000000000041e+00,-4.550475411569036149e-02,6.465842922912405644e-02,9.437127113342285156e-01,1.626345243633120149e-02,-7.853759043432217979e-03,2.296534827538398993e-02,-3.373400132915853333e-02,7.232078893706829492e-02,-5.209703370928764343e-02,-1.069723302812429500e-01,1.746159774526906752e-02,-2.225021544198860571e-02,2.180826010274734827e-02,-3.856815530171447959e-04,-1.892856477423779382e-03,2.842328152752314832e-02,9.961431844698286076e-02,-6.690961191212270454e-02,5.283848684462572054e-01,2.414044141769409180e-01
1.224388999999999950e+00,-4.635268671876259516e-02,6.575719701234247760e-02,9.427551031112670898e-01,1.357600897898595532e-02,-8.815172132511595038e-03,2.179805275980206680e-02,-3.413568484000013142e-02,8.082750013041883896e-02,-5.292750895023345947e-02,-1.110159185754437255e-01,-4.763587342655441897e-02,5.565757521623875529e-05,9.587139700297317435e-02,-7.763580737314201841e-02,1.365974973180572594e-02,7.688681247530977647e-02,2.236419262685798021e-02,-4.811073963359030481e-02,5.285896382159678275e-01,2.396036386489868164e-01
1.248383000000000020e+00,-4.690013619536680806e-02,6.671660491634603951e-02,9.421483874320983887e-01,1.038327475274530148e-02,-1.020153092651843174e-02,2.143536695831493866e-02,-3.913677604284530875e-02,7.100171768922562687e-02,-4.500636085867881775e-02,-1.582444153864633885e-01,-1.185100513434948488e-01,-3.550970269184364203e-02,1.061104778842594798e-01,-7.731149820220543922e-02,8.951345663562662591e-04,7.401629484269520165e-02,2.268850179779456980e-02,-5.982806315692833915e-02,5.219204650668912704e-01,-9.902924299240112305e-02
1.273058000000000023e+00,-4.768130247790412085e-02,6.840261061717460567e-02,9.412131309509277344e-01,6.688749372435820809e-03,-1.212321538737803905e-02,2.122329422679269939e-02,-3.758829190026688472e-02,7.334408616286773597e-02,-5.092039704322814941e-02,-1.453508970549197421e-01,-2.878428369734090109e-02,2.224403038822627549e-02,1.563864397451882049e-01,-9.277018042540143006e-02,2.239243494208052743e-02,9.581568623516796557e-02,7.229819574598578963e-03,-3.770969259211483238e-02,5.298119008485000503e-01,2.977120876312255859e-01
1.299460999999999977e+00,-4.818129392655468718e-02,6.951637049765155285e-02,9.406060576438903809e-01,6.148308421717957328e-03,-1.270693035290015871e-02,2.087764863304841789e-02,-3.152366542257929033e-02,7.522904859119058929e-02,-4.792617261409759521e-02,3.463475090573891330e-02,-3.965226887007762546e-02,-4.647350458411844687e-02,5.868799204299772476e-02,-3.063769557667669896e-02,9.387601620786591161e-02,-7.634272421679802294e-03,6.936230442332330659e-02,3.474764798651232278e-02,5.236864446285243169e-01,-3.201258182525634766e-02
1.321973000000000065e+00,-4.862750825681800421e-02,7.056318916294904153e-02,9.399520158767700195e-01,6.428720477488166808e-03,-1.270171774268935572e-02,2.069222328627162710e-02,-3.524371793544266857e-02,6.791728434326214925e-02,-4.232752323150634766e-02,3.176760335995684748e-02,1.657882121289875471e-02,-1.788624107353792899e-03,-1.014874429686134227e-01,4.663688425208903365e-02,4.049871677852288215e-02,-1.612909936123278487e-01,1.466368842520890392e-01,-1.811753436774262566e-02,5.211477925975838144e-01,-1.549452543258666992e-01
1.347005000000000008e+00,-4.949022718107977392e-02,7.225732287960244526e-02,9.389837384223937988e-01,8.991453675638123519e-03,-1.120559950981880881e-02,2.004493076954227959e-02,-2.864164344795669739e-02,7.053092729240878489e-02,-6.248692795634269714e-02,5.920235094011228744e-02,1.053864509202429439e-01,-1.450027957200215011e-02,-3.968800140136850840e-02,6.523026384849514581e-02,-7.706902964164216718e-02,-8.685375435057518523e-02,1.652302638484951514e-01,-1.338903917963696621e-01,5.349883156958232799e-01,5.110158920288085938e-01
1.373037999999999981e+00,-5.073961962104240470e-02,7.419954926303688747e-02,9.378526806831359863e-01,1.199960906520965501e-02,-9.560070877595805428e-03,1.907258880337159290e-02,-2.852629302451895402e-02,7.078045052427647810e-02,-5.847198888659477234e-02,1.037769601473820386e-01,1.538295572979714483e-02,6.824466893387155439e-03,-1.741042162559251483e-01,4.304786544592262287e-02,6.937903463871344933e-02,-2.032853130219954285e-01,1.430478654459226284e-01,1.524472787792499444e-02,5.280693428120643018e-01,1.365743875503540039e-01
1.399353000000000069e+00,-5.157602802998101366e-02,7.556246242403975855e-02,9.370606541633605957e-01,1.307958435674155991e-02,-8.473569857144758188e-03,1.857826386707372990e-02,-4.378065081630777566e-02,6.913151459669397703e-02,-5.760427936911582947e-02,3.332064817353447284e-02,4.616280581095606739e-02,-3.057012440484059221e-02,-9.436751474466642531e-02,7.569752319081382574e-02,-8.418259208600797905e-02,-1.166977442772852563e-01,1.756975231908138313e-01,-1.369958284457286624e-01,5.358928457035335713e-01,5.600986480712890625e-01
1.423920000000000075e+00,-5.288727212680423284e-02,7.766057787923046074e-02,9.356793165206909180e-01,1.267636976349628859e-02,-8.081114996450367016e-03,1.881625143937193378e-02,-2.961252972275936826e-02,7.478958566671703445e-02,-6.862786412239074707e-02,-9.688279920059006400e-02,1.247265452697928802e-02,1.777985024096587208e-02,9.389106302134446469e-02,-2.139295844968307214e-02,6.912177874026009805e-03,6.303996662560078235e-02,7.860704155031693341e-02,-4.648598681150192813e-02,5.360559484979056100e-01,5.135061740875244141e-01
1.447834999999999983e+00,-5.377907329574062312e-02,7.905532943884113761e-02,9.348077178001403809e-01,1.149507179705117413e-02,-8.639531296725788678e-03,1.854769423198288081e-02,-4.203012350610312725e-02,7.750988756177565331e-02,-5.386776849627494812e-02,-1.614071003743470373e-02,-4.656109118378334855e-02,-2.847747731049905112e-02,8.176021324908806787e-02,6.478929867773708384e-03,1.542960452439304936e-02,4.008830791359989376e-02,1.064789298677737139e-01,-3.730221332226687364e-02,5.252724777124641031e-01,-2.908694744110107422e-02
1.474634000000000000e+00,-5.512169467002224488e-02,8.105217574126294400e-02,9.334897398948669434e-01,8.591516742747244348e-03,-9.971075727131850641e-03,1.886037310368315900e-02,-3.116941173259521816e-02,7.381146784722100729e-02,-5.700860917568206787e-02,-7.519203914359222363e-02,-8.384043081262157471e-02,-4.314037783295088940e-02,1.343715189839982949e-01,-4.485940241893381086e-02,8.430094195709926519e-03,7.564567643958659826e-02,5.514059758106619469e-02,-4.508881388900234238e-02,5.271944613780666922e-01,5.211997032165527344e-02
1.497141000000000055e+00,-5.601443613936203658e-02,8.234602670962512527e-02,9.326873421669006348e-01,7.175818018094816050e-03,-1.058666270034192003e-02,1.898398972283676933e-02,-4.082093041868837396e-02,7.227535582152097571e-02,-6.750214099884033203e-02,-6.849444476407909321e-02,2.049885222987197705e-03,1.378197133043688669e-02,1.622326544422551253e-01,-6.838014571538875153e-02,2.331780595255460858e-02,9.385071621181381718e-02,3.161985428461125402e-02,-3.058313613777347700e-02,5.367907004020904260e-01,5.274126529693603516e-01
1.524056000000000077e+00,-5.731082307402004389e-02,8.426980707502720880e-02,9.315803050994873047e-01,7.709510993047452576e-03,-1.187786103352017619e-02,1.876901333199865185e-02,-2.590194260373989560e-02,7.054180051826364206e-02,-5.837738513946533203e-02,8.036889583813890126e-02,-3.470791712752432923e-02,2.175581018881506817e-02,-8.773637902417687207e-02,-1.283909015543844290e-01,1.155472611429085861e-01,-1.531556321886273497e-01,-2.839090155438440954e-02,6.224713672148556726e-02,5.253137674940784319e-01,-7.631814479827880859e-02
1.548626999999999976e+00,-5.822352450160746956e-02,8.581392892340025669e-02,9.308187961578369141e-01,9.198514005262883528e-03,-1.213173730228578329e-02,1.851482803025095158e-02,-3.814818846783117612e-02,6.810890520171772322e-02,-4.942385107278823853e-02,1.179296128797110016e-01,-1.954452993008802889e-02,-4.665370091485031290e-02,-1.143119795167414771e-01,-5.454599938819528621e-02,1.135543066729520073e-01,-1.702057599006892574e-01,4.545400061180471935e-02,6.084016665814954983e-02,5.242923323804674629e-01,-1.057458519935607910e-01
1.571333000000000091e+00,-5.919115302610853530e-02,8.761675992614721686e-02,9.300420284271240234e-01,1.114197008514317654e-02,-1.159228600008965770e-02,1.836446619065323915e-02,-3.066724006172829448e-02,6.624107843129613260e-02,-6.330616772174835205e-02,1.156123816784267455e-01,3.590937910861211058e-02,6.759581640672986634e-03,-1.510780206457733588e-01,2.452011263457559709e-02,3.651721885618599422e-02,-1.943562378583208461e-01,1.245201126345756026e-01,-1.577482452783122296e-02,5.276849550865109206e-01,1.453590393066406250e-02
1.599032999999999927e+00,-6.049341583715448639e-02,9.033530711429928195e-02,9.287868142127990723e-01,1.368978340262243416e-02,-9.100147664385938029e-03,1.682123014669789640e-02,-2.700308260590513626e-02,7.291043975149756606e-02,-5.530709400773048401e-02,9.281640332441051799e-02,1.198256205454456685e-01,-6.278926730922894384e-02,-1.041795847232740158e-01,9.110678704977687170e-02,-3.906377527277701822e-02,-1.386142147032094485e-01,1.911067870497768773e-01,-8.702946086175525342e-02,5.328201195045459970e-01,3.157387971878051758e-01
1.623507999999999951e+00,-6.170525824996428432e-02,9.316360562320749605e-02,9.273270964622497559e-01,1.326063542034300151e-02,-5.998009866675868551e-03,1.523910135013406553e-02,-3.404264405243713487e-02,7.683285368898475076e-02,-6.824955344200134277e-02,-2.740586522228181596e-02,7.238053062627489154e-02,-9.204820128486544684e-02,3.404598382925150962e-02,6.240910508115374289e-02,-2.761110064238211925e-02,-7.184868261420297372e-03,1.624091050811537484e-01,-7.105729417482078980e-02,5.321424019611861178e-01,2.141296863555908203e-01
1.647779000000000105e+00,-6.253711057488174629e-02,9.509792737967820431e-02,9.262695908546447754e-01,1.152306036804961499e-02,-4.549264456791934919e-03,1.520113829826130747e-02,-3.670565647903942241e-02,7.586994004250736945e-02,-7.163646817207336426e-02,-5.852697960183385339e-02,7.125289107375876174e-02,2.820125873204503558e-02,5.390887290120435077e-02,3.506464972737796670e-02,-6.660314503370359795e-02,1.058801909538350725e-03,1.350646497273779723e-01,-1.098520352541984824e-01,5.362281585425225927e-01,4.143109321594238281e-01
1.674706000000000028e+00,-6.373860278611112595e-02,9.706980011873429792e-02,9.246464371681213379e-01,9.044215868533257013e-03,-4.297650937060915055e-03,1.520018656600385931e-02,-2.741197084943422860e-02,9.009909900048020115e-02,-7.762808352708816528e-02,-3.927615716758332820e-02,-4.239590091114972883e-03,-2.034691989165240966e-03,1.769800431157482756e-01,-1.478966112138634104e-02,-6.931937216751615782e-03,9.550690260595455505e-02,7.840538346204591058e-02,-5.011206743226970239e-02,5.407214598768462777e-01,6.251288652420043945e-01
1.697616999999999932e+00,-6.455021070090465052e-02,9.834601902959015651e-02,9.236025214195251465e-01,7.947195051327666723e-03,-5.456567702571968326e-03,1.543117458930698405e-02,-3.476034927033394561e-02,7.475901371022959652e-02,-6.641890853643417358e-02,-4.652842161856856479e-02,-9.766243939631252813e-02,9.381722500274972815e-03,1.046948524431960126e-01,-6.612666678745901527e-02,3.015965593935727995e-02,2.817672792386906669e-02,3.387333321254098334e-02,-1.369875089014775497e-02,5.274004387831849883e-01,-7.510346174240112305e-02
1.724836000000000036e+00,-6.575389254784810844e-02,1.002835207060593370e-01,9.220420122146606445e-01,7.751690818599593809e-03,-7.280873484247107896e-03,1.614417794355049729e-02,-3.353518218252213301e-02,7.514621627373821444e-02,-6.484915316104888916e-02,-2.378597018677766628e-02,-4.025359796050705097e-02,-1.076489019284154270e-03,1.191794038156903796e-01,-6.631735749964542959e-02,3.219720701204999147e-02,3.725937659329660312e-02,3.368264250035456903e-02,-1.373368865990514179e-02,5.276431210867272847e-01,-6.917494535446166992e-02
1.749244999999999939e+00,-6.642272642643132219e-02,1.015171299704059754e-01,9.210570454597473145e-01,9.404327905685171476e-03,-8.347929840279766367e-03,1.639373854779591078e-02,-2.125029344944681653e-02,8.209631510320154757e-02,-6.589730083942413330e-02,9.947020691399791059e-02,-6.369396320714670358e-03,2.481785220463092467e-02,-1.129491660612694515e-01,-9.426566030196172064e-02,1.185280589238933563e-01,-1.905285205570489415e-01,5.734339698038278844e-03,7.184090714704700897e-02,5.271613073633727442e-01,-1.108542680740356445e-01
1.771794000000000091e+00,-6.722236037431601752e-02,1.027502527456779502e-01,9.200890660285949707e-01,1.163375917679579374e-02,-8.819194159313425985e-03,1.596588340402349537e-02,-2.457472739368235862e-02,6.919543583236414941e-02,-6.778999418020248413e-02,1.004173381426332751e-01,-6.260674657076140126e-02,-4.501800389898870380e-02,-1.112361513084427628e-01,-7.696244329917723004e-02,1.030497778039069084e-01,-1.646906834769655825e-01,2.303755670082278245e-02,5.748722917940969623e-02,5.293840831082854415e-01,-7.731795310974121094e-03
1.799493000000000009e+00,-6.826456378634125632e-02,1.046300096448300881e-01,9.184234142303466797e-01,1.531418933994327554e-02,-7.835636186811933968e-03,1.559555596843487102e-02,-2.133301351472001797e-02,7.071137377528194379e-02,-7.933173328638076782e-02,5.664939090270613292e-02,6.929050871498447506e-02,5.821125322187539579e-03,-1.619568421606414343e-01,9.479152141859140124e-02,-5.314144612632158704e-02,-1.957157011894927190e-01,1.947915214185914068e-01,-9.771838819487864425e-02,5.347601536699120306e-01,2.271149158477783203e-01
1.823517000000000055e+00,-6.901443677385794839e-02,1.066653714895223898e-01,9.164185523986816406e-01,1.670489165725932978e-02,-4.523070722806998845e-03,1.429791556646908823e-02,-3.001624538111728616e-04,8.359731106937050293e-02,-8.573338389396667480e-02,2.185492993398037431e-02,1.797981373451831288e-01,-4.265520015427375078e-02,-7.357788323506006534e-02,1.160197063528967537e-01,-1.019042723927027772e-01,-1.092900245360647060e-01,1.965997901716155238e-01,-1.426210497143166611e-01,5.380963871709961710e-01,3.695497512817382812e-01
1.847644000000000064e+00,-6.931969600110153562e-02,1.080971330563195026e-01,9.149723649024963379e-01,1.515330901010591633e-02,-1.081712989258853952e-03,1.342709370680128522e-02,-5.390230659392766278e-03,8.312576813084429639e-02,-8.808682113885879517e-02,-1.254175386493210365e-01,1.759801651262233035e-01,-1.187304697500452325e-02,4.319727393127430204e-02,1.113125809317494080e-01,-1.008095091940160448e-01,-1.867586122105103445e-03,1.768403423994775459e-01,-1.389372174684428973e-01,5.371232788357145349e-01,2.918757200241088867e-01
1.874109000000000025e+00,-6.988035859599890653e-02,1.103605529800808088e-01,9.129220247268676758e-01,1.179503129787598872e-02,4.267184444986638070e-03,1.342442034518276373e-02,1.406489513127449084e-03,7.961596805911594354e-02,-8.437136560678482056e-02,-1.679613431389033462e-01,1.872359279700105406e-01,3.835707239477996466e-02,6.754179955292756443e-02,1.642740026946771237e-01,-1.176154910055791092e-01,1.247297952430087564e-03,1.897868216389912710e-01,-1.553953804477761769e-01,5.400534092309633438e-01,4.525159597396850586e-01
1.897980999999999918e+00,-7.017277658868635581e-02,1.118894613128894461e-01,9.117200970649719238e-01,1.000745642415341516e-02,6.336030296873351730e-03,1.395640534431907831e-02,1.746764365199008490e-02,8.649463334795831626e-02,-8.293356746435165405e-02,-6.555781386528219956e-02,7.365520608678341463e-02,5.680980284852555490e-02,8.408670347702039416e-02,1.974152841962374672e-01,-1.240033583979263387e-01,-1.002408400390500474e-03,1.984255765369668800e-01,-1.630953114001675031e-01,5.388688925521859518e-01,3.788992166519165039e-01
1.925183000000000089e+00,-7.038250308643323461e-02,1.141680713813389009e-01,9.103080630302429199e-01,9.121693293436365646e-03,7.416052208047307914e-03,1.521767985312783011e-02,1.790861284514552385e-02,8.337078849512392920e-02,-6.403184682130813599e-02,4.721402436959854648e-02,-1.321493332793002504e-02,6.532395002394809913e-02,2.179243843937193892e-02,2.086010095374389028e-01,1.363345796110043695e-02,-6.832672437923530129e-02,2.047958915672728475e-01,-2.895675673583147924e-02,5.273119717753382840e-01,-1.953281164169311523e-01
1.954485000000000028e+00,-7.039394335852552920e-02,1.157182997810777964e-01,9.096852540969848633e-01,9.401246962368910512e-03,7.188120296733213621e-03,1.586246496506049652e-02,3.458507317028951256e-02,7.849499416835149790e-02,-4.450519755482673645e-02,1.467980894536582634e-02,-8.761729267506265795e-02,-1.875453511570079459e-05,1.505854498110738571e-01,2.085328172395936597e-01,-1.746032995072552968e-02,6.358365562429998952e-02,1.937186111372322661e-01,-6.178028929235050010e-02,5.268387432023454719e-01,-1.528828144073486328e-01
1.977497999999999978e+00,-7.025932114433777742e-02,1.176492599691998098e-01,9.091919660568237305e-01,9.995554414418501496e-03,7.294722724820124071e-03,1.681941715737145238e-02,2.133179740023048720e-02,7.893659156905534491e-02,-4.786211624741554260e-02,1.084753443920215971e-02,3.434758386984057554e-02,4.266599853704999834e-02,-1.444530620154096945e-02,2.202450524309778335e-01,-1.564880889263419173e-01,-1.004378909265741526e-01,2.170656390106631695e-01,-2.035678438331743889e-01,5.244002813555393994e-01,-3.080790042877197266e-01
1.999638999999999944e+00,-7.001470624704504708e-02,1.199543257210937547e-01,9.087480902671813965e-01,1.059538747884213213e-02,5.588890999237872137e-03,1.731729936311587892e-02,3.984776964590143467e-02,9.647768155466313056e-02,-4.904139041900634766e-02,3.639161848371215424e-02,-8.241659927755513870e-02,3.545054160962231304e-02,9.382112149108674803e-02,1.804324060516525052e-01,7.269928441422632281e-02,-3.364814676855824686e-03,1.719687050177217125e-01,2.426574321930288769e-02,5.282362912193369064e-01,-1.134085059165954590e-01
2.023470999999999798e+00,-6.964527447417567796e-02,1.223446602072497252e-01,9.084503054618835449e-01,1.113736162648638200e-02,2.709857622472666705e-03,1.733271612039910536e-02,3.374083743968609578e-02,9.715344215515667181e-02,-4.731225594878196716e-02,-2.254424133505166655e-03,-1.854947538060224832e-01,-3.182708977014828133e-02,1.851719036836743104e-01,1.749183791551579548e-01,-4.591785653890168017e-02,9.126239027904543832e-02,1.922860692456924425e-01,-9.459778816584640815e-02,5.275220041366136536e-01,-1.538084149360656738e-01
2.052160000000000206e+00,-6.887085795050608417e-02,1.259532457522764548e-01,9.078930616378784180e-01,1.215151314000247409e-02,-2.853574946644510391e-03,1.867285120752959493e-02,4.684904680503538393e-02,9.933302802129054254e-02,-5.016088113188743591e-02,-1.463130429303398025e-02,-1.684940853532762850e-01,4.885407974604062675e-02,1.503317781721039414e-01,1.087242209456662501e-01,5.519145265967254077e-02,5.899493990705407392e-02,1.506700219738354163e-01,2.547831047265663573e-03,5.302016212794948835e-01,-2.806973457336425781e-02
2.074403999999999915e+00,-6.815157294535001409e-02,1.284086619965122966e-01,9.074985980987548828e-01,1.228444724618040808e-02,-5.956194863407482387e-03,1.897271068920658443e-02,5.399594964618947140e-02,1.090761392050054873e-01,-5.513960495591163635e-02,-2.467909113334952956e-02,-1.540640459911340465e-01,3.208265729312951686e-03,1.823303964880254036e-01,7.624034198957158059e-02,3.293813707916165567e-02,8.288283838568273609e-02,1.341123410995575249e-01,-2.069719266519243553e-02,5.305584877821688528e-01,-3.779590129852294922e-02
2.100067000000000128e+00,-6.634131701651665991e-02,1.309523201255008151e-01,9.070182442665100098e-01,1.220815974542487428e-02,-1.030410341487275616e-02,1.980890051487538273e-02,6.953255221811276143e-02,1.075988236157393030e-01,-4.167075455188751221e-02,2.859199953803797864e-02,-1.533881855609187383e-01,3.014805268998401941e-02,1.324180364244947894e-01,-2.126943708835515173e-02,8.981893823297124047e-02,3.251401450067716026e-02,5.280973392424766905e-02,3.370357130875138024e-02,5.311278667427034028e-01,3.807175159454345703e-02
2.125662999999999858e+00,-6.422370639978493279e-02,1.335144614665691176e-01,9.067171812057495117e-01,1.316051049461631865e-02,-1.404517131035598609e-02,2.006028559263883793e-02,7.642335142280129445e-02,1.094581701505175642e-01,-3.116050176322460175e-02,4.362277169851103836e-02,-6.689270920193585157e-02,-4.197649805488756075e-02,9.898770951277466312e-02,-6.286653701287260587e-02,1.047610578455299979e-01,1.144291964598695595e-03,3.099192535953219571e-02,4.773900130817002735e-02,5.315547009981830273e-01,9.527683258056640625e-02
2.148127999999999815e+00,-6.252617714980285291e-02,1.352232204508908853e-01,9.065287113189697266e-01,1.297746143000849325e-02,-1.531290931104622999e-02,2.028157371220506988e-02,8.746430178941855260e-02,1.123814171650774213e-01,-3.804808855056762695e-02,-7.369202060945373445e-02,-2.716790666956324721e-02,4.353544448089129160e-02,2.930107805239088314e-01,-3.831679672408724868e-02,-1.614983028383969177e-02,1.930107805239087981e-01,5.510649381316667927e-02,-7.379484622037872643e-02,5.281603501044976889e-01,-1.253542900085449219e-01
2.173338000000000214e+00,-5.972385757191259192e-02,1.382912975653114718e-01,9.064478278160095215e-01,1.510318080886855450e-02,-1.514147001710974827e-02,2.041598351879891915e-02,9.286200687277908206e-02,1.119656075070638163e-01,-4.031435027718544006e-02,8.342095824814560467e-02,1.622301430398381122e-02,3.290618250352751045e-02,-7.776899051345970149e-02,8.282040086474450058e-02,1.070698649942636443e-01,-1.680040675587181065e-01,1.706530263467323782e-01,4.905230399003941699e-02,5.278118641952307399e-01,-1.605069041252136230e-01
2.197496000000000116e+00,-5.633321089246712959e-02,1.418513218930906594e-01,9.061507582664489746e-01,1.598987690664518263e-02,-1.282685051954102207e-02,2.118205422676400218e-02,1.011339267981603562e-01,1.267805859929616863e-01,-4.448154941201210022e-02,-6.447494733806164065e-03,1.144529489928535620e-01,6.382921481813852438e-02,8.246175561242216623e-02,1.488039661626541499e-01,-1.257298710398056518e-01,-1.603154939724621766e-02,2.134889490225110042e-01,-1.857185762898918013e-01,5.265617185256311616e-01,-2.544941902160644531e-01
2.225724000000000036e+00,-5.255635651290924137e-02,1.456723786602798776e-01,9.060357213020324707e-01,1.610272658129217535e-02,-8.423122589924503245e-03,2.251412583894363273e-02,1.245039988756819760e-01,1.359464655303064262e-01,-3.320698812603950500e-02,4.581179561616798013e-02,1.447213968425380415e-01,2.747881818026496475e-02,2.700609786705499005e-03,2.013794015891474387e-01,-1.301982930424486762e-01,-9.729939021329450655e-02,2.178367786595307998e-01,-1.934344779646889334e-01,5.246517484567906342e-01,-3.216455578804016113e-01
2.249709999999999877e+00,-4.990042191202025829e-02,1.483202318615991222e-01,9.059873223304748535e-01,1.514335432222888717e-02,-5.739585246356648796e-03,2.386923989484190933e-02,1.344812640473865284e-01,1.237434002991930071e-01,-3.301637247204780579e-02,-5.899991698587499916e-02,1.123313647207978272e-01,8.343881069899923564e-02,1.227506804554090170e-01,2.275218556130184366e-01,-1.374507210580535321e-01,2.275068045540900447e-02,2.202498217080475773e-01,-2.042354407333706046e-01,5.249996079248573366e-01,-3.078910112380981445e-01
2.272588999999999970e+00,-4.710380260758564863e-02,1.512912064370568466e-01,9.060633182525634766e-01,1.505794859404355375e-02,-4.134982527613795256e-03,2.676516360609682010e-02,1.249207353317781377e-01,1.397882294145404714e-01,-2.372798137366771698e-02,1.754423038585295122e-02,2.072045097192067031e-02,1.995062232644786993e-01,1.814005826200700833e-01,2.385066075647765127e-01,1.073419282168368849e-01,8.140058262007009160e-02,2.266268354304381560e-01,3.249380008396460934e-02,5.248802249227331185e-01,-2.847421169281005859e-01
2.299561999999999884e+00,-4.259931571814638135e-02,1.561732216921593308e-01,9.063479304313659668e-01,1.655238279556128095e-02,-3.741290160224730599e-03,3.184868891862024931e-02,1.271970227852113611e-01,1.383909268710604989e-01,-1.308404281735420227e-02,8.012992868868550056e-02,-1.222275757665128304e-02,2.076391915265830834e-01,3.828390023361466499e-03,2.438441416684170859e-01,1.221263605025820487e-01,-9.617160997663853905e-02,2.221994364059150517e-01,3.314822729322510625e-02,5.238832618107733818e-01,-3.012244105339050293e-01
2.322576000000000196e+00,-3.940216763651557819e-02,1.594189390899047321e-01,9.066910147666931152e-01,1.757928170039049082e-02,-4.175956401486491387e-03,3.567572391654239006e-02,1.586793478728625306e-01,1.455252758587518291e-01,-2.752894163131713867e-02,5.674388043003741888e-02,-2.451749594706983341e-03,1.632770831518393917e-01,-1.547394147722583324e-02,2.690952317941929794e-01,1.766802988871009616e-01,-1.154739414772258388e-01,2.233566576545812921e-01,7.726491567863674748e-02,5.245151320462222433e-01,-3.300883769989013672e-01
2.347538999999999820e+00,-3.454498204969758124e-02,1.642273155575846022e-01,9.073544740676879883e-01,2.266894638932458877e-02,-8.058716206182925390e-03,4.004231249645240354e-02,1.602616829888783567e-01,1.290848021625732867e-01,-1.042404677718877792e-03,2.590419117329890164e-01,-2.239789035682328844e-01,1.304624647395617176e-01,-1.339585716127444093e-01,2.313108752565998516e-01,2.006528704937403651e-01,-2.049208762435706654e-01,2.093867965382185947e-01,1.006528704937403457e-01,5.254750871349564978e-01,-1.744637489318847656e-01
2.373391999999999946e+00,-3.109754433323361211e-02,1.672546130838610534e-01,9.079012870788574219e-01,2.668270085436690031e-02,-1.109599442711450834e-02,4.275435864040533218e-02,1.568772194158567224e-01,1.308632571964201963e-01,-1.766156218945980072e-02,2.231366964255391827e-01,-1.348104258903672081e-01,1.471450873382746660e-01,-1.681532598469603068e-01,2.108132995066755999e-01,2.010955733134502377e-01,-2.183195175568391488e-01,2.082023089814182271e-01,1.010955733134502460e-01,5.249359577485025463e-01,-2.733319997787475586e-01
2.397934999999999928e+00,-2.496675574904632863e-02,1.728037417348180227e-01,9.086458086967468262e-01,3.193952652333349740e-02,-1.616667382787029261e-02,4.599063785842205654e-02,1.884904170970301551e-01,1.356845143109613461e-01,-6.922376342117786407e-03,1.849152749854781341e-01,-1.488751108275972457e-01,9.929351095151382756e-02,-2.017337180119046225e-01,1.971467249236893149e-01,2.612233587117237521e-01,-2.243896132194526105e-01,1.970952488432029803e-01,1.612233587117237188e-01,5.275973777157166866e-01,-8.980208635330200195e-02
2.426295000000000091e+00,-1.852680958666481914e-02,1.782492257415439763e-01,9.094148874282836914e-01,3.543388363147317865e-02,-2.077423493241292718e-02,4.897998578940754300e-02,1.941946929768830765e-01,1.229863479776118484e-01,-2.171066589653491974e-02,8.023538308846589473e-02,-1.757185751183101274e-01,1.159705368991434810e-01,-2.174798736769625318e-01,1.503360952719321186e-01,2.398415495009348919e-01,-2.097585339075851985e-01,1.754936628002506660e-01,1.398415495009348863e-01,5.272383400275385545e-01,-1.698930263519287109e-01
2.449807999999999986e+00,-1.399114485658473420e-02,1.817441389561304521e-01,9.098198413848876953e-01,3.686703211912381595e-02,-2.284667312512755899e-02,5.066493218480405680e-02,1.951274533797847932e-01,1.229103522356807393e-01,-2.565790340304374695e-02,7.215935873728750172e-02,-7.880079225474374838e-02,5.735467739398238118e-02,-2.410889787947850804e-01,1.355820078871121936e-01,2.597877914166533131e-01,-2.281544005024808142e-01,1.704069721387641567e-01,1.597877914166533075e-01,5.275475417848701776e-01,-1.734298467636108398e-01
2.472935999999999801e+00,-9.508294905654780804e-03,1.851464526829282586e-01,9.100129604339599609e-01,3.589670629354459186e-02,-2.446583393519308203e-02,5.212869568293854172e-02,1.991812105085362938e-01,1.359793576432613005e-01,-3.607578948140144348e-02,-5.074223815153699330e-02,-3.901100637710017832e-02,1.041959283227753275e-01,-1.464409886899001312e-01,1.611628834493432638e-01,1.524230585836229002e-01,-1.517253086894387870e-01,1.997203256119654824e-01,5.242305858362290155e-02,5.278274825282524008e-01,-2.064777612686157227e-01
2.497182000000000013e+00,-2.326940360288778844e-03,1.895177854306172860e-01,9.100767970085144043e-01,3.284406426623440178e-02,-2.671911175061070232e-02,5.457690389196101499e-02,2.048125007307498302e-01,1.144268167877295767e-01,-4.300774633884429932e-02,-1.427938864658087614e-01,-1.165497753689311994e-01,7.138939055209654605e-02,-4.174808532769609670e-02,1.393787521079275227e-01,1.227531095996708538e-01,-5.101864546550140961e-02,1.844156744328996345e-01,2.275310959967084823e-02,5.296554939103881310e-01,-1.392161846160888672e-01
2.524652000000000118e+00,4.735623164016150057e-03,1.937442504337426319e-01,9.098103642463684082e-01,2.852549787377630860e-02,-3.165403489730289621e-02,5.803850569972035522e-02,2.118579064723065120e-01,1.198577916603110471e-01,-4.954101145267486572e-02,-1.500876446983648027e-01,-1.733205693016249271e-01,1.759484949624700312e-01,2.901701854299924485e-02,1.117032345709498137e-01,1.205732471847928977e-01,-1.723824614632810462e-02,1.786602424941771405e-01,2.057324718479288869e-02,5.306120562660736617e-01,-1.222689151763916016e-01
2.549618000000000162e+00,9.633387514523184675e-03,1.963781022106420304e-01,9.096593260765075684e-01,2.637508965843816597e-02,-3.563732955419229853e-02,6.053697547981840010e-02,2.115526538173771731e-01,1.037903861229937524e-01,-4.358232021331787109e-02,-9.270795412559605653e-02,-2.168321914654877114e-01,1.121593365028141220e-01,1.884366573020639091e-02,6.077033922712513081e-02,1.305695586600431057e-01,-3.039047211703228835e-02,1.511635796470914561e-01,3.056955866004309672e-02,5.314917808407197963e-01,-5.685001611709594727e-02
2.572833000000000148e+00,1.434111628917713460e-02,1.989762447153001490e-01,9.093775153160095215e-01,2.510755786450475160e-02,-4.055115682119403431e-02,6.344537551129048047e-02,2.147801643881433187e-01,1.077334461679437527e-01,-4.711449146270751953e-02,5.158467183679157214e-02,-2.611464349932654527e-01,1.334607960616844002e-01,-9.770225564246048933e-02,-6.623026982614915736e-02,2.063099199294219366e-01,-1.614720299688894578e-01,3.376973017385084819e-02,1.063099199294219310e-01,5.338893632042709392e-01,5.185115337371826172e-02
2.597383000000000219e+00,2.194850880532723397e-02,2.031999109167174078e-01,9.090725183486938477e-01,2.488988990829053838e-02,-4.722913543562068384e-02,6.746946402183406910e-02,2.138678971235463411e-01,9.407545380790362233e-02,-4.969079419970512390e-02,-1.140953872596086119e-02,-1.870744057344917999e-01,1.267402683724725421e-01,-2.509298245298331731e-02,-1.340831609751789166e-01,2.078830017310437928e-01,-8.112508509373514420e-02,-3.408316097517891802e-02,1.078830017310437733e-01,5.354397826440976393e-01,1.194468736648559570e-01
2.623606999999999800e+00,2.697685595166639250e-02,2.059209672073978870e-01,9.086946249008178711e-01,2.426546860244366277e-02,-4.966242687744326645e-02,6.992994783131112335e-02,2.332701775535957478e-01,9.383990878658096668e-02,-3.662210702896118164e-02,1.987262651399053850e-02,-1.628577023022262094e-01,1.035888745254122945e-01,-7.511515248651540189e-02,-1.323875374067358113e-01,2.370557354020529639e-01,-1.383026971338576494e-01,-3.238753740673581960e-02,1.370557354020529583e-01,5.351278322313903768e-01,1.442562341690063477e-01
2.649287000000000170e+00,3.481075694705022816e-02,2.099518267698039231e-01,9.081203341484069824e-01,2.219641428251932849e-02,-5.181856519897665159e-02,7.262254944479007435e-02,2.265753146138382301e-01,1.022578045105605737e-01,-4.736860468983650208e-02,-8.073558773248892817e-02,-5.865839712344817630e-02,8.610067323676619255e-02,2.657800836635945130e-01,-1.360755938508528273e-01,1.348395186790255773e-01,1.806013446248897480e-01,-3.607559385085282178e-02,3.483951867902557870e-02,5.366671674792452551e-01,1.767511367797851562e-01
2.672747000000000206e+00,4.012343507041456203e-02,2.126528191885634356e-01,9.078716635704040527e-01,2.012111186575282068e-02,-5.214630289806843066e-02,7.415908279525718072e-02,2.366877516616024413e-01,9.956488522127611429e-02,-4.219675436615943909e-02,-1.161894797426210324e-01,-5.605258149639879813e-04,5.808200591343037900e-02,2.733914680391530405e-01,-1.399812753391314057e-01,9.915148211657191790e-02,1.762388627988252798e-01,-3.998127533913139325e-02,-8.485178834280912271e-04,5.350288567751917412e-01,9.815180301666259766e-02
2.697945999999999955e+00,4.769056907594355910e-02,2.179765938655578994e-01,9.074903130531311035e-01,1.728172809346540523e-02,-5.086363240062619084e-02,7.716111077310650046e-02,2.383120660846834438e-01,1.069927195575602619e-01,-5.074737221002578735e-02,-9.042551587610668518e-02,9.997038384556256041e-02,1.700052012328695239e-01,1.099835950170699461e-01,8.638364246221191811e-02,1.078385981928013382e-01,9.983595017069940569e-03,1.863836424622119237e-01,7.838598192801337836e-03,5.320415194360736955e-01,-1.101875305175781250e-01
2.724860000000000060e+00,5.551345320285668711e-02,2.231160427714143357e-01,9.073703885078430176e-01,1.941575482903186434e-02,-4.679529035353380273e-02,8.103360777550316918e-02,2.453882149312790750e-01,9.613774349005380082e-02,-2.019495330750942230e-02,1.805040187826967013e-01,1.903044715226550609e-01,1.225238516408983375e-01,-1.218337067028098519e-01,9.786664011097248594e-02,1.139324422955885485e-02,-2.218337067028098575e-01,1.978666401109724915e-01,-8.860675577044115070e-02,5.276755537387247674e-01,-2.350237369537353516e-01
2.749282000000000004e+00,6.067720677153556202e-02,2.263682601578259623e-01,9.073952436447143555e-01,2.202484248173399578e-02,-4.201001648467661553e-02,8.408773916864076270e-02,2.393337462263106508e-01,9.387558007665521009e-02,-2.530060335993766785e-02,1.372085934217809056e-01,2.443407335050964413e-01,1.965889904253169951e-01,-1.303138440827232847e-01,1.270543314335340901e-01,-2.006667534153593058e-02,-2.215490421110642705e-01,1.990261789122261538e-01,-1.200666753415359361e-01,5.263467219525003182e-01,-3.335827589035034180e-01
2.772858999999999963e+00,6.604625171198136302e-02,2.293980855947581332e-01,9.075596332550048828e-01,2.613026295177714106e-02,-3.835933610880304379e-02,8.751305762194205862e-02,2.501646260035595981e-01,8.684563741415400606e-02,-2.383656054735183716e-02,1.633114847591704832e-01,1.954126515443668499e-01,1.765633302827100404e-01,-1.722815597648937325e-01,1.628070980752003016e-01,-4.017461699796098795e-02,-2.334524699507800893e-01,1.966785574564925976e-01,-1.401746169979609935e-01,5.258127960621478136e-01,-3.629026412963867188e-01
