timestamp,x,y,z,roll,pitch,yaw,vx,vy,vz,p,q,r,psp,qsp,rsp,pres,qres,rres,thrust_sp, thrust_res
0.000000000000000000e+00,5.748813704863985075e-03,-1.586079557892538724e-02,9.897487163543701172e-01,2.713590186870100222e-03,-6.084579448779159350e-03,-8.112370125409712820e-03,1.032860666044024432e-03,-2.319449591165513233e-02,-2.518266206607222557e-03,6.820465334917821180e-05,5.054325538890027530e-02,-2.046173391509525843e-03,-2.479663247093457923e-01,1.658078772731520212e-01,-1.403604017595901365e-01,-2.017128467559814453e-01,2.007588565349578691e-01,-1.176330327987670787e-01,4.997204070954811561e-01,-6.971837282180786133e-01,-3.247605562210083008e-01,-7.726041050419854450e+00,0.000000000000000000e+00
2.354099999999999943e-02,5.698418186343000291e-03,-1.659709818618840607e-02,9.896931052207946777e-01,2.889187492757699319e-03,-6.059038255394666450e-03,-8.127479617182955737e-03,-1.575718575780597416e-02,-2.971275503979469920e-02,8.675714023411273956e-03,2.532103817721314404e-02,2.967130074789882735e-03,3.285087643556851376e-03,-2.404736139136940398e-01,1.494281891419437791e-01,-1.082043079041258987e-01,-1.904504477977752575e-01,1.979526400566100908e-01,-8.542732000350951316e-02,4.985734517265271171e-01,-7.132637500762939453e-01,-3.432005643844604492e-01,1.029456698497535285e+02,0.000000000000000000e+00
4.753999999999999893e-02,5.559583483699013888e-03,-1.805689406329639979e-02,9.895773530006408691e-01,2.888360706302274452e-03,-5.472616513127803728e-03,-8.354940463327208133e-03,-1.391122258579382751e-02,-2.832083934285936633e-02,-8.510794490575790405e-03,-4.747548260375952095e-02,5.752360693656759227e-02,-2.156833690521860105e-03,-2.521925372932631304e-01,1.546384434405743136e-01,-1.134076371588034482e-01,-2.033129990100860651e-01,1.954886019229888916e-01,-8.999844789505004328e-02,5.001074592553749198e-01,-7.023246288299560547e-01,4.954993724822998047e-02,6.835410166614309446e+01,0.000000000000000000e+00
7.103199999999999792e-02,5.674163213394543652e-03,-1.944178686706782636e-02,9.894667863845825195e-01,3.005987205613014791e-03,-5.597377320756935504e-03,-8.130456131782230408e-03,1.919904398503505423e-04,-2.002489667427216277e-02,1.112906914204359055e-02,2.806475023514803935e-02,-2.319221348642972608e-02,2.249495237316063989e-02,-2.392440834098619740e-01,1.728825215470762289e-01,-1.410100427214898700e-01,-1.950198054313659612e-01,2.034059822559356745e-01,-1.182395696640014537e-01,4.984563883949024721e-01,-7.114096283912658691e-01,3.544443845748901367e-01,-8.770714898123991077e+01,0.000000000000000000e+00
9.860900000000000221e-02,5.836716134421386822e-03,-2.140575912695991123e-02,9.891980886459350586e-01,2.184971985314343099e-03,-5.576291446409920027e-03,-8.033324692844550502e-03,-2.003208641501930121e-02,-2.299745260362884985e-02,2.738272072747349739e-03,-4.603819916548829161e-02,-2.614000556155984117e-02,-2.565993559447441244e-02,-2.350389171570810010e-01,1.466197846308639474e-01,-9.211187824377703448e-02,-1.910808920860290472e-01,1.952931761741638073e-01,-6.959348917007446289e-02,4.990845178773828383e-01,-7.132884860038757324e-01,-4.964653253555297852e-01,7.285570859336924343e+01,0.000000000000000000e+00
1.211600000000000038e-01,5.922262688048978221e-03,-2.266026641059093460e-02,9.888619184494018555e-01,6.295613299793703784e-04,-5.781384595813454652e-03,-7.134315438773039184e-03,-1.438446851548753555e-02,-1.875038765409137512e-02,-1.820068061351776123e-02,-1.518676717132695642e-01,5.230016255444015078e-02,8.990324228590435007e-02,-2.307612879517750848e-01,1.483097571911293211e-01,-8.734834606891835052e-02,-2.000135958194732555e-01,1.907667875289917048e-01,-6.734046936035155417e-02,5.013434128205334073e-01,-6.804657578468322754e-01,2.019797563552856445e-01,7.425645061854463336e+01,0.000000000000000000e+00
1.436360000000000137e-01,5.948801424625652437e-03,-2.378053163693095995e-02,9.883347749710083008e-01,-1.485930498743136090e-03,-7.227275636970009742e-03,-6.327144628056258734e-03,-8.724048293460894346e-03,-1.257092249316434963e-02,-2.527787722647190094e-02,-8.025062925175728556e-02,-1.220582703363892740e-01,3.293944330062366366e-02,-2.075275341744922397e-01,1.374685821342227499e-01,-8.264836538582938374e-02,-1.941049933433532659e-01,1.856210410594940075e-01,-6.488006114959717074e-02,5.029516462308660785e-01,-6.278595924377441406e-01,1.349393129348754883e-01,9.260667589932182864e+01,0.000000000000000000e+00
1.694070000000000020e-01,6.049665697334993646e-03,-2.536253304439508444e-02,9.870404005050659180e-01,-7.035433866515510178e-03,-1.002139480439057095e-02,-4.417111353939305422e-03,-1.856505117170399732e-02,-1.737846669074698258e-02,-3.564422577619552612e-02,-2.166920372209093504e-01,-1.011283245197714120e-01,4.608206851081230598e-02,-8.883379672053899612e-02,-1.366862865680235767e-02,-7.047648281172658180e-04,-1.056462764739990179e-01,6.128690242767333846e-02,1.184865832328796387e-02,5.084021572447370296e-01,-3.886781930923461914e-01,-4.376184940338134766e-02,9.990385876326669745e+01,0.000000000000000000e+00
1.962170000000000025e-01,6.256160772472547926e-03,-2.689538702251519781e-02,9.850126504898071289e-01,-1.402406964763309137e-02,-1.427684608375834330e-02,-2.269261525021560363e-03,-1.828681911340128419e-02,-7.638073646749989933e-03,-6.590606272220611572e-02,-2.437457288669935551e-01,-1.529858999645287432e-01,7.100978201516039423e-02,1.834721682455717762e-01,-3.134167909622192494e-01,1.911300337094951340e-01,1.136750936508178628e-01,-2.134167909622192438e-01,1.978600859642028753e-01,5.315640894459404686e-01,7.293208837509155273e-01,-1.804419755935668945e-01,9.847143149053162858e+01,0.000000000000000000e+00
2.233930000000000082e-01,6.386079080506396922e-03,-2.819312065109388227e-02,9.822788834571838379e-01,-2.107931171921441013e-02,-1.954101496536786442e-02,-4.566441753520412918e-04,-1.174036547773499653e-02,-1.036907415321696628e-03,-8.814413100481033325e-02,-2.321872374922533677e-01,-1.963084120313934866e-01,6.157175969512716091e-02,3.129034519195556530e-01,-3.221229553222656472e-01,2.185238177943096827e-01,2.129034519195556474e-01,-2.221229553222656139e-01,2.204713225364685059e-01,5.337794337943364553e-01,7.471995353698730469e-01,-7.646071910858154297e-02,8.670705902258829667e+01,0.000000000000000000e+00
2.469610000000000138e-01,6.395933124152382299e-03,-2.892155830678593345e-02,9.800823926925659180e-01,-2.564101609426820000e-02,-2.260502502984906847e-02,1.910034109705039394e-04,-1.746454817571194834e-02,-3.849244121301490049e-03,-1.027231067419052124e-01,-1.949921372413436771e-01,-1.455144138683489574e-01,-3.388467536836670211e-03,3.155936002731323242e-01,-3.238266587257385143e-01,2.222699618055817006e-01,2.155936002731323187e-01,-2.238266587257385087e-01,2.227061748504638727e-01,5.351495782573240101e-01,7.502713203430175781e-01,1.136735677719116211e-01,1.380919040354823721e+02,0.000000000000000000e+00
2.704059999999999797e-01,6.595929355890990664e-03,-2.967980155248101798e-02,9.775599241256713867e-01,-2.959308250665474566e-02,-2.447142750557307345e-02,1.496894346356309217e-04,-2.170848795141785970e-02,2.533988934856898963e-03,-1.162364333868026733e-01,-1.786235756192194601e-01,-7.841654076108850457e-02,-3.474209133356558066e-02,3.184494733810424583e-01,-3.246951937675476296e-01,2.222430443949132139e-01,2.184494733810424805e-01,-2.246951937675475963e-01,2.230026304721832164e-01,5.364339176883342608e-01,7.509474754333496094e-01,-1.296676397323608398e-01,-1.372541949941586665e+02,0.000000000000000000e+00
2.987230000000000163e-01,7.133040514267373691e-03,-3.094074186761218079e-02,9.734676480293273926e-01,-3.213623965009363564e-02,-2.359179640007358358e-02,-2.272329967765914730e-03,-9.470619687837071587e-03,1.836857828152331550e-03,-1.316157877445220947e-01,2.873792533877912378e-03,8.017799383235699184e-02,-1.219545837559803669e-01,3.203098535537719505e-01,-3.254568338394164817e-01,2.163840314181194324e-01,2.203098535537719727e-01,-2.254568338394165039e-01,2.239068388938903753e-01,5.379743695560244010e-01,7.513722181320190430e-01,1.421320438385009766e-02,8.993977389637699105e+01,0.000000000000000000e+00
3.233039999999999803e-01,7.592211625902195275e-03,-3.169437031414523709e-02,9.705748558044433594e-01,-3.085536090578950771e-02,-2.020804527303443621e-02,-4.537368474345900189e-03,-1.223441116190234976e-02,5.725953544952280122e-03,-1.373492479324340820e-01,6.660175162520794168e-02,2.598692915977128259e-01,-9.261639720589349978e-02,3.206620812416076660e-01,-3.252149343490600142e-01,2.113583976268594566e-01,2.206620812416076605e-01,-2.252149343490600364e-01,2.250343680381774736e-01,5.387397016345658596e-01,7.513959407806396484e-01,-5.630863904953002930e-01,1.182423497790498175e+02,0.000000000000000000e+00
3.463439999999999852e-01,8.050930672449708309e-03,-3.242351644327574889e-02,9.676827788352966309e-01,-2.659203735030437471e-02,-1.577510410539106900e-02,-7.496299431673471812e-03,5.230047674159413228e-04,4.813942778429641800e-03,-1.317802965641021729e-01,2.677422085894806125e-01,2.289691689487809989e-01,-1.711944360664120479e-01,3.190072655677795299e-01,-3.199681773349747904e-01,2.039232520374099911e-01,2.190072655677795244e-01,-2.244904518127441295e-01,2.255175948143005316e-01,5.386881694057424896e-01,7.508870363235473633e-01,-3.960049152374267578e-02,1.022632519893992225e+02,0.000000000000000000e+00
3.686300000000000132e-01,8.535859184143320191e-03,-3.305857953903166419e-02,9.647672176361083984e-01,-2.112710858310982293e-02,-9.765705672296842721e-03,-1.034904962381311307e-02,-3.331223505261733837e-03,7.596485052042229076e-03,-1.421412676572799683e-01,2.905143431334113457e-01,3.365342056518458858e-01,-1.176093176475716956e-01,3.181107282638550027e-01,-2.849128424883857202e-01,1.970027671082469622e-01,2.181107282638549694e-01,-2.240508913993835283e-01,2.262903392314910833e-01,5.397911600380166375e-01,7.508113384246826172e-01,-2.107673883438110352e-01,1.135507406494922549e+02,0.000000000000000000e+00
3.975810000000000177e-01,9.482473175037578125e-03,-3.413003345057116084e-02,9.602662324905395508e-01,-1.116569098979687362e-02,3.972898930195700729e-04,-1.495783876202900868e-02,1.350206030420038339e-02,1.129519843053848789e-02,-1.393311619758605957e-01,3.918900447155210798e-01,2.947953673240905625e-01,-1.330731272899972617e-01,2.667275569029777249e-01,-1.964106110135219185e-01,1.829426428244712854e-01,2.087974548339843750e-01,-2.157717347145080566e-01,2.247686505317687822e-01,5.399888681067820384e-01,7.461162805557250977e-01,-4.973530769348144531e-01,1.092371346791706941e+02,0.000000000000000000e+00
4.211289999999999756e-01,1.018258782262637663e-02,-3.477801282600280486e-02,9.572077393531799316e-01,-4.495619905327559625e-03,7.831557867665317474e-03,-1.814425104635574576e-02,1.009352361851844314e-03,9.821586840869266782e-03,-1.464328914880752563e-01,3.159428537867057796e-01,3.734057539879435117e-01,-1.597776787813977861e-01,-5.874075081496878126e-03,-2.845214653548477218e-02,1.668927211705859837e-01,-1.804854869842529089e-02,-8.449752330780029019e-02,2.176107108592987005e-01,5.403991783869451782e-01,7.193634510040283203e-01,-7.483029365539550781e-01,1.015455425416034529e+02,0.000000000000000000e+00
4.444980000000000042e-01,1.092632947534015464e-02,-3.540057083220596312e-02,9.541266560554504395e-01,2.355383988439686826e-03,1.464692265806966098e-02,-2.104291355571225042e-02,1.809648893627888167e-02,1.908403597372793081e-02,-1.437085568904876709e-01,3.385343794604683265e-01,3.200515629465934264e-01,-1.476001051862536884e-01,-2.345268728856289564e-01,2.979190409183501975e-01,-2.130450682330878309e-04,-2.091337859630584550e-01,1.979190409183502197e-01,5.872628688812255721e-02,5.379250902333045925e-01,5.711424350738525391e-01,2.973259687423706055e-01,7.044642083534976962e+01,0.000000000000000000e+00
4.767129999999999979e-01,1.216009036976068575e-02,-3.624268671373403333e-02,9.497519135475158691e-01,1.265614368279579550e-02,2.454147927785199634e-02,-2.536997814778309268e-02,1.613922569147112698e-02,1.370524751799614104e-02,-1.475233137607574463e-01,3.404407824199101595e-01,3.010592320608409533e-01,-1.598645374352658521e-01,-3.080370736348214677e-01,3.135239899158477894e-01,-1.959145391961038818e-01,-2.092879235744476152e-01,2.135239899158477839e-01,-1.244961261749267523e-01,5.249941064946521685e-01,-1.806323528289794922e-01,-4.514906406402587891e-01,6.850108050689259187e+01,0.000000000000000000e+00
4.977650000000000130e-01,1.283878289623398977e-02,-3.671113560098984707e-02,9.468684792518615723e-01,1.959017375865606397e-02,3.083293439229861654e-02,-2.824146638174758125e-02,2.024565227973238249e-02,1.253289448774784140e-02,-1.552175581455230713e-01,3.070038774602257270e-01,3.328226675401446122e-01,-1.277076421325007427e-01,-3.086888968944549450e-01,3.151851177215576061e-01,-2.584947237382943519e-01,-2.086888968944549394e-01,2.151851177215576005e-01,-1.786158084869384766e-01,5.224913059210621880e-01,-3.686424493789672852e-01,-3.627420663833618164e-01,1.182750800455525280e+02,0.000000000000000000e+00
5.204400000000000137e-01,1.337764026279652033e-02,-3.713636702012129698e-02,9.440835118293762207e-01,2.598150993006164214e-02,3.593698018094082514e-02,-3.109316664887536857e-02,2.247151711498223195e-02,6.954932383001868543e-03,-1.389645040035247803e-01,3.461740596021722349e-01,2.139910750697429365e-01,-1.661478422414102984e-01,-3.079504132270812766e-01,3.181200444698333851e-01,-2.835188710050140504e-01,-2.079504132270812988e-01,2.181200444698333796e-01,-1.952197909355163630e-01,5.171576127648552790e-01,-6.129047870635986328e-01,-1.217138767242431641e-02,5.416461930696796401e+01,0.000000000000000000e+00
5.445400000000000240e-01,1.401337026946936244e-02,-3.749113918308842608e-02,9.413688182830810547e-01,3.038370144000225939e-02,4.029783334423409080e-02,-3.335181825291708146e-02,3.948774921191060272e-02,1.436904841556404036e-02,-1.450402885675430298e-01,1.351523344716904773e-01,2.368234929174037884e-01,-7.555605041700756697e-02,-3.079545974731445201e-01,3.190601050853729137e-01,-2.861766768844357101e-01,-2.079545974731445146e-01,2.190601050853729082e-01,-1.910122275352477972e-01,5.179042713147200550e-01,-6.178007125854492188e-01,-3.102411031723022461e-01,1.015468266171674117e+02,0.000000000000000000e+00
5.736170000000000435e-01,1.499596426729925790e-02,-3.797761816527957246e-02,9.373526573181152344e-01,3.256944961959584717e-02,4.172558973919593406e-02,-3.487108100936180816e-02,2.613324405176447457e-02,1.327650392946855273e-02,-1.488604396581649780e-01,-4.633397028887781266e-02,-8.407174105143140619e-03,2.531181070663857113e-02,-3.067016482353210338e-01,3.186321854591369629e-01,-2.810727504638028673e-01,-2.067016482353210283e-01,2.186321854591369573e-01,-1.815585136413574163e-01,5.193135751224486896e-01,-5.833173990249633789e-01,-2.958856821060180664e-01,6.107615944509014838e+01,0.000000000000000000e+00
5.955479999999999663e-01,1.565991396511508607e-02,-3.815614531217564886e-02,9.348070621490478516e-01,3.085528328063973785e-02,3.921597968340639895e-02,-3.447201347298849139e-02,3.840379191188648261e-02,1.658331249353525022e-02,-1.322548091411590576e-01,-1.171968011358051898e-01,-2.147472366036565217e-01,3.809936942545255611e-02,-3.088311970233917347e-01,3.194665849208832009e-01,-2.871607227604808799e-01,-2.088311970233917292e-01,2.194665849208831676e-01,-1.888707160949706920e-01,5.169078120541600319e-01,-6.672111153602600098e-01,-3.318957090377807617e-01,9.011182123892773177e+00,0.000000000000000000e+00
6.192910000000000359e-01,1.593279013570339520e-02,-3.852188531235916508e-02,9.322788715362548828e-01,2.671921391017359135e-02,3.524403606690440505e-02,-3.301448534433806120e-02,3.635565986807388905e-02,8.813027870200209821e-03,-1.407280117273330688e-01,-2.788216616998475117e-01,-1.850996102845979818e-01,8.064540833662503516e-02,-3.092874586582183838e-01,3.172612726688385232e-01,-2.826832040169019455e-01,-2.092874586582183782e-01,2.172612726688384899e-01,-1.889365553855895941e-01,5.197298170701712960e-01,-5.692377090454101562e-01,-4.615162611007690430e-01,1.027154788143457722e+02,0.000000000000000000e+00
6.479129999999999612e-01,1.643054127817475743e-02,-3.905455183257237894e-02,9.284079074859619141e-01,1.830112100409234457e-02,2.625428875058632983e-02,-2.999319300604724389e-02,3.907796470001064643e-02,1.183429344534404556e-02,-1.434939354658126831e-01,-3.401071131242793810e-01,-2.832634923702189722e-01,1.059668624608898491e-01,-3.096579968929290549e-01,3.156705081462859996e-01,-2.208106375145960920e-01,-2.096579968929290771e-01,2.156705081462859941e-01,-1.361480712890625056e-01,5.267428604450014040e-01,-2.260591387748718262e-01,4.884084463119506836e-01,9.424950031924997518e+01,0.000000000000000000e+00
6.711139999999999883e-01,1.689224325458657180e-02,-3.940805860666030808e-02,9.258723855018615723e-01,1.188310664735095154e-02,1.946705990342589843e-02,-2.738056263401360615e-02,4.216786442665447499e-02,6.408010284687452006e-03,-1.471357792615890503e-01,-3.357308910292330362e-01,-3.220842932397663394e-01,1.586923791314432952e-01,-3.178846895694732444e-01,3.084648787975311501e-01,-2.078085796382340422e-01,-2.178846895694732666e-01,2.084648787975311168e-01,-1.308498501777648759e-01,5.414077542313127100e-01,5.461518764495849609e-01,1.330257534980773926e+00,-1.473401577565980558e+00,0.000000000000000000e+00
6.939830000000000165e-01,1.740804440519746338e-02,-3.972805526315221353e-02,9.233984351158142090e-01,5.133198835917589763e-03,1.220707293359879486e-02,-2.475324488229279155e-02,5.375161908580228937e-02,1.647363998421609230e-02,-1.445674598217010498e-01,-3.233432040489071513e-01,-3.553098310201964760e-01,1.149994891900597005e-01,-2.639806719936157453e-01,2.168381690979003795e-01,-4.448537993161563731e-02,-2.163391828536987138e-01,1.168381690979003878e-01,2.490087747573852331e-02,5.442387527673681058e-01,6.932952404022216797e-01,8.293187618255615234e-02,4.482696865490056837e+01,0.000000000000000000e+00
7.218909999999999494e-01,1.812510485925900028e-02,-3.977907432534633081e-02,9.195150732994079590e-01,-5.678288842991878645e-03,1.088181801856658026e-03,-2.031878975081372746e-02,4.440097238314323624e-02,6.289552919592721753e-03,-1.502501070499420166e-01,-3.570225605218194653e-01,-3.716573128439019658e-01,9.683224136218769595e-02,2.029454205203847506e-01,-1.766770563624166512e-01,1.633811496559257614e-01,1.894420623779296819e-01,-2.229939222335815263e-01,2.201804101467132457e-01,5.461278905713589094e-01,7.497930526733398438e-01,6.943881511688232422e-02,3.811384892726183438e+01,0.000000000000000000e+00
7.456180000000000030e-01,1.840801218696834496e-02,-3.932119192074746972e-02,9.169290661811828613e-01,-1.312994012582036768e-02,-6.305844863085718899e-03,-1.673503685145108499e-02,4.772558234882029460e-02,1.982425176535470082e-02,-1.701342314481735229e-01,-3.631741990672677223e-01,-3.310612182087905309e-01,1.888123326460853790e-01,2.913821417671960678e-01,-2.238872115684102659e-01,1.734168066201874914e-01,2.173665761947631836e-01,-2.260472774505615234e-01,2.202670454978942760e-01,5.479860620799794635e-01,7.526895999908447266e-01,-3.580347299575805664e-01,1.099641809955618754e+02,0.000000000000000000e+00
7.748660000000000547e-01,1.885235049328229731e-02,-3.847229167075635198e-02,9.129397273063659668e-01,-2.339207642973930093e-02,-1.773256773588460788e-02,-1.241530430412916310e-02,4.353075976763973870e-02,2.183384668315689961e-02,-1.573087722063064575e-01,-3.178263640478508067e-01,-3.614196726030439732e-01,1.443253232990841239e-01,3.165534734725952148e-01,-3.024317701300018868e-01,1.763393927743490408e-01,2.165534734725952093e-01,-2.272733688354492132e-01,2.115082383155822698e-01,5.475826516521905551e-01,7.527661323547363281e-01,1.031890034675598145e+00,-8.203567408316314413e+01,0.000000000000000000e+00
7.979289999999999994e-01,1.914692215164208108e-02,-3.779613604030935409e-02,9.104412794113159180e-01,-3.006902627041096662e-02,-2.509193910902318692e-02,-9.791464287335583869e-03,5.040984611663844317e-02,2.654482963504307264e-02,-1.506180167198181152e-01,-3.296846996530879426e-01,-3.363536538931846120e-01,9.846203098036962476e-02,3.157640457153320090e-01,-3.273618459701538308e-01,1.539817882822266670e-01,2.157640457153320312e-01,-2.273618459701537975e-01,1.821830213069915716e-01,5.474768545433007505e-01,7.512735128402709961e-01,4.020398855209350586e-01,-6.063450063033690718e+00,0.000000000000000000e+00
8.215740000000000265e-01,1.945235733376262516e-02,-3.698996510077275784e-02,9.079419374465942383e-01,-3.670704264862359456e-02,-3.141473933521909956e-02,-7.840456136709290577e-03,3.466165115421552395e-02,3.134455356819531441e-02,-1.606649309396743774e-01,-3.439303797489193792e-01,-2.699035751175852815e-01,7.848424415204535709e-02,3.213210105895996094e-01,-3.273539781570434792e-01,1.188022707990069593e-01,2.213210105895996038e-01,-2.273539781570434459e-01,1.421275019645690807e-01,5.485967666022101286e-01,7.522556781768798828e-01,-4.992827177047729492e-01,1.126136250349881607e+02,0.000000000000000000e+00
8.439550000000000107e-01,2.006677983397829601e-02,-3.622111400882995630e-02,9.055736660957336426e-01,-4.217286593605917844e-02,-3.703988364701227276e-02,-7.608542535451859323e-03,5.475474762009874957e-02,4.708631952871032006e-02,-1.484132260084152222e-01,-2.324967999509747474e-01,-2.509572641023676276e-01,-1.170711792339187811e-02,3.226298570632934459e-01,-3.270211696624755748e-01,-1.769403517556201663e-02,2.226298570632934404e-01,-2.270211696624755693e-01,5.278927087783813303e-03,5.481024684273322345e-01,7.510149478912353516e-01,-5.404040813446044922e-01,7.908057224818961117e+01,0.000000000000000000e+00
8.730470000000000175e-01,2.102429268539414073e-02,-3.488062652501276728e-02,9.023431539535522461e-01,-4.575593796804539037e-02,-4.085759235402308676e-02,-9.084122457953678481e-03,3.860603780164306720e-02,3.692280822300668397e-02,-1.310369372367858887e-01,-2.417266060272196468e-02,-7.687370037774877984e-02,-1.057234424747254126e-01,3.225853681564331277e-01,-3.272370696067810059e-01,-3.521916072085063548e-03,2.225853681564330944e-01,-2.272370696067810003e-01,2.416824102401733329e-02,5.473055340928009160e-01,7.509734630584716797e-01,-1.163905858993530273e-01,7.329586647405237443e+01,0.000000000000000000e+00
8.963219999999999521e-01,2.169065198154073934e-02,-3.393081642273655663e-02,9.004167914390563965e-01,-4.407340396182406889e-02,-4.019074391055466045e-02,-1.067441880460769446e-02,5.628642291223779487e-02,5.177761862941106241e-02,-1.275589317083358765e-01,1.496048209581243016e-01,7.999979161566189712e-02,-4.741833982911316386e-02,3.218951463699341042e-01,-3.270279645919799694e-01,-5.603739419720217552e-02,2.218951463699340709e-01,-2.270279645919799638e-01,-2.426712512969970634e-02,5.473863401155134589e-01,7.499291896820068359e-01,-7.269415855407714844e-01,9.230730187781099971e+01,0.000000000000000000e+00
9.196509999999999962e-01,2.231397367180074781e-02,-3.285679204258439706e-02,8.987879157066345215e-01,-3.968732751445355061e-02,-3.771443987008082921e-02,-1.299063831496160420e-02,3.563646504168354462e-02,4.564857464616243338e-02,-1.079633906483650208e-01,2.944332846343993282e-01,1.245217609006592091e-01,-1.322137887714044668e-01,3.191383361816406139e-01,-3.269550085067748912e-01,7.543188708372516871e-02,2.191383361816406083e-01,-2.269550085067748857e-01,1.135432004928588756e-01,5.463108189568469664e-01,7.504596710205078125e-01,-3.263067007064819336e-01,9.749694108088922917e+01,0.000000000000000000e+00
9.488510000000000000e-01,2.384387928386820510e-02,-3.158901625334943619e-02,8.966708183288574219e-01,-3.074365043472653339e-02,-2.974687362330286078e-02,-1.631141764136477545e-02,5.588037795599536811e-02,6.717852782234676190e-02,-1.047820299863815308e-01,3.062835175113500230e-01,3.364412225104986831e-01,-1.126318692566650320e-01,3.166973829269409402e-01,-3.265704870223998801e-01,9.986994242654012588e-02,2.166973829269409069e-01,-2.265704870223999023e-01,1.463375687599182129e-01,5.463912699106036053e-01,7.482630014419555664e-01,-4.910711050033569336e-01,6.736717348202209621e+01,0.000000000000000000e+00
9.742450000000000276e-01,2.494644295171170173e-02,-3.077320375935812050e-02,8.955576419830322266e-01,-2.349935525376068216e-02,-2.345743104199771167e-02,-1.816251341413047810e-02,4.401708608376443677e-02,6.782904848542999077e-02,-9.142360836267471313e-02,4.185965816277847362e-01,2.614589667379245141e-01,-5.326781479293314636e-02,3.155615568161010964e-01,-3.256150484085083008e-01,1.535296059392964874e-01,2.155615568161010631e-01,-2.256150484085082952e-01,2.048464715480804443e-01,5.457195999566122335e-01,7.494533061981201172e-01,-8.717644214630126953e-02,1.803553797514720998e+02,0.000000000000000000e+00
9.964560000000000084e-01,2.600344958282641700e-02,-2.978285293224432542e-02,8.946805000305175781e-01,-1.626619026369183554e-02,-1.634183132426092477e-02,-1.962285073728058452e-02,3.202019834222534500e-02,6.534431345517528744e-02,-8.327275514602661133e-02,3.276577072780693656e-01,3.420733695969651600e-01,-6.694087862575791303e-02,3.125061273574828991e-01,-2.927019603978973650e-01,1.620962189181004987e-01,2.125061273574828935e-01,-2.244862318038940430e-01,2.172295331954955944e-01,5.453787328650169242e-01,7.497971057891845703e-01,-4.537571668624877930e-01,7.251617305953874393e+01,0.000000000000000000e+00
1.024891999999999914e+00,2.699675877022736023e-02,-2.872930806238295151e-02,8.940579891204833984e-01,-8.472253499809874813e-03,-9.245316933446323659e-03,-2.041624543661683597e-02,4.063807857263135315e-02,8.249765244902500239e-02,-7.028838247060775757e-02,4.097781814561103353e-01,3.502387174263503766e-01,-2.349011686512573333e-02,2.365992398163210275e-01,-2.325645996555339712e-01,1.457008844166203243e-01,1.461951613426208385e-01,-2.191670179367065374e-01,2.028731703758239746e-01,5.445962645870081609e-01,7.456860542297363281e-01,-5.303852558135986328e-01,9.612101313296849980e+01,0.000000000000000000e+00
1.052233999999999892e+00,2.833562838054994731e-02,-2.699757926851834369e-02,8.934497833251953125e-01,3.175862866736888206e-03,1.087289860118190177e-03,-2.170488130648472180e-02,2.884515824250685062e-02,7.409507221556331513e-02,-5.781801789999008179e-02,4.217824882555410437e-01,2.855859077555525372e-01,-6.209434382759847909e-02,-2.017175408724503349e-01,2.766222763616077440e-02,1.332596177697595308e-02,-2.084632515907287598e-01,-1.673376560211181641e-02,7.416948080062865656e-02,5.421263944246458300e-01,6.467072963714599609e-01,3.276611566543579102e-01,2.613245744372511226e+01,0.000000000000000000e+00
1.074659999999999949e+00,2.914020957821602392e-02,-2.586307622378129778e-02,8.932296633720397949e-01,1.109639081959849609e-02,8.319467147488879277e-03,-2.305503866603150417e-02,4.481184651208543201e-02,7.374166460647907373e-02,-4.087438806891441345e-02,3.993833045259895798e-01,3.685914968568606009e-01,-8.042903215542837603e-02,-2.537025079687440510e-01,3.125127971172332875e-01,-2.151891037225821257e-01,-2.108770430088043046e-01,2.125127971172332819e-01,-1.502810239791869951e-01,5.267186473271511238e-01,-1.440372467041015625e-01,1.251524329185485840e+00,-1.345808521228264887e+01,0.000000000000000000e+00
1.102530999999999928e+00,2.999164179139426900e-02,-2.467714965903719873e-02,8.931505680084228516e-01,1.854538158628684860e-02,1.562840605091175838e-02,-2.460508567726235954e-02,5.037338824381750596e-02,7.018487887348447141e-02,-4.539177939295768738e-02,3.720639004815806672e-01,3.600875243425084582e-01,-6.460883507406195436e-02,-3.092523324059239798e-01,3.185000777244567649e-01,-2.036849966329186412e-01,-2.160264372825622392e-01,2.185000777244567871e-01,-1.340298771858215165e-01,5.181031931528717882e-01,-6.363053917884826660e-01,-1.547807455062866211e-01,8.433772104102423839e+01,0.000000000000000000e+00
1.123150000000000093e+00,3.149905484077702988e-02,-2.299787287865569588e-02,8.932768106460571289e-01,2.948900564807642455e-02,2.603316315669901293e-02,-2.746888320733613734e-02,5.401589378107724687e-02,6.860891649464599673e-02,-3.392266109585762024e-02,3.809940439266943923e-01,2.887060335908766540e-01,-1.151491879226921033e-01,-3.152171790599823109e-01,3.195236980915069358e-01,-2.525273724099673656e-01,-2.152171790599823054e-01,2.195236980915069580e-01,-1.739753723144531194e-01,5.157674342519402710e-01,-7.230558991432189941e-01,8.410691022872924805e-01,-6.195676207440155281e+01,0.000000000000000000e+00
1.147305000000000019e+00,3.326629733071718997e-02,-2.154254959425366822e-02,8.936589360237121582e-01,3.999864554141477346e-02,3.576799425518162323e-02,-3.055356355624044146e-02,6.416675174681250871e-02,5.664655324089015037e-02,-4.607256501913070679e-03,3.837052604879016560e-01,2.619849748604379802e-01,-1.201793812496923380e-01,-3.090025544166564719e-01,3.227234840393066184e-01,-2.614897571942054189e-01,-2.090025544166564941e-01,2.227234840393066406e-01,-1.731875896453857477e-01,5.132201199741586173e-01,-7.477551698684692383e-01,-1.243842840194702148e-01,-1.090701467992476381e+01,0.000000000000000000e+00
1.169353000000000087e+00,3.414213069066622530e-02,-2.056820815718435683e-02,8.941215872764587402e-01,4.678536306648803378e-02,4.184784047239764604e-02,-3.276642432963682017e-02,8.094947533734481171e-02,5.212773200171270938e-02,-1.366948336362838745e-02,3.379223256644793283e-01,2.965268808511392629e-01,-1.195164627672501700e-01,-3.095072031021118275e-01,3.224856615066528098e-01,-2.184595343967633552e-01,-2.095072031021118220e-01,2.224856615066528320e-01,-1.229927659034728976e-01,5.139426765944771214e-01,-7.494836449623107910e-01,2.244340181350708008e-01,-3.270872408605887927e+01,0.000000000000000000e+00
1.195759999999999934e+00,3.574319650151909500e-02,-1.929956533394608723e-02,8.950116038322448730e-01,5.433766770860454232e-02,4.947414864401133983e-02,-3.463414890220976872e-02,7.267200069562902709e-02,3.791343639334159021e-02,-1.498492807149887085e-02,1.258389382596253048e-01,2.485828329604924114e-01,-5.853807066858386816e-03,-3.029046595096588357e-01,3.215878009796142578e-01,-1.945371389389038141e-01,-2.029046595096588024e-01,2.215878009796142523e-01,-9.453713893890380859e-02,5.140710838531098448e-01,-7.499935626983642578e-01,-2.314051389694213867e-01,9.406001038110632351e+01,0.000000000000000000e+00
1.220958999999999905e+00,3.753405656558102266e-02,-1.812437450198279426e-02,8.961296677589416504e-01,5.669625811811915966e-02,5.228352183767781547e-02,-3.369506948637415733e-02,8.531733926058844564e-02,3.962758146288671013e-02,1.816347357816994190e-03,-1.721288184648978731e-02,4.608293816474731686e-02,1.033415415049495634e-01,-3.004227578639984131e-01,3.219941735267639049e-01,-2.060878505641827174e-01,-2.004227578639984075e-01,2.219941735267638994e-01,-1.064292311668395968e-01,5.128125303476127606e-01,-7.519988417625427246e-01,6.096183061599731445e-01,-1.876871950896035202e+00,0.000000000000000000e+00
1.248655999999999988e+00,3.877803000018995722e-02,-1.743830601433112373e-02,8.969360589981079102e-01,5.557730906411066651e-02,5.038814377052092119e-02,-3.253458867324395681e-02,8.473725357597029773e-02,3.688905769527766471e-02,1.028887368738651276e-02,-8.747139192361497173e-02,-1.719979652231649336e-01,4.726151417849483449e-02,-3.002300500869751199e-01,3.220617473125457764e-01,-2.026833135109437078e-01,-2.002300500869750866e-01,2.220617473125457708e-01,-1.065601587295532254e-01,5.122079091581280830e-01,-7.521929740905761719e-01,-4.852955341339111328e-01,3.466102779237489528e+01,0.000000000000000000e+00
1.268901000000000057e+00,3.981645716215066744e-02,-1.702325164634160837e-02,8.976883292198181152e-01,5.196836740107884517e-02,4.673617607060154278e-02,-3.078921830548599775e-02,8.664020924599749596e-02,2.409909711278818145e-02,1.139730308204889297e-02,-2.438696679007061885e-01,-1.990631495425578545e-01,1.236911899717151042e-01,-3.018792867660522461e-01,3.224804937839508279e-01,-2.023575267009106171e-01,-2.018792867660522405e-01,2.224804937839507946e-01,-1.117926836013793945e-01,5.121522089808944189e-01,-7.524305582046508789e-01,-6.389944553375244141e-01,1.026648876031634785e+02,0.000000000000000000e+00
1.293838999999999961e+00,4.161993537650442165e-02,-1.656835915278278074e-02,8.986678123474121094e-01,4.449565046391876916e-02,3.790874030966451258e-02,-2.760139138972998035e-02,1.009915094163326976e-01,2.117962358032840497e-02,-5.147673189640045166e-03,-3.149334453979756865e-01,-2.670631191151190409e-01,1.481295735084976750e-01,-3.121226787567138450e-01,3.233264803886413685e-01,-2.211797511923646320e-01,-2.121226787567138672e-01,2.233264803886413630e-01,-1.405910968780517412e-01,5.134477738536231683e-01,-7.505925297737121582e-01,-1.015833616256713867e-01,6.621634124838830360e+01,0.000000000000000000e+00
1.319846000000000075e+00,4.372614596892649558e-02,-1.635885401775451220e-02,8.993551731109619141e-01,3.509117891122058575e-02,2.764452078505885702e-02,-2.471085621174058666e-02,9.501468227338936978e-02,7.296454626579304895e-03,-1.088303048163652420e-02,-3.632353999351204399e-01,-3.141427971621631454e-01,1.144611570804036776e-01,-3.154334366321563943e-01,3.220702767372131126e-01,-2.534739000908859952e-01,-2.154334366321563610e-01,2.220702767372131348e-01,-1.823035240173339899e-01,5.140682509681726575e-01,-7.427531480789184570e-01,-2.124482393264770508e-01,8.527681741038763619e+01,0.000000000000000000e+00
1.344934999999999992e+00,4.609486869068746967e-02,-1.633706488247773161e-02,8.997632265090942383e-01,2.497478864821036162e-02,1.652008830979179166e-02,-2.146100059661041476e-02,1.205929179144352020e-01,5.837079448290022517e-03,-1.779831945896148682e-02,-3.268294934558998444e-01,-4.181522438349326576e-01,1.118309466069909441e-01,-3.175638258457184060e-01,3.196737766265869141e-01,-2.494782019746200064e-01,-2.175638258457183727e-01,2.196737766265869085e-01,-1.882452249526977428e-01,5.150565274373428704e-01,-7.225058674812316895e-01,-2.337435483932495117e-01,5.734745672434264208e+01,0.000000000000000000e+00
1.370386000000000104e+00,4.839079007722136422e-02,-1.633998702425926847e-02,8.997461795806884766e-01,1.418413337533262070e-02,5.394819486632007610e-03,-1.782054000651988115e-02,1.069390342701017488e-01,5.752263646022572107e-04,-1.539698243141174316e-02,-3.473622015735167712e-01,-4.055452672353886401e-01,1.239460126682700031e-01,-3.143391847610473855e-01,3.210213005542755238e-01,-2.330358292261945075e-01,-2.143391847610473522e-01,2.210213005542755182e-01,-1.827679395675659013e-01,5.179142257283494422e-01,-5.649412870407104492e-01,-4.562450647354125977e-01,9.359665034781265547e+01,0.000000000000000000e+00
1.397169000000000105e+00,5.080440651893462084e-02,-1.644925792486225807e-02,8.993679285049438477e-01,4.060311170295699025e-03,-5.914629345935118465e-03,-1.382354426099777385e-02,1.099339860725872253e-01,-1.137724051294299217e-02,-2.882859110832214355e-02,-3.061481703065411231e-01,-3.823456816696974014e-01,1.242355341584874123e-01,-2.620554827978116008e-01,2.411065520726255185e-01,-2.409405651241783575e-01,-2.168930947780609020e-01,1.693811237812042070e-01,-2.022222518920898382e-01,5.406786769143828719e-01,6.188242435455322266e-01,8.830786943435668945e-01,7.636773039288726750e+01,0.000000000000000000e+00
1.422525000000000039e+00,5.325145047180326885e-02,-1.654450355888170340e-02,8.985303044319152832e-01,-5.518353870979438025e-03,-1.694122074656867483e-02,-9.524451245110025777e-03,1.183210697478451617e-01,5.443992274500071907e-03,-5.164890363812446594e-02,-3.141364122821231897e-01,-3.224484462560037179e-01,1.282033845046772202e-01,-1.345584205406593348e-01,-2.120814098232461364e-01,1.079820924959416090e-02,-1.659445524215698298e-01,-2.195243954658508134e-01,3.745236396789550920e-02,5.447181627074308974e-01,7.427179813385009766e-01,-6.951558589935302734e-02,5.922767802925292102e+01,0.000000000000000000e+00
1.445367000000000068e+00,5.523505462589037990e-02,-1.654323446046991261e-02,8.978024125099182129e-01,-1.200049527479498876e-02,-2.399583082451228755e-02,-6.024523958208938788e-03,9.876545371146701335e-02,-1.253971981562953739e-03,-5.541189759969711304e-02,-3.019374417505552022e-01,-3.632608819361322072e-01,1.730758106833747423e-01,1.314865284576482996e-01,-2.777452038304185633e-01,1.233112128475685743e-01,6.586618423461913785e-02,-2.248796224594116211e-01,1.403361439704894909e-01,5.452458720997084285e-01,7.473015785217285156e-01,-1.840234994888305664e-01,7.836991155561729272e+01,0.000000000000000000e+00
1.472283000000000008e+00,5.852610939040371607e-02,-1.640488080405381674e-02,8.964672088623046875e-01,-2.185242741725602206e-02,-3.427940737260914972e-02,-8.523698027247826516e-04,9.820897483239886261e-02,1.553719492333941084e-02,-5.883593857288360596e-02,-2.742743500050662253e-01,-3.931823249360901773e-01,1.419419101763585433e-01,2.676627397537231223e-01,-3.262627840042113814e-01,1.168824698890729014e-01,1.676627397537231445e-01,-2.262627840042114036e-01,1.198079109191894503e-01,5.457684877301165471e-01,7.494702339172363281e-01,-4.847987890243530273e-01,7.640899156566331385e+01,0.000000000000000000e+00
1.495533000000000001e+00,6.061249765134153755e-02,-1.616531950550024674e-02,8.953735232353210449e-01,-2.912129792055292640e-02,-4.081187819145792872e-02,2.957244324012959190e-03,8.981132826178932216e-02,1.277180883421278647e-02,-6.732520461082458496e-02,-3.830348156857728559e-01,-3.098921574052620476e-01,1.959344127230047972e-01,2.710779428482055775e-01,-3.266881108283996582e-01,7.640517212782355072e-02,1.710779428482055720e-01,-2.266881108283996527e-01,6.916773319244384766e-02,5.466333848778318627e-01,7.517199516296386719e-01,-3.242391347885131836e-01,8.532234745139493270e+01,0.000000000000000000e+00
1.520845999999999920e+00,6.346604877888047114e-02,-1.556203709539071868e-02,8.935671448707580566e-01,-3.870898869019644140e-02,-5.053717528789314350e-02,8.213112153002360624e-03,8.832624870991426236e-02,2.876766623739091672e-02,-8.061561733484268188e-02,-3.363358200598117187e-01,-2.596780082800804190e-01,1.543064241703157868e-01,2.723433017730713113e-01,-3.259680271148681641e-01,-1.077663842827999430e-01,1.723433017730712780e-01,-2.259680271148681585e-01,-1.289488077163696289e-01,5.476480252104591884e-01,7.395796775817871094e-01,5.139194726943969727e-01,8.575154287846019940e+01,0.000000000000000000e+00
1.547978000000000076e+00,6.703776527521335127e-02,-1.461833423801276940e-02,8.917812108993530273e-01,-4.626832155807586444e-02,-5.609697210090236474e-02,1.017286004116335456e-02,8.801563052470673387e-02,3.943410137627078454e-02,-7.392028719186782837e-02,-2.168309423480820897e-01,-8.949577555007171004e-02,-6.497684814968987359e-03,3.001320600509643777e-01,-3.259097695350646751e-01,-1.288938795134922655e-01,2.001320600509643444e-01,-2.259097695350646973e-01,-1.549223184585571123e-01,5.473985734061085351e-01,7.356946468353271484e-01,-4.548708200454711914e-01,7.558145950620290421e+01,0.000000000000000000e+00
1.569676999999999989e+00,6.969696226471512601e-02,-1.386855949321624468e-02,8.906085491180419922e-01,-4.859625730300611013e-02,-5.572630083026708370e-02,1.014358609679623553e-02,8.875139730484485345e-02,4.089140055638237209e-02,-6.318176537752151489e-02,-8.141565587073899823e-02,6.751906600491940080e-02,-1.303672595245758750e-02,3.078342199325561634e-01,-3.259375572204589733e-01,-1.242693670083168944e-01,2.078342199325561579e-01,-2.259375572204589677e-01,-1.501401185989379716e-01,5.469079321454722864e-01,7.371735572814941406e-01,1.459740400314331055e-01,6.352457735686461859e+01,0.000000000000000000e+00
1.594689000000000023e+00,7.350134990930637380e-02,-1.254128081789394888e-02,8.890255093574523926e-01,-4.732848209312019716e-02,-5.019258992246578011e-02,9.299458722510428252e-03,7.972471551190175865e-02,5.202062720971872140e-02,-6.398319453001022339e-02,7.595918407738842804e-02,3.127866632225804744e-01,-3.200282792991547900e-03,3.137563228607177512e-01,-3.259696722030639426e-01,-9.414664004952620624e-02,2.137563228607177734e-01,-2.259696722030639648e-01,-1.181011319160461398e-01,5.472949915391266407e-01,7.408525943756103516e-01,-6.526228189468383789e-01,1.512852750211974184e+00,0.000000000000000000e+00
1.619791999999999899e+00,7.699799850970227844e-02,-1.092421483093902919e-02,8.877208232879638672e-01,-4.100965797582026284e-02,-4.232031086195098268e-02,9.312488664704694774e-03,7.064134355616016880e-02,5.407254223423300227e-02,-5.129696056246757507e-02,2.606575779232404022e-01,2.398241979000185209e-01,4.176927534690680344e-02,3.150932073593139537e-01,-3.261347889900207409e-01,5.755672831930932348e-02,2.150932073593139482e-01,-2.261347889900207353e-01,3.286773562431335310e-02,5.467579241833393500e-01,7.476136684417724609e-01,-1.681208610534667969e-03,9.506687588741458228e+01,0.000000000000000000e+00
1.648014000000000090e+00,8.080191001323661082e-02,-9.410818135111999327e-03,8.868133425712585449e-01,-3.218892162924084227e-02,-3.214075358156986972e-02,1.077211755490461477e-02,7.428022840811303318e-02,7.192872738516187248e-02,-2.323912642896175385e-02,3.463175040213223310e-01,3.225760172828193162e-01,9.026232897401538502e-02,3.066747903823852650e-01,-3.220787015807646814e-01,1.126622108375326531e-01,2.066747903823852595e-01,-2.233265161514282060e-01,8.306213021278381625e-02,5.448523292185515343e-01,7.407240867614746094e-01,2.356922626495361328e-02,-3.182524253201231801e+01,0.000000000000000000e+00
1.670684999999999976e+00,8.340013606742824326e-02,-8.367452530629201218e-03,8.864095211029052734e-01,-2.536827467802611411e-02,-2.470354008579844773e-02,1.199534246227780543e-02,5.809656579515972558e-02,6.871327168383796480e-02,-2.600052393972873688e-02,3.352252706742245847e-01,3.802556396429336294e-01,6.304574413518405918e-02,2.988020777702331543e-01,-2.821468950795344433e-01,1.714557658898452353e-01,1.988020777702331487e-01,-2.208813786506652888e-01,1.381370902061462291e-01,5.451898471271848789e-01,7.407052516937255859e-01,-3.747569322586059570e-01,1.216619932700434248e+02,0.000000000000000000e+00
1.695556999999999981e+00,8.710761668758042198e-02,-6.649609145131725116e-03,8.860275745391845703e-01,-1.452952684215580090e-02,-1.358749250302038192e-02,1.408916278008599289e-02,6.100653712117626998e-02,8.044360676040228364e-02,-1.198834832757711411e-02,3.523683344409424545e-01,4.045682688804834726e-01,6.752974016420600079e-02,2.743438363075256237e-01,-8.622458654564638114e-02,1.044233524841638727e-01,1.743438363075256181e-01,-1.049531221389770480e-01,6.494965553283690851e-02,5.440660950127388373e-01,7.248624563217163086e-01,-1.771570444107055664e-01,5.730461094767915142e+01,0.000000000000000000e+00
1.720266999999999991e+00,9.070505698205265366e-02,-4.749143887418576064e-03,8.858113884925842285e-01,-3.621976305670432383e-03,-2.840822902029582764e-03,1.518731817149848728e-02,6.728481800323668494e-02,8.426724048235363640e-02,-1.850402727723121643e-02,3.268245603842426239e-01,3.965769153907102162e-01,5.686743669390351835e-02,-8.511628319250925945e-02,3.052339752941305440e-01,-9.957841335672165672e-02,-1.572817325592041071e-01,2.095313429832458552e-01,-1.420169591903686357e-01,5.423243968107768209e-01,5.940279960632324219e-01,-3.232127428054809570e-01,1.192492835872497778e+02,0.000000000000000000e+00
1.746240999999999932e+00,9.398142752405694300e-02,-2.551128142938248206e-03,8.858748674392700195e-01,7.379081977991711928e-03,7.265220655428450414e-03,1.500611082754881032e-02,6.144548765119293987e-02,7.792295364880930109e-02,1.421593013219535351e-03,3.587633062814611362e-01,3.299558735406772358e-01,-1.845134609208070502e-03,-2.045235589970152701e-01,3.147866308689117321e-01,-9.467653097122344374e-02,-2.018335640430450328e-01,2.147866308689117265e-01,-1.361963510513305720e-01,5.207971767073271696e-01,-5.138235688209533691e-01,7.687312364578247070e-01,-7.993060978096521296e+01,0.000000000000000000e+00
1.769600999999999980e+00,9.621693862161566357e-02,-1.066362202403138473e-03,8.860617280006408691e-01,1.456247410256956976e-02,1.388113632924725671e-02,1.402230229851344871e-02,8.341428031769375362e-02,8.166365333694698692e-02,6.830583326518535614e-03,3.186678337721441934e-01,3.386714724743716820e-01,-7.510161371388711371e-02,-2.578078136223829753e-01,3.185383617877960427e-01,-1.290376794903537183e-01,-2.133874475955963024e-01,2.185383617877960094e-01,-1.672275066375732422e-01,5.174141167864677593e-01,-6.804919838905334473e-01,-2.719223499298095703e-02,8.422380714604676655e+01,0.000000000000000000e+00
1.794354000000000005e+00,9.956322916717169624e-02,1.056345511617487291e-03,8.863822221755981445e-01,2.495122814616386117e-02,2.201004607730583373e-02,1.387189544967227031e-02,6.434757760817064187e-02,7.218136632988393642e-02,1.567724905908107758e-02,3.155203323043945796e-01,2.140671885877373226e-01,7.256034104923252126e-02,-3.107263922691345104e-01,3.207675635814666859e-01,-1.490592705665454432e-01,-2.107263922691345048e-01,2.207675635814666804e-01,-1.861156225204467773e-01,5.158656136714415696e-01,-7.313497662544250488e-01,3.362406492233276367e-01,-2.885064050695840621e+01,0.000000000000000000e+00
1.819565000000000099e+00,1.025166142437405753e-01,3.196946934351476387e-03,8.868373036384582520e-01,3.197360381829252723e-02,2.441491605196466352e-02,1.556835186412976711e-02,6.897872504241540914e-02,8.127734446290567349e-02,8.790396153926849365e-03,1.364476109237465484e-01,4.062111460688563880e-02,9.591765076109284860e-02,-3.115839838981628307e-01,3.206099390983581654e-01,-1.461661659218840004e-01,-2.115839838981628251e-01,2.206099390983581598e-01,-1.872842073440551813e-01,5.163923128864752465e-01,-7.343869805335998535e-01,2.373048067092895508e-01,-7.057666058999086722e+00,0.000000000000000000e+00
1.846422000000000008e+00,1.049178354703172722e-01,5.339853401731632643e-03,8.871025443077087402e-01,3.332869863503745006e-02,2.034771070784779923e-02,1.825978861140592838e-02,6.781440675262379036e-02,8.295394759163179921e-02,8.782999590039253235e-03,-1.174959249060949715e-02,-2.152216832704810512e-01,8.252461066655139565e-02,-3.136549174785613903e-01,3.195187091827392800e-01,-1.369328354921798552e-01,-2.136549174785613847e-01,2.195187091827392467e-01,-1.857224464416503962e-01,5.165870021805059054e-01,-7.281903624534606934e-01,-8.960998058319091797e-02,9.899904311334759655e+01,0.000000000000000000e+00
1.874214000000000047e+00,1.072682388495221351e-01,7.524872849235974236e-03,8.871569633483886719e-01,2.916051005744720384e-02,1.264322147327012758e-02,2.166712783322113922e-02,7.501728014397528177e-02,7.544657193905959791e-02,1.179024670273065567e-02,-1.435833318575286122e-01,-3.314044295984256983e-01,1.269950308830240793e-01,-3.167306602001190297e-01,3.184353113174438477e-01,-1.206444267767100009e-01,-2.167306602001190241e-01,2.184353113174438421e-01,-1.795818686485290416e-01,5.168139834153683276e-01,-7.092965841293334961e-01,-5.807054042816162109e-02,1.126332140175277630e+02,0.000000000000000000e+00
1.895424999999999915e+00,1.088474611152538268e-01,8.959863397311369770e-03,8.870059847831726074e-01,2.397801917880092171e-02,6.574637022867868552e-03,2.414080435292067367e-02,6.079580797668347053e-02,7.268675364650326043e-02,-2.244613133370876312e-03,-2.572847496190271421e-01,-3.083084429105111823e-01,1.447128463656194020e-01,-3.161777675151825062e-01,3.178465127944946067e-01,-7.711330939599669865e-02,-2.161777675151825007e-01,2.178465127944946289e-01,-1.435642719268798717e-01,5.186097129610031109e-01,-6.739551424980163574e-01,5.052694082260131836e-01,8.481321832047301257e+01,0.000000000000000000e+00
1.920565000000000078e+00,1.110761463201172666e-01,1.131089527102424261e-02,8.864484429359436035e-01,1.450045313098850298e-02,-3.939904776176339496e-03,2.801044593894506593e-02,8.324197751608682083e-02,7.714520423080734046e-02,-1.595713198184967041e-02,-3.199336452189908697e-01,-3.685492938425622422e-01,1.517352076151034790e-01,-2.544798003599658132e-01,3.201808393001556174e-01,-1.169536326956583661e-01,-2.143037080764770563e-01,2.201808393001556396e-01,-1.947842359542846513e-01,5.395255986361446876e-01,4.054915904998779297e-01,-2.870553731918334961e-01,9.124762534884020226e+01,0.000000000000000000e+00
1.946981999999999990e+00,1.129648049264142390e-01,1.412021020030826760e-02,8.853691220283508301e-01,3.837695792703926280e-03,-1.528562035503067129e-02,3.206238432655194454e-02,5.932234159431678394e-02,7.290402682789352828e-02,-2.035414054989814758e-02,-3.237773253761160319e-01,-4.566499642019515859e-01,1.157902474794926528e-01,-1.798775152590863236e-01,-1.476797500010422481e-02,-1.011983551330832010e-01,-2.065448462963104248e-01,-3.947678804397582869e-02,-1.908958196640014593e-01,5.450159058924115563e-01,6.843507289886474609e-01,1.964080333709716797e-02,9.544212648041508373e+01,0.000000000000000000e+00
1.971414999999999917e+00,1.147422936959104911e-01,1.689548631374203011e-02,8.838872313499450684e-01,-6.861830442987585169e-03,-2.664119662182140580e-02,3.567366168398072163e-02,6.853567636422290554e-02,7.730096930758853513e-02,-3.919600695371627808e-02,-3.299454969411629857e-01,-3.644771301079694492e-01,9.380585573226696283e-02,1.096456885337829673e-01,-2.590533589045770912e-01,6.511860671572107517e-02,9.645688533782958290e-03,-2.210763216018676591e-01,-3.476006984710693082e-02,5.476122838598596054e-01,7.410638332366943359e-01,-5.835974216461181641e-02,6.352263075295116579e+01,0.000000000000000000e+00
1.995279999999999943e+00,1.163585555329718080e-01,1.970696778803883095e-02,8.821126222610473633e-01,-1.691560316323229701e-02,-3.742893913141398521e-02,3.963976090362073684e-02,5.445240454073954628e-02,6.783351834837138272e-02,-3.755147010087966919e-02,-3.205157723896073230e-01,-3.541239819140690748e-01,1.231272940588848952e-01,2.154314756393432562e-01,-3.253281593322753795e-01,9.383878707885742743e-02,1.154314756393432506e-01,-2.253281593322753740e-01,-6.161212921142578125e-03,5.478418988793938293e-01,7.464267015457153320e-01,-1.632007360458374023e-01,-1.153546140998601288e+02,0.000000000000000000e+00
2.022972999999999910e+00,1.173629864259312511e-01,2.203160029594094377e-02,8.808366060256958008e-01,-2.260517593152225682e-02,-4.245380883612170919e-02,4.158402501827831999e-02,6.470766999491653348e-02,8.673187084892300391e-02,-3.741563111543655396e-02,-2.403419679218999627e-01,-2.139483405555765438e-01,5.824274803680098284e-02,2.472939014434814564e-01,-3.250846862792968750e-01,2.014799118041993298e-02,1.472939014434814509e-01,-2.250846862792968694e-01,-7.985200881958007257e-02,5.480577744701410348e-01,7.451107501983642578e-01,1.446670293807983398e-01,9.223648647649631016e+01,0.000000000000000000e+00
2.044490000000000141e+00,1.183460131862958120e-01,2.435518694839243145e-02,8.795768022537231445e-01,-2.688703414875466893e-02,-4.456840146688278992e-02,4.264614255773867268e-02,6.876076747234248498e-02,8.004173156683228041e-02,-4.212310910224914551e-02,-1.525071380659623610e-01,-5.596129921956100040e-02,4.841349404912639875e-02,2.646779775619506614e-01,-3.249317646026611550e-01,3.674721717834478207e-03,1.646779775619506836e-01,-2.249317646026611217e-01,-9.632527828216552734e-02,5.485865563513108167e-01,7.431656122207641602e-01,-2.548698186874389648e-01,6.885278743782406252e+01,0.000000000000000000e+00
2.069990999999999914e+00,1.199206459874703895e-01,2.784120374685419841e-02,8.777552247047424316e-01,-2.840242937712205221e-02,-4.232753896794538839e-02,4.323445169270760668e-02,4.855823427013605809e-02,9.170662461274324551e-02,-2.862920612096786499e-02,3.051806455679557592e-02,1.946572806908847264e-01,4.072497891702115541e-02,3.010232686996460183e-01,-3.248978614807128684e-01,4.672936201095581610e-02,2.010232686996459850e-01,-2.248978614807128906e-01,-5.327063798904418945e-02,5.478711375745720646e-01,7.419319152832031250e-01,8.909547328948974609e-02,7.900837031847341052e+01,0.000000000000000000e+00
2.093748000000000165e+00,1.213034827470596960e-01,3.132920896394945226e-02,8.760926127433776855e-01,-2.426314298297043218e-02,-3.608019019222319379e-02,4.364918502926241201e-02,5.042790901545155663e-02,8.897266906329336089e-02,-1.010785903781652451e-02,2.553404779887434306e-01,1.948544971053966790e-01,1.753114961001426761e-02,2.929830789566040261e-01,-3.228203296661377175e-01,1.006340742111206110e-01,1.929830789566039928e-01,-2.228203296661376842e-01,6.340742111206054688e-04,5.467448770815815928e-01,7.383012771606445312e-01,2.784717082977294922e-02,7.682491593517124784e+01,0.000000000000000000e+00
2.118844000000000172e+00,1.223143059103099506e-01,3.381901526382340845e-02,8.752437233924865723e-01,-1.965500668355997863e-02,-2.981439144476638603e-02,4.386733750596927273e-02,4.738107974520526511e-02,8.803375023270183786e-02,-1.374014932662248611e-02,1.906961559888014912e-01,3.522613724482067110e-01,2.265186801056393376e-02,2.818639993667602650e-01,-2.851070474350750339e-01,1.362245559692382701e-01,1.818639993667602595e-01,-2.199705719947814830e-01,3.622455596923827847e-02,5.471524394239337674e-01,7.365798950195312500e-01,-2.272135019302368164e-01,5.633486410441532399e+01,0.000000000000000000e+00
2.142706000000000000e+00,1.236966983752477156e-01,3.762266796771780719e-02,8.743306398391723633e-01,-1.118514530939808578e-02,-1.986026551933339768e-02,4.392386479498901902e-02,4.903849618770425578e-02,9.617442705211834419e-02,-1.746143214404582977e-02,2.211656073396344457e-01,3.990065909691760671e-01,4.490449499658070304e-02,2.378723382949829157e-01,-1.739209981851926601e-01,6.974382400512696423e-02,1.378723382949829102e-01,-1.771944880485534501e-01,-3.025617599487304479e-02,5.475092716226888090e-01,7.306506633758544922e-01,-3.045405149459838867e-01,2.702611939472958014e+01,0.000000000000000000e+00
2.169811999999999852e+00,1.245532295414389923e-01,4.021422216761340318e-02,8.738806247711181641e-01,-4.982190548700056801e-03,-1.349958417646690556e-02,4.343199405797309315e-02,4.179395755179397126e-02,9.846503788352288511e-02,4.328363866079598665e-05,2.839397498157044675e-01,3.149752253454187190e-01,-4.987611852736250490e-02,1.412935376167297474e-01,1.677239971374297478e-01,-2.084671258926390491e-02,4.129353761672973494e-02,1.268913924694061168e-01,-1.208467125892639105e-01,5.454674213925989612e-01,6.773486137390136719e-01,1.120647192001342773e-01,6.707973863118044733e+01,0.000000000000000000e+00
2.194833000000000034e+00,1.257975868081951110e-01,4.404483766137322343e-02,8.732880353927612305e-01,4.115846980074428126e-03,-4.132022373782406888e-03,4.269016688852569907e-02,3.784951938509028418e-02,9.746407219097018293e-02,7.680739276111125946e-03,2.516860174796575755e-01,3.546103412204022476e-01,-1.962526780154000630e-02,-1.057964359949998684e-01,3.155296027660369762e-01,-3.190724849700926624e-02,-1.672131478786468561e-01,2.155296027660369707e-01,-1.319072484970092718e-01,5.401044070012126497e-01,4.000276327133178711e-01,-2.058659791946411133e-01,7.856515934323128647e+01,0.000000000000000000e+00
2.225712999999999830e+00,1.265413105770613333e-01,4.686708455466717660e-02,8.730510473251342773e-01,1.028710208357761294e-02,8.619275064583042933e-04,4.271852234305566903e-02,4.515068791655650615e-02,1.091639371556260285e-01,9.301840327680110931e-03,3.269908089824509201e-01,2.152201993106979405e-01,1.002233783101115147e-02,-1.685139540134611980e-01,3.190393090248108132e-01,-5.344324111938475452e-02,-2.010768592357635443e-01,2.190393090248107799e-01,-1.534432411193847601e-01,5.300570348316171465e-01,-1.555159687995910645e-01,-1.335169076919555664e-01,1.239376620373299289e+02,0.000000000000000000e+00
2.249511000000000038e+00,1.271923743135816298e-01,4.984003854976756104e-02,8.729349374771118164e-01,1.605370486905388291e-02,3.864033341889117068e-03,4.300906898639757225e-02,2.736061182821786578e-02,9.176924835578673112e-02,3.109702840447425842e-02,3.176873728363946436e-01,7.858486159492311662e-02,2.258095407016764630e-02,-2.213937905663157790e-01,3.117437899112701638e-01,-1.113464832305907648e-02,-2.049019217491149791e-01,2.117437899112701305e-01,-1.111346483230590820e-01,5.196396588170015818e-01,-6.394596099853515625e-01,-2.069696187973022461e-01,8.616742626683310391e+01,0.000000000000000000e+00
2.272651999999999894e+00,1.277445348895872856e-01,5.282170761459304559e-02,8.729348182678222656e-01,2.023092777684218357e-02,4.542632518415468112e-03,4.365072568708977530e-02,2.437049883125919428e-02,1.039097398284807849e-01,1.312054228037595749e-02,1.371231499045443558e-01,5.831010498299242333e-03,5.597502469752373838e-02,-2.423182065255281570e-01,3.157858073711395375e-01,-1.682293415069577303e-03,-2.121687948703765703e-01,2.157858073711395319e-01,-1.016822934150695829e-01,5.214064211685796035e-01,-6.214182376861572266e-01,1.336997151374816895e+00,-6.267348712118320009e+00,0.000000000000000000e+00
2.299357000000000095e+00,1.281990774251153820e-01,5.583865332876598864e-02,8.729272484779357910e-01,2.253203730255948570e-02,2.303145384865867840e-03,4.465928770367450645e-02,1.971848588638966740e-02,1.066470014035927755e-01,2.425948716700077057e-02,8.030434488895679679e-02,-1.443505364452083162e-01,5.038941727596483316e-02,-2.548822772119995750e-01,3.136771976947784202e-01,1.507357358932495672e-02,-2.125633299350738470e-01,2.136771976947784424e-01,-8.492642641067504883e-02,5.202493285619719243e-01,-6.451060771942138672e-01,-5.948101282119750977e-01,7.207641132982746512e+01,0.000000000000000000e+00
2.322220999999999869e+00,1.286047321116011999e-01,5.885905337458495479e-02,8.728246092796325684e-01,2.229642915242775400e-02,-1.629202134784568656e-03,4.567968256463139642e-02,2.471858202775608152e-02,1.052954332135042498e-01,1.910335198044776917e-02,-6.633619188211878348e-02,-2.066566648738072665e-01,6.070007910379574684e-02,-2.509952483884089758e-01,3.144666254520416260e-01,-4.917216300964352693e-03,-2.104577243328094316e-01,2.144666254520416204e-01,-1.049172163009643582e-01,5.240532951630136882e-01,-4.657213687896728516e-01,-5.450541973114013672e-01,1.118277434690864993e+02,0.000000000000000000e+00
2.344822999999999880e+00,1.287859434268064374e-01,6.183124675594397351e-02,8.726822733879089355e-01,2.042322538173848082e-02,-7.104637552249659649e-03,4.671640570425359545e-02,2.136116855829972919e-02,1.149795371389215198e-01,2.364916168153285980e-02,-5.927283262306551337e-02,-3.144856246518395460e-01,5.005684006409395065e-02,-2.238205187879552249e-01,2.912858938877319614e-01,-2.654447555541991632e-02,-2.050417006015777532e-01,2.116802215576171764e-01,-1.265444755554199219e-01,5.284060438612930843e-01,-2.168689370155334473e-01,-4.360765218734741211e-01,8.766281422333734952e+01,0.000000000000000000e+00
2.374486999999999792e+00,1.287682962901036121e-01,6.619566083605576967e-02,8.722344636917114258e-01,1.498307706603856440e-02,-1.642411998317583333e-02,4.776473035361635672e-02,1.118391519197913311e-02,1.085320039912225226e-01,9.587442502379417419e-03,-1.632138206058952046e-01,-3.480996338612485363e-01,-3.338002113453962007e-03,-1.924557475236716997e-01,-6.780634134782641265e-02,-8.031017780303953413e-02,-2.051085233688354492e-01,-7.929468154907226562e-02,-1.803101778030395397e-01,5.449819780770225330e-01,6.369574069976806641e-01,-2.625024318695068359e-02,1.005199076754559968e+02,0.000000000000000000e+00
2.397736000000000089e+00,1.287162555284484811e-01,6.907010144646508198e-02,8.716930150985717773e-01,9.994220713179131910e-03,-2.299636918583058964e-02,4.872266643305643574e-02,4.083986272329149202e-03,1.068421490724844880e-01,2.591082826256752014e-03,-2.268213443854867062e-01,-3.676825210715080616e-01,5.588115820936738476e-02,-1.653248594992046405e-01,-2.473805089189175521e-01,-4.954384565353392444e-02,-2.116623580455780085e-01,-2.122174501419067383e-01,-1.495438456535339300e-01,5.469302617282589818e-01,7.101635932922363281e-01,2.070847749710083008e-01,-3.869352025193164479e+01,0.000000000000000000e+00
2.421285000000000132e+00,1.285817026628487403e-01,7.193036495811566677e-02,8.709820508956909180e-01,4.421880646153590264e-03,-2.976059686234888702e-02,4.963208174045369986e-02,1.942107736007898933e-02,1.148998961025456400e-01,-6.951287388801574707e-03,-2.843705801794926269e-01,-3.488434952724263627e-01,3.536993942242280115e-02,-1.153927382156709341e-01,-2.888891606947780466e-01,-3.800945281982420765e-02,-2.051778495311737116e-01,-2.224536180496215765e-01,-1.380094528198242132e-01,5.482198142259760987e-01,7.341765165328979492e-01,-4.450737237930297852e-01,1.159655608607394299e+02,0.000000000000000000e+00
