timestamp,x,y,z,roll,pitch,yaw,vx,vy,vz,p,q,r,psp,qsp,rsp,pres,qres,rres,thrust_sp, thrust_res
0.000000000000000000e+00,-2.035086190812856674e-02,5.118978123988657258e-02,9.975519776344299316e-01,1.700531419010679196e-02,-1.040928519400141639e-02,1.408919564326249763e-02,1.535392205620513331e-02,-2.832025918785943674e-02,-7.767979986965656281e-04,2.472787525908132569e-02,-3.949037066481344595e-03,-1.163840925960934417e-03,-3.263870919446671959e-01,1.367352245862535343e-01,9.304123540120541602e-02,-2.263870919446671626e-01,2.043327944520389738e-01,5.332361438452283553e-02,5.257421692119375045e-01,7.297372817993164062e-01,2.540957927703857422e-02,9.077908803215566991e+01,0.000000000000000000e+00
2.374799999999999828e-02,-2.021590114072372574e-02,5.086000546656321147e-02,9.973934888839721680e-01,1.698062159375376967e-02,-1.041839023260449082e-02,1.414279345683455702e-02,1.128257635096901502e-02,-2.494275799061626206e-02,1.566674327477812767e-03,4.028917633097013618e-02,-1.124645677535452207e-02,1.675549510932672001e-02,-3.219399958350320778e-01,1.319156658297238605e-01,1.089448276343385341e-01,-2.275009407248965165e-01,2.049871116884283972e-01,6.903907100179566825e-02,5.259033813661021517e-01,7.470455169677734375e-01,-9.851181507110595703e-02,-1.383549072996628979e+02,0.000000000000000000e+00
5.006399999999999739e-02,-1.990404697077782781e-02,4.981357532304129393e-02,9.969381690025329590e-01,1.632537537274664913e-02,-1.032942025679495224e-02,1.381686609070786886e-02,1.446805305418487862e-02,-2.893129303045164150e-02,-3.185212612152099609e-03,-3.121665144812907702e-02,2.798114472383914780e-02,-4.573798527989964696e-02,-3.133672630122548153e-01,1.447865087847440002e-01,-1.184823956287863467e-01,-2.188384528454534461e-01,2.139996744594473699e-01,-1.574395561011647515e-01,5.250473702740497961e-01,6.796383857727050781e-01,1.797112226486206055e-01,9.658923626095121051e+01,0.000000000000000000e+00
7.373100000000000487e-02,-1.955290827283184124e-02,4.970493167090529046e-02,9.966738820075988770e-01,1.563506016184920688e-02,-1.063629173400215677e-02,1.373930333354378419e-02,2.030235014925589263e-02,-2.450285678083903920e-02,-1.411619014106690884e-03,-3.605561956214962255e-02,-3.946728162356986924e-02,1.064319580317143419e-04,-2.505799391389774700e-01,1.378975508322525800e-01,-1.857757712348049595e-01,-1.646606762021316506e-01,2.046169551596427605e-01,-2.245053606619299147e-01,5.262013048707635532e-01,7.481143474578857422e-01,1.214281320571899414e-01,9.970665754155008642e+01,0.000000000000000000e+00
9.696899999999999964e-02,-1.920815975258405306e-02,4.953502154062142809e-02,9.963957071304321289e-01,1.386436194082433897e-02,-1.102689975653592391e-02,1.328984069118788192e-02,1.209472520473176514e-02,-2.783056038001377810e-02,-2.577296458184719086e-03,-1.095587793802821897e-01,-3.179992689109775728e-02,-2.967858181996368971e-02,6.821772638584347459e-02,1.431942053276624160e-01,-1.904100491072943935e-01,1.459251740195287306e-01,2.198157779567984083e-01,-2.278819166695816023e-01,5.264536858559292209e-01,7.558609247207641602e-01,-1.442691087722778320e-01,9.965669470777145023e+01,0.000000000000000000e+00
1.233479999999999993e-01,-1.874658603065561951e-02,4.946379317752622184e-02,9.961636066436767578e-01,8.532458246741496735e-03,-1.306205607402755042e-02,1.360600967598091238e-02,1.405215499558329362e-02,-1.457880256452230919e-02,-8.729760535061359406e-03,-2.495582281599437457e-01,-9.541669170770893105e-02,6.752320833658387311e-02,-1.277484956711930908e-01,1.262828796180904267e-01,-1.629195668370915784e-01,-9.582946837620107128e-02,2.130413658574606683e-01,-2.012437195575919047e-01,5.268101005829690653e-01,7.493512630462646484e-01,2.755185365676879883e-01,5.613929529791035122e+01,0.000000000000000000e+00
1.500829999999999942e-01,-1.841730673878098912e-02,4.950816061068413071e-02,9.962431192398071289e-01,1.121488665418076671e-03,-1.612732753551204823e-02,1.562129474381901417e-02,2.379265634021081495e-03,-1.110096475554193420e-02,1.644031517207622528e-02,-2.180207824042516840e-01,-1.180145576282762981e-01,9.462988903596479540e-02,-1.393638647527371544e-01,1.151935934715848653e-01,-1.535556277496941402e-01,-1.567826504453558034e-01,2.151935934715848708e-01,-1.974184597703924904e-01,5.249918102268269493e-01,7.507255077362060547e-01,-4.880443811416625977e-01,1.183977092619109328e+02,0.000000000000000000e+00
1.732080000000000009e-01,-1.844118590581549783e-02,4.985019940221402379e-02,9.966206550598144531e-01,-2.924168801884807680e-03,-1.885889450342981277e-02,1.712351599545947067e-02,4.542358959982209857e-03,-1.636967809594091355e-02,3.783202916383743286e-02,-1.785896562730095172e-01,-1.619085293118401880e-01,4.199949232210663935e-02,-7.015194567208848930e-02,1.181679765505670721e-02,7.644599444446976977e-02,-1.093884076832009611e-01,1.118167976550567128e-01,2.849530733582917794e-02,5.230485711520942438e-01,7.330303192138671875e-01,-1.725494861602783203e-02,1.256890984178923354e+01,0.000000000000000000e+00
1.998020000000000074e-01,-1.856319428729159490e-02,5.013080807586591664e-02,9.973074197769165039e-01,-5.654142665908858459e-03,-2.185531551016950402e-02,1.947376497869446332e-02,-2.465738073167465338e-04,-1.119457980631764597e-02,4.556552693247795105e-02,-7.913865723875454505e-02,-1.440934022811564685e-01,1.515623945560672925e-01,6.628239633845359191e-02,2.187213108298247111e-02,2.653536500134838771e-01,4.010836867458948685e-03,1.218721310829824767e-01,2.108855486016123770e-01,5.224347373007434125e-01,7.351129055023193359e-01,-9.639036655426025391e-02,7.584771394042834913e+01,0.000000000000000000e+00
2.210119999999999862e-01,-1.869686548756508207e-02,5.047325139138106320e-02,9.981268048286437988e-01,-8.045554454103303471e-03,-2.488057365238738328e-02,2.122275690752850608e-02,-8.979310066738613663e-03,-1.236286324484638273e-02,5.702162533998489380e-02,-1.104086248593555281e-01,-1.574590837589560921e-01,4.280211565549064956e-02,3.144556972491317076e-02,-3.150423889736413408e-01,2.760279712658451068e-01,-4.504807118606202893e-02,-2.150423889736413074e-01,2.167743216190023137e-01,5.205028808079777969e-01,6.818804740905761719e-01,3.093627691268920898e-01,2.360814588498804412e+01,0.000000000000000000e+00
2.471160000000000023e-01,-1.893227905555818977e-02,5.107289208141219811e-02,9.997474551200866699e-01,-1.197254815276900183e-02,-2.820461976880794808e-02,2.331694754128244007e-02,3.107152354155216616e-03,-3.911595997089819046e-03,6.607876718044281006e-02,-1.844330082206238064e-01,-9.913077854512290787e-02,1.768221710957354129e-03,2.817354723880339806e-01,-3.038925727084513806e-01,2.837307682555707533e-01,1.817354723880339751e-01,-2.038925727084513750e-01,2.187390914126692565e-01,5.194526546559437019e-01,6.706671714782714844e-01,-1.023524999618530273e-01,1.125074292537727985e+02,0.000000000000000000e+00
2.745250000000000190e-01,-1.848311368238521671e-02,5.103968318265041798e-02,1.001792550086975098e+00,-1.501550895835876247e-02,-3.083276246374455631e-02,2.222586699728390514e-02,-5.800378459540215040e-03,3.275986011107654555e-03,8.187758922576904297e-02,-7.616286826410077759e-02,-6.663888478634720502e-02,-3.966048030193071450e-02,3.106941021483182186e-01,-3.189763027402652273e-01,2.861468683459198470e-01,2.106941021483182130e-01,-2.189763027402651940e-01,2.243570348265674641e-01,5.180567293043857324e-01,6.700494289398193359e-01,9.320985078811645508e-01,-9.424290747915362587e+00,0.000000000000000000e+00
2.965809999999999835e-01,-1.793746345756537172e-02,5.081522875260280347e-02,1.003332257270812988e+00,-1.553991720719268346e-02,-3.147767067957629727e-02,2.010257431322193256e-02,-4.252183747774866858e-03,-9.249675851241197927e-04,8.662907034158706665e-02,-9.053899104435568501e-03,6.769965030866740771e-03,-1.231831172029134724e-01,2.440046558947475130e-01,-1.425760946900209714e-01,2.501965902354020832e-01,1.440046558947475075e-01,-4.257609469002097968e-02,1.944116213403226656e-01,5.180788952863641939e-01,7.006732225418090820e-01,1.274608373641967773e-01,8.631898816451568734e+01,0.000000000000000000e+00
3.217780000000000085e-01,-1.733999683792167637e-02,5.062162462122654638e-02,1.004928350448608398e+00,-1.478996946303982353e-02,-2.996419800258087740e-02,1.762002361900361080e-02,1.924607417068636191e-03,1.094917706986767896e-03,8.486226201057434082e-02,1.003041824052391395e-01,9.847459763869516325e-02,-1.334485513430648251e-01,2.530451488645168445e-01,-3.596229320331287282e-02,1.449906192680880945e-01,1.530451488645168390e-01,6.403770679668713273e-02,9.607256673271084846e-02,5.175788771615664752e-01,6.775938272476196289e-01,5.533492565155029297e-02,8.984339992718811629e+01,0.000000000000000000e+00
3.497810000000000086e-01,-1.633539831065724049e-02,5.032487389524507859e-02,1.007696866989135742e+00,-9.382973404389960068e-03,-2.366267341737482433e-02,1.265075914355207054e-02,8.809922102078746042e-03,5.716646167668259192e-04,1.028850525617599487e-01,2.219322514323511797e-01,2.709460975273740302e-01,-2.013734279667398208e-01,2.950420690973939997e-01,8.938302374595752386e-02,-9.347329930849829216e-02,1.997932813321334211e-01,1.893830237459575294e-01,-1.287550794629733208e-01,5.158761235883817520e-01,6.738619804382324219e-01,-1.157504320144653320e-01,-8.734024487940516224e+01,0.000000000000000000e+00
3.752480000000000260e-01,-1.567965453512894583e-02,5.016219976385635770e-02,1.009642362594604492e+00,-3.212611258638660601e-03,-1.796311776088965750e-02,9.301596900373798604e-03,1.341872887445116035e-02,2.376929056648376809e-03,1.057396903634071350e-01,3.418792450042005271e-01,2.364188481834924305e-01,-1.480474349458037187e-01,1.331621651817632979e-01,1.143250252305599568e-01,-1.627166026179948655e-01,7.614827748227960547e-02,2.143250252305599624e-01,-1.888203990197017679e-01,5.155943380480201288e-01,6.834657192230224609e-01,2.890247106552124023e-01,1.021603756801204952e+02,0.000000000000000000e+00
3.966060000000000141e-01,-1.548329161259040174e-02,5.024535848140722349e-02,1.011790633201599121e+00,3.392404240006291656e-03,-1.236334498047142461e-02,5.936116391157320038e-03,3.906573822837614875e-03,2.019256103454620827e-03,1.151069030165672302e-01,3.156988864189629318e-01,2.624684847673527943e-01,-1.429740868231375583e-01,1.444237825908225026e-01,1.306822237055924874e-01,-2.038548545652016653e-01,1.303896741916574509e-01,2.203657620655430638e-01,-2.206488792989801662e-01,5.119209303470316774e-01,5.389572381973266602e-01,-2.533723115921020508e-01,4.858755128359911168e+01,0.000000000000000000e+00
4.261340000000000128e-01,-1.526734388518453771e-02,5.047179060338085471e-02,1.015225052833557129e+00,1.334045681626401178e-02,-6.557866856458094418e-03,2.768729256507507230e-03,-4.656745557885495074e-03,6.490696268912404289e-03,1.209049522876739502e-01,3.448744353392003137e-01,1.333816743655902304e-01,-1.657804454414796638e-02,-2.653893677285407704e-01,1.504177241523310116e-01,-1.536472132041650784e-01,-2.190602551394682240e-01,2.080771686448698865e-01,-1.616426718162469189e-01,5.147710361063918549e-01,7.343686819076538086e-01,2.376354932785034180e-01,8.536716032253939090e+01,0.000000000000000000e+00
4.466169999999999862e-01,-1.528591508739866010e-02,5.066536662752015724e-02,1.017592668533325195e+00,1.975114564364348693e-02,-4.635583830171263742e-03,1.874148860183222354e-03,-1.691974095008100254e-02,2.345621815832655492e-05,1.370910555124282837e-01,3.252150164860676540e-01,6.131232806903430532e-02,-6.510955326546334632e-02,-3.172767893538164241e-01,1.474714468243631393e-01,-9.885880951695312502e-02,-2.236905494604275735e-01,2.018495973312166569e-01,-1.044005496891165369e-01,5.135464516570246163e-01,7.499160766601562500e-01,-2.627874612808227539e-01,1.071723821534541798e+02,0.000000000000000000e+00
4.752839999999999843e-01,-1.545703489508492429e-02,5.091463328134170768e-02,1.021446108818054199e+00,2.793658213014412264e-02,-4.930580024752773127e-03,2.748523214005871296e-03,-5.058896662135764846e-03,3.788661990929335574e-03,1.372187882661819458e-01,1.961302439489024663e-01,-5.673570846379520638e-02,2.490179555665458441e-02,-3.203547102394944668e-01,1.186477114478060868e-01,3.662691165980012931e-02,-2.203547102394944335e-01,1.632338952554950040e-01,2.860436920085716525e-02,5.131824808786955572e-01,7.541531324386596680e-01,3.795992136001586914e-01,-1.408431793652443886e+01,0.000000000000000000e+00
4.974549999999999805e-01,-1.606631664924985936e-02,5.115645615630953769e-02,1.024161577224731445e+00,3.227623529609517650e-02,-6.521860828705428048e-03,4.264706708375642918e-03,-1.789811817668476163e-02,3.946374350353216813e-03,1.444730311632156372e-01,2.402401611236551771e-01,-9.658880044776392559e-02,1.092695889518752461e-01,-3.195372595890171863e-01,5.321494627906749042e-02,4.198073012581096664e-02,-2.195372595890171807e-01,1.212096298168537090e-01,2.947772225676251190e-02,5.122072862515389957e-01,7.498278617858886719e-01,-9.393465518951416016e-02,-7.812597134941029253e+01,0.000000000000000000e+00
5.239829999999999766e-01,-1.699841298775753642e-02,5.153867900939836100e-02,1.028317928314208984e+00,3.429839844902099477e-02,-9.648202114604487178e-03,5.519949047192884706e-03,-1.941878954606313101e-02,9.207384064052205261e-03,1.420527398586273193e-01,2.203343828092341541e-02,-1.112919406231364094e-01,3.397903539842880329e-03,-2.605881396258902249e-01,-2.682446590650436336e-01,-1.989971479196288306e-02,-1.605881396258901916e-01,-1.799876900913261191e-01,-3.613775307526205516e-02,5.113245862161446276e-01,7.180868387222290039e-01,2.655872106552124023e-01,1.146238794813171467e+02,0.000000000000000000e+00
5.471329999999999805e-01,-1.754055151635910623e-02,5.182473984779040199e-02,1.031079888343811035e+00,3.160761383387866719e-02,-1.158017069928973797e-02,6.067983362983309092e-03,-1.584518937535263003e-02,7.566662801179263598e-03,1.376435309648513794e-01,-1.984668085556862693e-01,-8.220978539740880775e-02,3.989050694012999387e-02,-1.956645491587725716e-01,-8.865797607494438348e-02,-7.312977052421731905e-02,-9.566454915877255216e-02,9.378769728741779069e-03,-9.092622099740743646e-02,5.114116862986883838e-01,7.247128486633300781e-01,2.710601091384887695e-01,7.814284191666021684e+01,0.000000000000000000e+00
5.742680000000000007e-01,-1.833810853067881913e-02,5.229038657056079425e-02,1.035156965255737305e+00,2.425172311023950783e-02,-1.464826573075250771e-02,5.384551907542611815e-03,-8.289202646183406117e-03,1.422475891418407620e-02,1.348581612110137939e-01,-2.678362968139548217e-01,-9.408269191812193566e-02,-1.828108447678091983e-02,-9.796906385754014512e-02,-9.463409122772742377e-02,-1.073899522405188517e-01,2.030936142459866065e-03,5.365908772272584386e-03,-1.232398911606229081e-01,5.112689828243177637e-01,7.306420803070068359e-01,9.309649467468261719e-03,1.121889238723967708e+02,0.000000000000000000e+00
6.008259999999999712e-01,-1.899825013961029679e-02,5.260338111937806066e-02,1.039253950119018555e+00,1.400514831336559414e-02,-1.671867932060244755e-02,4.477554337343869761e-03,-1.495749744763974834e-02,5.070387264833743461e-03,1.337803155183792114e-01,-3.457118973871953771e-01,-3.013741021805336345e-02,-5.533879521823294872e-02,-9.356360980366348890e-02,-1.238178039308758666e-01,-8.716601945069926693e-02,-4.319524600009853194e-02,-2.381780393087585754e-02,-1.002875256530656178e-01,5.106474967374619034e-01,7.182288169860839844e-01,-3.320287466049194336e-01,1.019221386818704502e+02,0.000000000000000000e+00
6.227390000000000425e-01,-1.936306676337883059e-02,5.280802747307819511e-02,1.041952252388000488e+00,6.763981139312506483e-03,-1.611178784267375264e-02,4.643064079297154478e-03,-1.421678865072586138e-02,1.240884218491614122e-02,1.368643194437026978e-01,-3.651128261882729542e-01,9.027813486166663681e-02,2.952342304886908242e-02,4.978608479212967737e-03,6.390134809740943833e-02,-6.367476341476326074e-02,2.080389254067858311e-04,1.639013480974094439e-01,-7.707082412188455411e-02,5.103637293347416115e-01,7.347874641418457031e-01,-6.658732891082763672e-02,9.834089291511433828e+01,0.000000000000000000e+00
6.496849999999999570e-01,-1.989987799445327304e-02,5.310961703633409331e-02,1.046014428138732910e+00,-2.133857301058520849e-03,-1.408422115895024973e-02,4.942489906460956206e-03,-2.841327498952190590e-03,1.379455187727256921e-02,1.412561833858489990e-01,-2.137087394666840612e-01,4.681822319507251973e-02,1.554243893272687707e-02,1.917497166884241100e-01,1.099651477097250973e-01,8.119716327760062580e-02,1.285608157137797525e-01,2.099651477097251029e-01,6.723300396384829236e-02,5.096149255207118589e-01,7.378120422363281250e-01,2.063654661178588867e-01,9.510559622981938332e+01,0.000000000000000000e+00
6.746729999999999672e-01,-2.027679920548305578e-02,5.330519383910283654e-02,1.048898816108703613e+00,-6.476340610358052863e-03,-1.244593301634933091e-02,5.465042206892256615e-03,-1.923317568513644923e-02,1.319621442259896445e-03,1.391159296035766602e-01,-2.063327995205953835e-01,6.361096386901905764e-02,3.726845568736737724e-02,1.544231233784484902e-01,1.026875125826993140e-01,1.776352609008187422e-01,7.337366122858829387e-02,2.026875125826993196e-01,1.623450654489369260e-01,5.088353781683278010e-01,7.088087797164916992e-01,1.671618223190307617e-01,9.240698165855816626e+01,0.000000000000000000e+00
6.957900000000000196e-01,-2.044884133466461779e-02,5.330549742379962763e-02,1.051874399185180664e+00,-9.081840253895124421e-03,-1.078713194053038116e-02,6.072373354065074835e-03,-7.538876593172635920e-03,1.060620060864407577e-02,1.498550325632095337e-01,-1.048091601696054392e-01,9.223621600922790598e-02,2.217441285902211137e-02,2.182630017242817577e-02,1.036850233670149890e-01,2.079648844444387246e-01,-7.817369982757182978e-02,1.927124921181757322e-01,1.909915399765913513e-01,5.063415863563868191e-01,6.409709453582763672e-01,2.023278474807739258e-01,9.804642979961674598e+01,0.000000000000000000e+00
7.221739999999999826e-01,-2.049263027444481189e-02,5.302816160892864783e-02,1.056540966033935547e+00,-1.029371551798518962e-02,-9.537073534971796107e-03,5.876515201073129191e-03,-1.324310154553012472e-02,1.153770701600219557e-02,1.539146602153778076e-01,4.785214425418879425e-02,5.025142989240752485e-03,-4.275025781326786956e-02,7.801537319876580834e-02,4.592150719610392506e-02,4.974964377497721746e-02,-2.198462680123419027e-02,1.337498192987155166e-01,3.334856014673749647e-02,5.059862688571286071e-01,6.671385765075683594e-01,5.960596799850463867e-01,1.059288096112699691e+02,0.000000000000000000e+00
7.482250000000000290e-01,-2.055857259885466790e-02,5.272278485266681386e-02,1.061399340629577637e+00,-7.937174823482164368e-03,-1.040969862061635887e-02,3.618983128290897966e-03,-1.637668324396558683e-02,1.628070659125516770e-04,1.589477211236953735e-01,1.023889307857161896e-01,-7.088288295908565240e-02,-1.286656111180663753e-01,5.894861164594276254e-02,-1.225854420676535245e-01,5.806292127679683196e-02,-3.161101419322621259e-02,-2.695991402868098963e-02,4.796992386449831086e-02,5.054449904009646888e-01,6.887969970703125000e-01,-2.564135789871215820e-01,4.998444108208261127e+01,0.000000000000000000e+00
7.756760000000000321e-01,-2.063672351165973806e-02,5.251795935830830264e-02,1.066245555877685547e+00,-4.125708098300476766e-03,-1.292065520276053370e-02,4.328142302021387167e-04,-1.173798125132947956e-02,1.351302454356722790e-02,1.498206257820129395e-01,8.133549029718435686e-02,-8.785239035908729011e-02,-7.839505689527141719e-02,4.901478618688977218e-02,-2.336105038753929497e-01,3.191394632158158634e-02,-3.006253849779289000e-02,-1.336105038753929442e-01,3.061126141676286799e-02,5.052719115559395346e-01,6.733624935150146484e-01,2.496834993362426758e-01,-1.964075195841068222e+01,0.000000000000000000e+00
8.003329999999999611e-01,-2.084994801396870129e-02,5.207639303979472167e-02,1.069260597229003906e+00,-2.035419323287835421e-03,-1.513302013694373116e-02,-1.464418982096260535e-03,-1.044669779572104766e-02,1.307218564578431150e-02,1.555673927068710327e-01,8.674361098720456686e-02,-1.293078393861420983e-01,-1.020178158768558496e-01,4.314394182985396842e-02,-2.631020553182327193e-01,1.904689772617595284e-02,-1.997256567713187256e-02,-1.631020553182326860e-01,2.299896264304673171e-02,5.041621515857518387e-01,6.607596874237060547e-01,3.170255422592163086e-01,9.085601645277752425e+01,0.000000000000000000e+00
8.215479999999999450e-01,-2.110199416089411986e-02,5.172634098698250527e-02,1.072232723236083984e+00,-4.407871104748531626e-04,-1.668703366686141720e-02,-2.824910408127490058e-03,-1.925627507620372020e-02,1.814568916674057578e-02,1.459335535764694214e-01,1.079141128555465290e-01,-9.074348855299962935e-02,-5.351178728689943986e-02,2.710923175712795855e-02,-2.879916039697386632e-01,5.590864778768205035e-02,-3.004315625313260310e-02,-1.879916039697386299e-01,6.357927464541572593e-02,5.043049447696535958e-01,6.526979207992553711e-01,-1.755682229995727539e-01,9.516109151682573497e+01,0.000000000000000000e+00
8.476759999999999851e-01,-2.138966203765430008e-02,5.132664193595175284e-02,1.076596021652221680e+00,1.400727285186661444e-03,-1.697685203778753760e-02,-5.135970357448282897e-03,-8.298672524750822649e-03,1.757750992712378557e-02,1.449537426233291626e-01,3.789748855020932256e-02,7.203730138377460734e-02,-1.140692383975065866e-01,9.873654395485934043e-02,-4.826660091527851942e-02,1.173311361671471598e-01,5.472327480333760708e-02,5.173339908472148613e-02,1.314400991748006231e-01,5.041783326192059711e-01,6.706056594848632812e-01,1.059687137603759766e-02,9.594891285645168466e+01,0.000000000000000000e+00
8.715800000000000214e-01,-2.153405269105861455e-02,5.112377923505875138e-02,1.079394817352294922e+00,2.875118329671141372e-03,-1.530816739258833437e-02,-6.286343104938030280e-03,-1.016791136940647369e-03,2.540963667170876433e-02,1.374842375516891479e-01,8.490186853845442527e-02,1.170698154918745904e-01,-1.994137204482509737e-02,5.047809808903831741e-02,6.639521798765768423e-02,-1.880842639129891025e-01,9.083105786897676531e-03,1.663952179876576898e-01,-1.707868710167277926e-01,5.051095694877583142e-01,7.119652032852172852e-01,1.135190725326538086e-01,1.225001531038523694e+02,0.000000000000000000e+00
8.979059999999999819e-01,-2.150300206106056308e-02,5.059660700588732019e-02,1.083445549011230469e+00,5.257924506419029732e-03,-9.170154071175051769e-03,-8.638558703773613345e-03,-1.077551092199199000e-02,1.541546563464820004e-02,1.256734132766723633e-01,1.019981431180413400e-01,2.459484695514561614e-01,-1.076941384305437344e-01,1.914160133390168383e-01,1.227778381664077351e-01,-2.416335109228868461e-01,1.756110992133479154e-01,2.093047769526690804e-01,-2.176865173367013850e-01,5.048578806423944521e-01,6.786279678344726562e-01,2.697190046310424805e-01,8.073362999904173165e+00,0.000000000000000000e+00
9.217170000000000085e-01,-2.132732002009355213e-02,5.015736057044843654e-02,1.086025834083557129e+00,6.848539172028077389e-03,-3.816933024736179902e-03,-1.024692467274967989e-02,8.925689384913999868e-04,2.338876321772943162e-02,1.240349039435386658e-01,4.487566814340304688e-02,3.282448172067266023e-01,-7.044718463072704995e-02,9.815871485486252213e-02,1.793614166942536226e-01,-2.524736441751053162e-01,8.424534198613650715e-02,2.196865021953408326e-01,-2.239188961327395755e-01,5.033603900317098478e-01,6.138958930969238281e-01,-1.372362375259399414e-01,7.405672222683512018e+01,0.000000000000000000e+00
9.490800000000000347e-01,-2.118263476249554814e-02,4.954693868671550261e-02,1.089735507965087891e+00,1.041523057611792695e-02,1.857844923121465541e-03,-1.200296580247250944e-02,-7.473974836448742717e-04,2.285542729108876181e-02,1.300396919250488281e-01,1.614532557801741097e-01,1.066334365681559787e-01,1.297716542029811199e-03,-1.563012355972553669e-01,2.078221754069973781e-01,-2.501282851045343869e-01,-1.452198948236511911e-01,2.146830922296907862e-01,-2.165470343644637086e-01,5.031800211758902241e-01,6.537878513336181641e-01,2.057377099990844727e-01,1.019996135176259031e+02,0.000000000000000000e+00
9.733629999999999782e-01,-2.121072054767027953e-02,4.921199086442921283e-02,1.092274188995361328e+00,1.256012420332625751e-02,3.492251336492779856e-03,-1.146617072453737229e-02,-1.985132512742443858e-02,1.329519160887680795e-02,1.277013123035430908e-01,1.036395372360060935e-01,4.146086369688315593e-02,4.695550330983653403e-02,-2.377465893752804260e-01,1.676390008150862865e-01,-1.689804768453266326e-01,-2.044529336208452674e-01,1.802082686309597059e-01,-1.369286923412605939e-01,5.043799838179608974e-01,7.287440299987792969e-01,9.933364391326904297e-02,9.771751520994561702e+01,0.000000000000000000e+00
9.989799999999999791e-01,-2.137337233244765780e-02,4.823520850631648343e-02,1.096125364303588867e+00,1.711714187620397634e-02,2.382924367267724719e-03,-9.344747643113882063e-03,-6.157494101869721327e-03,1.753842919163799488e-02,1.301721781492233276e-01,1.106151881834065154e-01,-6.781335684040364076e-02,7.938578086348929697e-02,-2.198477856051983537e-01,-4.120031081886984387e-02,-3.208518490773196175e-02,-1.620011243982102112e-01,-3.600096253214967595e-02,-5.947145215456113056e-03,5.038315395581429712e-01,7.362051010131835938e-01,-2.512191534042358398e-01,3.235977655155210186e+01,0.000000000000000000e+00
1.022205999999999948e+00,-2.148408206505037985e-02,4.742772831521629290e-02,1.098711848258972168e+00,2.018995547486246434e-02,-9.883561850010380567e-05,-7.470228752170404718e-03,-1.801054656393026934e-02,1.366804764287641964e-02,1.414425075054168701e-01,1.963735538361404132e-01,-1.543060980558516038e-01,1.141094776478943917e-01,-2.338916389865164924e-01,-1.657292770472236776e-01,-3.406368856811241991e-02,-1.519363966333087956e-01,-1.317529148173886833e-01,-1.334959212568309107e-02,5.024171473063954174e-01,7.285200357437133789e-01,4.451736211776733398e-01,9.069957096983837630e+01,0.000000000000000000e+00
1.050224999999999964e+00,-2.166992826289147051e-02,4.633141726404674948e-02,1.102579236030578613e+00,2.144964651082489904e-02,-4.474641940545254215e-03,-5.261938679420374854e-03,-9.088911719384496282e-03,1.776350486366289408e-02,1.343818306922912598e-01,-2.439250174612631050e-02,-1.005590557923289330e-01,1.478497929458160408e-02,-1.181657320334368738e-01,-2.222784267130860081e-01,-1.902911123120612155e-02,-3.182253994257436269e-02,-1.693615292288147556e-01,-4.632554557751102781e-03,5.018424494128969071e-01,6.976072788238525391e-01,4.404288530349731445e-01,9.355788219408366047e+01,0.000000000000000000e+00
1.075461000000000000e+00,-2.174859825339620079e-02,4.569675411267749843e-02,1.105040431022644043e+00,1.960869805090343504e-02,-7.560367440371473791e-03,-4.123921684878073535e-03,-2.020596137958088900e-03,1.559857965960348772e-02,1.217158883810043335e-01,-1.471550426705073300e-01,-1.430595358874769962e-01,8.173009767890089539e-02,-1.292860979368251340e-01,-1.664321353089872058e-01,-2.938366684565693610e-02,-5.214722393324947025e-02,-9.816898331201910632e-02,-1.823832879324702172e-02,5.025092163375236565e-01,7.037432193756103516e-01,4.453831911087036133e-01,1.193198667621326905e+02,0.000000000000000000e+00
1.099798999999999971e+00,-2.172599531585210630e-02,4.511242384379302722e-02,1.107312083244323730e+00,1.647456889765538599e-02,-9.282525078596393087e-03,-4.050009945433918901e-03,-1.052290593394451454e-02,1.730929787998385788e-02,1.195901632308959961e-01,-1.608118554331943728e-01,-5.112426495221010503e-02,-2.969513843998816335e-02,-7.753208697111885206e-02,-1.792118740431632995e-01,-8.785873293306500909e-02,-2.245550818891515685e-02,-9.116343786714078967e-02,-7.698248906485966048e-02,5.020320245449363394e-01,6.904915571212768555e-01,4.752799272537231445e-01,4.643789609140475250e+01,0.000000000000000000e+00
1.122227000000000086e+00,-2.249150927904888450e-02,4.488978596275702837e-02,1.109404563903808594e+00,1.198574488191592527e-02,-9.298081203768626679e-03,-3.847623954329471019e-03,2.181695441790421942e-03,1.266912200155999313e-02,1.101992353796958923e-01,-2.356147195313201825e-01,1.178328277936476279e-02,1.322338363412352627e-02,-6.755834336694252484e-02,-1.253702737347070495e-02,-9.361768025040871632e-02,-3.741919245097186097e-02,6.378117470395167077e-02,-8.316184350396714497e-02,5.028675815864972476e-01,7.167196273803710938e-01,-2.669692039489746094e-03,9.185891361917801134e+01,0.000000000000000000e+00
1.146246000000000098e+00,-2.315478835979961278e-02,4.472781636996150945e-02,1.111401438713073730e+00,7.131702204845308431e-03,-7.687843548474404543e-03,-4.033452377486979046e-03,6.797074956299005433e-03,1.612288174999183116e-02,1.020130440592765808e-01,-2.603741483862092032e-01,1.237458485804597413e-01,-2.314069059687679300e-02,-1.082283384941852972e-01,1.024057053462151395e-01,-9.909435976897618126e-02,-1.134378368433123924e-01,1.667601428240398642e-01,-8.800921619613127911e-02,5.016531643359903869e-01,6.390969753265380859e-01,8.558686971664428711e-01,-2.302576297521773674e-01,0.000000000000000000e+00
1.174177999999999944e+00,-2.401953236157833987e-02,4.445099099636628387e-02,1.114205360412597656e+00,9.686336301111950946e-04,-4.053570313360843613e-03,-3.739078474574331068e-03,5.471204813121968106e-04,1.094578572721237493e-02,1.015537008643150330e-01,-1.596738160470315415e-01,9.654982404281826913e-02,4.044779652243407631e-02,-5.943031990392990543e-02,1.503143712209895067e-01,9.089399518989450810e-02,-9.971653616944668730e-02,1.978158968707419696e-01,1.012802789605585368e-01,5.006020413544504111e-01,6.040860414505004883e-01,4.284509420394897461e-01,4.888373560676754437e+01,0.000000000000000000e+00
1.195043000000000077e+00,-2.453918566894488021e-02,4.428670623195584549e-02,1.115995168685913086e+00,-1.934564882657942558e-03,-9.469640254531341839e-04,-3.505954895184570930e-03,1.701766719175055185e-03,1.152127899124528142e-02,1.006838679313659668e-01,-1.247572381253273660e-01,1.904304141989055510e-01,-3.320556532683260204e-02,-8.180933102894588638e-02,1.807338993303626296e-01,1.036077411961160571e-01,-1.424186863174690953e-01,2.064873267332396622e-01,1.133942139073640526e-01,4.992163393293381768e-01,5.460258722305297852e-01,5.268145799636840820e-01,1.016788814945804376e+02,0.000000000000000000e+00
1.222515000000000018e+00,-2.486712060200630542e-02,4.350404174040877620e-02,1.119477868080139160e+00,-4.679242295594194211e-03,3.749821663320718201e-03,-2.363525899558238663e-03,-5.018929266393832656e-04,9.238849142631670730e-03,1.015729680657386780e-01,-2.597328801142182939e-02,4.250887147924038018e-02,-1.168123985586879722e-02,-1.022913180592481264e-01,2.150257827570540015e-01,1.561544055017973776e-01,-1.784195345415034994e-01,2.126441874605299598e-01,1.627734782502989752e-01,4.996596250864097088e-01,5.975507497787475586e-01,-7.457411289215087891e-02,-3.151253256614704057e+01,0.000000000000000000e+00
1.248175999999999952e+00,-2.492192546744184667e-02,4.290714619264946600e-02,1.122126340866088867e+00,-5.981005003558406349e-03,4.594642657775427352e-03,-1.841693234886809805e-03,1.014576044428688699e-02,1.807710501233958031e-02,9.135144203901290894e-02,-8.175366664028116404e-02,1.396462900351413960e-02,1.915609930245452258e-02,1.117692262066955905e-01,2.216684286418076355e-01,8.017227595571663201e-02,1.935212402546590896e-02,2.042687364745948420e-01,8.533748922373457502e-02,4.994214030829364770e-01,5.657643079757690430e-01,-2.595833539962768555e-01,6.062344767671253720e+01,0.000000000000000000e+00
1.271611999999999965e+00,-2.492886051785246637e-02,4.250629730017509156e-02,1.124705910682678223e+00,-7.328511578242559964e-03,1.983127055256828086e-03,-2.860364607458754094e-03,9.589128611913974934e-03,2.472421199365353733e-02,9.261769801378250122e-02,-8.172189770945145456e-04,-1.348293843965014949e-01,-3.714350148065851537e-02,1.364367751141773444e-01,-8.428796738276067568e-02,-1.458682375562658090e-02,3.643677511417732495e-02,-8.242072426487903614e-02,-6.578431412807775845e-03,5.016085081366454812e-01,7.062721252441406250e-01,1.552561521530151367e-01,5.539873203715171712e+01,0.000000000000000000e+00
1.294326000000000088e+00,-2.518873208983250442e-02,4.189064511782700923e-02,1.127096414566040039e+00,-9.821186536414113627e-03,-3.036416393626950594e-03,-4.857856451668807196e-03,-7.411515359341459179e-04,2.097068691752707048e-02,8.287645876407623291e-02,-1.047581939013708385e-01,-1.942652116499374859e-01,-7.387444574238670458e-02,1.727576780068817430e-01,-1.769940321515134918e-01,3.960356836461838975e-03,7.275767800688175135e-02,-1.333316274694934800e-01,1.757730575303234274e-02,5.009887862422998106e-01,6.552655696868896484e-01,-3.458374738693237305e-01,7.334011243949571224e+01,0.000000000000000000e+00
1.319997000000000087e+00,-2.562550992432057959e-02,4.127754516875147689e-02,1.129298329353332520e+00,-1.123670562459030790e-02,-9.931809924732748485e-03,-5.938219257665355855e-03,8.169669613710659611e-03,3.407967638465958515e-02,7.073387503623962402e-02,-2.564512911824100294e-02,-2.135469637011765121e-01,7.535002089809351641e-03,2.009176212953206475e-01,-2.646069506628579426e-01,2.847329057724829610e-02,1.009176212953206558e-01,-1.850889145731101915e-01,4.512078377005002833e-02,5.019321761103961999e-01,6.752827167510986328e-01,-5.200170278549194336e-01,9.600871799282431596e+01,0.000000000000000000e+00
1.347375999999999907e+00,-2.595905000798173073e-02,4.079783265281095722e-02,1.131452560424804688e+00,-9.599805670046918440e-03,-1.453006803496137422e-02,-6.489318457534087869e-03,1.108537070382730090e-02,2.581631794723987863e-02,7.581266760826110840e-02,1.361129621419548963e-01,-1.046549358657723611e-01,-1.634343538967339415e-02,9.563657017360653601e-02,-2.384368752804383595e-01,9.490150724375960578e-02,-4.363429826393471281e-03,-1.384368752804383540e-01,1.130941142068599276e-01,5.014602648073945845e-01,6.896755695343017578e-01,4.100226163864135742e-01,1.311022162879714870e+02,0.000000000000000000e+00
1.371402999999999928e+00,-2.603719387429393600e-02,4.054760704353128214e-02,1.132854461669921875e+00,-7.246146948131959413e-03,-1.410715128865502876e-02,-6.882879372093420045e-03,1.512909131483479441e-02,2.899766876146630049e-02,6.608318537473678589e-02,1.181300286269870575e-01,1.099893389025979051e-01,3.320988946377081280e-03,1.063239047811362914e-01,4.144278057882069821e-02,-1.600209368712804392e-01,6.323904781136286714e-03,1.414427805788207038e-01,-1.407935501674841272e-01,5.008628048860505055e-01,6.353244781494140625e-01,-3.160315752029418945e-01,1.011896282141432550e+02,0.000000000000000000e+00
1.396431999999999896e+00,-2.630542530291977293e-02,3.997996508956793565e-02,1.134835362434387207e+00,-2.060178452545484342e-03,-1.003849428501379926e-02,-8.048084578000436196e-03,2.849935064840101312e-02,3.052530247999657789e-02,5.895022675395011902e-02,2.159513375969771276e-01,1.442788160090257010e-01,-4.212139656451033276e-02,6.400958231546508004e-02,1.308381769692526508e-01,-2.033696746436564062e-01,-1.028017216543343319e-02,1.966352329934768772e-01,-1.809382537383695255e-01,5.010010500191731664e-01,6.319160461425781250e-01,-1.417802572250366211e-01,8.434542549440800485e+01,0.000000000000000000e+00
1.420439000000000007e+00,-2.642501430404876200e-02,3.974546977803198461e-02,1.136065125465393066e+00,1.015255739177324014e-03,-5.520835932977252725e-03,-8.362549612978664726e-03,8.838838599151880790e-03,3.296991950164396973e-02,4.849466681480407715e-02,1.281726870432314258e-01,2.297967042812309735e-01,4.064327577893423610e-02,1.151078585433359391e-01,1.519463802481951231e-01,-2.119210525453006921e-01,5.908852145532682981e-02,2.077046312517813742e-01,-1.886333150301468531e-01,5.003659051082615106e-01,5.713050365447998047e-01,-5.255115032196044922e-02,-4.095957211286677335e+01,0.000000000000000000e+00
1.446210999999999913e+00,-2.668327870137487956e-02,3.953190145677058787e-02,1.137847661972045898e+00,6.062196179008075454e-03,-1.096872255277325792e-03,-6.772360929889087444e-03,2.449332116391715261e-02,3.863764590992974785e-02,5.049568042159080505e-02,1.718203612102871258e-01,1.041368247267454861e-01,7.514471220251318917e-02,-1.548334716890981677e-01,1.986677267707102346e-01,-2.029805420830016471e-01,-1.828794150192246948e-01,2.091976975937336891e-01,-1.840543931236696684e-01,5.021672210543172143e-01,6.900790929794311523e-01,-1.961292028427124023e-01,1.039917884532218579e+02,0.000000000000000000e+00
1.470391000000000004e+00,-2.694439641827472282e-02,3.941434983514686963e-02,1.139072537422180176e+00,9.427162678991005129e-03,-3.900359167245959213e-04,-5.070362999304967033e-03,8.958620446100261370e-03,3.181825264526560310e-02,5.765521526336669922e-02,1.629280200260707079e-01,-1.964286157846041950e-02,9.315297341609217463e-02,-1.825981038070508267e-01,4.758237956935014445e-02,-5.181632797238145544e-02,-1.822543077502438713e-01,6.963790310684235541e-02,-3.770807113885488865e-02,5.019648797003447571e-01,7.225034236907958984e-01,3.166691064834594727e-01,-3.936781018717364589e+01,0.000000000000000000e+00
1.496388999999999969e+00,-2.716822801348008770e-02,3.947911515686496065e-02,1.140920758247375488e+00,1.419838623093217476e-02,-1.935172145732577675e-03,-1.942380130248055892e-03,7.883950357420791560e-03,3.436810592240602258e-02,4.462075605988502502e-02,8.088707217408205863e-02,-7.091022955475716205e-02,1.211021457033955168e-01,-5.469020175264441286e-02,-9.666879653165721953e-02,-1.611875180650179304e-02,-2.687367632301551276e-02,-6.609037733101273682e-02,-1.083863859521061110e-02,5.024180218979297230e-01,7.113139629364013672e-01,-6.030424833297729492e-01,1.048371199856593137e+02,0.000000000000000000e+00
1.520745999999999931e+00,-2.726117662922165896e-02,3.966718980439314091e-02,1.142096996307373047e+00,1.572932768248610363e-02,-4.131819631269628701e-03,-1.035761798187095906e-04,1.268719584826576846e-02,3.919859902351358755e-02,5.114623904228210449e-02,3.460341056368716056e-02,-8.556013776582126196e-02,5.188347378219198419e-02,-6.493627311173583161e-02,-1.950831354995222477e-01,1.591527162862803324e-02,-3.157249459306452760e-02,-1.545416315836899979e-01,1.597541931043204577e-02,5.015654058834763118e-01,7.065520286560058594e-01,-1.355277299880981445e-01,1.051037842312349539e+02,0.000000000000000000e+00
1.545908999999999978e+00,-2.725909085531006207e-02,4.010697476116595328e-02,1.143543243408203125e+00,1.373948274927560761e-02,-6.736770718377416145e-03,1.360474534648714595e-03,1.118534257233588791e-02,4.282890661707731278e-02,3.965121135115623474e-02,-1.283046335133222471e-01,-7.520004538538864469e-02,2.398716760525968980e-02,-3.571988304455102348e-02,-1.835360728377358752e-01,-4.267413509299745195e-02,-1.816692024335370484e-02,-1.240796974065252051e-01,-4.680102573188017062e-02,5.017533626155075144e-01,6.857891082763671875e-01,-1.975773572921752930e-01,1.005257952985205492e+02,0.000000000000000000e+00
1.573009000000000102e+00,-2.715995835977412509e-02,4.043466749333332610e-02,1.144360899925231934e+00,1.142192656601300274e-02,-7.173012020061042548e-03,1.790876615667347238e-03,1.317758539130452385e-02,3.616165369504185934e-02,3.416948765516281128e-02,-1.095222152681748773e-01,2.311166652327006216e-02,-3.551317667024639097e-03,-1.477928921290311559e-01,1.074152003520026655e-01,-1.219397293272544702e-01,-1.394224051147889554e-01,1.676990066072756580e-01,-1.272343316902850019e-01,5.013435912990505949e-01,6.549632549285888672e-01,-4.092582464218139648e-01,3.045716588654251922e+01,0.000000000000000000e+00
1.596289000000000069e+00,-2.692788897538973478e-02,4.103638642994162505e-02,1.145419955253601074e+00,7.869953647406734837e-03,-5.417235507049422694e-03,2.464593663387137923e-03,2.509789777658780544e-02,3.922893900476576851e-02,2.879790402948856354e-02,-1.134974496029263619e-01,1.121940933019516251e-01,2.818057654240062326e-02,-1.375221759272355071e-01,1.760625026557927630e-01,2.723859404426986000e-02,-1.566177447203248030e-01,2.147206428546936108e-01,2.018185945069321877e-02,5.005812572669695593e-01,6.065998077392578125e-01,-1.222079992294311523e-01,-3.868709304392266546e+01,0.000000000000000000e+00
1.622028000000000025e+00,-2.671654532831827661e-02,4.145072728046366589e-02,1.146077752113342285e+00,6.722927648136307714e-03,-3.317238814979805994e-03,3.151854947831767007e-03,1.923284311681703121e-02,3.630820744649404519e-02,3.169144317507743835e-02,-8.429425607248833621e-03,8.410332492670866134e-02,3.647766743819626928e-02,-1.950658383739509449e-01,1.771468007223568064e-01,1.906203745413253409e-02,-2.192971560600936176e-01,2.089848194039229945e-01,1.011868187463787344e-02,5.013040067357489304e-01,6.674430370330810547e-01,1.889193058013916016e-02,1.274646351209411250e+02,0.000000000000000000e+00
1.646620999999999890e+00,-2.636003118174067711e-02,4.206726438983168087e-02,1.147141337394714355e+00,5.289386563479572118e-03,-3.991011791779630613e-04,3.877445499465670409e-03,2.334883082898241494e-02,3.408190666133945057e-02,2.778633311390876770e-02,-5.857017548664082696e-02,9.098580971460393241e-02,-2.627066032602360865e-02,-1.340104620311229622e-01,2.046312511071176898e-01,-1.442783592303097454e-02,-1.667934680974637873e-01,2.127327835456947203e-01,-2.531239152766966496e-02,5.008299601073017415e-01,6.401493549346923828e-01,-3.886553049087524414e-01,9.661205592296822431e+01,0.000000000000000000e+00
1.672223000000000015e+00,-2.615287380417477200e-02,4.255201970839245923e-02,1.147831439971923828e+00,4.199748036767532271e-03,-7.223326481979874814e-04,4.138887291950776870e-03,2.444555482971479468e-02,4.113898943654845097e-02,2.341273613274097443e-02,-6.390933586680219713e-02,-6.033966302097294732e-02,3.003053505082734984e-02,2.364029950492129231e-02,-1.002809068266864445e-01,-2.845803300365952471e-02,-2.331857626584877760e-02,-9.055000985122958757e-02,-4.008019903804906081e-02,5.022005905823782035e-01,7.058696746826171875e-01,-3.366283178329467773e-01,9.792390986628505800e+01,0.000000000000000000e+00
1.696925999999999934e+00,-2.550142752272305940e-02,4.302520095450412807e-02,1.148763537406921387e+00,5.346059273552495120e-04,-3.604580264551682234e-03,4.346308577210633572e-03,9.611164874590729865e-03,4.135933472786382237e-02,1.829415746033191681e-02,-1.399431877919037337e-01,-1.273434113204865159e-01,-1.631558644764302679e-02,8.751010582776876101e-02,-1.672720923376412316e-01,8.628498741144602358e-04,1.702127069101342163e-02,-1.261510795901384929e-01,-1.141271879915477239e-02,5.009518112831486958e-01,6.321213245391845703e-01,7.724660634994506836e-01,9.699714881856270665e+01,0.000000000000000000e+00
1.722453999999999930e+00,-2.495638104247318093e-02,4.335444925810526956e-02,1.149277687072753906e+00,-2.624011260959041147e-03,-6.706814799209093181e-03,4.977414771436539098e-03,1.168926136872947517e-02,4.521415347411784219e-02,1.348879653960466385e-02,-1.422426028244523355e-01,-1.424024667411638578e-01,4.212284901004101356e-02,1.155941924605190102e-01,-2.092825116781699413e-01,3.764336036291426879e-02,2.078148142615734995e-02,-1.525029242207453506e-01,2.359201578347341899e-02,5.012083406218813542e-01,6.366715431213378906e-01,8.719195127487182617e-01,-6.388844117074506279e+00,0.000000000000000000e+00
1.745525999999999911e+00,-2.407169501029852651e-02,4.393806429077784514e-02,1.149917840957641602e+00,-6.339917977372623407e-03,-1.010347538059330752e-02,5.350494937557126462e-03,2.480212181048747910e-02,4.852206571855574579e-02,1.076666079461574554e-02,-7.766446295753165474e-02,-5.863125324605436561e-02,-1.978985485121930593e-02,1.875424878157467556e-01,-1.784505413683454278e-01,6.589117524275708848e-02,8.754248781574675009e-02,-1.112306315431885601e-01,5.082157112169419927e-02,5.007468655381358547e-01,6.122353076934814453e-01,8.797518014907836914e-01,5.805601371865058979e+01,0.000000000000000000e+00
1.771042999999999923e+00,-2.337755579870282041e-02,4.431980545302106195e-02,1.150210857391357422e+00,-7.246101797314933278e-03,-1.054824198428927495e-02,5.693085204228065521e-03,2.046486667870418136e-02,4.403911891962199177e-02,3.394552040845155716e-03,-2.387821500538562462e-03,2.526642155583383800e-03,4.998336997188913139e-02,3.659403264147496893e-02,6.321358552342289105e-02,-3.030755580393553611e-02,-6.340596735852503663e-02,1.386930464603279844e-01,-4.632267025717675540e-02,5.015809273625866371e-01,6.357926130294799805e-01,-1.787220239639282227e-01,8.887087661202667732e+01,0.000000000000000000e+00
1.797021999999999897e+00,-2.230416784916688239e-02,4.535633242155386047e-02,1.150623559951782227e+00,-5.575666581326148633e-03,-7.460322087664117419e-03,5.141205109392421591e-03,3.556521223503579521e-02,4.559591584050697727e-02,-5.936161032877862453e-04,1.240147255492275724e-01,1.809021664198700308e-01,-5.956007487114650667e-02,1.206042735394608212e-01,1.692834693604061136e-01,-1.520956142684019574e-01,2.060427353946082257e-02,2.101717996183048720e-01,-1.665503631524370975e-01,5.029815167931060982e-01,7.026367187500000000e-01,3.653572797775268555e-01,1.729367834448410974e+02,0.000000000000000000e+00
1.820608999999999922e+00,-2.161529264947711568e-02,4.651693483092300685e-02,1.150795340538024902e+00,-2.972292135949226779e-03,-4.285086807954474608e-03,4.957384063700054355e-03,3.798701068782020518e-02,4.814630996720402345e-02,-1.207751967012882233e-02,1.393539947074996510e-01,1.750166984070287424e-01,4.444864938657775572e-02,9.269295771478341939e-02,1.978049532109778796e-01,-1.482260900509110302e-01,-7.307042285216586164e-03,2.178118736456495785e-01,-1.621492889564746243e-01,5.026815456668887183e-01,6.490255594253540039e-01,-1.630738973617553711e-01,1.326649635700703982e+02,0.000000000000000000e+00
1.846114999999999950e+00,-2.064680131340030853e-02,4.841939368101826763e-02,1.151071429252624512e+00,1.815743770195606815e-03,-3.598260940651520912e-04,5.426312142924105686e-03,2.495497148061090117e-02,4.695654899628156492e-02,-1.230830559507012367e-03,1.817449520913518302e-01,8.506908416250549831e-02,4.476727490390610548e-02,-1.065601256843543565e-01,2.018207718920641824e-01,-1.147487781827978837e-01,-1.780756845965303647e-01,2.072131685957780134e-01,-1.299601980336018703e-01,5.028488766666573406e-01,7.092452049255371094e-01,4.872466325759887695e-01,-3.289002804248228529e+01,0.000000000000000000e+00
1.871210999999999958e+00,-2.009029709891219789e-02,4.971296282231289082e-02,1.151268720626831055e+00,4.469614507285824684e-03,-2.243302908921940286e-05,6.793142156394038622e-03,3.246599496863396273e-02,5.108032398971771443e-02,-5.094301886856555939e-03,7.817147977485311428e-02,2.220201000367918141e-03,7.286925170582363165e-02,-1.207117883881388826e-01,1.383277286751214141e-01,-2.436578420527552719e-02,-1.799107302732260993e-01,1.323980881958464195e-01,-4.336473779202443951e-02,5.028936593324390136e-01,7.042560577392578125e-01,-6.670483350753784180e-01,9.688542741430880767e+01,0.000000000000000000e+00
1.896900000000000031e+00,-1.918521901372438956e-02,5.174178180169108215e-02,1.151450276374816895e+00,7.924560045499217872e-03,-3.110006645710372553e-03,9.504050485598547482e-03,1.696285083149470796e-02,5.505658538422526782e-02,-1.312248781323432922e-02,7.896940018797574123e-02,-1.611534812745717138e-01,1.281683780504491166e-01,1.839474826407331773e-02,-8.053291201370954555e-02,3.040467904419458245e-02,-2.282367955279428554e-02,-5.269678506367078685e-02,3.658162807311239519e-03,5.033244625318026300e-01,7.026668787002563477e-01,5.594779253005981445e-01,3.415283781246385075e+01,0.000000000000000000e+00
1.921737999999999946e+00,-1.830454786822122495e-02,5.314029091387593301e-02,1.151516556739807129e+00,8.735702907242938464e-03,-6.403912220996232918e-03,1.052029647641727905e-02,1.610331296371920323e-02,5.628996129380175323e-02,-1.088212244212627411e-02,1.128793315094353718e-02,-1.578220300165652235e-01,1.287219224840802784e-02,7.717400801126420018e-02,-2.119225291602539196e-01,6.233101176133820642e-02,3.940347127603005539e-02,-1.650738855804000094e-01,3.263673455835819359e-02,5.025077898985826907e-01,6.758148670196533203e-01,-5.426286458969116211e-01,1.210752117184476333e+02,0.000000000000000000e+00
1.949473999999999929e+00,-1.697866173906776785e-02,5.532874323394382926e-02,1.151400685310363770e+00,7.240461336529219541e-03,-1.127100856882456981e-02,1.160162867170866363e-02,2.875512518060741041e-02,6.214396445559558502e-02,-2.759761177003383636e-02,-9.194127916176855764e-02,-1.322883696490658734e-01,2.639370614623329572e-02,7.004560221546018983e-02,-2.475377427505711936e-01,3.865804941118592547e-02,1.633127531309924024e-02,-1.811766483712867748e-01,5.845500201282363174e-03,5.030767340674201504e-01,6.451747417449951172e-01,-2.479413747787475586e-01,9.384289915795912407e+01,0.000000000000000000e+00
1.974671000000000065e+00,-1.600235368307104458e-02,5.679791582818585066e-02,1.151266098022460938e+00,6.297727943773667215e-03,-1.314794391557527753e-02,1.165624203419346472e-02,2.795340328888050105e-02,6.354832576742575068e-02,-2.303751558065414429e-02,-4.664359493706207033e-02,-4.207432656977565244e-02,-9.433952363024116633e-03,9.330804830106570469e-02,-2.494758708343300380e-01,4.040628751108132910e-02,3.159723590101914947e-02,-1.689503467900649036e-01,7.382817166992572400e-03,5.024190201444337367e-01,6.344301700592041016e-01,4.395788908004760742e-01,-9.710673237360639121e+01,0.000000000000000000e+00
1.995888000000000106e+00,-1.494816061999509373e-02,5.822124201190848058e-02,1.150974273681640625e+00,5.989037629710061011e-03,-1.295427836130991217e-02,1.142861392608485183e-02,3.699633622036579972e-02,5.613158935296284902e-02,-3.454691916704177856e-02,2.096798389745882854e-02,2.054730022634940548e-02,7.581972250256680153e-03,-1.032897910347745640e-01,1.432092879399480267e-01,-1.333354425908074015e-01,-1.614695021873580882e-01,2.138591277945648406e-01,-1.656565074046853769e-01,5.043299296598210413e-01,6.943489313125610352e-01,5.940991640090942383e-01,-6.007721695821910401e+00,0.000000000000000000e+00
2.026526000000000050e+00,-1.352568841963967643e-02,6.012549501969524646e-02,1.150501966476440430e+00,7.096192325837007847e-03,-8.661252276730868616e-03,1.090647571155289874e-02,4.019623339652868971e-02,5.951761505427114601e-02,-3.822962939739227295e-02,4.905465662478832728e-02,2.245524418068644279e-01,-4.852351695054813591e-02,-1.463923763018830093e-01,1.741181128074913709e-01,-9.914276542393712921e-02,-2.031768527258882573e-01,2.144631301310337967e-01,-1.298829077267117937e-01,5.053082798905980111e-01,7.348942756652832031e-01,-2.078735828399658203e-02,8.444725678474372899e+01,0.000000000000000000e+00
2.046139999999999848e+00,-1.251624434338805512e-02,6.134984390890311362e-02,1.149992108345031738e+00,8.582461246767963264e-03,-4.970594252977855732e-03,1.094240928657397305e-02,4.497299174549063833e-02,5.580680804656952543e-02,-4.230469465255737305e-02,9.208920462296381337e-02,1.726911056575222980e-01,5.101871666763882485e-02,-3.176245564641400065e-02,2.065184969130735571e-01,-1.852908440737011109e-01,-7.636909891539479800e-02,2.184780060345922759e-01,-2.159942542034166690e-01,5.051445896870498942e-01,7.136023044586181641e-01,-1.060923337936401367e-01,5.236681789477222537e+01,0.000000000000000000e+00
2.070704000000000100e+00,-1.113877699494428448e-02,6.327751655264676756e-02,1.149273991584777832e+00,1.048081952861618441e-02,-4.289853049912473182e-04,1.227496563243857253e-02,3.041532927349614376e-02,6.124063359737257073e-02,-4.331272840499877930e-02,8.476245245679270290e-02,9.555623513113190026e-02,5.480764385987004633e-02,-1.455738314748217799e-01,2.217213713480356840e-01,-1.837091426478084655e-01,-1.850104025601425617e-01,2.162051642115034589e-01,-2.180508142214110379e-01,5.041209266714389292e-01,6.579018831253051758e-01,1.579026579856872559e+00,-4.739629201404166103e+00,0.000000000000000000e+00
2.096403000000000016e+00,-1.030769785779658138e-02,6.455997717349500065e-02,1.148764491081237793e+00,1.067389022140773601e-02,-1.874830646220182473e-04,1.346815784710253538e-02,3.491543324643355678e-02,5.863306542323596521e-02,-5.113580450415611267e-02,-1.910348556000593043e-02,-2.945029779697215869e-02,8.692213250208184749e-02,-1.647560377949770782e-02,2.025581770989084984e-01,1.556054341575391631e-01,-5.263624710136152046e-02,1.885904748560534860e-01,1.179714813581772825e-01,5.057543292543246194e-01,7.160565853118896484e-01,7.769316434860229492e-01,-8.470044165199235309e+00,0.000000000000000000e+00
2.122882000000000158e+00,-9.517360790015133923e-03,6.677758670278342856e-02,1.148089528083801270e+00,1.041485785593746979e-02,-3.279566967424374369e-03,1.626989003442047554e-02,2.856362606818227401e-02,6.748186895163073296e-02,-4.271532967686653137e-02,9.480944869740003805e-03,-1.646916466169475179e-01,1.538368715991434155e-01,2.476776255791919915e-02,3.141131170640837356e-02,9.479663127627994956e-02,-2.327986360170131511e-02,4.267321057097746284e-02,4.916671847432678433e-02,5.050369941296711795e-01,7.136492729187011719e-01,-5.205328464508056641e-01,1.081048668997010083e+02,0.000000000000000000e+00
2.146266999999999925e+00,-9.039226773544659782e-03,6.826905262631720317e-02,1.147628426551818848e+00,9.271781499086353615e-03,-6.832017674679002894e-03,1.755175589112090151e-02,1.930609801600425418e-02,5.494557479259912225e-02,-4.207320138812065125e-02,-4.399937254474859533e-02,-2.282118004079844720e-01,5.605144108742438069e-03,9.254798918531312313e-02,-2.000271679356859511e-01,7.814887367999884260e-02,4.774129952330696119e-02,-1.590385078060476409e-01,2.877431157446430632e-02,5.036545754295829180e-01,6.472823619842529297e-01,8.148294687271118164e-01,-1.996241459473055535e+00,0.000000000000000000e+00
2.172712999999999894e+00,-8.278271360266896417e-03,7.045254553643034989e-02,1.146923780441284180e+00,6.492763017574164700e-03,-1.290190530906687449e-02,1.760027936827790462e-02,3.485253108128710114e-02,6.714530459648074268e-02,-6.233027577400207520e-02,-1.293368928741180368e-01,-1.705301089402972425e-01,1.713455312005808875e-02,1.004052722579041323e-01,-2.001949686462414779e-01,5.965952076555642442e-02,2.402198155785379916e-02,-1.352403970416430901e-01,1.002717178013546283e-02,5.052284813492660120e-01,6.509697437286376953e-01,1.512993574142456055e-01,1.028798404865329559e+02,0.000000000000000000e+00
2.198034999999999961e+00,-7.728312641608729890e-03,7.191696153317583828e-02,1.146335005760192871e+00,5.587502143152015682e-03,-1.620381202209242311e-02,1.692118306256351623e-02,3.100617243521922722e-02,5.726171310056629021e-02,-5.911883339285850525e-02,-4.381689077847709946e-02,-1.331127488881155285e-01,-7.819912733728402732e-02,1.151195113453085672e-01,-2.911365042439165163e-01,1.211480694321890456e-01,4.163939308985261517e-02,-1.992596023427251062e-01,7.331948582532134273e-02,5.047286381362550145e-01,6.397590637207031250e-01,-3.310898542404174805e-01,6.736858733118029363e+01,0.000000000000000000e+00
2.225306999999999924e+00,-6.624469995251204384e-03,7.461904102823126161e-02,1.145150065422058105e+00,4.791419517206897856e-03,-1.785940199755686741e-02,1.641829560567620305e-02,2.909155631382973062e-02,6.216309766358762284e-02,-6.780546903610229492e-02,-1.887942281615324902e-02,1.475351144822718494e-02,3.145424509477157821e-02,-1.232423780052328971e-01,1.090588056421632757e-01,7.471076049665474617e-02,-2.096898502727943259e-01,2.090588056421632812e-01,2.822797373285367006e-02,5.063505805051397024e-01,6.898891925811767578e-01,-1.748765707015991211e-01,1.293072698948488153e+02,0.000000000000000000e+00
2.250290999999999819e+00,-5.804274240025961672e-03,7.659683188200912263e-02,1.144280791282653809e+00,5.595105525156398793e-03,-1.654393482261662385e-02,1.574995084840002946e-02,3.886763710164559127e-02,5.618454174144277280e-02,-6.792299449443817139e-02,5.039364396039245492e-02,1.040358849733938607e-01,-7.683393254832628083e-02,1.392183560198188008e-01,1.271178050293672035e-01,1.346475098352135358e-01,6.211768912604947318e-02,2.121783383588164706e-01,9.012106255850252379e-02,5.066841299333972870e-01,7.075673341751098633e-01,-2.635365724563598633e-01,8.466615068726430593e+01,0.000000000000000000e+00
2.272393000000000107e+00,-4.893001179034048125e-03,7.851360158695221136e-02,1.143279671669006348e+00,7.066728138484185476e-03,-1.387308837612999390e-02,1.512828965997381481e-02,4.654898184544321166e-02,6.519076934434578363e-02,-7.509391009807586670e-02,1.073726665509607825e-01,1.579975108771687342e-01,-2.148926562776236684e-02,1.316132196629651030e-01,1.587607528912566845e-01,-1.488318821658095592e-01,5.383396207498918062e-02,2.206076786803647938e-01,-1.915438080654807140e-01,5.077031623103087643e-01,7.320802211761474609e-01,4.479614496231079102e-01,-2.841487785300617830e+01,0.000000000000000000e+00
2.298672999999999966e+00,-3.526806923956587406e-03,8.132582405335059272e-02,1.141748070716857910e+00,9.703475081093131810e-03,-8.860807728552799745e-03,1.328230871450841732e-02,3.415326520027155838e-02,5.687494475484126261e-02,-7.506572455167770386e-02,9.558831935500418375e-02,1.320463092717256703e-01,-1.012530215850169085e-01,1.953037715089962767e-01,1.774478642163818398e-01,-2.797858700847206948e-03,1.405119531744231098e-01,2.176840611597460617e-01,-4.023425082427285054e-02,5.075944616032896928e-01,7.241034507751464844e-01,-4.863543510437011719e-01,1.079209299053525655e+02,0.000000000000000000e+00
2.323037999999999936e+00,-2.293071003005312403e-03,8.386559130608067791e-02,1.140174865722656250e+00,1.203246504983054854e-02,-6.940698426833646906e-03,1.209249116895172449e-02,2.922758410008173199e-02,6.064208069116108074e-02,-8.313245326280593872e-02,4.931006643386077332e-02,1.357481519192089113e-02,2.600052691645593494e-02,-1.449500659652205869e-01,1.622832380640326644e-01,-3.329684220666208339e-02,-1.911541210266057000e-01,1.914441777065054584e-01,-6.735668856874628407e-02,5.077289522748769102e-01,6.956908702850341797e-01,-4.956415891647338867e-01,8.186845056171371482e+01,0.000000000000000000e+00
2.347386000000000195e+00,-1.269353288300093191e-03,8.622903945361419520e-02,1.138673067092895508e+00,1.548645488087046183e-02,-9.292896765988212238e-03,1.283684235627280401e-02,2.774637262714986161e-02,6.138051847946031370e-02,-7.218762487173080444e-02,1.492857419050980794e-01,-1.255515003065394153e-01,3.641940895856562999e-02,-5.537424285614229308e-02,1.804022996246947702e-02,8.845092307260460363e-02,-8.153723096051089525e-02,6.199387257281157443e-02,5.217033393255150059e-02,5.070735202697850275e-01,7.015038728713989258e-01,-3.616646528244018555e-01,9.828281581660172606e+01,0.000000000000000000e+00
2.371176999999999868e+00,-6.491330992717646168e-04,8.770931459932876373e-02,1.137697696685791016e+00,1.788945485661558657e-02,-1.242230833476876128e-02,1.300465261568839459e-02,2.020465522898910737e-02,5.628444039909146629e-02,-6.496015191078186035e-02,1.013833990533075657e-01,-1.884141114474261747e-01,3.464181628476592154e-03,-8.619158243475415204e-03,-1.887404965882864549e-01,7.514099976053981167e-02,-1.643505834605481220e-02,-1.187837047055697454e-01,3.816437734486029937e-02,5.060562359626125106e-01,6.762247085571289062e-01,-3.394318819046020508e-01,9.660660543201055361e+01,0.000000000000000000e+00
2.396892999999999940e+00,2.070680686780334515e-04,8.996960262697015209e-02,1.136075496673583984e+00,1.872756311203818344e-02,-1.724889950293495566e-02,1.303830920881887678e-02,2.058182232353063593e-02,6.281366722841241756e-02,-8.232694864273071289e-02,-4.127382161469234784e-02,-1.228823485525954717e-01,6.205986392745439610e-03,3.702040490872975792e-02,-2.919887849338194119e-01,1.007575547674323807e-01,2.687828196927091046e-02,-1.928681337109275640e-01,6.341022087378740679e-02,5.068264763656831207e-01,6.441950798034667969e-01,2.681771516799926758e-01,-7.278998851317537344e+01,0.000000000000000000e+00
2.421605000000000008e+00,1.413341638442457734e-04,9.180546842229458937e-02,1.134886622428894043e+00,1.787299229159099168e-02,-1.988082689339343290e-02,1.235184455443261164e-02,2.578893462896977157e-02,5.753400738068022852e-02,-7.917751371860504150e-02,-7.096639678647645444e-02,-7.913078577818226378e-02,-6.522885140778596214e-02,-8.153613217822906767e-02,-3.039995954506367060e-01,1.935227046121862707e-02,-9.351809281552890540e-02,-2.039995954506366727e-01,-1.614529095385963328e-02,5.063463256059986817e-01,6.295073032379150391e-01,8.727186918258666992e-01,1.035662608377408986e+02,0.000000000000000000e+00
