timestamp,x,y,z,roll,pitch,yaw,vx,vy,vz,p,q,r,psp,qsp,rsp,pres,qres,rres,thrust_sp, thrust_res
0.000000000000000000e+00,2.810131919418761611e-03,2.472890684703783065e-02,9.857479929924011230e-01,1.570680739901410966e-02,-9.268362457158563217e-03,5.973248259268342485e-03,-6.411927946049280139e-03,-2.297033695081206195e-02,2.472996478900313377e-03,-2.041533825599653115e-02,-5.765416986888241904e-03,-4.248955116766486677e-03,-1.287037670612335150e-01,-4.806953512897041425e-02,1.882829807332818961e-01,-2.870376706123351981e-02,1.547580957412719727e-02,1.713495612144470270e-01,5.028441868431013928e-01,-5.292366743087768555e-01,-1.981524229049682617e-01,-3.161591260187706087e+00,9.136660099029540738e-02
2.493000000000000077e-02,2.928983095059484610e-03,2.417055847707989466e-02,9.858015775680541992e-01,1.576233034395274624e-02,-9.322797198831000998e-03,5.935553850448561930e-03,-1.354068465235252865e-02,-2.858977996014368250e-02,5.221106577664613724e-03,-1.392723828313155270e-02,-6.554953955628472703e-03,-4.616009368865056466e-03,-2.271975040435791071e-01,-1.049095378756699781e-01,2.160823752996692826e-01,-1.271975040435791016e-01,-3.623803853988647600e-02,1.992402970790863037e-01,5.016280141743202359e-01,-5.825029015541076660e-01,3.820446729660034180e-01,-8.255868215847851843e+01,1.189304590225219727e-01
5.129800000000000332e-02,2.978649903481496962e-03,2.335644885226515269e-02,9.858977198600769043e-01,1.596780538576628508e-02,-8.912596642460579588e-03,5.784083607368447830e-03,2.126484182919151280e-03,-2.193108549923150977e-02,4.274365492165088654e-03,-1.393075241037541531e-02,3.321661335886255933e-03,-6.722873857380733120e-03,-2.761586904525757669e-02,1.043775907045044332e-01,2.084924717446622056e-01,7.238413095474242887e-02,1.566446900367736705e-01,1.921155810356140192e-01,5.018572695129668304e-01,-5.743117332458496094e-01,-1.266632676124572754e+00,1.945492914883239735e+02,1.189304590225219727e-01
7.804200000000000026e-02,3.030785857457264729e-03,2.282910027373918210e-02,9.860190153121948242e-01,1.559355433894176780e-02,-8.044940623966434501e-03,5.551424106372895850e-03,4.197490219920559963e-03,-2.028733209864034756e-02,-1.310300547629594803e-03,-6.956665013000177221e-03,1.103713521086402936e-02,-6.541866698514743790e-03,-2.733390271663665994e-01,1.652655926466570779e-01,2.141036461102623079e-01,-1.733390271663665660e-01,2.124853312969207653e-01,1.983994781970977728e-01,5.005780773164771880e-01,-6.637301445007324219e-01,-2.837127447128295898e-01,-9.228830029154002546e+01,1.189304590225219727e-01
9.906600000000000128e-02,3.112854976353797258e-03,2.237016804207280288e-02,9.860118031501770020e-01,1.409210277924673876e-02,-6.660588442253256858e-03,4.232643352119853583e-03,-1.993583830014350380e-03,-1.974135841054308269e-02,-1.018115039914846420e-02,-2.098160572268501292e-02,2.621379833051590974e-02,-1.779567233435517051e-02,-2.294520700974408967e-01,1.677837651972924338e-01,2.135188781347643894e-01,-1.388802587985992487e-01,2.112714707851409968e-01,2.015340507030486950e-01,5.014746365386620885e-01,-6.530042886734008789e-01,-1.501393198966979980e+00,1.000323346215546394e+02,1.189304590225219727e-01
1.251990000000000047e-01,3.236163744651471795e-03,2.170370546079444102e-02,9.855594038963317871e-01,1.060851923150336364e-02,-5.847063123795015471e-03,1.839241009396350157e-03,-1.294089226168341870e-03,-2.516302700814833024e-02,-2.545005641877651215e-02,-5.474022798825542435e-02,3.458491265450450158e-02,-4.396509050661587953e-02,-8.118843985301574251e-02,1.465687562914375908e-01,2.106859586910943827e-01,-8.431684970855711850e-03,1.832862496376037598e-01,2.054568350315093828e-01,5.036042712018141687e-01,-6.052064299583435059e-01,-1.587590813636779785e+00,3.216187523544556370e+01,1.189304590225219727e-01
1.505839999999999956e-01,3.372677280884857614e-03,2.091000698263626931e-02,9.845905303955078125e-01,7.086775698858725249e-03,-7.505004912976787068e-03,-9.905639446981368522e-04,3.511434681664680774e-03,-1.445877626310032582e-02,-5.328406020998954773e-02,-9.314985183644776401e-02,1.334415223368096495e-02,-7.065748030218682585e-02,1.222245439113809895e-01,1.964623551710149851e-02,1.773566308757334731e-01,1.632147073745727484e-01,6.335971355438231589e-02,1.800561368465423417e-01,5.090584771739496972e-01,-4.341813325881958008e-01,-1.613768935203552246e+00,1.119754941212122077e+02,1.189304590225219727e-01
1.737180000000000113e-01,3.577504117668351205e-03,2.012581581025338351e-02,9.836682677268981934e-01,4.366615085612165700e-03,-9.672786072908001742e-03,-2.931365559617653011e-03,-4.602944117137227308e-03,-1.392581983622063688e-02,-6.126761436462402344e-02,-1.204415885885499610e-01,-1.852420533811717507e-02,-8.899218932984702402e-02,1.543557852140028108e-01,-1.026842606743196412e-01,1.816592474542844116e-01,1.792459487915039062e-01,-3.785158395767211637e-02,1.897985816001891979e-01,5.094653214256688045e-01,-4.516351819038391113e-01,-1.450827121734619141e+00,1.102624690169946717e+02,1.189304590225219727e-01
1.992669999999999997e-01,3.804044450001539419e-03,1.911262338951197348e-02,9.816612601280212402e-01,2.018873925007942769e-04,-1.360234484472644390e-02,-5.929238741806394826e-03,-7.062543502268309528e-03,-1.919399287251306527e-02,-8.511841297149658203e-02,-1.285940800901748116e-01,-7.776889915583856672e-02,-9.500598868105770978e-02,1.645243553222452693e-01,-2.619871259844932521e-01,1.870737862481701153e-01,1.671504735946655329e-01,-1.710111021995544267e-01,2.036755979061126709e-01,5.097866279442879733e-01,-5.418795347213745117e-01,-1.503137469291687012e+00,7.078825814293057306e+01,1.189304590225219727e-01
2.244369999999999976e-01,3.919188217431684301e-03,1.847253589186640885e-02,9.800197482109069824e-01,-9.694437402506509869e-04,-1.612977319941433230e-02,-7.785168955943388112e-03,-2.672350113426172954e-03,-1.534506168052152814e-02,-1.003097370266914368e-01,-1.198687138676642477e-01,-9.974657346907275790e-02,-9.541853758422667864e-02,1.821662073330742315e-01,-2.920519590377807506e-01,1.925435012448212524e-01,1.736972093582153376e-01,-1.920519590377807451e-01,2.143560469150543046e-01,5.100270919643259404e-01,-6.016060709953308105e-01,-1.212374091148376465e+00,1.188109220463183675e+02,1.189304590225219727e-01
2.509399999999999964e-01,4.093998309557982281e-03,1.734658401533128655e-02,9.770361781120300293e-01,2.589202534037065412e-04,-1.811068081986255685e-02,-1.041571809506129653e-02,-5.327499837561675694e-03,-1.494841890389024541e-02,-1.119679361581802368e-01,-5.869137193801857166e-02,-1.104442276240107795e-01,-9.398654029577843683e-02,1.771653035815373978e-01,-3.052730321884155051e-01,1.943261488335392417e-01,1.775352001190185491e-01,-2.052730321884155273e-01,2.234781503677367998e-01,5.098940550798064519e-01,-6.732565164566040039e-01,-1.263126730918884277e+00,1.367518482410825698e+02,1.189304590225219727e-01
2.745290000000000230e-01,4.234737861799927131e-03,1.644089008906213581e-02,9.747722148895263672e-01,2.643765221728430065e-03,-1.658986218354718822e-02,-1.247129003768593890e-02,-2.863005186128138140e-03,-1.996929353929300169e-02,-1.323426514863967896e-01,-8.889608962621404695e-03,-6.948405197385616738e-02,-8.783220667032168305e-02,1.239757430553840301e-01,-3.008409142494201660e-01,1.907739069805429732e-01,1.443287372589111273e-01,-2.008409142494201605e-01,2.256437301635741965e-01,5.119703958755006390e-01,-6.600623726844787598e-01,-1.527995944023132324e+00,7.982936417935081685e+00,1.189304590225219727e-01
3.011800000000000033e-01,4.560713777687086697e-03,1.509080625422544453e-02,9.708563685417175293e-01,8.429159255993790706e-03,-1.122526362436482295e-02,-1.570086160112704049e-02,1.285995317648960107e-02,-1.914799311457419245e-02,-1.527503877878189087e-01,8.689402985813890479e-02,3.303992252427822435e-02,-1.002087856621175499e-01,-2.419238484723391647e-01,7.042100150363414524e-02,3.076484104486505722e-02,-1.846112608909606934e-01,1.303743124008178711e-01,7.462309598922729770e-02,5.205346884515560379e-01,-3.058325052261352539e-01,-1.170229077339172363e+00,-1.115509500529717286e+02,1.189304590225219727e-01
3.268940000000000179e-01,4.842067436279323678e-03,1.426044266829927694e-02,9.679788351058959961e-01,1.260719729275471858e-02,-5.582612550293575282e-03,-1.788166695299939213e-02,-2.602128166540357453e-03,-2.516664321942110871e-02,-1.598290801048278809e-01,1.469978699615894779e-01,1.043552835475348994e-01,-9.941860274636041273e-02,-2.882178440063085101e-01,1.500273457642443409e-01,-5.907698187514794086e-02,-1.981794476509094183e-01,1.873546600341796931e-01,-9.100127220153807900e-03,5.189967707150346943e-01,-4.376655220985412598e-01,-1.162334322929382324e+00,1.040556848729073209e+02,1.189304590225219727e-01
3.522950000000000248e-01,5.441745832471039587e-03,1.286721476834163345e-02,9.631007909774780273e-01,1.826055815169210297e-02,3.669113421343128678e-03,-2.084074558909908975e-02,1.804506026854671430e-02,-1.353267300704484068e-02,-1.833860874176025391e-01,1.736163545320882073e-01,2.257750064528092071e-01,-1.014130207713772880e-01,-3.100979864597320779e-01,2.589186708371811751e-01,1.070864611480527862e-02,-2.100979864597320446e-01,2.180297613143920843e-01,6.922407746315002719e-02,5.186191840677898401e-01,-5.813851356506347656e-01,-1.721021831035614014e+00,1.009597035561131122e+02,1.189304590225219727e-01
3.761539999999999884e-01,5.878988482300948233e-03,1.181307580088163459e-02,9.595340490341186523e-01,1.999134306410386627e-02,8.316269470128867525e-03,-2.160481675758208625e-02,1.279726436929790913e-02,-1.236132501600958888e-02,-1.955991387367248535e-01,1.728758454312593063e-01,2.479699465877517883e-01,-9.249795978041261413e-02,-3.102469563484192006e-01,2.846545940494250027e-01,7.347041354248737277e-02,-2.102469563484191950e-01,2.202376306056976207e-01,1.342389822006225530e-01,5.220831636585354651e-01,-4.685053825378417969e-01,-1.265984654426574707e+00,8.466072068687414287e+01,1.189304590225219727e-01
4.002430000000000154e-01,6.425854762777925833e-03,1.051600154447612269e-02,9.539600610733032227e-01,1.819107070803077653e-02,1.141034482088820745e-02,-2.213549748526675784e-02,-7.382592635585114374e-03,-1.126141335905028913e-02,-1.997327059507369995e-01,9.324958054898890847e-02,2.165622816829392838e-01,-5.849821281318463156e-02,-2.791516244411468284e-01,2.896428549553935472e-01,7.676359950906477825e-02,-1.791516244411468506e-01,2.194100975990295466e-01,1.390148162841796931e-01,5.264257122314903725e-01,-2.833567857742309570e-01,2.983230352401733398e-01,8.600814625538841085e+01,1.189304590225219727e-01
4.252480000000000149e-01,6.720778485898862981e-03,9.709877202464311380e-03,9.500651359558105469e-01,1.463856793607418161e-02,1.060890428227523330e-02,-2.239131915798322700e-02,1.008829816041360676e-02,-4.719180782788572580e-03,-2.158305048942565918e-01,6.469412774259291135e-03,1.555007000199737921e-01,-4.236602298446532494e-02,-9.654573828181527151e-02,2.897874561796933701e-01,8.959757248189759160e-03,-4.942488670349120920e-03,2.084681332111358587e-01,7.192075252532958984e-02,5.256589879040296509e-01,-4.173896312713623047e-01,2.296189069747924805e-01,-3.855371310981065136e+01,1.189304590225219727e-01
4.498510000000000009e-01,7.167065996666853456e-03,8.719052375468579544e-03,9.440935850143432617e-01,6.997559878181683173e-03,5.797350570639236977e-03,-2.378784646029388425e-02,-1.465117464858346199e-03,-1.957302638189687034e-03,-2.175878584384918213e-01,-1.208853345832134052e-01,5.986826712952738293e-03,-3.050773088931158991e-02,1.519250303531457513e-01,2.000701381870311768e-01,1.088770089352090187e-01,1.933004021644592341e-01,1.607039272785186768e-01,1.755473613739013672e-01,5.322342594621860545e-01,-1.021009683609008789e-01,-1.277139544486999512e+00,5.353702737508134391e+01,1.189304590225219727e-01
4.736150000000000082e-01,7.207365256668981507e-03,8.504320893522645738e-03,9.401109218597412109e-01,1.109401157674466893e-03,3.720921905534524399e-04,-2.424691903867108589e-02,6.391302934046551656e-03,4.182666985271159613e-03,-2.245059460401535034e-01,-2.016279188522972221e-01,-8.619720862452989740e-02,-2.672543255286672498e-02,1.917481567486425675e-01,6.433383334196163261e-02,6.851735790411506155e-02,1.903782606124877763e-01,5.254687070846557340e-02,1.364145755767822155e-01,5.330370756166725732e-01,-1.152831315994262695e-01,-1.686525344848632812e+00,1.074357542478498715e+02,1.189304590225219727e-01
5.007420000000000204e-01,7.197541940497656325e-03,8.264946475194046016e-03,9.342678189277648926e-01,-5.824602965737111712e-03,-9.177148719094585516e-03,-2.513653850295353639e-02,-2.979292428179554451e-03,-8.496834524162857200e-03,-2.166798859834671021e-01,-2.456949998388773260e-01,-2.128325359263604777e-01,-3.412048444751989568e-02,2.301152102110190500e-01,-2.189128626210205264e-01,1.030072647849603618e-01,1.940297126770019476e-01,-1.609441637992858887e-01,1.734652519226074219e-01,5.285698180873250607e-01,-3.664206266403198242e-01,-1.675222635269165039e+00,7.423975080602394883e+01,1.189304590225219727e-01
5.252599999999999492e-01,7.225424781350403038e-03,8.030700357724320643e-03,9.304785728454589844e-01,-7.462460942855494821e-03,-1.532294420404034518e-02,-2.587173429976402650e-02,2.532401824024325433e-03,-1.710595650997962002e-03,-2.191797643899917603e-01,-2.208521231032802012e-01,-2.621248238320326163e-01,-4.089463510273701891e-02,2.519434262830809734e-01,-2.914926749981521792e-01,1.363732267735148218e-01,1.981432199478149470e-01,-1.989798545837402344e-01,2.089457094669341930e-01,5.257896731027986714e-01,-5.573014020919799805e-01,-1.156438231468200684e+00,-9.877538173878636485e+01,1.189304590225219727e-01
5.507180000000000408e-01,7.344688919551847252e-03,7.679389043299296447e-03,9.250520467758178711e-01,-5.089436021786224000e-03,-2.183998657307406610e-02,-2.750028760538521591e-02,8.919399089877889583e-03,-5.485472010674472508e-03,-2.104458063840866089e-01,-1.141978378296322483e-01,-2.689984564502606590e-01,-4.188009722250379818e-02,2.237065299239571203e-01,-3.095862388610839955e-01,1.337250093792061445e-01,1.889133453369140625e-01,-2.095862388610839899e-01,2.108605027198791337e-01,5.248585852028820886e-01,-6.091480851173400879e-01,-1.557787299156188965e+00,1.038010417602709055e+02,1.189304590225219727e-01
5.735609999999999875e-01,7.274844389452041725e-03,7.291911364067360339e-03,9.214798808097839355e-01,-2.074757162110102242e-03,-2.268858246769300813e-02,-2.897741095507823730e-02,3.028007960201284897e-03,-9.164285814221956664e-03,-2.203399240970611572e-01,-1.860431117966429571e-02,-2.261481960303536876e-01,-4.906490881727300357e-02,1.828790328229913664e-01,-3.148095369338989036e-01,1.423260114088250594e-01,1.701806545257568415e-01,-2.148095369338989258e-01,2.235285043716430664e-01,5.267734038366987948e-01,-5.730667114257812500e-01,-1.030944585800170898e-01,-5.166047302798171259e+00,1.189304590225219727e-01
5.994230000000000391e-01,7.353051034790381718e-03,6.746930630850263462e-03,9.159595966339111328e-01,4.068296306210967932e-03,-1.924380352453258780e-02,-3.126963842580703784e-02,2.514145228071253818e-02,-3.031168028624139400e-03,-2.308804690837860107e-01,1.048150319080560083e-01,-7.881179169574696608e-02,-6.613992195399588658e-02,-1.769248941562158450e-01,-2.592874526977538840e-01,1.141813751516435882e-01,-1.548338234424591064e-01,-1.592874526977539062e-01,2.016305565834045355e-01,5.353964062598395302e-01,-1.794801950454711914e-01,-1.495072722434997559e+00,9.888165265208259314e+01,1.189304590225219727e-01
6.256350000000000522e-01,7.486182698685837564e-03,6.433532671204163916e-03,9.122967123985290527e-01,9.006472513311152006e-03,-1.479339379740851612e-02,-3.286692568993794528e-02,1.778287100893961165e-02,-3.211475793293872526e-03,-2.241656333208084106e-01,1.737830207384193359e-01,1.801096395660065769e-02,-6.860816075796884184e-02,-2.599258843513071460e-01,-6.256566662667446821e-02,-1.018795828320003122e-01,-2.042493402957916149e-01,1.922730803489685128e-02,-1.001991033554077044e-02,5.362509080633768299e-01,-1.357584595680236816e-01,-1.548092007637023926e+00,1.051238718175839608e+02,1.189304590225219727e-01
6.503250000000000419e-01,7.724144682393254378e-03,5.974818883560004470e-03,9.068200588226318359e-01,1.578788441638110177e-02,-5.581153126607008019e-03,-3.576337600984540177e-02,2.031479112398524092e-02,-2.880987565138215523e-03,-2.295211851596832275e-01,2.138438506011429430e-01,1.674327731565709299e-01,-8.487746762850595372e-02,-3.016650497913360707e-01,1.810325957537209096e-01,-1.686386585235595814e-01,-2.016650497913360651e-01,2.002642214298248347e-01,-6.863865852355956199e-02,5.307862566424125239e-01,-4.954575300216674805e-01,-1.652472019195556641e+00,1.005367919030842643e+02,1.189304590225219727e-01
6.781239999999999490e-01,8.001072531846812816e-03,6.060917283645170586e-03,9.029877185821533203e-01,1.827867405660519445e-02,6.714679525210431876e-04,-3.691276951436847642e-02,2.552390746072880426e-02,4.610220909471835458e-03,-2.343391478061676025e-01,2.002719218521989142e-01,2.407616227572442202e-01,-8.409213611665723731e-02,-3.036892950534820779e-01,2.393368958711289685e-01,-1.066433310508728138e-01,-2.036892950534820446e-01,2.145046412944793535e-01,-6.643331050872802214e-03,5.310239702959930197e-01,-5.332064628601074219e-01,-1.215715050697326660e+00,1.283708646200184091e+02,1.189304590225219727e-01
7.019269999999999676e-01,8.425654075568687895e-03,6.672153829222910934e-03,8.974977135658264160e-01,1.715852073319509841e-02,8.406085727386880535e-03,-3.672982894159643186e-02,1.305749266203763345e-02,1.771280482305451556e-02,-2.333890795707702637e-01,1.284587054050040922e-01,2.691683841759442974e-01,-5.422224701982562151e-02,-2.448536226539594907e-01,2.823857090199266562e-01,3.105291128158568781e-02,-1.497344613075256292e-01,2.171274125576019287e-01,1.310529112815856934e-01,5.365398491974070483e-01,-2.642194032669067383e-01,-1.237446665763854980e+00,9.426700609409272147e+01,1.189304590225219727e-01
7.258449999999999624e-01,8.607766717231409015e-03,7.252142184041162135e-03,8.938143253326416016e-01,1.403955870642861758e-02,1.042672878031369876e-02,-3.581371217917992539e-02,8.607406900386563656e-03,1.679337328232918466e-02,-2.404859066009521484e-01,4.060925975797710641e-02,2.485444351404983432e-01,-2.721934028625797031e-02,-4.791781161904130892e-02,2.886833353679644221e-01,2.077733278274535023e-02,2.915103435516357144e-02,2.115209698677062988e-01,1.207773327827453558e-01,5.376346801063980330e-01,-2.635428309440612793e-01,-7.347601652145385742e-01,9.949490801690134845e+01,1.189304590225219727e-01
7.498340000000000005e-01,8.792961541687115481e-03,8.164257170210065945e-03,8.886516094207763672e-01,6.944676114812100252e-03,8.262813424830373066e-03,-3.455250971380094405e-02,8.294766086502898886e-03,2.447153772662971627e-02,-2.328687012195587158e-01,-9.686517180674653060e-02,1.312409037840738812e-01,1.306760208323612220e-02,5.988228208726598112e-02,2.285337578318127338e-01,9.063208946397893762e-02,8.430347442626952292e-02,1.647008121013641413e-01,1.875179708003997803e-01,5.407192135477458805e-01,-9.994614124298095703e-02,-8.660579919815063477e-01,8.253879264761545187e+01,1.189304590225219727e-01
7.743200000000000083e-01,8.556151680709007945e-03,9.139650997790767575e-03,8.852835893630981445e-01,1.930880784803638145e-03,3.974222896736323563e-03,-3.451214851224906899e-02,1.120643218304442738e-02,2.355211391735519133e-02,-2.222438752651214600e-01,-1.782710931850483571e-01,3.116636198288196338e-02,2.550761021265898418e-02,2.000817725608291242e-01,1.811902065586928068e-01,4.867355900349060183e-02,1.926828503608703502e-01,1.428348004817962535e-01,1.453481376171112116e-01,5.402723296494702510e-01,-1.129777431488037109e-01,-9.165469408035278320e-01,8.931306305889330588e+01,1.189304590225219727e-01
8.007189999999999586e-01,7.766409543899585252e-03,1.092890813528665100e-02,8.806424140930175781e-01,-3.381174487036810866e-03,-4.658558468864981705e-03,-3.486339032861777293e-02,1.961442378075027755e-03,2.690313389801524124e-02,-2.089366018772125244e-01,-2.106919268977701931e-01,-1.344339884186150635e-01,1.771780693141625229e-02,2.453223750146566184e-01,-1.262332895470704153e-01,-3.459679945983082372e-02,1.994150161743163951e-01,-1.010010838508605957e-01,6.301810741424559992e-02,5.363943054045352543e-01,-3.101013898849487305e-01,-1.302685856819152832e+00,9.927636928421762263e+01,1.189304590225219727e-01
8.248240000000000016e-01,7.256633465305348252e-03,1.210438530751646417e-02,8.777230381965637207e-01,-4.526790827127562776e-03,-1.049659223213494919e-02,-3.580094630640757308e-02,-2.661129047321809157e-03,1.402807435368620334e-02,-1.971900761127471924e-01,-1.885338623517124335e-01,-2.082372989135822527e-01,-7.442327784959183040e-03,2.347270570854746996e-01,-2.433847827178268197e-01,3.145070075988767866e-02,1.903221130371093583e-01,-1.780684232711791937e-01,1.314507007598876842e-01,5.336129419050401612e-01,-4.445315599441528320e-01,-1.254745841026306152e+00,1.500352137993016868e+02,1.139814138412475614e-01
8.486120000000000330e-01,6.555430715158534934e-03,1.377430203619552096e-02,8.737567067146301270e-01,-3.218191454777058046e-03,-1.832184489073984679e-02,-3.629150970366471635e-02,1.616536144382109061e-02,2.381459031692294281e-02,-2.032536119222640991e-01,-1.026410644451601628e-01,-2.578019853060754540e-01,-1.610558755087516947e-02,2.082129390036740468e-01,-2.936411142349243386e-01,2.291848659515380304e-02,1.615250587463378795e-01,-1.936411142349243053e-01,1.229184865951538086e-01,5.319995339780405619e-01,-5.894821286201477051e-01,-1.154506564140319824e+00,9.760994656070708686e+01,1.139814138412475614e-01
8.748240000000000460e-01,6.140479380539984842e-03,1.461802180971461321e-02,8.711231350898742676e-01,-4.866975529997225850e-04,-2.135854165801154281e-02,-3.626966150887271645e-02,1.308225417940404693e-02,2.629034931702834560e-02,-1.942145824432373047e-01,-1.387968526713776254e-02,-2.494718697293813459e-01,-2.205153124214227073e-02,1.820941027010394564e-01,-3.100213289260864147e-01,9.938154220581052467e-02,1.520104050636291448e-01,-2.100213289260864091e-01,1.993815422058105302e-01,5.312723122356983740e-01,-6.202277541160583496e-01,-2.989341020584106445e-01,1.625724631529669750e+02,1.139814138412475614e-01
8.988629999999999676e-01,5.627183818413363132e-03,1.545948191828318621e-02,8.675539493560791016e-01,5.457484393963677946e-03,-2.065225040047513616e-02,-3.701522318042997639e-02,1.214447488972108212e-02,1.639836603533097528e-02,-1.950098425149917603e-01,9.148187824356186770e-02,-1.553794390752759602e-01,-2.006802400899728236e-02,-1.429364248461868769e-01,-2.802541732788085826e-01,8.714916706085204523e-02,-1.272947251796722468e-01,-1.802541732788085771e-01,1.871491670608520508e-01,5.365284307768239946e-01,-3.643277883529663086e-01,-8.817743062973022461e-01,1.067678573696710060e+02,1.199006319046020536e-01
9.249870000000000037e-01,5.428508336358763182e-03,1.600813567839430226e-02,8.650673627853393555e-01,1.018407510354404737e-02,-1.720108972332434760e-02,-3.772518057198569891e-02,2.233039719398925704e-02,2.436611982136467625e-02,-1.900753229856491089e-01,1.483830903503149667e-01,-5.976345599979642625e-02,-2.481921035128190414e-02,-2.459864916854140326e-01,-1.754082635496673481e-01,3.685578107833861750e-02,-2.073218286037445124e-01,-8.162959814071654718e-02,1.368557810783386230e-01,5.374937258309573362e-01,-3.176429867744445801e-01,-1.175366759300231934e+00,1.033279896885450029e+02,1.199006319046020536e-01
9.492500000000000382e-01,5.269868480977658344e-03,1.682661310526878048e-02,8.614749312400817871e-01,1.717701503328826831e-02,-9.320661406640340374e-03,-3.915959652761637211e-02,1.935596143416189532e-02,2.113638440613849548e-02,-1.902728080749511719e-01,2.082215141058640084e-01,8.828530204690354655e-02,-2.815697842410483723e-02,-2.997673310270469460e-01,1.126101261878922344e-01,-1.629337787628173939e-01,-2.122705042362213190e-01,1.591041505336761308e-01,-6.293377876281737449e-02,5.344865564680956194e-01,-5.150936841964721680e-01,-1.096663355827331543e+00,1.041108591410226865e+02,1.199006319046020536e-01
9.748149999999999871e-01,5.208259288337287879e-03,1.745321712277051254e-02,8.590376973152160645e-01,1.986128588189600003e-02,-2.619634009217941539e-03,-4.057424660433289754e-02,1.566243048559429196e-02,2.368120395386570307e-02,-1.956308484077453613e-01,2.084225709841913410e-01,1.850972021736728146e-01,-4.207495847765392594e-02,-3.100249946117401012e-01,2.099147708986383587e-01,-1.111197590827942006e-01,-2.100249946117400957e-01,2.154661774635314997e-01,-1.111975908279418980e-02,5.346938715727338476e-01,-5.513026714324951172e-01,-1.218733429908752441e+00,9.801741515602253685e+01,1.199006319046020536e-01
9.995629999999999793e-01,5.470772331156903596e-03,1.900618063354981777e-02,8.554443120956420898e-01,1.908019228693000335e-02,6.582899672099795652e-03,-4.081526936981604015e-02,2.563463015348277710e-02,3.708410500715950825e-02,-1.967004537582397461e-01,1.372173061969644836e-01,2.727131683744931090e-01,-3.933661938549855991e-02,-2.790654300951711519e-01,2.806861875371386983e-01,4.202736616134641889e-02,-1.917234957218170166e-01,2.187165319919586182e-01,1.420273661613464244e-01,5.367585960937703016e-01,-4.729976654052734375e-01,-1.112578272819519043e+00,7.090555981173636724e+01,1.199006319046020536e-01
1.027964000000000100e+00,5.584175674165736507e-03,2.082120821418267931e-02,8.518815040588378906e-01,1.391625990013524959e-02,1.036660703384084670e-02,-3.927352175568295245e-02,1.049204265929982484e-02,4.127476440248886713e-02,-1.807496696710586548e-01,1.531020065769025940e-02,2.453921957297915679e-01,-1.100498297502029016e-02,-4.419055654516339249e-02,2.820113617947637707e-01,-2.819615602493288908e-03,7.610785961151122353e-03,2.074292421340942216e-01,9.718038439750671664e-02,5.360994622519020814e-01,-4.768967628479003906e-01,-4.634131193161010742e-01,1.028061290850101699e+02,1.199006319046020536e-01
1.053952000000000000e+00,5.565374700023080837e-03,2.200656649528687919e-02,8.498335480690002441e-01,9.081357690550387676e-03,9.101284323331793047e-03,-3.886956810921499139e-02,1.728530383905567056e-02,4.227577715226848998e-02,-1.742124259471893311e-01,-8.454784494196432298e-02,1.763726041430908609e-01,-2.336922243375076614e-04,8.421615231657231249e-02,2.643876669433042337e-01,6.843680739402768776e-02,1.032443761825561496e-01,1.907113373279571422e-01,1.684368073940276933e-01,5.366389643107922769e-01,-4.456275701522827148e-01,-1.071867346763610840e+00,4.680448258944309003e+01,1.199006319046020536e-01
1.074854999999999894e+00,5.566615467440385462e-03,2.262491323449522182e-02,8.488407731056213379e-01,6.458472988295951844e-03,7.493195943467645392e-03,-3.885086283112550859e-02,1.258289944714245830e-02,4.507243471773890453e-02,-1.734828948974609375e-01,-1.241771003428514264e-01,1.245373703729970860e-01,6.222833812574660867e-03,1.418502404245063908e-01,2.360603642602857044e-01,7.498542070388791725e-02,1.414241552352905329e-01,1.770701050758361761e-01,1.749854207038879228e-01,5.372746384830852096e-01,-4.277573823928833008e-01,-8.852521181106567383e-01,1.539384756646672088e+02,1.199006319046020536e-01
1.103472999999999926e+00,5.446916486376207969e-03,2.440831834869398864e-02,8.459675908088684082e-01,-1.371572765362709346e-03,9.654760106592163993e-05,-3.905235991617837105e-02,-3.561558759151792035e-03,3.898916592707987044e-02,-1.586190462112426758e-01,-2.088028544300233325e-01,-4.964817528649820288e-02,1.927855340145984142e-02,2.547470903815311494e-01,2.679104231968782585e-02,2.689445018768304996e-03,2.069100737571716309e-01,2.659535408020019531e-02,1.026894450187683105e-01,5.421845577640679315e-01,-1.232481002807617188e-01,-7.375336885452270508e-01,7.344710735284397174e+01,1.199006319046020536e-01
1.128268999999999966e+00,5.293263348408995539e-03,2.553524395183704235e-02,8.442923426628112793e-01,-4.435158960035422496e-03,-5.967490730938163068e-03,-3.934159231133127488e-02,1.439103725214602343e-02,4.080231173156124991e-02,-1.576633900403976440e-01,-2.165791054806824045e-01,-1.531942412643529927e-01,1.137509998840624190e-02,2.817042134650084573e-01,-1.793261563632668198e-01,-3.915255069732666987e-02,2.101867675781249889e-01,-1.554589748382568248e-01,6.084744930267333568e-02,5.380392052616426168e-01,-3.722184896469116211e-01,-8.301628828048706055e-01,8.760468248331137886e+01,1.199006319046020536e-01
1.150462000000000096e+00,5.252310821365600152e-03,2.658900575836577185e-02,8.426799774169921875e-01,-5.534890217981198839e-03,-1.231834709204759903e-02,-4.009872855276942066e-02,1.565794339315899203e-02,4.363729500210480200e-02,-1.533679217100143433e-01,-1.936192681044201502e-01,-2.308259038714834677e-01,-7.223606407161219274e-03,2.811342274885157977e-01,-2.527608540417717320e-01,-1.113246083259583630e-02,1.994916915893554521e-01,-1.861415147781372015e-01,8.886753916740416925e-02,5.363515754407309766e-01,-4.705778956413269043e-01,-1.141847968101501465e+00,8.068322149541974397e+01,1.199006319046020536e-01
1.178171999999999997e+00,5.165128456140380409e-03,2.817733933127919074e-02,8.406282663345336914e-01,-3.460812827090307877e-03,-2.032775982755685718e-02,-4.063927962212991046e-02,-1.125096568307354210e-03,4.581969199911745810e-02,-1.380740702152252197e-01,-9.521955748108958117e-02,-2.798059722042821607e-01,-1.779560375289332072e-02,2.283179565381487086e-01,-2.926645755767822155e-01,-2.065217494964600997e-02,1.576305985450744684e-01,-1.926645755767822099e-01,7.934782505035399558e-02,5.328845422961486777e-01,-6.242662072181701660e-01,-1.390772461891174316e+00,9.313490906935227542e+01,1.199006319046020536e-01
1.199508999999999936e+00,5.212976978436508271e-03,2.904079138031119556e-02,8.392139077186584473e-01,-4.990745154041340437e-04,-2.372124149864607290e-02,-4.089572493445665924e-02,1.211792027745281497e-02,3.590871952888423368e-02,-1.395596712827682495e-01,-1.848542761456657690e-02,-2.663230147148148430e-01,-2.368655000807884728e-02,2.031152276241147969e-01,-3.070209741592407338e-01,6.929693818092344526e-02,1.580004215240478349e-01,-2.070209741592407282e-01,1.692969381809234508e-01,5.323596094226595854e-01,-6.794976592063903809e-01,-1.083057522773742676e+00,-7.947261144617000639e+01,1.199006319046020536e-01
1.223729999999999984e+00,5.639459218342177116e-03,3.006596062895547719e-02,8.373462557792663574e-01,5.707960451308472134e-03,-2.446481082050522282e-02,-4.046041782885641258e-02,1.884558568131227546e-02,4.489750504827755284e-02,-1.361135244369506836e-01,9.768128865162820085e-02,-1.804190275810189925e-01,-1.100205873349188561e-02,-1.041914783328107691e-01,-3.016330242156982644e-01,8.099514245986938477e-02,-1.178178012371063205e-01,-2.016330242156982311e-01,1.809951424598693903e-01,5.342108021330094214e-01,-5.865567922592163086e-01,-8.326886892318725586e-01,8.631643367376609888e+01,1.199006319046020536e-01
1.251387000000000027e+00,6.298645947777292697e-03,3.143144302013941432e-02,8.348365426063537598e-01,1.697258317826353530e-02,-1.719125046374658794e-02,-4.109271902413699773e-02,2.211050011279563215e-02,4.084443772839974063e-02,-1.317471265792846680e-01,2.177520097294117496e-01,1.324432549124832798e-02,-5.588167829272796920e-03,-2.803962400210376904e-01,-9.834221139783720644e-02,-1.171629548072815052e-01,-2.173065125942230114e-01,-3.659391403198241841e-03,-1.716295480728149275e-02,5.340478608610805811e-01,-6.029919981956481934e-01,-6.700338125228881836e-01,8.757202734888954865e+01,1.199006319046020536e-01
1.275109999999999966e+00,6.731990944972152807e-03,3.210063102079471764e-02,8.335636854171752930e-01,2.223004735471104804e-02,-1.169002801341645359e-02,-4.209919267309539248e-02,3.364031863131992928e-02,4.048485721013422162e-02,-1.388930082321166992e-01,2.433929829776834697e-01,1.165513629764177717e-01,-1.400542175614248770e-02,-3.138322054773840519e-01,1.389721445531039434e-01,-5.986177921295166710e-02,-2.173361957073211559e-01,1.899840652942657304e-01,4.013822078704833846e-02,5.347521274370830024e-01,-6.128110885620117188e-01,-1.217881083488464355e+00,6.526049725518004152e+01,1.199006319046020536e-01
1.298891000000000018e+00,7.719439221439331096e-03,3.323050330132008845e-02,8.314132094383239746e-01,2.639415897035227165e-02,-1.954923467823554972e-03,-4.263199065900168117e-02,1.770336030621902715e-02,5.214670768052484529e-02,-1.379067152738571167e-01,2.369793371206616039e-01,2.223186960465410311e-01,-1.840303833415798604e-02,-3.191375136375427246e-01,2.213852920629742482e-01,8.899202346801757257e-02,-2.191375136375427191e-01,2.222684741020202470e-01,1.889920234680175781e-01,5.345403063567920610e-01,-6.445097327232360840e-01,-1.357073664665222168e+00,8.929660230299357693e+01,1.199006319046020536e-01
1.326945999999999959e+00,8.434526388612402156e-03,3.416917094615242595e-02,8.298457264900207520e-01,2.561601270987339668e-02,3.851876084816963086e-03,-4.246492419909620591e-02,1.415676881815287370e-02,4.267796622899799192e-02,-1.395039409399032593e-01,1.729696284083197810e-01,2.653268414707930511e-01,-1.807485072116116198e-02,-3.178573131561279186e-01,2.598676738479560600e-01,5.524405837059020996e-02,-2.178573131561279130e-01,2.226989865303039551e-01,1.552440583705902155e-01,5.351577906617990266e-01,-6.382579207420349121e-01,-9.657140970230102539e-01,7.146276664422600788e+01,1.199006319046020536e-01
1.350716999999999945e+00,9.392408065385562943e-03,3.557092842938642391e-02,8.275012373924255371e-01,2.022003650029146823e-02,7.694153195317410265e-03,-4.233276652940250878e-02,2.016405564086948959e-02,5.807685079639372805e-02,-1.351470500230789185e-01,2.377112079050229185e-02,2.415062347471538529e-01,-1.291766133809870570e-02,-2.133883330481421148e-01,2.799320917460844660e-01,-8.049869537353523952e-03,-1.438081562519073486e-01,2.124360501766204834e-01,9.195013046264648160e-02,5.362963025873438427e-01,-5.832192301750183105e-01,-1.039884686470031738e+00,9.362737253869937604e+01,1.199006319046020536e-01
1.374552999999999914e+00,9.984569645175649447e-03,3.661786371006105906e-02,8.259863257408142090e-01,1.478856495208862379e-02,6.461966299049048956e-03,-4.315373108634417559e-02,1.406502175849889090e-02,5.199346801854333455e-02,-1.292741447687149048e-01,-8.208006952745681983e-02,1.685966758115326480e-01,-1.545568295270839838e-02,-4.258650353694548585e-03,2.541972508521751495e-01,7.175108790397644043e-02,3.569548130035399974e-02,1.990779519081115612e-01,1.717510879039764460e-01,5.366847902135347681e-01,-5.595024228096008301e-01,-8.914932012557983398e-01,1.152684854144262658e+02,1.199006319046020536e-01
1.400643000000000082e+00,1.038587609249667920e-02,3.861977149274760379e-02,8.236986994743347168e-01,5.687387571699270734e-03,1.167009933907614538e-03,-4.394249046237786588e-02,1.687939542679915347e-02,5.922743687052803990e-02,-1.328725367784500122e-01,-2.208687195546717996e-01,3.001910545340873149e-02,-1.386823098116496573e-02,2.319905272577819921e-01,9.913889694932748187e-02,7.561087608337346833e-04,2.049563884735107477e-01,7.504220008850097379e-02,1.007561087608337402e-01,5.432870632761245266e-01,-2.316403388977050781e-01,-7.990499734878540039e-01,1.071129458472967286e+02,1.199006319046020536e-01
1.423732999999999915e+00,1.059759287452750366e-02,4.010512849597967083e-02,8.222489356994628906e-01,-8.070872488017229911e-05,-4.021605570634800841e-03,-4.435203610256636952e-02,1.085438460817276553e-02,5.862022639047489991e-02,-1.230486854910850525e-01,-2.641080878101898510e-01,-7.733008524741813439e-02,-2.733515301055539082e-02,2.762966065051601916e-01,-8.178769808871105829e-02,-5.366194248199465666e-03,2.117872595787048395e-01,-6.795315742492676059e-02,9.463380575180053988e-02,5.429950419333897660e-01,-2.298589944839477539e-01,-1.361856102943420410e+00,5.894735340533725321e+01,1.199006319046020536e-01
1.450501000000000040e+00,1.076545357902676005e-02,4.235517885051379855e-02,8.201519846916198730e-01,-6.605751459303722643e-03,-1.275263578047991508e-02,-4.522514882824123922e-02,8.433391982947719898e-03,5.054997521625462231e-02,-1.197039559483528137e-01,-2.736959535186768155e-01,-2.044899694067823515e-01,-2.684897113499963919e-02,3.107471346855163463e-01,-2.656034565122443736e-01,5.207188129425047163e-02,2.107471346855163408e-01,-1.947301268577575628e-01,1.520718812942504772e-01,5.387852118736846663e-01,-4.739748239517211914e-01,-1.111499428749084473e+00,8.156850280431260103e+01,1.199006319046020536e-01
1.473363999999999896e+00,1.093727308547771775e-02,4.382813152064814199e-02,8.188548684120178223e-01,-7.815929894997781721e-03,-1.816030843317895105e-02,-4.521778842692733558e-02,1.402719724325738118e-02,5.964270086468096560e-02,-1.048373356461524963e-01,-2.229963167483485498e-01,-2.386537861638717839e-01,-2.606415223238885137e-02,3.032626628875732533e-01,-2.946366071701049805e-01,1.217659711837768000e-02,2.032626628875732477e-01,-1.946366071701049749e-01,1.121765971183776855e-01,5.367478815369348677e-01,-5.477946400642395020e-01,-8.404587507247924805e-01,7.365059234859698734e+01,1.199006319046020536e-01
1.500111999999999890e+00,1.125811929997562119e-02,4.526501753632547476e-02,8.171623945236206055e-01,-4.667977125638488566e-03,-2.262669686016183235e-02,-4.598698788579392432e-02,1.376071121214086576e-02,4.839103991005289096e-02,-8.999282866716384888e-02,-9.911914809684922723e-02,-2.254941434838247105e-01,-2.147978037923660433e-02,2.721734234596373536e-01,-2.940013170242309348e-01,-6.478869318962098001e-02,1.799474716186523493e-01,-1.940013170242309570e-01,3.521130681037902554e-02,5.345592364294302623e-01,-6.300680041313171387e-01,-1.513143420219421387e+00,1.041673721262153691e+02,1.199006319046020536e-01
1.524558999999999997e+00,1.156976569642692056e-02,4.591981126918261852e-02,8.160812854766845703e-01,-2.709847554430248060e-04,-2.163435093235799300e-02,-4.665761836728395812e-02,1.552574964680965806e-02,5.063051313927175584e-02,-9.252408146858215332e-02,9.517611526230250821e-03,-1.644134117202185608e-01,-2.437151021389611857e-02,2.114585213400464736e-01,-3.076865196228027455e-01,7.646830677986143909e-02,1.440593719482421708e-01,-2.076865196228027399e-01,1.764683067798614446e-01,5.343556986927558983e-01,-6.694972515106201172e-01,-6.931480169296264648e-01,1.087071666410910780e+02,1.199006319046020536e-01
1.549161999999999928e+00,1.196212512559803598e-02,4.659572831927770442e-02,8.150425553321838379e-01,5.371017845357946470e-03,-1.838829768803229570e-02,-4.742339816363995431e-02,3.147577880615680390e-02,4.990972008440791585e-02,-9.244145452976226807e-02,1.088168902278490863e-01,-6.378558864335355516e-02,-2.432634874961375759e-02,-1.600117000351516938e-01,-2.559707040573339643e-01,-1.204013824464278404e-05,-1.908109009265899492e-01,-1.646768331527709850e-01,9.998795986175536277e-02,5.366567739622386535e-01,-5.602645874023437500e-01,-1.390973925590515137e+00,1.148664058383659636e+02,1.199006319046020536e-01
1.576003999999999960e+00,1.272264434503665546e-02,4.762351266106466807e-02,8.136130571365356445e-01,1.467797561661551321e-02,-1.010431120815313832e-02,-4.794030843977076933e-02,1.820103678502304687e-02,4.900824061113049496e-02,-8.516301959753036499e-02,2.413662369516269557e-01,8.626256655225614245e-02,-1.968344450535424242e-02,-2.436606415426384176e-01,9.855260528798422126e-02,-4.788814783096314448e-02,-2.133784353733062800e-01,1.479172289371490367e-01,5.211185216903686107e-02,5.360008108403571114e-01,-5.868673920631408691e-01,-1.080429434776306152e+00,8.178404308395069222e+01,1.199006319046020536e-01
1.601437999999999917e+00,1.324322917745783534e-02,4.830163504671378810e-02,8.126408457756042480e-01,2.004955310575534666e-02,-3.437002029237801182e-03,-4.880247849760174783e-02,2.952843830271946815e-02,5.531299408046463917e-02,-9.045207500457763672e-02,2.765834631210033479e-01,1.843304051706036173e-01,-3.181928856376859543e-02,-2.760414780212834263e-01,2.233344581508360793e-01,7.293784022331237238e-02,-2.161055803298950195e-01,2.196078300476074219e-01,1.729378402233123779e-01,5.355233471376344978e-01,-6.521389484405517578e-01,-6.044198274612426758e-01,7.724117498394849690e+01,1.199006319046020536e-01
1.626163000000000025e+00,1.444604507012896971e-02,4.872743032265677843e-02,8.112429976463317871e-01,2.377514770769292157e-02,6.294502406136714967e-03,-4.928902832121135474e-02,2.831738780742448086e-02,5.790243653356501319e-02,-8.960387855768203735e-02,2.393146770919664101e-01,2.760938133640067904e-01,-2.466909305832021282e-02,-3.027537594673329058e-01,2.895676018550537023e-01,1.131283998489379661e-01,-2.194607019424438532e-01,2.245429694652557318e-01,2.131283998489379716e-01,5.348269256064700494e-01,-7.066798806190490723e-01,-1.191866278648376465e+00,6.444433063049854127e+01,1.199006319046020536e-01
1.653740999999999906e+00,1.558743023646431622e-02,4.933771547159916671e-02,8.098313808441162109e-01,2.188056287520233692e-02,1.179948874542802173e-02,-4.970671996925118269e-02,3.013528698157348293e-02,6.334537109198158655e-02,-8.262324333190917969e-02,1.356272521451005464e-01,2.590489903595796783e-01,-2.550871104986389762e-02,-2.810771266358765841e-01,3.246164441108703724e-01,1.042687952518462913e-01,-2.141650021076202393e-01,2.246164441108703669e-01,2.042687952518462968e-01,5.350961489791954406e-01,-6.836512684822082520e-01,-9.755820035934448242e-01,-1.450444355539083858e+02,1.199006319046020536e-01
1.677701000000000109e+00,1.629156843477727254e-02,4.986693661848785875e-02,8.089549541473388672e-01,1.812381374156600555e-02,1.188064499740471014e-02,-5.087828833319017752e-02,2.189496207859615781e-02,6.272446830234110204e-02,-8.695936948060989380e-02,3.079425144416432156e-02,2.036162193862590120e-01,-2.842131547258472390e-02,-1.771647499305936124e-01,3.159969567440727434e-01,6.154165267944333717e-02,-1.337983846664428655e-01,2.180199444293975664e-01,1.615416526794433427e-01,5.373133621168253438e-01,-5.955402851104736328e-01,-1.017029643058776855e+00,8.807418285666888380e+01,4.713461399078369002e-02
1.701565999999999912e+00,1.717057452342466567e-02,5.098107315371529918e-02,8.075922131538391113e-01,1.032565468033292029e-02,7.341889255021660787e-03,-5.286678203421475014e-02,2.141346739144282807e-02,6.169068222204387997e-02,-7.992548495531082153e-02,-1.180823569067225159e-01,5.944388273627791014e-02,-3.548160001096721528e-02,2.020001780464945607e-01,2.736906881813135906e-01,3.183025121688842773e-02,1.939345121383666826e-01,2.034414231777190996e-01,1.318302512168884333e-01,5.380527147643856534e-01,-5.458449721336364746e-01,-8.990536928176879883e-01,8.919036554064319944e+01,4.713461399078369002e-02
1.726699999999999902e+00,1.764477469613558516e-02,5.218862616583247460e-02,8.067283034324645996e-01,4.092685346444020593e-03,2.142503561510578081e-03,-5.415046528418578087e-02,3.106549791763169727e-02,6.612371459907444293e-02,-7.784793525934219360e-02,-2.044844260167864303e-01,-4.931521309363969680e-02,-4.569206498866147659e-02,2.649217013674131094e-01,1.383559292921504313e-01,2.625930309295643195e-03,2.112436652183532770e-01,9.422986507415771762e-02,1.026259303092956487e-01,5.439716331173066743e-01,-2.255424261093139648e-01,-1.062905430793762207e+00,9.267342050789119412e+01,4.713461399078369002e-02
1.751808999999999950e+00,1.824211076036037771e-02,5.413014868672772623e-02,8.054982423782348633e-01,-4.496286338108409705e-03,-7.240720509248843584e-03,-5.539116033737293693e-02,2.136124163639449222e-02,6.938270306585300751e-02,-7.348747551441192627e-02,-2.733802244467087861e-01,-1.866435758594759686e-01,-5.889094105406775942e-02,3.102762460708617942e-01,-1.912499247008976055e-01,6.684518456459043190e-02,2.102762460708618164e-01,-1.669788837432861217e-01,1.668451845645904374e-01,5.425454580199245980e-01,-3.061998486518859863e-01,-4.742228984832763672e-02,-1.179279203130609943e+01,4.713461399078369002e-02
1.776469000000000076e+00,1.862710141066214672e-02,5.538562744374377067e-02,8.045841455459594727e-01,-7.162525669636864503e-03,-1.453709728883523233e-02,-5.619067197722802526e-02,1.737120796881515966e-02,6.144241371865721835e-02,-4.897645488381385803e-02,-2.657397213092178023e-01,-2.567288356092455315e-01,-5.734266817692043605e-02,2.989213466644287109e-01,-2.718528927176817600e-01,9.848337769508361261e-02,1.989213466644287054e-01,-1.993608713150024359e-01,1.984833776950836182e-01,5.360460482097938462e-01,-5.857402682304382324e-01,-1.100587964057922363e+00,1.205708705501338898e+02,4.713461399078369002e-02
1.799803000000000042e+00,1.911730771068119797e-02,5.723900687300566975e-02,8.035784363746643066e-01,-5.871285710058463808e-03,-2.343227661596003486e-02,-5.724235007242395312e-02,2.183154253905360623e-02,6.166430391673237421e-02,-4.605626314878463745e-02,-1.640400478985162558e-01,-2.965021804689073615e-01,-4.607689323042754581e-02,2.720004081726073997e-01,-2.884518980979919323e-01,-3.543679714202881137e-02,1.720004081726074219e-01,-1.884518980979919267e-01,6.456320285797119418e-02,5.340731755741765507e-01,-6.992748975753784180e-01,-4.550455808639526367e-01,-1.367624230814650232e+01,4.713461399078369002e-02
1.824224000000000068e+00,1.947462532573382074e-02,5.842432209561205375e-02,8.028891682624816895e-01,-2.168337744337068326e-03,-2.610709703472502419e-02,-5.838411876947481594e-02,3.279223644943912025e-02,5.933238210646106514e-02,-4.375933110713958740e-02,-5.604673448132693053e-02,-2.704756031401543970e-01,-4.711499781962005806e-02,2.512275734252468196e-01,-3.009251713752746360e-01,7.469046711921689674e-02,1.539136290550231767e-01,-2.009251713752746582e-01,1.746904671192169023e-01,5.338096073248732587e-01,-7.195757031440734863e-01,-4.159559011459350586e-01,8.178113342336426683e+01,4.713461399078369002e-02
1.851933000000000051e+00,2.024828916381671284e-02,6.017845854436709024e-02,8.018940687179565430e-01,5.418816212548546382e-03,-2.340130163695097743e-02,-6.049933304180572791e-02,2.823622397168394985e-02,5.556423260679855397e-02,-4.773358255624771118e-02,1.135123002828815203e-01,-1.538964821827399632e-01,-4.351560032579434439e-02,-1.083936065661125769e-01,-3.006458997726440541e-01,1.042713880538940208e-01,-1.549094617366790771e-01,-2.006458997726440485e-01,2.042713880538940263e-01,5.360308277331763405e-01,-6.288894414901733398e-01,-9.476236104965209961e-01,9.884651132880287605e+01,4.356391429901122769e-02
1.877227999999999897e+00,2.083139362985301016e-02,6.141468860209473024e-02,8.011850714683532715e-01,1.103426761328452771e-02,-1.873831810260684350e-02,-6.135056892574933252e-02,4.233069742744776515e-02,6.601119267950844582e-02,-4.181937873363494873e-02,1.946749126894723181e-01,-3.050406107070262676e-02,-4.980690479768559720e-02,-1.986927998825253061e-01,7.398783154289240160e-02,-8.290653228759765903e-02,-2.181405723094940186e-01,1.569946825504302812e-01,1.709346771240234306e-02,5.359933077186945782e-01,-6.229896545410156250e-01,-1.023785710334777832e+00,7.960759647473696532e+01,4.356391429901122769e-02
1.901510000000000034e+00,2.167357036345058524e-02,6.328365522509823982e-02,7.999719381332397461e-01,1.893642799604265681e-02,-9.951155359816610257e-03,-6.310667433025642092e-02,2.598738513719800816e-02,6.311060371310255046e-02,-4.482221975922584534e-02,2.643771349144233840e-01,1.283602809115410304e-01,-5.300963756633130658e-02,-2.488245864701901233e-01,1.532561880746893812e-01,5.333740115165708229e-02,-2.134280920028686357e-01,1.930588781833648682e-01,1.533374011516570878e-01,5.363326742484583187e-01,-6.328237056732177734e-01,-3.740071058273315430e-01,-1.016283910286884051e+01,4.356391429901122769e-02
1.926145999999999914e+00,2.292493842514765207e-02,6.448571340387909689e-02,7.989990711212158203e-01,2.203180489901590891e-02,-3.540031148805633521e-03,-6.403224190764666979e-02,2.860655940388193846e-02,6.250737867184304186e-02,-4.930006712675094604e-02,2.558827599432752509e-01,2.128752364503977423e-01,-5.136637379487738603e-02,-2.684867851516155035e-01,2.267260623820576970e-01,9.907058477401731178e-02,-2.135579466819763073e-01,2.203986167907714677e-01,1.990705847740173173e-01,5.366818010971735609e-01,-6.476844549179077148e-01,-1.095308065414428711e-01,1.019398493623882871e+02,4.356391429901122769e-02
1.950245000000000006e+00,2.473298816702688974e-02,6.650452880658758170e-02,7.974817156791687012e-01,2.289942007969633306e-02,3.608605407819487354e-03,-6.497224378259112976e-02,3.417665125232415696e-02,7.504728454522957559e-02,-4.708782956004142761e-02,1.792143074143028314e-01,2.584684120405583707e-01,-4.818442417293858360e-02,-2.613525325008542732e-01,2.789968336494761392e-01,1.051776528358459306e-01,-2.111186027526855413e-01,2.220590829849242998e-01,2.051776528358459362e-01,5.363119420398688719e-01,-6.784083843231201172e-01,-7.548714876174926758e-01,9.309521884008533732e+01,4.356391429901122769e-02
1.975306999999999924e+00,2.583165732147003207e-02,6.792400162914057071e-02,7.964165210723876953e-01,2.086993567708320813e-02,5.272051179204373383e-03,-6.570303460143342433e-02,2.965973375204367796e-02,7.594694029950711800e-02,-4.671904817223548889e-02,1.040558114489723990e-01,2.216274116158262475e-01,-4.487060518317377567e-02,-2.408798305880184842e-01,2.839599070262024960e-01,8.177201747894285999e-02,-2.037138998508453425e-01,2.193528413772583008e-01,1.817720174789428655e-01,5.370298117997268639e-01,-6.539346575736999512e-01,-1.571131229400634766e+00,7.276424553019360530e+01,4.356391429901122769e-02
1.999919000000000002e+00,2.735867619628332831e-02,7.008362189172072376e-02,7.947956919670104980e-01,1.490756658922043690e-02,3.527118733445577803e-03,-6.761287404639186593e-02,2.325915328959111614e-02,7.710233461436100111e-02,-4.442170262336730957e-02,-4.060019109638440121e-02,1.237786068593064170e-01,-4.842947716433473881e-02,1.284427608643997076e-01,2.602528375047774567e-01,7.091032266616820179e-02,1.244660496711730846e-01,2.097782135009765569e-01,1.709103226661682073e-01,5.377825394647567370e-01,-6.221393942832946777e-01,-1.286511540412902832e+00,6.381671137785523484e+01,4.356391429901122769e-02
2.023429000000000144e+00,2.786501485973629649e-02,7.248376304885091603e-02,7.936491966247558594e-01,9.451251478912056636e-03,-6.008211165542398646e-05,-6.894259893347466639e-02,2.504623574724563692e-02,8.559622964877633411e-02,-5.420332774519920349e-02,-1.273043126236579892e-01,2.675099912629151991e-02,-4.764889388150300026e-02,2.587847108161197562e-01,1.384325474958465474e-01,-1.274659633636475442e-02,2.113056421279907171e-01,1.087981224060058510e-01,8.725340366363525113e-02,5.417736246309684534e-01,-4.570798277854919434e-01,-9.193204641342163086e-01,6.419310944263629892e+01,4.356391429901122769e-02
2.051486000000000143e+00,2.855093097774476577e-02,7.611350442432220087e-02,7.918844819068908691e-01,1.516651908508265950e-03,-7.983119150694273358e-03,-7.085452104330303147e-02,2.195803926299440267e-02,7.845878783815278534e-02,-4.120223224163055420e-02,-2.161686821598234887e-01,-1.222469714660985862e-01,-5.852194533971839113e-02,3.091987235339300755e-01,-2.098942436121935540e-01,-1.709320545196534036e-02,2.129890680313110407e-01,-1.869778633117675781e-01,8.290679454803466519e-02,5.423972883537985235e-01,-3.901964426040649414e-01,-1.073472857475280762e+00,1.530984990005390500e+02,4.356391429901122769e-02
2.075708999999999804e+00,2.897052632065705291e-02,7.845026983641940899e-02,7.907201647758483887e-01,-1.552667509931478750e-03,-1.429633367703608826e-02,-7.178661899747208752e-02,2.160846710825837722e-02,8.003024173564092514e-02,-3.626608476042747498e-02,-2.291990392942688248e-01,-1.925112530290317425e-01,-5.879977582617681303e-02,3.075934648513793945e-01,-2.695025402471495912e-01,5.493406653404234175e-02,2.075934648513793890e-01,-2.061240434646606501e-01,1.549340665340423473e-01,5.407214735340758471e-01,-4.810917377471923828e-01,-2.741328477859497070e-01,9.185364754332792359e+01,4.356391429901122769e-02
2.098250000000000171e+00,2.935045077056440410e-02,8.072486629114405954e-02,7.896717786788940430e-01,-1.377179626207833711e-03,-2.029697644524697253e-02,-7.225736961688657145e-02,1.872164453833281492e-02,7.813686557186866333e-02,-2.038139663636684418e-02,-1.870780846752442272e-01,-2.358550366851158708e-01,-5.683472328588478478e-02,2.856405496597290150e-01,-3.086725711822509988e-01,7.873382568359374445e-02,1.856405496597290095e-01,-2.086725711822509655e-01,1.787338256835937500e-01,5.372413048708551964e-01,-6.270807981491088867e-01,-6.017845869064331055e-01,3.418372734298522886e+01,4.356391429901122769e-02
2.123512999999999984e+00,2.981377177307220974e-02,8.367977598863031441e-02,7.882732152938842773e-01,3.571045565753896110e-03,-2.475481646928434643e-02,-7.374790862587614348e-02,1.921272523499848589e-02,6.555527846104965140e-02,-1.591700129210948944e-02,-6.004591033479916157e-02,-2.353441812596264171e-01,-5.177783645981471478e-02,2.025636137834601891e-01,-3.064834594726562611e-01,6.921910047531126819e-02,1.201981186866760143e-01,-2.064834594726562556e-01,1.692191004753112737e-01,5.357412064927969952e-01,-7.089636921882629395e-01,-1.251081347465515137e+00,9.222468390961053331e+01,4.356391429901122769e-02
2.152223000000000219e+00,3.047961889118823084e-02,8.631547948417425675e-02,7.867954969406127930e-01,1.126357832197519802e-02,-2.227300757578754009e-02,-7.551534567320911107e-02,4.153918098380053603e-02,7.190852000834527247e-02,-2.530539780855178833e-02,1.058300928585017425e-01,-1.260447809058345137e-01,-4.090230256271033121e-02,-1.213290674468959079e-01,-3.034992694854736217e-01,5.502946376800535444e-02,-1.624647974967956543e-01,-2.034992694854736162e-01,1.550294637680053600e-01,5.383440981529822311e-01,-6.205506920814514160e-01,-1.514045119285583496e+00,9.854826428850509501e+01,4.356391429901122769e-02
2.175656000000000034e+00,3.103103483961151474e-02,8.809636696863366867e-02,7.859092354774475098e-01,1.726081335403191822e-02,-1.744062831168302630e-02,-7.728263601663182270e-02,2.438687095014138370e-02,6.577471453363108178e-02,-1.260231994092464447e-02,2.040056006834928548e-01,-2.785648508307056112e-02,-5.091612969442647213e-02,-2.241220145819060316e-01,-1.827795256357639953e-01,4.596728086471546515e-03,-2.213988840579986517e-01,-9.794636964797973078e-02,1.045967280864715521e-01,5.364227330634924185e-01,-6.910618543624877930e-01,-6.873234510421752930e-01,7.680058680134766291e+01,4.356391429901122769e-02
2.203342999999999829e+00,3.190464633378496673e-02,9.070764686273899424e-02,7.842925786972045898e-01,2.473106450602819903e-02,-7.501749373260979681e-03,-7.929109941621546864e-02,4.140747523200661445e-02,7.725810406420509369e-02,-2.318390831351280212e-02,2.638816913889514004e-01,1.472968452849262588e-01,-6.378501892253374272e-02,-2.594705068551646510e-01,1.973994863565947389e-01,8.557952046394345924e-02,-2.188840448856353704e-01,2.042332291603088379e-01,1.855795204639434648e-01,5.373810415189542722e-01,-6.990678310394287109e-01,-9.499205350875854492e-01,1.881966964658352026e+02,4.356391429901122769e-02
2.224410999999999916e+00,3.221121391159106895e-02,9.161674775091165068e-02,7.837290167808532715e-01,2.644189514176920400e-02,-4.106623658361341356e-03,-8.004246092559200165e-02,4.310245606486323711e-02,7.275042079344536117e-02,-1.890177465975284576e-02,2.638038419900737841e-01,1.962659239737361283e-01,-6.718951394055748538e-02,-2.743914577631273444e-01,2.344075727662862652e-01,1.116473197937011552e-01,-2.185963511466979814e-01,2.198322594165801891e-01,2.116473197937011608e-01,5.371354901094053114e-01,-7.095128893852233887e-01,-1.173108458518981934e+00,9.823232705825698474e+01,4.356391429901122769e-02
2.250539999999999985e+00,3.333691583736191066e-02,9.464798270507764066e-02,7.817331552505493164e-01,2.753734313666607661e-02,6.191340863349381607e-03,-8.126993919933170329e-02,3.264379277100883797e-02,8.384260124657255675e-02,-1.895115710794925690e-02,2.020242294403777616e-01,2.860477844069323483e-01,-5.758557866486922749e-02,-2.708922832971635275e-01,2.981852925466078608e-01,1.180139899253845048e-01,-2.171453654766082597e-01,2.246266901493072510e-01,2.180139899253845104e-01,5.375486924356094320e-01,-7.070240378379821777e-01,-8.647140264511108398e-01,9.605679569439203647e+01,4.356391429901122769e-02
2.275771999999999906e+00,3.441922159592111785e-02,9.782901468920802979e-02,7.797322869300842285e-01,2.445709772370428803e-02,1.215073454119308671e-02,-8.357676021911353281e-02,3.124357402516857521e-02,8.196008564456069845e-02,-1.522612385451793671e-02,8.482798431019633600e-02,2.788401889301616032e-01,-6.271154753169640161e-02,-2.365613048151030129e-01,3.223554849624633567e-01,8.776398301124571644e-02,-2.017755210399627686e-01,2.223554849624633789e-01,1.877639830112457220e-01,5.380135353530783870e-01,-6.862428784370422363e-01,-7.718762159347534180e-01,7.819412980713784123e+01,3.948786258697509904e-02
2.299386000000000152e+00,3.533660866751709567e-02,1.009040504935650312e-01,7.776992321014404297e-01,1.802530465069863627e-02,1.116053405654993114e-02,-8.621247825662428643e-02,1.746994435696567691e-02,7.674111350649137631e-02,-3.561931895092129707e-03,-5.848403511843089375e-02,1.731700025617286809e-01,-6.896918041651976805e-02,1.172235530408582693e-01,3.160193862485250471e-01,5.461261272430417701e-02,1.117285966873168973e-01,2.174208998680114691e-01,1.546126127243041826e-01,5.379644130334959584e-01,-6.619754433631896973e-01,-1.492634177207946777e+00,5.836714932591218030e+01,3.948786258697509904e-02
2.326122999999999941e+00,3.574889180017673529e-02,1.032500375202878296e-01,7.764980792999267578e-01,1.268517630758178062e-02,7.864597493568492581e-03,-8.777969258737090830e-02,3.683520217537274155e-02,8.612776030959504170e-02,-8.339619264006614685e-03,-1.467528671064144141e-01,7.583172707876842389e-02,-7.004625249836667067e-02,2.524185977939191194e-01,2.896127665534034001e-01,-3.765720129013062217e-02,2.015647172927856334e-01,1.964660346508026179e-01,6.234279870986938338e-02,5.400736746683238998e-01,-5.810488462448120117e-01,-1.167297720909118652e+00,1.016978147789597102e+02,3.948786258697509904e-02
2.351052999999999837e+00,3.607930454666918169e-02,1.071631183589555891e-01,7.747235894203186035e-01,4.642424302881662489e-03,1.297196869824990273e-04,-9.028304028821995675e-02,2.477745282897140730e-02,8.758512792904944722e-02,2.008466981351375580e-03,-2.298196675551075485e-01,-8.699281762300865861e-02,-9.088781714206851936e-02,3.152215957641601451e-01,-1.249982802962756184e-01,-9.821917414665222446e-02,2.152215957641601396e-01,-1.576148271560668945e-01,1.780825853347778277e-03,5.448229300178898393e-01,-2.934779524803161621e-01,-1.382481932640075684e+00,8.709562848447032479e+01,3.948786258697509904e-02
2.374722000000000222e+00,3.628436820983909489e-02,1.096374827916005851e-01,7.737331986427307129e-01,1.460508710953669102e-03,-6.670314567688739871e-03,-9.106626734543439572e-02,1.859485505861485644e-02,8.286156772032687856e-02,1.084690820425748825e-02,-2.491239289131399470e-01,-1.793711935182530914e-01,-7.266777453211673010e-02,3.103543519973754883e-01,-1.965355117863043510e-01,-1.144178032875061146e-01,2.103543519973754827e-01,-1.828521251678466852e-01,-1.441780328750610213e-02,5.433941528634870233e-01,-3.529584407806396484e-01,-1.653071761131286621e+00,9.199682196870973883e+01,3.948786258697509904e-02
2.400828000000000184e+00,3.645680551020260424e-02,1.132531333442270277e-01,7.725809812545776367e-01,2.334760545395464428e-03,-1.705139861962545744e-02,-9.162565876820495669e-02,2.298335133662391533e-02,7.697949884019573974e-02,1.801439374685287476e-02,-1.742920446237567755e-01,-2.711027282317390319e-01,-5.540175752600028786e-02,2.718492746353149414e-01,-2.794416401423250873e-01,-4.463528990745545266e-02,1.718492746353149359e-01,-2.024865388870239202e-01,5.536471009254455289e-02,5.386342742049382570e-01,-6.045321226119995117e-01,-8.217540979385375977e-01,1.166589889860358085e+02,3.948786258697509904e-02
2.423115000000000130e+00,3.656168134400895886e-02,1.152103732110279083e-01,7.720655202865600586e-01,5.821285770008326893e-03,-2.160945959220161861e-02,-9.161412657356311773e-02,3.016377890390574065e-02,7.719744477977129316e-02,2.863204665482044220e-02,-8.550064779491738098e-02,-2.801599847167929314e-01,-3.884173712876604762e-02,2.083006620407104603e-01,-2.948031187057494895e-01,-1.389394879341125377e-01,1.083006620407104409e-01,-1.948031187057495117e-01,-3.893948793411254605e-02,5.362857371335136847e-01,-7.048696279525756836e-01,-1.308725714683532715e+00,5.983734071456825632e+01,3.948786258697509904e-02
