timestamp,x,y,z,roll,pitch,yaw,vx,vy,vz,p,q,r,psp,qsp,rsp,pres,qres,rres,thrust_sp, thrust_res,wind_mag,wind_angle,wind_obs
0.000000000000000000e+00,-1.491923995981944175e-02,7.388040033830447356e-04,9.982362985610961914e-01,9.312721983969877299e-03,-3.368212942599146942e-03,-1.292178121418357303e-03,1.143668884721763543e-03,-2.715397649772947550e-02,-1.154983323067426682e-02,-1.148688819243928738e-02,1.081950362311623164e-02,7.554813619384035880e-03,1.252480419695175540e-01,1.875900730364008784e-01,-2.116163864246262405e-01,2.072644114494323619e-01,2.179266929626464677e-01,-2.080375671386718583e-01,5.121674673399591038e-01,-4.189240932464599609e-02,1.498638391494750977e-01,1.027046256437546106e+02,0.000000000000000000e+00
2.177300000000000069e-02,-1.485124212503813670e-02,-3.244102919826439744e-04,9.978826045989990234e-01,9.162052889117118862e-03,-3.425438293036764392e-03,-1.422076552500637020e-03,5.733069170996781330e-03,-2.734744866720029144e-02,1.104706316255033016e-03,-1.016859799866703246e-02,2.072899824697406815e-02,-4.641625236854745457e-02,1.142622609534745259e-01,1.941534126474992739e-01,2.160624412416663476e-01,1.922775506973266602e-01,2.213420391082763505e-01,2.200072109699249268e-01,5.024901244736927897e-01,-5.055156350135803223e-01,1.050597429275512695e-01,1.017336596117239367e+02,0.000000000000000000e+00
4.737399999999999944e-02,-1.497800034367077759e-02,-1.779433919569927336e-03,9.971885681152343750e-01,8.674904713805681872e-03,-3.501914625234636702e-03,-1.471357788245297336e-03,5.027853646870383310e-03,-2.320394121361836828e-02,-7.121724076569080353e-03,-3.181652139578827060e-02,-6.395450844501467461e-03,-9.291286214029383789e-03,1.492728821507176007e-01,1.847079333155172420e-01,-2.171484450564734048e-01,2.217224836349487305e-01,2.137411236763000488e-01,-2.130674600601196178e-01,4.993629694740213676e-01,-7.051340341567993164e-01,8.454061746597290039e-01,-6.286064198840436035e+01,0.000000000000000000e+00
7.388699999999999435e-02,-1.502123853820045915e-02,-2.748835503998537169e-03,9.967250227928161621e-01,8.605267736909377047e-03,-3.704448676121074868e-03,-2.011496329638841601e-03,2.325434521777009107e-03,-2.914888158671141358e-02,-3.229308640584349632e-03,3.866917441289693946e-02,-2.359998307485623031e-02,-5.151846635293223786e-02,1.201803977493918901e-01,-5.394103777742921546e-02,2.029476130932455491e-01,1.983150959014892412e-01,-2.145216464996337752e-02,2.085434496402740479e-01,5.006378107928491916e-01,-6.252491474151611328e-01,2.046943902969360352e-01,9.298920064378839356e+01,0.000000000000000000e+00
1.003659999999999969e-01,-1.514552999989463716e-02,-4.196415187082241406e-03,9.958091378211975098e-01,1.000667853342302946e-02,-6.363268994381110488e-03,-3.315057133739525257e-03,1.092527008236997624e-02,-3.176569620439941011e-02,-1.207761745899915695e-02,6.281622116120050281e-02,-1.431780718189574197e-01,-1.853227497933682827e-02,1.193632456028024535e-01,7.905535635482935364e-02,1.519856579889346249e-01,2.087934494018554576e-01,1.215814232826232799e-01,1.612104535102844294e-01,5.007992321024964388e-01,-6.561807990074157715e-01,1.027690172195434570e-01,9.664171943453358438e+01,0.000000000000000000e+00
1.201929999999999943e-01,-1.524502292069553240e-02,-4.685014376012496679e-03,9.954306483268737793e-01,1.094942676965342775e-02,-7.696168183051854683e-03,-2.828100255368004579e-03,5.806429787010265221e-03,-2.354524784911938770e-02,-1.639919728040695190e-02,1.441451857834528671e-01,-1.522854927483135168e-01,2.378820380499654941e-02,1.065827151163042108e-01,7.751434401846396538e-02,1.933951795523876360e-01,1.955460190773010143e-01,1.341897547245025635e-01,2.012135446071624811e-01,5.040997196733890684e-01,-5.023557543754577637e-01,-7.247316837310791016e-02,1.046793767667778781e+02,0.000000000000000000e+00
1.448659999999999948e-01,-1.531456348683528541e-02,-5.842166711109557722e-03,9.940824508666992188e-01,1.393773431167107113e-02,-1.167487686767687549e-02,-3.945012495070694854e-03,-7.504675560504468941e-03,-3.868946119767271291e-02,-3.019800782203674316e-02,9.893688446664487823e-02,-1.084101236257279804e-01,-8.197738292827390361e-02,3.532388210296630304e-02,-2.401506509310406268e-01,1.944754110616540854e-01,1.353238821029663086e-01,-1.476342558860778698e-01,2.053413927555084173e-01,5.067351338689942697e-01,-4.251097440719604492e-01,2.321738004684448242e-01,1.705463948202550455e+02,0.000000000000000000e+00
1.733959999999999946e-01,-1.526852049280158150e-02,-6.900446907384934735e-03,9.921160936355590820e-01,1.759361088904765058e-02,-1.447355079998091654e-02,-6.193057702115293064e-03,1.472956214210677239e-02,-3.135915869987477428e-02,-5.800316855311393738e-02,1.420709606914325185e-01,-9.074784050909985578e-02,-5.539427865729459888e-02,-1.430940687656402643e-01,-1.831389247607929649e-01,1.978102488109927393e-01,-4.309406876564025879e-02,-9.212257862091063898e-02,2.148790061473846436e-01,5.217682321841332627e-01,2.581849098205566406e-01,2.260075807571411133e-01,6.823766743136188495e+01,0.000000000000000000e+00
1.990079999999999905e-01,-1.521350442508731353e-02,-7.966976481349981321e-03,9.895132780075073242e-01,2.099832703960663807e-02,-1.578688173312170484e-02,-9.307751379231269176e-03,-6.194703081474676153e-03,-4.002930655242812469e-02,-7.439260184764862061e-02,9.916264978386289675e-02,1.747263851165690215e-03,-1.309671787148631028e-01,-2.720539093017578236e-01,-8.317952752113343118e-02,1.960288132346322543e-01,-1.720539093017578181e-01,1.682047247886657784e-02,2.216804087162017878e-01,5.099355500651260309e-01,-4.556360840797424316e-01,-1.843219995498657227e-01,2.371702251545262996e+01,0.000000000000000000e+00
2.198420000000000096e-01,-1.513394698370702091e-02,-8.647807310118113891e-03,9.874225854873657227e-01,2.237862236715464775e-02,-1.499180936826860489e-02,-1.115967961013796667e-02,9.982508609356986057e-03,-2.941655994718316361e-02,-8.736196905374526978e-02,5.256665654980709895e-02,6.731699143091458837e-02,-7.969360846425906086e-02,-2.727136969566344993e-01,1.120928397190955744e-01,1.926905318281207091e-01,-1.727136969566345215e-01,2.105489373207092285e-01,2.235395550727844183e-01,5.079816368924159331e-01,-6.236215829849243164e-01,1.269456148147583008e-01,5.189078103037901712e+01,0.000000000000000000e+00
2.468009999999999926e-01,-1.454407661128339496e-02,-9.687671116052030962e-03,9.837230443954467773e-01,2.225867384950954223e-02,-1.098590261514753585e-02,-1.479091580707636057e-02,4.426203051882544350e-03,-2.928295288519453671e-02,-1.085504814982414246e-01,-1.567210895099434981e-02,1.647335446730559261e-01,-1.500822501381994523e-01,5.548290014266965553e-02,1.468008021589238266e-01,1.828968053481813405e-01,1.554829001426696611e-01,2.255793929100036455e-01,2.239999115467071478e-01,5.218853912638754533e-01,1.619863510131835938e-02,-2.776826620101928711e-01,-1.032289451153906441e+02,0.000000000000000000e+00
2.707309999999999994e-01,-1.415042533765674751e-02,-1.031339102963515532e-02,9.809646606445312500e-01,2.008168543802927794e-02,-7.619888407461417046e-03,-1.720545961263810972e-02,1.081794048075318537e-03,-3.047905722387754535e-02,-1.226100772619247437e-01,-1.126986849054785050e-01,1.305847851653020031e-01,-1.133929253146728211e-01,1.018983840942382646e-01,1.610750431235554725e-01,-1.855546198116660717e-01,2.018983840942382701e-01,2.195241630077361950e-01,-1.375805854797363115e-01,5.221582718403510182e-01,-4.257088899612426758e-02,3.355249166488647461e-01,9.659696803509166330e+01,0.000000000000000000e+00
2.990599999999999925e-01,-1.367688971879798231e-02,-1.118454185526782108e-02,9.766061305999755859e-01,1.489404872075140648e-02,-5.002618497706778911e-03,-2.090170282861479947e-02,8.276070592329371270e-03,-2.979298490041509817e-02,-1.316619515419006348e-01,-1.841207404163787975e-01,2.239723766931663376e-02,-1.667263490273738491e-01,1.269821166992187444e-01,1.224279109649706460e-01,-2.799672371045938135e-01,2.269821166992187500e-01,1.573664724826812633e-01,-2.215242147445678766e-01,5.108496229187131643e-01,-7.101703286170959473e-01,-1.229406595230102539e-01,8.406375532322584831e+01,0.000000000000000000e+00
3.230199999999999738e-01,-1.354551068420985389e-02,-1.178114660243829472e-02,9.736561775207519531e-01,1.255103583024129270e-02,-5.906982634418023181e-03,-2.237238170335941953e-02,-2.998646639415125225e-03,-2.329960302881145875e-02,-1.322654634714126587e-01,-5.326069834167005551e-02,-7.507207232904510030e-02,-1.662001931969762231e-02,1.103384733200073187e-01,1.293693466351445165e-01,-2.840327835059216488e-01,2.103384733200073242e-01,1.799487590789794755e-01,-2.214897394180297685e-01,5.109490377842402786e-01,-7.268289923667907715e-01,-4.130804538726806641e-02,9.413125608433871605e+01,0.000000000000000000e+00
3.469079999999999941e-01,-1.350418408225890349e-02,-1.343046107491046269e-02,9.694278836250305176e-01,1.192498497245833566e-02,-9.471356859494628466e-03,-2.174684893108975309e-02,-1.792276633317687468e-02,-3.665911898241553529e-02,-1.200617700815200806e-01,4.403696182498813283e-02,-1.558418657177183808e-01,7.376047936259068349e-02,8.390144109725949928e-02,-2.066375195337641912e-01,-2.807043884599663142e-01,1.839014410972595048e-01,-1.230106830596923717e-01,-2.199314117431640514e-01,5.106441838759840923e-01,-7.193107008934020996e-01,-8.763158321380615234e-02,9.756667731231505059e+01,0.000000000000000000e+00
3.712260000000000004e-01,-1.354597793145030649e-02,-1.477251059660491909e-02,9.666929841041564941e-01,1.285928828181903683e-02,-1.250287999471066946e-02,-2.016694490464680800e-02,-9.947824398082533159e-03,-3.239026735669909424e-02,-1.290405094623565674e-01,8.154172715206051830e-03,-1.074811085581567488e-01,7.195828575196003274e-02,7.177238464355467640e-02,-1.974517982309573760e-01,-2.802773230539921112e-01,1.717723846435546819e-01,-1.022703766822814914e-01,-2.239775419235229548e-01,5.115871627352078788e-01,-7.233735918998718262e-01,-1.853114366531372070e-01,8.397125407129637154e+01,0.000000000000000000e+00
3.979449999999999932e-01,-1.369989191842450015e-02,-1.677346160237276965e-02,9.625644087791442871e-01,1.538382491587037340e-02,-1.683886338399354088e-02,-1.651104133366347593e-02,-2.406098399336230320e-02,-4.576698345556191178e-02,-1.326387375593185425e-01,3.440479845705819023e-02,-1.168236369555041149e-01,1.510412154119527006e-01,-3.373495340347290594e-02,-2.407730937004089466e-01,-2.641151988286069008e-01,6.626504659652709961e-02,-1.407730937004089411e-01,-2.181409835815429632e-01,5.125221199994415278e-01,-7.128643989562988281e-01,4.448455572128295898e-01,-3.357038830834913501e+00,0.000000000000000000e+00
4.216829999999999745e-01,-1.378619342370830669e-02,-1.810949474908248383e-02,9.597129225730895996e-01,1.714216521324995329e-02,-1.720222354309131063e-02,-1.409016202375921664e-02,-9.094593131323568114e-03,-2.941325996179909238e-02,-1.368651837110519409e-01,9.770970177800418488e-02,6.055762100375125523e-02,1.093660136516941828e-01,-8.464202880859375555e-02,1.167354345321655051e-01,-1.302952698280306354e-01,1.535797119140625000e-02,2.167354345321655107e-01,-9.118266105651855191e-02,5.138458063513854368e-01,-6.786659955978393555e-01,8.726626634597778320e-01,5.408731522594175800e+01,0.000000000000000000e+00
4.448520000000000252e-01,-1.383018274529109783e-02,-2.014048776873544194e-02,9.552370309829711914e-01,1.871930207890403625e-02,-1.471166893068476256e-02,-1.008105834675663767e-02,-2.038703718562725337e-02,-4.956626344602760997e-02,-1.408431231975555420e-01,5.626049510334338311e-02,1.102278221957981863e-01,9.572283319060229112e-02,-2.511323392391204834e-01,1.233715057373046819e-01,1.390127985926171983e-01,-1.511323392391204778e-01,2.233715057373046875e-01,1.669507741928100419e-01,5.158918026314419647e-01,-6.122249364852905273e-01,1.150993108749389648e-01,1.294243529976011757e+02,0.000000000000000000e+00
4.697049999999999836e-01,-1.383400073761827283e-02,-2.150996226206321887e-02,9.521052837371826172e-01,1.908372547008901562e-02,-1.131819201748185399e-02,-7.303494823979813852e-03,-7.477205058969308392e-03,-3.242072341652679074e-02,-1.504554748535156250e-01,3.650183320297261530e-02,1.671616229974941248e-01,1.550863617058098609e-01,-1.134318947792053306e-01,1.403488124561252104e-01,-1.681627446812231086e-01,-1.343189477920532157e-02,2.261514008045196478e-01,-1.479706048965453991e-01,5.218111125636659686e-01,-3.533331155776977539e-01,-1.816607713699340820e-01,8.084967320549294811e+01,0.000000000000000000e+00
4.980189999999999895e-01,-1.391119955201289109e-02,-2.356843681263792734e-02,9.472587108612060547e-01,1.854249533403705755e-02,-8.148988256527323060e-03,-6.231834119248434375e-03,-2.083656010760311442e-02,-5.001317842274952824e-02,-1.524998247623443604e-01,8.007885418629710284e-04,5.030338876161683653e-02,-3.325091698449627459e-02,7.221784591674804132e-02,1.480535127769090908e-01,2.080243202055382101e-01,1.722178459167480469e-01,2.253619194030761497e-01,2.252948105335235429e-01,5.219840174159683377e-01,-3.818806409835815430e-01,-2.380913496017456055e-01,1.009499705365458482e+02,0.000000000000000000e+00
5.234189999999999676e-01,-1.405371457873900304e-02,-2.489645222999966809e-02,9.440151453018188477e-01,1.652680636580119294e-02,-8.300173153167778040e-03,-5.759736129094058903e-03,-1.690637654027373621e-02,-3.331719009920350999e-02,-1.661954969167709351e-01,-1.543045916707882770e-01,1.482085110636743343e-02,5.397197666616505851e-02,1.269302606582641546e-01,1.427184372802360324e-01,-2.417537332563575170e-01,2.269302606582641602e-01,2.162872195243835394e-01,-2.257996201515197754e-01,5.177050218316059382e-01,-6.903658509254455566e-01,-1.170438528060913086e-01,6.345737512562086380e+01,0.000000000000000000e+00
5.489290000000000003e-01,-1.452988054982372323e-02,-2.660140927276594472e-02,9.389986991882324219e-01,1.312109192736790608e-02,-1.114922210096680466e-02,-4.721285664373528826e-03,-2.188680135380128775e-02,-4.413220790538601584e-02,-1.560250520706176758e-01,-6.745381638887230913e-02,-1.904870414780817089e-01,1.268415306777076305e-02,8.801527023315428022e-02,3.470264644965452561e-02,-2.320015924581087796e-01,1.880152702331542858e-01,1.315002501010894831e-01,-2.189005136489867998e-01,5.169813336456218211e-01,-7.200137972831726074e-01,2.938600778579711914e-01,1.038966780690294343e+02,0.000000000000000000e+00
5.693129999999999580e-01,-1.473023530077601298e-02,-2.715078723674460917e-02,9.374201893806457520e-01,1.217289769721900151e-02,-1.252794476710450411e-02,-5.172271812718665790e-03,-3.711979571138427497e-02,-4.497590110344606290e-02,-1.649848669767379761e-01,-8.291999291622421941e-02,-1.657273534088026523e-01,-5.346823408565008762e-03,9.827010631561278187e-02,3.900076150894163374e-02,-2.353505817642501941e-01,1.982701063156127874e-01,1.390007615089416393e-01,-2.209890604019164873e-01,5.179197569104605492e-01,-7.227257490158081055e-01,1.376234292984008789e-01,-4.162302936808513465e+01,0.000000000000000000e+00
5.992960000000000509e-01,-1.581186632569809430e-02,-2.940925162689341996e-02,9.310744404792785645e-01,1.161633750414529063e-02,-1.942799306080322808e-02,-2.698908379409325434e-03,-2.487665445655301219e-02,-4.736836586060613058e-02,-1.655809581279754639e-01,-2.214532410946912222e-02,-1.630168338242783954e-01,1.255058593527973443e-01,-3.956682682037354626e-02,-1.503577947616577259e-01,-2.254413511653841906e-01,6.043317317962645929e-02,-5.035779476165771346e-02,-2.180064439773559404e-01,5.190840433216226124e-01,-6.991296410560607910e-01,-3.317030668258666992e-01,1.002761245635999074e+02,0.000000000000000000e+00
6.224089999999999900e-01,-1.642277450368401573e-02,-3.056349492841549387e-02,9.279727339744567871e-01,1.298040872172388956e-02,-2.203843253391113421e-02,-3.613187961535406219e-04,-4.493730102862086850e-02,-4.905452027349930383e-02,-1.494037806987762451e-01,1.293589308027532636e-01,-1.377526241116933114e-01,1.147864106682372765e-01,-2.504907190799713357e-01,-2.795338392257690208e-01,-2.042543152467947154e-01,-1.504907190799713024e-01,-1.795338392257690430e-01,-2.034344673156738281e-01,5.190359999312689210e-01,-6.614483594894409180e-01,-1.312867403030395508e-01,9.517180125344431474e+01,0.000000000000000000e+00
6.460040000000000227e-01,-1.707549454492859886e-02,-3.171748430677497760e-02,9.248800873756408691e-01,1.399830562794196313e-02,-2.388908408154066798e-02,2.162952512640948025e-03,-3.721953701963962025e-02,-4.702770490522920760e-02,-1.611571609973907471e-01,-2.786424747191518312e-03,-4.047938864619513716e-02,1.357265371385528718e-01,-2.623051345348358376e-01,-2.131900787353515625e-01,-8.715855787255909204e-02,-1.623051345348358043e-01,-1.131900787353515569e-01,-9.345824718475341519e-02,5.198852130398120552e-01,-6.859676837921142578e-01,5.708336830139160156e-03,1.085315214963950297e+02,0.000000000000000000e+00
6.739450000000000163e-01,-1.788012635790097588e-02,-3.364276757848037175e-02,9.202473759651184082e-01,1.538946180897615874e-02,-2.401354672566990978e-02,6.157907724159700745e-03,-4.438172711909494500e-02,-4.868288130476241399e-02,-1.672034412622451782e-01,1.756143731900237925e-02,5.370874583744295050e-02,1.525077979013887974e-01,-3.104154884815216175e-01,1.200518071651458518e-01,-1.352602350110520546e-01,-2.104154884815216120e-01,2.200518071651458574e-01,-1.527963280677795410e-01,5.241583237504621184e-01,-5.094653964042663574e-01,2.409664392471313477e-01,1.577565923918393764e+02,0.000000000000000000e+00
6.947520000000000362e-01,-1.835935116236590489e-02,-3.482932649349227555e-02,9.170519113540649414e-01,1.405065629738060963e-02,-2.156345864982678329e-02,8.553154314532358804e-03,-3.484035871730980366e-02,-4.588648138081379002e-02,-1.685620993375778198e-01,-1.274986751574054555e-01,1.661748868043869121e-01,8.422906578058406146e-02,1.008373737335205023e-01,-2.723723411560058372e-01,-1.998436427880241062e-01,2.008373737335205078e-01,-1.723723411560058594e-01,-2.240091919898986872e-01,5.294869062707341367e-01,-2.494738101959228516e-01,7.247078418731689453e-02,8.247621445443979837e+01,0.000000000000000000e+00
7.209729999999999750e-01,-1.908555444524404759e-02,-3.643286586163822088e-02,9.121660590171813965e-01,9.047784493764487318e-03,-1.513553803427414302e-02,1.167656123495726221e-02,-3.613872489385618753e-02,-3.650692619187152071e-02,-1.822542548179626465e-01,-2.061475291674980115e-01,1.837985104196228070e-01,1.269423260569949585e-01,1.167950153350829912e-01,-3.001918911933899037e-01,-1.936774414628810725e-01,2.167950153350829967e-01,-2.001918911933898981e-01,-2.264206409454345703e-01,5.291504867011997959e-01,-3.546797037124633789e-01,-2.716721296310424805e-01,9.581347703539950089e+01,0.000000000000000000e+00
7.476460000000000328e-01,-1.998483872110486462e-02,-3.782908587623194652e-02,9.072952270507812500e-01,2.951025028262489486e-03,-9.831312996708474472e-03,1.484043216370653506e-02,-3.824933180540150690e-02,-3.632331080113737620e-02,-1.824508905410766602e-01,-1.561578482625324282e-01,1.879923611006924788e-01,1.245959744096177407e-01,1.367875779882617160e-01,8.267576098442075416e-02,-1.846829993726147590e-01,2.056180715560912975e-01,1.826757609844207597e-01,-2.261319279670715165e-01,5.361792654776221800e-01,-2.182066440582275391e-03,-3.682299852371215820e-01,8.798768534101984073e+01,0.000000000000000000e+00
7.751230000000000064e-01,-2.073127396328592123e-02,-3.866804040939073733e-02,9.043474197387695312e-01,7.628450432943627291e-04,-6.900931391407905124e-03,1.709967156499594965e-02,-3.236798791633438421e-02,-4.262234154612072612e-02,-1.634731739759445190e-01,-8.214688978474291026e-02,1.603391438012726489e-01,8.886463920734642696e-02,6.598612302702491772e-02,1.427370218960592463e-01,-1.780202715439166694e-01,1.262037634849548229e-01,2.226166069507598821e-01,-2.257661461830139105e-01,5.400862945645238389e-01,2.645933628082275391e-01,-3.951338529586791992e-01,8.179549731118881084e+01,0.000000000000000000e+00
7.994339999999999780e-01,-2.140933717522208388e-02,-3.957233727030434745e-02,9.014142751693725586e-01,1.937056598627461934e-04,-2.924161514565870590e-03,1.970772712471885804e-02,-4.520291703848448167e-02,-4.642072647228546317e-02,-1.663954108953475952e-01,-2.670848256436197249e-02,1.796070136323317523e-01,1.563892755804202062e-01,1.329868362741467858e-01,1.608690430423745932e-01,-1.712943004192809260e-01,1.918766498565673828e-01,2.260729730129241721e-01,-2.263536572456359697e-01,5.430162584920991131e-01,3.910977840423583984e-01,2.350054979324340820e-01,7.491813885476794610e+01,0.000000000000000000e+00
8.227759999999999518e-01,-2.211283799349661461e-02,-4.048394272925821824e-02,8.987443447113037109e-01,1.463585499852518203e-03,9.159985457647401574e-04,2.208510443446042026e-02,-4.359596494517784665e-02,-4.017827382300043909e-02,-1.552526503801345825e-01,1.034993069358393220e-01,1.989847331571049649e-01,8.676521891230035144e-02,1.625552422267561303e-01,1.869107125370571276e-01,2.879394851465563732e-01,2.251926183700561357e-01,2.248569846153259111e-01,2.261567473411559837e-01,5.227096591685115312e-01,-7.046309709548950195e-01,4.483568668365478516e-02,8.221584764327890582e+01,0.000000000000000000e+00
8.497660000000000213e-01,-2.327280966729596348e-02,-4.188503706562426987e-02,8.952348828315734863e-01,5.212366784971634963e-03,3.006437299833297772e-03,2.594342967536958713e-02,-3.895838207637987438e-02,-4.523404243699209043e-02,-1.309704333543777466e-01,1.631100769221859870e-01,-5.073043060449682756e-02,1.023844453343402128e-01,-2.774887359404650811e-01,1.764750504765662253e-01,-3.276501602154610615e-02,-1.846614718437194769e-01,1.987440526485443060e-01,-1.053869962692260687e-01,5.226929684726558945e-01,-6.353759765625000000e-01,5.174815654754638672e-02,8.634332412852843675e+01,0.000000000000000000e+00
8.697610000000000063e-01,-2.409858294192623873e-02,-4.295822537194565749e-02,8.931348919868469238e-01,7.760405953032032365e-03,2.750658111995596400e-03,2.833786625333904047e-02,-5.848258060285362048e-02,-4.735810452444312590e-02,-1.341158300638198853e-01,1.068532210903704038e-01,5.765643221696705248e-03,1.047616526635947176e-01,-1.195995807647705078e-01,1.759793665782890537e-01,-1.152034307125730794e-01,-1.959958076477050573e-02,2.159855782985687089e-01,-1.945331811904907060e-01,5.231959629953777391e-01,-6.412888765335083008e-01,6.776465177536010742e-01,-7.599796956443216622e+00,0.000000000000000000e+00
8.943790000000000351e-01,-2.521708391894119522e-02,-4.490165094666826590e-02,8.904105424880981445e-01,1.197578405706533483e-02,-6.588405119505313934e-04,2.809570946961818458e-02,-3.167861939426925427e-02,-4.271803648773289663e-02,-1.238549575209617615e-01,1.262550772030036073e-01,-1.504138049188874227e-01,-1.392610622445915628e-03,5.289528369903562233e-02,1.188609658842074979e-01,2.651304761582445324e-01,1.528952836990356279e-01,1.587964832782745306e-01,1.864392757415771484e-01,5.248973388280189223e-01,-5.303379893302917480e-01,-3.617894649505615234e-02,9.625942008630963187e+01,0.000000000000000000e+00
9.201259999999999994e-01,-2.639434474770392669e-02,-4.666295024544703934e-02,8.878720998764038086e-01,1.390582453052703095e-02,-4.947301980936735788e-03,2.840078516540521514e-02,-4.605425603450754440e-02,-3.940712554755467639e-02,-1.196120232343673706e-01,1.495824780403305979e-02,-1.375235876100816268e-01,1.653832389317816398e-02,3.128247261047362171e-02,7.017479800917990340e-02,-1.349274873174287626e-01,1.312824726104736273e-01,1.533630788326263428e-01,-2.145352363586425781e-01,5.215589932405957363e-01,-7.164356112480163574e-01,2.355158329010009766e-02,8.801756058844947006e+01,0.000000000000000000e+00
9.470070000000000432e-01,-2.760178635358094892e-02,-4.824805159353215411e-02,8.854374289512634277e-01,1.248400196846949882e-02,-9.396354432897657816e-03,2.865508989156849429e-02,-3.596934864336139709e-02,-4.002603603673481059e-02,-1.260864734649658203e-01,-7.558433750817206143e-02,-1.817710489520180106e-01,-4.564411940825113118e-02,2.227718830108640913e-02,9.249743819236755371e-02,-1.349906643263405204e-01,1.222771883010864147e-01,1.924974381923675593e-01,-2.152934789657592607e-01,5.223284717231417851e-01,-7.219035625457763672e-01,9.178131818771362305e-01,4.620926233912774705e+01,0.000000000000000000e+00
9.726599999999999691e-01,-2.843496014048397733e-02,-4.943177393591245000e-02,8.839622139930725098e-01,1.184162023772234243e-02,-1.242874590907172561e-02,2.814525785542853348e-02,-4.757692171124960900e-02,-3.526383638086479089e-02,-1.178237423300743103e-01,-1.165427551371312886e-03,-1.332003343972231191e-01,-5.922438757792618941e-03,-2.983283996582042352e-03,7.581264972686765913e-02,-1.322297363586563412e-01,9.701671600341796320e-02,1.758126497268676647e-01,-2.111188888549804521e-01,5.221150501795734922e-01,-7.184954881668090820e-01,-2.203778028488159180e-01,9.424386541318472155e+01,0.000000000000000000e+00
9.964060000000000139e-01,-2.978913240741219368e-02,-5.120551795494959757e-02,8.819165229797363281e-01,1.099230651384073415e-02,-1.655446197295162847e-02,2.961320728909573249e-02,-4.469075230986202518e-02,-4.403772794396447476e-02,-1.138431355357170105e-01,-1.475989347424051974e-02,-1.422004492935533826e-01,4.518972665178842135e-02,-4.853001832962036688e-02,7.161806821823119007e-02,-1.313493020265260880e-01,5.146998167037963867e-02,1.716180682182311956e-01,-2.142895102500915472e-01,5.222749281965627377e-01,-7.139737010002136230e-01,6.128705739974975586e-01,-7.956121095253611664e+00,0.000000000000000000e+00
1.020324999999999926e+00,-3.077577825475105722e-02,-5.237690301898118711e-02,8.806445598602294922e-01,1.097042279416619165e-02,-1.911062876024338664e-02,3.136166889430561100e-02,-5.320208935821053864e-02,-3.659540634867846504e-02,-1.181975528597831726e-01,2.056339833555685323e-02,-1.315514699768746687e-01,1.073924338333497319e-01,-1.858467280864715687e-01,-2.185748100280761608e-01,-1.256073942435141089e-01,-8.584672808647154929e-02,-1.185748100280761691e-01,-2.134814500808715765e-01,5.231897076644139721e-01,-6.985383629798889160e-01,3.943363428115844727e-01,2.203673109283237963e+01,0.000000000000000000e+00
1.049163000000000068e+00,-3.233416458122301274e-02,-5.407316687027310248e-02,8.788470029830932617e-01,1.129261883741259666e-02,-2.216366878792985773e-02,3.394295289037976143e-02,-4.950061968601595502e-02,-3.776959620637343473e-02,-1.158389225602149963e-01,5.505106761511101635e-03,-9.248744894037350117e-02,9.497666090174185227e-02,-2.888757586479187012e-01,-2.306083440780639648e-01,-9.321029522432219827e-02,-1.888757586479186956e-01,-1.306083440780639593e-01,-1.883095622062682939e-01,5.237484656277583417e-01,-6.778913736343383789e-01,-8.509218692779541016e-02,1.403419595933813468e+02,0.000000000000000000e+00
1.072125999999999912e+00,-3.282520619577519033e-02,-5.485404173262299621e-02,8.782175183296203613e-01,1.108520633733598229e-02,-2.303121450988920849e-02,3.475013605898996660e-02,-4.806051178649825562e-02,-3.948782230230659523e-02,-1.247333586215972900e-01,-3.530338598182346938e-02,-5.929260558763418260e-02,1.023324899708785568e-01,-2.652862310409546120e-01,-7.021671533584594727e-02,-5.647677176414869771e-02,-1.652862310409545787e-01,2.978328466415405135e-02,-1.538166761398315485e-01,5.249045793657182157e-01,-6.651148200035095215e-01,7.141363620758056641e-02,6.669374415061551531e+01,0.000000000000000000e+00
1.095248999999999917e+00,-3.384574151315267176e-02,-5.636108735016282650e-02,8.771227598190307617e-01,1.040092259727053679e-02,-2.344801868011137103e-02,3.639377957920483103e-02,-5.680456882875224017e-02,-3.980843943005685226e-02,-1.133168414235115051e-01,-4.781011497093133611e-02,7.199795514130730330e-03,5.614903451101795062e-02,1.136982440948486328e-01,1.102354764938354437e-01,-8.848623037338254615e-02,2.136982440948486384e-01,2.102354764938354492e-01,-1.884862303733825517e-01,5.249043555771231162e-01,-6.364042162895202637e-01,1.403349637985229492e-01,8.287586931334475082e+01,0.000000000000000000e+00
1.122648000000000090e+00,-3.534036450833062670e-02,-5.839418505264175330e-02,8.752041459083557129e-01,5.935813855762221355e-03,-2.041419790110632349e-02,3.898235027762696897e-02,-5.308215044515447040e-02,-2.735180596406154227e-02,-1.355117857456207275e-01,-2.317274610925682266e-01,1.650537888056429481e-01,7.582282834589426646e-02,1.257395910687667540e-01,-3.190634131431579479e-01,-1.252439022064208707e-01,2.223272681236267145e-01,-2.190634131431579423e-01,-2.252439022064208762e-01,5.288544706706025389e-01,-5.290704369544982910e-01,3.778852224349975586e-01,-4.382603175279187724e+01,0.000000000000000000e+00
1.150042999999999926e+00,-3.686163434798792049e-02,-6.020389713996336656e-02,8.733969330787658691e-01,-4.019083760415471051e-04,-1.592272519877324655e-02,4.114431538910029440e-02,-5.210366057544629781e-02,-2.695970580702576266e-02,-1.230211034417152405e-01,-1.944515846855846275e-01,9.269065010638172231e-02,1.123445145144738588e-01,1.690609198057264617e-01,-3.641258478164673129e-02,-1.250048637390136497e-01,2.269652009010314775e-01,6.358741521835327426e-02,-2.250048637390136552e-01,5.283530751326086516e-01,-5.268509984016418457e-01,3.812849521636962891e-02,7.847377141213651441e+01,0.000000000000000000e+00
1.173925000000000107e+00,-3.797987628530177101e-02,-6.137744818691451970e-02,8.722820281982421875e-01,-3.279959612464864675e-03,-1.397287126587798411e-02,4.212789688243308989e-02,-6.725720034353163679e-02,-3.707784623325425383e-02,-1.143514364957809448e-01,-8.150010558474363176e-02,2.757235804628425588e-02,9.074789596352918208e-03,1.795453403744199927e-01,-1.596335172653198242e-01,-1.260663390159606767e-01,2.268703222274780218e-01,-5.963351726531981867e-02,-2.260663390159606823e-01,5.254642889700719133e-01,-6.671932935714721680e-01,1.145483255386352539e-01,9.774659132524236327e+01,0.000000000000000000e+00
1.200137000000000009e+00,-3.893505673993716276e-02,-6.235451740488202887e-02,8.714003562927246094e-01,-4.619877191179662043e-03,-1.285297282583086620e-02,4.394843554464000074e-02,-6.378350018401773847e-02,-3.148717333767554749e-02,-1.136347055435180664e-01,-5.200709511177341315e-02,8.010955139382798518e-02,1.097898064520302780e-01,1.863983125563633270e-01,1.230146288871765137e-01,-1.191640496253967285e-01,2.202801704406738281e-01,2.230146288871765192e-01,-2.191640496253967341e-01,5.433503492859497186e-01,3.059695959091186523e-01,4.897654056549072266e-02,8.902437145324437040e+01,0.000000000000000000e+00
1.222433000000000103e+00,-3.991789518044540352e-02,-6.331052562949558704e-02,8.706959486007690430e-01,-4.371779611200242444e-03,-1.106890434699270287e-02,4.556109913745893386e-02,-5.818269896621465487e-02,-3.516061453210322235e-02,-1.000417321920394897e-01,4.065314778400992701e-02,7.519623037310152469e-02,7.518831351964543053e-02,7.082678540655309996e-02,1.242084801197052002e-01,1.147829592227935791e-01,1.107721567153930609e-01,2.242084801197052057e-01,1.478295922279357875e-02,5.265138126447270750e-01,-5.831769704818725586e-01,-6.575906276702880859e-02,1.626894779538276339e+02,0.000000000000000000e+00
1.250680000000000014e+00,-4.090246277279049880e-02,-6.424536203782200972e-02,8.700406551361083984e-01,-2.680634669684270593e-03,-9.063138243849300224e-03,4.728797750874375039e-02,-7.096070911045743168e-02,-3.241215295307615235e-02,-1.070038378238677979e-01,9.449083599463638239e-02,1.185923672753666364e-01,1.000959507117016450e-01,-5.352220076276840294e-02,1.216985225677490179e-01,2.890213131904602051e-01,-5.045431852340698416e-03,2.216985225677490234e-01,1.890213131904601995e-01,5.258725613315597958e-01,-6.603329777717590332e-01,-2.795994281768798828e-02,7.253307777773451903e+01,0.000000000000000000e+00
1.280091000000000090e+00,-4.187716231334878692e-02,-6.516601860318273209e-02,8.694704174995422363e-01,4.995010297556025641e-04,-6.587471267445632606e-03,4.898448160522184125e-02,-6.475752454454854201e-02,-2.862514657837522333e-02,-1.003440544009208679e-01,1.560465616450702753e-01,1.793228433332647032e-01,5.963822707440293025e-02,9.901696186280491141e-02,1.201284646987914873e-01,3.248384416103363148e-01,1.665485143661498968e-01,2.201284646987914928e-01,2.248384416103363093e-01,5.250190596174237889e-01,-6.940112113952636719e-01,-4.467960596084594727e-01,1.411047687802667099e+02,0.000000000000000000e+00
1.298905999999999894e+00,-4.238199898770930729e-02,-6.561400260211254498e-02,8.691955208778381348e-01,2.124805626499217965e-03,-5.454256256979927997e-03,4.991058271007585423e-02,-5.196252123688971380e-02,-2.881557429308130927e-02,-9.960669279098510742e-02,1.626694843014788727e-01,1.203738576485914452e-01,1.052491621638480118e-01,1.126832195165884537e-01,1.204408526420593095e-01,3.128903985023498424e-01,1.921683311462402399e-01,2.204408526420593151e-01,2.128903985023498369e-01,5.253244203704541260e-01,-6.868935823440551758e-01,9.349429607391357422e-02,1.166520768345957464e+02,0.000000000000000000e+00
1.322014999999999940e+00,-4.370391896047964159e-02,-6.664612163930364042e-02,8.686770200729370117e-01,6.087137351174929691e-03,-4.052856314914921043e-03,5.097565920613467833e-02,-6.547686135198203805e-02,-3.615014709871184478e-02,-8.229009807109832764e-02,2.202092632048000820e-01,3.999406727241822113e-02,1.155561948488932969e-02,-5.457611083984375416e-02,1.035430788993835227e-01,2.978576183319091575e-01,4.542388916015625139e-02,2.035430788993835283e-01,1.978576183319091797e-01,5.270468898092823817e-01,-5.380623936653137207e-01,-3.317821025848388672e-02,-9.125903859494329140e+01,0.000000000000000000e+00
1.348087000000000035e+00,-4.621329877087598792e-02,-6.820529468852949695e-02,8.682681918144226074e-01,1.092452899694397114e-02,-4.194352790141353537e-03,5.065869032655706539e-02,-6.833520140979230939e-02,-3.002915154398612049e-02,-9.064235538244247437e-02,9.947753236012324418e-02,-2.596289285484586554e-02,-2.174465657718093956e-02,-2.852079451084136852e-01,-1.390744566917419545e-01,3.112124443054199441e-01,-1.852079451084136796e-01,-3.907445669174194197e-02,2.112124443054199108e-01,5.357208156395915077e-01,-1.078251600265502930e-01,8.068263530731201172e-02,9.408209921288214161e+01,0.000000000000000000e+00
1.372484999999999955e+00,-4.869339320457435200e-02,-6.971170593997361165e-02,8.677546977996826172e-01,1.377640484061008405e-02,-6.962798225990773915e-03,4.768499874682185363e-02,-6.382275623645930485e-02,-2.953245895158623097e-02,-8.387526869773864746e-02,9.016305332682698903e-02,-9.642353152254840021e-02,-1.331104524431065972e-01,-2.739547550678252952e-01,-2.932080984115600364e-01,2.947021782398223655e-01,-1.739547550678253174e-01,-1.932080984115600586e-01,1.947021782398223877e-01,5.286617306381402592e-01,-4.816672801971435547e-01,-5.627429485321044922e-02,9.132896607166588865e+01,0.000000000000000000e+00
1.397931999999999952e+00,-5.116211612837334721e-02,-7.110980858175126873e-02,8.671762943267822266e-01,1.595877586098151321e-02,-1.022995412408644889e-02,4.331649108686842081e-02,-6.376026004034025807e-02,-3.884163019719534538e-02,-8.536548912525177002e-02,5.558451631365684403e-02,-9.559014038762782273e-02,-1.729129624311896429e-01,-2.978957056999206321e-01,-3.027354121208191140e-01,2.870337784290313832e-01,-1.978957056999206543e-01,-2.027354121208190807e-01,1.870337784290313776e-01,5.263422123416517939e-01,-6.276425719261169434e-01,-1.007133722305297852e-01,9.360576865035461935e+01,0.000000000000000000e+00
1.423292999999999919e+00,-5.373499722664840106e-02,-7.200752695127085601e-02,8.663370013236999512e-01,1.711722684282953807e-02,-1.358945633877550740e-02,3.897490188355538093e-02,-6.300513554588814402e-02,-3.003406684189778575e-02,-9.354531764984130859e-02,3.300202783327849110e-02,-1.009413171961679595e-01,-1.168095034589994308e-01,-2.924558103084564098e-01,-3.016592741012573131e-01,2.814285695552826150e-01,-1.924558103084564042e-01,-2.016592741012573076e-01,1.814285695552825817e-01,5.271195772772059307e-01,-6.320707798004150391e-01,-5.015492439270019531e-03,9.081866214820672667e+01,0.000000000000000000e+00
1.449715000000000087e+00,-5.624885036324078075e-02,-7.267848125293013828e-02,8.652842640876770020e-01,1.491522571906863347e-02,-1.398237214842978915e-02,3.401337185850270006e-02,-6.991588163311167337e-02,-2.999377120405450486e-02,-9.967125207185745239e-02,-1.249331364961512592e-01,4.263434675018245440e-02,-1.880661193203264359e-01,1.133430123329162431e-01,-2.130497097969055176e-01,2.583061432416061676e-01,2.133430123329162487e-01,-1.130497097969055120e-01,1.629362225532531572e-01,5.273728058078726022e-01,-6.586636900901794434e-01,-6.163251399993896484e-02,6.937231211666274078e+01,0.000000000000000000e+00
1.470047000000000104e+00,-5.779802558082992869e-02,-7.305890353846994367e-02,8.645461201667785645e-01,1.138361352656657929e-02,-1.179147061528396101e-02,3.067666288491302864e-02,-5.690969688106271851e-02,-2.554841415192158835e-02,-9.498146176338195801e-02,-1.859782159127900958e-01,1.106452350450562588e-01,-1.611533818463720125e-01,1.230859756469726562e-01,-1.528995275497436468e-01,-9.637796929451375449e-02,2.230859756469726618e-01,-5.289952754974364818e-02,-1.822843551635742188e-01,5.286496252903564175e-01,-5.844318270683288574e-01,4.523469209671020508e-01,6.952493269366667050e+01,0.000000000000000000e+00
1.494567999999999897e+00,-5.998169615198678528e-02,-7.345038405139138471e-02,8.632574081420898438e-01,4.020690835105347229e-03,-4.880125739790797113e-03,2.540932961650809244e-02,-5.402622131100438818e-02,-1.868099306162023313e-02,-9.825386852025985718e-02,-2.962014086934275370e-01,2.732530605807015345e-01,-2.005754571276193721e-01,1.266388507355765414e-01,-4.972994923591614325e-02,-1.516022869874124879e-01,2.188513040542602595e-01,5.027005076408386230e-02,-2.225955247879028154e-01,5.303892524397265662e-01,-5.189313292503356934e-01,-2.166410684585571289e-01,9.621244887538745161e+01,0.000000000000000000e+00
1.520569000000000059e+00,-6.223371167691757466e-02,-7.383841486200598547e-02,8.617616295814514160e-01,-4.171409139628573515e-03,3.643178875474051281e-03,2.043146706914091698e-02,-4.828845221448146985e-02,-1.050407663029408190e-02,-1.042264401912689209e-01,-2.544341564955350798e-01,2.607824786486143132e-01,-1.372006342505224241e-01,7.335063594711233037e-02,1.626045697660876976e-01,-1.683451037016158169e-01,1.076095104217529297e-01,2.166332781314849742e-01,-2.253924608230590820e-01,5.318762535765598765e-01,-4.787811636924743652e-01,2.008675336837768555e-01,8.006763703609399840e+01,0.000000000000000000e+00
1.545336000000000043e+00,-6.449436054020338260e-02,-7.417600494634900288e-02,8.605285882949829102e-01,-7.432479371465404092e-03,1.111918107998310923e-02,1.731380898677937000e-02,-6.192247609620225163e-02,-1.764371478749902911e-02,-8.881797641515731812e-02,-1.750809099754438436e-02,2.346925065619333839e-01,-3.850480195518223708e-02,1.821309740148856771e-01,2.071063802239734852e-01,6.435244609223336743e-02,2.020965099334716686e-01,2.253602921962737926e-01,1.594668030738830358e-02,5.276373646744513257e-01,-6.669000387191772461e-01,2.730044126510620117e-01,8.392545765291143312e+01,0.000000000000000000e+00
1.570948000000000011e+00,-6.674951428835386447e-02,-7.459017091138454847e-02,8.596922755241394043e-01,-5.784722582701557966e-03,1.662562829961045097e-02,1.697727503268951776e-02,-5.044482087938081949e-02,-1.418956332187811843e-02,-6.995472311973571777e-02,1.527555419296922901e-01,1.457431634168500079e-01,-9.454333796274862547e-03,1.902708554114762030e-01,2.498009927713631950e-01,2.748335462582680577e-01,2.181623697280883623e-01,2.237312078475952037e-01,2.272099614143371360e-01,5.253429214636153866e-01,-7.307653427124023438e-01,-5.750466585159301758e-01,1.005177971470024687e+02,0.000000000000000000e+00
1.596584000000000003e+00,-6.911973171203814048e-02,-7.522196192159510963e-02,8.591587543487548828e-01,-1.612998668616122139e-03,1.898284845298192636e-02,1.776857520950967870e-02,-6.458726217391937141e-02,-1.767789485581054004e-02,-5.402237176895141602e-02,1.692932144670088734e-01,-9.249307531325237077e-04,-1.185655574870486846e-02,1.030690412566724889e-01,2.330794624006682914e-01,2.589411068725472331e-01,1.616784095764160212e-01,2.058620810508728083e-01,2.091210722923278753e-01,5.256826708904334122e-01,-6.618816852569580078e-01,-2.429414987564086914e-01,7.118361681284758902e+01,0.000000000000000000e+00
1.621936999999999962e+00,-7.143642221021873073e-02,-7.597704201904771637e-02,8.588512539863586426e-01,3.775516082939083581e-03,1.714351670670466454e-02,1.633074613730603822e-02,-4.636660071139046824e-02,-1.490708512507372269e-02,-4.694233462214469910e-02,1.863905921154289935e-01,-8.383700485582111506e-02,-1.589163344874140460e-01,-5.846684781547630688e-02,2.015104558308311589e-01,2.642799644953270910e-01,3.378471136093139787e-02,1.722785174846649114e-01,2.185148835182189886e-01,5.289634911773469783e-01,-4.650031328201293945e-01,5.465368032455444336e-01,1.103231210968243943e+02,0.000000000000000000e+00
1.646913999999999989e+00,-7.358826288581930830e-02,-7.677279560419075777e-02,8.586032986640930176e-01,9.339479901478086113e-03,1.196677521509204034e-02,1.238676116811052511e-02,-5.014317589356182686e-02,-1.652741156053486038e-02,-4.798652976751327515e-02,1.478987032353119291e-01,-2.257797019694519625e-01,-1.195964095783774717e-01,1.008336544036865234e-01,1.366126212749774471e-01,2.360015101368212187e-01,2.008336544036865290e-01,1.476726114749908336e-01,2.013252139091491755e-01,5.270371235999034010e-01,-5.850794911384582520e-01,2.873266935348510742e-01,1.104652709938306998e+02,0.000000000000000000e+00
1.672172999999999909e+00,-7.489831828059893837e-02,-7.723682091004015204e-02,8.584204316139221191e-01,1.265584825824226864e-02,7.646766810785354807e-03,9.216586994286053366e-03,-4.949765057211965441e-02,-1.418148130026744037e-02,-4.570739343762397766e-02,1.710469955463656822e-01,-1.943687582570866046e-01,-1.821890159256392416e-01,-4.615215063095093329e-02,-7.655591285195288698e-02,2.389500774904714797e-01,5.384784936904907227e-02,-3.743416070938110352e-02,2.131294190883636364e-01,5.297192118953971685e-01,-4.396235942840576172e-01,-2.222669124603271484e-02,9.759570561628760288e+01,0.000000000000000000e+00
1.696383999999999892e+00,-7.772717470090440006e-02,-7.631092325130386933e-02,8.578090071678161621e-01,1.465524010043198384e-02,1.040999639664086374e-03,4.320701968676963871e-03,-4.407067369053220551e-02,-1.012729828390556211e-02,-5.404982715845108032e-02,1.933271442043715468e-02,-1.992982373291400100e-01,-1.578951079740606722e-01,-1.327517211437225231e-01,2.541078296432550121e-02,1.215851029494702668e-01,-3.275172114372253140e-02,1.051376938819885282e-01,1.094127416610717746e-01,5.263152230864068803e-01,-6.704642772674560547e-01,1.924518346786499023e-01,9.672484966692181274e+01,0.000000000000000000e+00
1.720207000000000042e+00,-7.950772930498795077e-02,-7.567225389568360550e-02,8.573400378227233887e-01,1.575467661398694680e-02,-2.714093881038381895e-03,9.016105960539945278e-04,-3.687437431214769801e-02,-6.458463639608441956e-03,-4.742481186985969543e-02,5.404320069320200232e-02,-1.718303021017732468e-01,-2.057556494619945942e-01,-2.672968685626983532e-01,-2.538518667221069114e-01,1.766416457413323704e-01,-1.672968685626983476e-01,-1.538518667221069336e-01,1.739911258220672441e-01,5.267083602725499691e-01,-6.340481042861938477e-01,-1.728874444961547852e-01,1.022570570078220129e+02,0.000000000000000000e+00
1.747359000000000107e+00,-8.199966382586201807e-02,-7.474796412725727424e-02,8.564422130584716797e-01,1.543459520182706608e-02,-5.747223957817793050e-03,-3.676927134486996599e-03,-3.718977424149027405e-02,-4.012079370971983160e-03,-5.106952786445617676e-02,-6.020996044305432920e-02,-4.604689234537575476e-02,-1.128434381443524787e-01,-6.614229679107666571e-02,8.079941272735594038e-02,-1.615679247990407241e-01,3.385770320892333984e-02,1.807994127273559459e-01,-1.514254331588744951e-01,5.260242131323853432e-01,-6.990481019020080566e-01,2.949169874191284180e-01,8.253278891133500395e+01,0.000000000000000000e+00
1.770507000000000053e+00,-8.357980700783623762e-02,-7.404452393967163315e-02,8.556901216506958008e-01,1.427924463699980356e-02,-5.946336905345184221e-03,-6.336095958743564495e-03,-3.561472909160216110e-02,1.342474743888408088e-04,-5.141516774892807007e-02,-4.263617810996234159e-02,-1.550057007797989335e-02,-1.391797020063878232e-01,-5.927462577819824635e-02,-1.379787921905531456e-03,-1.583333465983143840e-01,4.072537422180175920e-02,9.862021207809447410e-02,-1.407281041145324596e-01,5.262610187558831587e-01,-7.001984119415283203e-01,1.520446538925170898e-01,9.666479864373906139e+01,0.000000000000000000e+00
1.796054000000000039e+00,-8.499292824815052327e-02,-7.355271759525651432e-02,8.548321127891540527e-01,1.125453685899779899e-02,-4.358520396892995308e-03,-8.886976772805406030e-03,-3.927113791096888129e-02,7.197063974022276968e-03,-6.425026804208755493e-02,-1.722487044736223660e-01,1.363101135459665325e-01,-7.789399885326891981e-02,1.182899713516235296e-01,6.027699112892148658e-02,-2.215229693686942003e-01,2.182899713516235352e-01,1.602769911289214921e-01,-1.967107057571411133e-01,5.307252428728022053e-01,-5.209028124809265137e-01,1.977967023849487305e-01,8.100684951867329175e+01,0.000000000000000000e+00
1.820394999999999985e+00,-8.704183445190857848e-02,-7.300708976661324234e-02,8.535195589065551758e-01,7.165894751090878638e-03,-1.637909918402735698e-03,-9.976710467425537257e-03,-3.098503255493167269e-02,5.461487831845805892e-03,-4.914667084813117981e-02,-9.630370408285789108e-02,4.506290560685525387e-02,2.516969807377110457e-02,1.220520377159118597e-01,1.095501703315898828e-01,-2.443095462517332894e-01,2.220520377159118652e-01,2.049800813198089655e-01,-2.163410782814025879e-01,5.292800211356445406e-01,-5.551985502243041992e-01,-3.875851631164550781e-03,1.051324710257490125e+02,0.000000000000000000e+00
1.846174999999999899e+00,-8.846998833441480081e-02,-7.268088221957753892e-02,8.528175950050354004e-01,5.349474741524187435e-03,-6.685857444737042243e-04,-9.736909972391828705e-03,-4.703081987438741812e-02,5.939229603829651073e-03,-3.096308186650276184e-02,-4.756244971369626151e-02,1.918455170932887449e-02,-9.180953133729696097e-03,1.305078366449145544e-01,9.219903349876401588e-02,-2.343904364613939029e-01,2.229836940765380915e-01,1.921990334987640214e-01,-2.070513367652893066e-01,5.265557155921346544e-01,-6.443542242050170898e-01,1.030005216598510742e-01,-8.601002455741016206e+01,0.000000000000000000e+00
1.875046999999999908e+00,-9.067344794965326304e-02,-7.225042831710232205e-02,8.518338799476623535e-01,5.002251585316928699e-03,-1.423448229039170343e-03,-8.194051226080054789e-03,-4.402749535548052678e-02,-1.091296326977370590e-03,-2.368124760687351227e-02,2.613385665874765756e-02,-8.441345632619819128e-02,1.675465881897976461e-02,1.198553644628227166e-01,7.671279907226560835e-02,-1.645343683719286687e-01,2.152841091156005859e-01,1.767127990722656139e-01,-1.414865612983703669e-01,5.253860550808441277e-01,-6.917567253112792969e-01,2.121587991714477539e-01,-4.369114234687329201e+01,0.000000000000000000e+00
1.896314000000000055e+00,-9.225966523972217725e-02,-7.191317763292011389e-02,8.514184355735778809e-01,6.267410812831654583e-03,-3.067981989008261579e-03,-6.377254575185456291e-03,-5.101725799712548970e-02,3.055708079052667052e-03,-2.611205168068408966e-02,6.613795283709361650e-02,-8.635735502974044298e-02,1.315556972670514635e-01,-1.936980104489946786e-01,4.510006904602048561e-02,-7.539750894505872769e-02,-9.425393342971800925e-02,1.451000690460204912e-01,-5.746976137161254744e-02,5.259575055175695901e-01,-6.808506250381469727e-01,-7.471811771392822266e-02,7.727697883557770808e+01,0.000000000000000000e+00
1.921769000000000061e+00,-9.469839460791396046e-02,-7.130298077787562694e-02,8.511442542076110840e-01,9.955449173511534897e-03,-5.981022995916296381e-03,-4.063404060779735039e-03,-5.276505907426195380e-02,3.810769836541452304e-03,-1.494182087481021881e-02,1.279445628137437230e-01,-7.641051101492425668e-02,9.043912319805870459e-02,-2.558769881725311279e-01,-1.454604744911193737e-01,1.022692128455323646e-01,-1.558769881725311224e-01,-4.546047449111938199e-02,1.136151731014251598e-01,5.282934080432231116e-01,-5.187537670135498047e-01,3.392580747604370117e-01,1.007670444101945719e+02,0.000000000000000000e+00
1.944963999999999915e+00,-9.629352374675505255e-02,-7.094528957304337136e-02,8.510572314262390137e-01,1.255552978868162278e-02,-8.056132253646097752e-03,-2.915335163009819420e-03,-4.588735356438837509e-02,1.421971848401424156e-03,-5.952577572315931320e-03,1.021979911978944389e-01,-9.935657766034738936e-02,4.752893969098941768e-02,1.459455490112303300e-02,-1.839287519454956277e-01,1.927502234281995575e-01,1.145945549011230385e-01,-8.392875194549560824e-02,2.008030056953430120e-01,5.309738292899264245e-01,-3.445206284523010254e-01,5.748867988586425781e-03,9.243021113192538962e+01,0.000000000000000000e+00
1.970598000000000072e+00,-9.856820404739630170e-02,-7.033599062940924795e-02,8.506841659545898438e-01,1.334479102968588737e-02,-9.685042442097557824e-03,-2.274315488754152011e-03,-5.182302819192021598e-02,2.953057035243796848e-03,-1.710620708763599396e-02,-7.397498912366197443e-02,-1.084345728054954272e-02,-2.153054157248288775e-02,9.648425579071043257e-02,9.341098070144651655e-02,-1.362379756982932955e-01,1.964842557907104381e-01,1.934109807014465221e-01,-1.300319194793701227e-01,5.257921107216020351e-01,-6.817033886909484863e-01,1.144043207168579102e-01,-5.954784997678643776e+01,0.000000000000000000e+00
1.999115999999999893e+00,-1.000106591419684249e-01,-7.006501689877984995e-02,8.503472208976745605e-01,1.176724795554229437e-02,-9.361202043080218971e-03,-3.220452990690920742e-03,-4.007043346266953021e-02,9.017693802402627218e-03,-1.184834074229001999e-02,-9.714932684593131917e-02,4.997020419781141032e-02,-8.386025336315228174e-02,1.176004648208618109e-01,7.366968989372252308e-02,2.040508756792833167e-01,2.176004648208618164e-01,1.736696898937225286e-01,2.129481017589568981e-01,5.276107190057346408e-01,-5.707485675811767578e-01,1.323639154434204102e-01,9.469288204922135321e+01,0.000000000000000000e+00
2.021075999999999873e+00,-1.014513605655064515e-01,-7.005703084213807386e-02,8.498406410217285156e-01,9.524764752434669926e-03,-7.945769281255676830e-03,-4.759691254239787131e-03,-3.841725217542012183e-02,1.307277177246817489e-02,-2.355091646313667297e-02,-1.036945004073760307e-01,6.965031778095498449e-02,-3.220891113969567149e-02,1.167706251144409180e-01,5.913631916046141468e-02,2.908513115910466018e-02,2.167706251144409235e-01,1.591363191604614202e-01,4.236137866973876953e-02,5.301016259947626263e-01,-4.915244579315185547e-01,2.978163957595825195e-01,9.936264140362405328e+01,0.000000000000000000e+00
2.051174000000000053e+00,-1.036716562035076838e-01,-7.001622594351894491e-02,8.492147922515869141e-01,8.384513162375140799e-03,-6.243164590236327527e-03,-4.975435037272651385e-03,-5.238328307329168099e-02,6.138515468767229448e-04,-1.304659806191921234e-02,2.760852184173440225e-03,4.482897091758716521e-03,1.423170999388909987e-02,-3.163289546966552845e-01,1.189603805541992188e-01,-1.884693197657519026e-01,-2.163289546966552790e-01,2.189603805541992243e-01,-1.744990110397338923e-01,5.290619879610466425e-01,-5.184612870216369629e-01,-2.107659578323364258e-01,1.033543678791195930e+02,0.000000000000000000e+00
2.074552000000000174e+00,-1.051561100983864211e-01,-7.010809138494544790e-02,8.488095998764038086e-01,9.543000887852870484e-03,-6.622601203085221044e-03,-6.192518281661563151e-03,-4.966251179595050635e-02,-2.925670129486448046e-03,-5.098497495055198669e-04,7.634858168782154841e-02,-2.767408058942315632e-02,-1.110344472516770487e-01,-1.269618868827819824e-01,-2.923033714294433483e-01,1.923309080417552053e-01,-2.696188688278198034e-02,-1.923033714294433427e-01,2.096772015094756914e-01,5.271517902188721516e-01,-5.823352932929992676e-01,2.967933416366577148e-01,-8.473200054105238621e+01,0.000000000000000000e+00
2.097030999999999867e+00,-1.066814911778678210e-01,-7.023028012839657719e-02,8.483642935752868652e-01,1.142799035126438115e-02,-7.751025154580704069e-03,-7.019391716422692697e-03,-4.608480360381537327e-02,2.086585139335692465e-03,-5.671966820955276489e-03,1.054206526533329330e-01,-4.850500864073304524e-02,-4.943699442214598457e-03,-1.088822603225708119e-01,-2.660254478454590066e-01,1.931573937600168100e-01,-8.882260322570801128e-03,-1.660254478454589733e-01,2.127316832542419378e-01,5.336094735325602745e-01,-2.584137916564941406e-01,1.451150178909301758e-01,-5.334529030470073963e+01,0.000000000000000000e+00
2.122259999999999813e+00,-1.082770621400004490e-01,-7.048108499621505429e-02,8.479928970336914062e-01,1.361364534787392645e-02,-9.207037437035214822e-03,-7.201478907247362178e-03,-5.517137842822948668e-02,1.057571816828830474e-03,2.775988774374127388e-03,9.449510502011174151e-02,-1.004594194968672499e-01,-6.637857939549009385e-03,7.866752147674560547e-02,-2.138335943222045843e-01,1.901997156976102110e-01,1.786675214767456110e-01,-1.138335943222045787e-01,2.102011263370513749e-01,5.335087219894713018e-01,-2.400314807891845703e-01,2.512372732162475586e-01,4.214906663229741923e+01,0.000000000000000000e+00
2.150344000000000033e+00,-1.106471343499896703e-01,-7.096599108950966961e-02,8.472230434417724609e-01,1.284582819641534070e-02,-9.423999915189273935e-03,-7.531458906838042582e-03,-5.357538800994568473e-02,3.619160290352451455e-03,-7.972148247063159943e-03,-1.187386973213286900e-01,6.735415329714905530e-02,-4.935516474902550826e-02,1.156217455863952637e-01,5.124892592430113636e-02,1.708719399244379156e-01,2.156217455863952692e-01,1.512489259243011419e-01,1.918164253234863337e-01,5.276581585469913849e-01,-6.140933632850646973e-01,-6.822669506072998047e-02,9.853083364574322900e+01,0.000000000000000000e+00
2.170300000000000118e+00,-1.120363134036339303e-01,-7.116411880879776330e-02,8.466371893882751465e-01,1.078518008766465863e-02,-7.829590057427004979e-03,-9.332850093955057449e-03,-3.379763345668566898e-02,1.111683817967929790e-02,-1.240982674062252045e-02,-1.120844438598703752e-01,1.012388775575513433e-01,-1.172681781312043536e-01,1.212093591690063255e-01,1.066368281841277854e-01,1.919191068557490887e-01,2.212093591690063310e-01,2.066368281841277910e-01,2.179700016975402721e-01,5.310734380881760863e-01,-4.545923471450805664e-01,2.524830102920532227e-01,7.121216700357824436e+01,0.000000000000000000e+00
2.196127000000000162e+00,-1.139731803534421301e-01,-7.149325976961067031e-02,8.457180857658386230e-01,7.597216162363240426e-03,-2.714593101083240256e-03,-1.249413250363992471e-02,-4.355945375522738555e-02,4.656993639416446770e-03,-6.882139947265386581e-03,-9.976649841527081286e-02,1.700720683027698854e-01,-1.114614499033011602e-01,1.010264873504638505e-01,1.211493670940398948e-01,7.045697820515532672e-02,2.010264873504638561e-01,2.211493670940399003e-01,1.054911732673644992e-01,5.337199553859366397e-01,-2.997856140136718750e-01,2.922643423080444336e-01,7.913789119570435560e+01,0.000000000000000000e+00
2.221337999999999813e+00,-1.158122872607794673e-01,-7.118006695213506541e-02,8.449156880378723145e-01,7.226716094289732488e-03,2.883436839954178765e-03,-1.605212903886783782e-02,-4.280383720774999512e-02,-4.910305540351480799e-03,-4.291051998734474182e-03,2.407545287054950814e-02,1.617017659498685145e-01,-9.904259753567291880e-02,1.266345739364623801e-01,1.248498870538593125e-01,1.826554017096436722e-01,2.266345739364623857e-01,2.232870519161224421e-01,2.276651144027709850e-01,5.260201833814164285e-01,-7.223597168922424316e-01,-5.602823495864868164e-01,6.842310194468584683e+00,0.000000000000000000e+00
2.249937000000000076e+00,-1.177134462809140553e-01,-7.053553030105291777e-02,8.442939519882202148e-01,9.711891656150571650e-03,4.456584325937207325e-03,-1.934043528005545756e-02,-4.353902056007027260e-02,5.782703986134670598e-03,6.441476289182901382e-03,1.234008617769231236e-01,1.001519176488083890e-02,-8.509484106284974370e-02,-7.319986820220947266e-02,9.368182375493980252e-02,1.657380111875551842e-01,2.680013179779052596e-02,1.844407260417938177e-01,2.198715269565582331e-01,5.267933387368799458e-01,-6.476395130157470703e-01,1.483212709426879883e-01,9.367259522119402959e+01,0.000000000000000000e+00
2.272629999999999928e+00,-1.190464293969672877e-01,-7.016642641187145757e-02,8.439182639122009277e-01,1.201833240231279208e-02,3.857104002896960537e-03,-2.128586799437565472e-02,-4.376117739481479724e-02,-4.113432402351131778e-03,1.105784066021442413e-02,7.699635802189463973e-02,-8.157775472304711062e-02,-9.428841414095089080e-02,-4.417139291763306358e-02,-2.432753934842820098e-01,1.451353573634443783e-01,5.582860708236694197e-02,-1.473324894905090332e-01,2.046953201293945368e-01,5.294221886174372838e-01,-4.949299693107604980e-01,2.601114511489868164e-01,7.331630240004905374e+01,0.000000000000000000e+00
2.297251999999999850e+00,-1.209365638717852243e-01,-6.961690477030346713e-02,8.433662652969360352e-01,1.555566068131537978e-02,1.436117724102459192e-03,-2.459476444546579432e-02,-5.502623495964624467e-02,-4.374617908797590808e-04,1.298188045620918274e-02,9.896456935700943813e-02,-6.773861377603149214e-02,-8.597159201840931519e-02,-2.081107616424560658e-01,-2.745221138000488170e-01,1.470224130638572158e-01,-1.081107616424560464e-01,-1.745221138000488115e-01,2.157266020774841198e-01,5.310532250744295357e-01,-4.078105688095092773e-01,-3.999284505844116211e-01,1.183702655618258177e+02,0.000000000000000000e+00
2.322769999999999779e+00,-1.232676929345512401e-01,-7.016085708243934016e-02,8.427479267120361328e-01,1.774998437828280776e-02,-1.467853123973350549e-03,-2.802948805933220058e-02,-3.569211152226886563e-02,4.141282572823410703e-03,1.387416012585163116e-02,4.339463236019321102e-02,-7.516765953092667540e-02,-1.283621837103487151e-01,-2.723413705825805664e-01,-2.988398432731628196e-01,1.143543436240667399e-01,-1.723413705825805609e-01,-1.988398432731628418e-01,1.926002025604247880e-01,5.267954823014650012e-01,-6.457912325859069824e-01,4.801515340805053711e-01,7.402860916821134651e+01,0.000000000000000000e+00
2.350318999999999825e+00,-1.253684451717645421e-01,-7.058671126935033013e-02,8.419715762138366699e-01,1.683276549335363179e-02,-8.811945570237345038e-04,-3.149451151558930323e-02,-3.886316837742088276e-02,2.604995404148678639e-03,4.653528798371553421e-03,-9.097570594126618004e-02,8.610977165131399047e-02,-1.031804945335944579e-01,1.198220849037170410e-01,1.148671150207519476e-01,1.260644001529588887e-01,2.198220849037170466e-01,2.148671150207519531e-01,2.140411019325256237e-01,5.308358645321444858e-01,-4.725310802459716797e-01,3.433319330215454102e-01,9.144266823077909123e+01,0.000000000000000000e+00
2.373331999999999997e+00,-1.266050742690625341e-01,-7.075824221811155557e-02,8.413072824478149414e-01,1.467778346185075709e-02,2.251466790397671502e-03,-3.374955794683617838e-02,-3.480722749741801264e-02,4.996176439149741487e-03,2.521544229239225388e-03,-9.515393020936238622e-02,1.602432266588791065e-01,-1.189018931748163227e-01,9.106125831604003351e-02,1.212715148925781194e-01,9.925289372259107901e-02,1.910612583160400391e-01,2.212715148925781250e-01,1.936213195323943925e-01,5.333611435510892118e-01,-3.525180816650390625e-01,2.389010190963745117e-01,9.182031622017827033e+01,0.000000000000000000e+00
2.398569999999999869e+00,-1.281978774194829640e-01,-7.100113596687826489e-02,8.401329517364501953e-01,9.003059858928736184e-03,9.615068960848072166e-03,-3.706864556711925163e-02,-2.718622558234113154e-02,7.118516193090883640e-03,2.345922403037548065e-03,-1.873557543762730537e-01,2.613782429199094648e-01,-1.364956605062383754e-01,-5.622624158859253901e-02,1.685077596575864367e-01,-3.226930141448974831e-01,4.377375841140746654e-02,2.227450132369994951e-01,-2.226930141448974498e-01,5.372538889117770555e-01,-1.506955623626708984e-01,1.741174459457397461e-01,9.010599338001841829e+01,0.000000000000000000e+00
