timestamp,x,y,z,roll,pitch,yaw,vx,vy,vz,p,q,r,psp,qsp,rsp,pres,qres,rres,thrust_sp, thrust_res,wind_mag,wind_angle,wind_obs
0.000000000000000000e+00,3.071798096551615811e-03,-3.015616887946090396e-02,9.845576882362365723e-01,6.556657030309005763e-03,-6.946693885100829746e-03,1.800562843932119843e-03,-9.476646502169782131e-04,2.873839008657886121e-02,9.393123909831047058e-03,7.213231852959771373e-02,-9.478935653256085909e-04,-1.695859626717318228e-02,1.787944929975956165e-01,1.405622568819481777e-01,2.201784859648587001e-01,2.171416997909545732e-01,1.845273613929748480e-01,2.150686025619506780e-01,5.005600047693311572e-01,-6.261779665946960449e-01,-1.020492315292358398e-01,9.241081339468254896e+01,0.000000000000000000e+00
2.256000000000000019e-02,3.053281289546719637e-03,-2.990994211252283666e-02,9.843983054161071777e-01,6.692252223288948192e-03,-6.485154877303944687e-03,1.800255075002785187e-03,2.544250446260052853e-03,3.484266747483212578e-02,-4.293352365493774414e-03,6.590355597272988877e-03,3.909698521750196859e-02,6.417491419381519957e-03,1.762633616102230183e-01,1.857369390096033634e-01,2.325640803620698527e-01,2.146443128585815430e-01,2.237515389919280950e-01,2.274621248245239091e-01,4.998815929148938686e-01,-7.173870801925659180e-01,3.171956539154052734e-02,9.417054333244463749e+01,0.000000000000000000e+00
4.490700000000000247e-02,3.053563288015269644e-03,-2.947839591888180497e-02,9.840123653411865234e-01,6.977116515612836502e-03,-6.114945742050403865e-03,1.915858483623365848e-03,2.736153748537649682e-03,3.173051684910092179e-02,2.931705443188548088e-03,1.811648273526348177e-02,3.572080851318899103e-02,-4.782793956813969662e-03,1.530342215285549479e-01,1.872566765876628458e-01,2.330928376880352648e-01,1.963766098022460826e-01,2.231990396976470947e-01,2.276720345020294134e-01,4.990623336151992495e-01,-7.338630557060241699e-01,1.416693925857543945e-01,1.111009020583704228e+02,0.000000000000000000e+00
6.904899999999999927e-02,3.072817488062339064e-03,-2.855428563293312821e-02,9.836279153823852539e-01,6.846675910827845421e-03,-5.768055832616303391e-03,2.011061360705167309e-03,-4.908424530967630747e-03,2.539479643080356022e-02,-8.121913298964500427e-03,-6.907047252020682461e-03,-3.019695552893046642e-02,3.648275359419099473e-02,-1.660338478284048569e-01,1.482346405836179604e-01,-1.907164636159720539e-01,-1.194853305816650363e-01,1.880954682826995739e-01,-1.964035034179687500e-01,5.003619649374340117e-01,-7.122773528099060059e-01,1.370376348495483398e-01,-2.989175087421781729e+00,0.000000000000000000e+00
9.789699999999999791e-02,3.060537159182260582e-03,-2.726976007308025418e-02,9.830144047737121582e-01,7.248043505402650306e-03,-6.654475131523174269e-03,1.268754024661916798e-03,5.431017199647822369e-03,3.712474702698739110e-02,-1.017518900334835052e-02,5.629349592986074985e-02,-5.171341161154152655e-02,-5.108562422779019951e-02,1.694744501600191910e-01,-3.600090696196010798e-03,2.179618582259838788e-01,2.074620008468627819e-01,3.258122205734252652e-02,2.143419206142425371e-01,5.042390468934903058e-01,-5.205612182617187500e-01,7.729649543762207031e-03,1.052274721269147193e+02,0.000000000000000000e+00
1.214070000000000010e-01,3.017028590670228598e-03,-2.645658734043920476e-02,9.825445413589477539e-01,8.510442277161441374e-03,-8.898402283235240517e-03,-4.880049971221722639e-04,-1.590277096307446902e-04,2.236953091537251248e-02,-1.663474924862384796e-02,3.488961093116329376e-02,-1.317949531492471349e-01,-9.473476118753353103e-02,1.251025311946133700e-01,1.091658950282274332e-01,1.364300250085405952e-01,1.843169331550598145e-01,1.659749329090118297e-01,1.376996397972106989e-01,5.020259382637370926e-01,-6.659985780715942383e-01,1.203857660293579102e-01,9.562648011630288636e+01,0.000000000000000000e+00
1.455089999999999995e-01,2.907837342083811720e-03,-2.569690095496425519e-02,9.819158315658569336e-01,1.067908371654833349e-02,-1.230961010676123735e-02,-1.034616080091881182e-03,-7.995848964453678223e-03,2.813452190621352697e-02,-1.675179041922092438e-02,1.088644176067956187e-01,-2.074041878259359484e-01,1.335810886114357186e-02,1.473086222496354236e-01,7.343882325591581661e-02,9.705443724308318587e-02,2.133515238761901911e-01,1.579764783382415771e-01,9.974747300148009699e-02,5.024248481907637176e-01,-6.497399806976318359e-01,3.185856342315673828e-02,1.025781783516501662e+02,0.000000000000000000e+00
1.689299999999999968e-01,2.711272734261405831e-03,-2.488029650770347961e-02,9.810835123062133789e-01,1.139157166905100868e-02,-1.497580376004958858e-02,-6.257706355370790119e-04,-9.662509953874361124e-03,3.334602081973885718e-02,-3.850726410746574402e-02,2.969922740027832690e-03,-9.362242408384711945e-02,-2.894400817356936571e-03,1.418657059161326783e-01,8.115255236625670832e-02,-2.123554394189468286e-01,2.087072968482971136e-01,1.811525523662567139e-01,-2.108783483505249079e-01,5.027582801852756855e-01,-7.243216633796691895e-01,-1.670430898666381836e-01,1.089179599392560078e+02,0.000000000000000000e+00
1.985020000000000118e-01,2.536836001785726293e-03,-2.366911187869402688e-02,9.795473814010620117e-01,1.252933574332883333e-02,-1.838406814483461993e-02,-2.038385065878560182e-03,-8.026706365847789335e-03,2.685498991660669257e-02,-4.580523446202278137e-02,4.930443345735670974e-02,-8.831223599720111617e-02,-4.152995833566824196e-02,1.086481722471953903e-01,-9.328297972679139294e-02,1.978938019189668551e-01,1.880118370056152177e-01,6.717020273208617817e-03,2.032610714435577337e-01,5.069043590930902843e-01,-5.439094901084899902e-01,1.239920854568481445e-01,7.062762575403020548e+01,0.000000000000000000e+00
2.216440000000000077e-01,2.420144301965234876e-03,-2.303456744340408313e-02,9.782945513725280762e-01,1.420096256632814510e-02,-2.009150959604677489e-02,-3.540916086574144410e-03,-6.212825226451291257e-04,2.678439949290697952e-02,-6.097620353102684021e-02,1.146962679647792194e-01,-7.002455767150886357e-02,-6.660806173608863068e-02,3.321440004735429219e-03,-2.386547207832336315e-01,2.092701888731140769e-01,9.220755100250244141e-02,-1.386547207832336259e-01,2.187771320343017412e-01,5.182669602547885779e-01,-6.715297698974609375e-03,8.480441570281982422e-02,9.725864261093664709e+01,0.000000000000000000e+00
2.449340000000000128e-01,2.213538841824551611e-03,-2.236048758618493226e-02,9.768725037574768066e-01,1.673320608548934177e-02,-2.169772831466842966e-02,-4.420053241679969616e-03,-2.041605829679911041e-02,1.811732558341556942e-02,-6.724701076745986938e-02,1.795176644743609606e-01,-1.515259147360304703e-01,-5.128952682021675237e-03,5.149302482604978248e-02,-2.733850717544555886e-01,1.994276946365168279e-01,1.514930248260497880e-01,-1.733850717544555553e-01,2.112576842308044323e-01,5.233410112751089027e-01,2.323960065841674805e-01,-8.687638044357299805e-01,1.097350554696646299e+02,0.000000000000000000e+00
2.750980000000000092e-01,1.722295667207347737e-03,-2.147690986201831326e-02,9.744709134101867676e-01,2.106700993894316393e-02,-2.387012023708545705e-02,-3.499424879602733209e-03,-6.983778832274583834e-03,2.179060026231942684e-02,-7.965917885303497314e-02,1.441390092418307067e-01,-2.965657166613975063e-02,-4.039318426626858048e-03,-3.022210180759429821e-01,-3.059962987899780273e-01,1.664647076943441828e-01,-2.022210180759429765e-01,-2.059962987899780218e-01,1.755426406860351451e-01,5.126396628847136316e-01,-4.069117307662963867e-01,-1.392041444778442383e-01,1.032083794157997403e+02,0.000000000000000000e+00
2.983210000000000028e-01,1.408356641079802022e-03,-2.078018744891479974e-02,9.726861715316772461e-01,2.376815001869484606e-02,-2.525113676915147209e-02,-4.139627320878937894e-03,-1.547688447156987841e-02,1.651309198660247390e-02,-9.002358466386795044e-02,1.581460593210470000e-01,-7.444735924119483261e-02,-2.863522200482577010e-02,-2.733756124973297230e-01,-3.125580549240112305e-01,2.053190980952066813e-01,-1.733756124973297175e-01,-2.125580549240112249e-01,2.160306394100189042e-01,5.294972803096353875e-01,4.500883817672729492e-01,9.913173913955688477e-01,8.951056480893339540e+01,0.000000000000000000e+00
3.208099999999999841e-01,1.164004980636428998e-03,-2.010576580698179849e-02,9.707365632057189941e-01,2.604537505415227203e-02,-2.482976878148290822e-02,-6.092748071782142123e-03,-3.328503977713605233e-02,5.006254653038761868e-03,-9.158688783645629883e-02,6.630397429084980421e-02,5.359721083192927477e-02,-1.210694369560855188e-01,-2.884296357631683239e-01,2.441714406013487104e-02,2.030189284959190710e-01,-1.884296357631683183e-01,1.244171440601348766e-01,2.191047370433807373e-01,5.106475849567706504e-01,-5.869545936584472656e-01,4.543894529342651367e-01,-9.682769182525468921e+01,0.000000000000000000e+00
3.495329999999999826e-01,8.245729712182403581e-04,-1.920608693276443235e-02,9.675513505935668945e-01,2.792334732456928231e-02,-2.081324091826397549e-02,-8.835329202431217027e-03,-2.792148391961234676e-03,1.448346001085339119e-02,-1.141751930117607117e-01,3.728500981066851239e-02,2.141222822926442115e-01,-9.895086475995612529e-02,-9.032051563262939731e-02,1.216594874858856201e-01,2.007712454912715938e-01,9.679484367370604775e-03,2.216594874858856257e-01,2.247140944004058782e-01,5.127468007546169826e-01,-5.841069221496582031e-01,-6.569159030914306641e-02,1.049434660310364080e+02,0.000000000000000000e+00
3.735709999999999864e-01,6.519605975254268550e-04,-1.869871219770829346e-02,9.653295278549194336e-01,2.852746783740699177e-02,-1.639414557656149185e-02,-1.107398098224554074e-02,-1.684813711032786751e-02,1.486637530886519279e-03,-1.081293448805809021e-01,1.360465294029428000e-02,2.412222964067489706e-01,-1.206499931959696542e-01,8.766365051269528474e-03,1.237854957580566406e-01,1.952704476438080206e-01,1.087663650512695340e-01,2.237854957580566462e-01,2.255899071693420188e-01,5.135104040856240948e-01,-5.354347229003906250e-01,6.804846525192260742e-01,8.149968181823555824e+01,0.000000000000000000e+00
3.966549999999999798e-01,5.109820564152016062e-04,-1.819589839700627015e-02,9.630311727523803711e-01,2.756419185582657458e-02,-1.014641579430874962e-02,-1.318531787505693685e-02,-9.513788100769113992e-03,1.131180389939267540e-02,-1.173179298639297485e-01,-6.589590070136455702e-02,3.160829089776902023e-01,-8.134564179071798740e-02,-2.793862462043762429e-01,1.531932398757706315e-01,-1.202795752645980654e-01,-1.793862462043762096e-01,2.246484875679015947e-01,-8.378019332885741632e-02,5.188500109639780922e-01,-3.020453453063964844e-01,-4.091314077377319336e-01,8.940074902745793395e+01,0.000000000000000000e+00
4.198629999999999862e-01,4.052702265331155091e-04,-1.772828496216360614e-02,9.606517553329467773e-01,2.461870308595698331e-02,-3.567766771125358005e-03,-1.594653863630314874e-02,-9.645616695065832233e-03,9.872109175109444745e-03,-1.304478198289871216e-01,-1.785993763666658962e-01,3.290733664052676311e-01,-1.503826580034470783e-01,-2.368971228599548451e-01,1.920833838219456469e-01,-2.679160085508041078e-01,-1.368971228599548395e-01,2.220013082027435247e-01,-2.234205007553100586e-01,5.217317896170509117e-01,-2.162705659866333008e-01,1.798723936080932617e-01,1.635919645092397730e+02,0.000000000000000000e+00
4.465410000000000212e-01,2.585936715373428189e-04,-1.730961334440597396e-02,9.582461714744567871e-01,2.060703664797610551e-02,1.460007180879241417e-03,-1.839669400444347500e-02,-1.736638695091229437e-02,4.884564568746764188e-03,-1.246500685811042786e-01,-1.858408631496824559e-01,1.787243580783842989e-01,-1.203784756720184951e-01,5.109226703643790501e-03,2.173961021073332889e-01,-2.770680505133852334e-01,1.051092267036437961e-01,2.206675708293914795e-01,-2.255718469619750755e-01,5.181562653903941662e-01,-4.041011333465576172e-01,-2.073904275894165039e-01,-1.214251632907623986e+02,0.000000000000000000e+00
4.696699999999999764e-01,2.705312951574286042e-05,-1.690257534400319006e-02,9.558969736099243164e-01,1.656196793355951477e-02,4.394144803575139591e-03,-2.108452088100610036e-02,-1.540297021646658791e-02,5.220013656250742894e-03,-1.252982467412948608e-01,-2.654666202110830264e-01,1.328384286416437743e-01,-1.389580690301211174e-01,1.224888443946838268e-01,2.343117649009281156e-01,-2.832405649576054119e-01,2.224888443946838323e-01,2.160412251949310192e-01,-2.241439104080200084e-01,5.137575242162218947e-01,-6.602650880813598633e-01,1.621443033218383789e-01,1.193791664645067385e+02,0.000000000000000000e+00
4.976900000000000213e-01,-2.575481125560442593e-04,-1.656635540341516721e-02,9.535683393478393555e-01,1.387723396273927295e-02,4.301262347017331678e-03,-2.364605161503115227e-02,-9.216537902966495319e-03,6.852749603000532312e-03,-1.262861192226409912e-01,-9.161667660667860424e-02,-6.596667279321170863e-02,-1.286300674877284278e-01,1.225802711218982183e-01,1.758542172604063980e-01,-2.750112647335717364e-01,2.185619115829467718e-01,1.538586795330047496e-01,-2.087415218353271540e-01,5.127778037156307533e-01,-7.343053817749023438e-01,4.753044843673706055e-01,-5.813687632823437212e+01,0.000000000000000000e+00
5.212700000000000111e-01,-8.650964885618102427e-04,-1.612780353184859600e-02,9.512507319450378418e-01,1.122265339785984313e-02,2.601838808049983243e-03,-2.500328828034190792e-02,-2.980498180304051031e-02,-1.842474091212756510e-03,-1.269978731870651245e-01,-1.372609760061620221e-01,-9.165738532208612954e-02,-2.463008612349682977e-02,1.326465902644887174e-01,1.985851016304326366e-01,-2.892142348461524959e-01,2.183996200561523493e-01,2.046602725982666071e-01,-2.192183732986450195e-01,5.132643535247994881e-01,-7.292170524597167969e-01,2.776626348495483398e-01,-1.112202527839272221e+02,0.000000000000000000e+00
5.499570000000000292e-01,-1.688853462393684248e-03,-1.543130948803271563e-02,9.489489793777465820e-01,7.986432520150540601e-03,1.350449038484136111e-05,-2.434697087114719855e-02,-3.197941536293081449e-02,1.494834305671273629e-02,-1.279626786708831787e-01,-1.850914454542738896e-01,-1.376829384706401704e-01,8.637829975202548916e-02,1.554418844061804805e-01,1.787107808926276520e-01,-2.785904046139997536e-01,2.054441213607788030e-01,2.011363327503204179e-01,-2.104596376419067272e-01,5.138765202895271278e-01,-7.183247804641723633e-01,-4.426449537277221680e-01,7.129815908522870416e+01,0.000000000000000000e+00
5.745270000000000099e-01,-2.573016150400740925e-03,-1.471926274853952062e-02,9.466665387153625488e-01,4.070545409790899197e-03,-3.108305656476906265e-03,-2.292256095332738386e-02,-3.101603153435098653e-02,6.878147214338510736e-03,-1.212226003408432007e-01,-2.052694610289837740e-01,-1.536821158256820030e-01,5.364206233496671139e-02,1.658703474279665246e-01,1.594016128820945899e-01,-2.734368662397068661e-01,1.984753131866454912e-01,2.014362931251525712e-01,-2.092827200889587347e-01,5.137434380899559283e-01,-7.165605425834655762e-01,2.604063749313354492e-01,-6.631550876494772240e+01,0.000000000000000000e+00
5.992690000000000516e-01,-3.479440978513292405e-03,-1.399627034936670733e-02,9.444252252578735352e-01,2.050959840322160365e-04,-7.242261265269389625e-03,-2.050817703712945819e-02,-3.607667323639549700e-02,1.411841517515440535e-02,-1.321000754833221436e-01,-2.238854890599277503e-01,-1.957806026854970183e-01,1.589297640434509939e-01,1.540307637256823625e-01,1.107903467406246983e-01,-2.454172613978258810e-01,1.542827367782592662e-01,1.843304872512817327e-01,-1.880010366439819336e-01,5.151769986389913569e-01,-7.011079192161560059e-01,-1.460078954696655273e-01,9.153636476581333170e+01,0.000000000000000000e+00
6.241160000000000041e-01,-4.477468581014911603e-03,-1.332787945954775830e-02,9.423664212226867676e-01,-1.509676584890857912e-03,-1.288242052592591946e-02,-1.793424257711452238e-02,-3.370196074767521643e-02,8.369428540854291845e-03,-1.050070375204086304e-01,2.168972642356450063e-03,-3.597772792415809273e-01,1.153487017849826185e-01,2.103239734054647980e-01,-5.089778304100037176e-02,-2.683374454193524494e-01,2.043093681335449163e-01,4.910221695899963379e-02,-2.180733919143676702e-01,5.130801212984514859e-01,-7.224681973457336426e-01,7.856315374374389648e-01,8.976776924250856382e+01,0.000000000000000000e+00
6.489829999999999766e-01,-6.151697503665409100e-03,-1.248129283312398967e-02,9.394826889038085938e-01,-1.413540225073891621e-03,-2.166783911859737621e-02,-1.377448247539140094e-02,-4.148258207603661152e-02,1.497272025136271029e-02,-1.013017073273658752e-01,6.418968204361343022e-02,-2.789039912932884113e-01,1.333679788774473074e-01,2.281010548750916078e-01,-2.260808110237121638e-01,-2.590037141889657279e-01,2.161869049072265569e-01,-1.260808110237121582e-01,-2.203991174697876032e-01,5.132801735926877384e-01,-7.167232036590576172e-01,-2.143625020980834961e-01,9.997924356113612987e+01,0.000000000000000000e+00
6.756929999999999881e-01,-8.141662007968446246e-03,-1.177394274148992059e-02,9.367071390151977539e-01,1.439692975832786766e-03,-2.988337466422175126e-02,-9.352169110108754166e-03,-6.094766158161889213e-02,-6.521791685547886561e-03,-9.600383043289184570e-02,1.452023925354875844e-01,-2.753395438732398892e-01,1.140881527475289675e-01,1.759435811135189043e-01,-2.852542400360107422e-01,-2.242207872001929503e-01,1.997728586196899359e-01,-1.852542400360107366e-01,-1.979950547218322643e-01,5.139297015233681432e-01,-6.803311705589294434e-01,5.942332744598388672e-02,3.459365822149646874e+01,0.000000000000000000e+00
6.960199999999999720e-01,-9.512385098926262952e-03,-1.134100899185499708e-02,9.348711967468261719e-01,3.973903581614303578e-03,-3.437851590277785085e-02,-6.116133035141822771e-03,-4.705728042681960044e-02,1.433355580705561287e-02,-1.059794723987579346e-01,7.902128584763125352e-02,-1.665076839545687470e-01,1.810007476427351603e-01,5.286581399735634790e-02,-3.033821105957031361e-01,-2.217935091964024219e-01,7.367298603057860495e-02,-2.033821105957031306e-01,-2.049333214759826716e-01,5.148815211615905829e-01,-6.843560934066772461e-01,2.548784017562866211e-01,8.640333417057617282e+01,0.000000000000000000e+00
7.222129999999999939e-01,-1.170877923418952790e-02,-1.072371513983516773e-02,9.322403669357299805e-01,8.937964892943302264e-03,-4.056104458779219435e-02,-1.549435697872593746e-03,-6.844566749326171096e-02,-4.409083188414248886e-03,-1.089041307568550110e-01,1.335577414812292307e-01,-2.106430068268033140e-01,1.682031878702894556e-01,-1.180799852726358012e-01,-3.101490020751953014e-01,-1.701246806460639249e-01,-4.789529442787170133e-02,-2.101490020751952958e-01,-1.662719964981078935e-01,5.170039950395356465e-01,-6.017452478408813477e-01,7.395011186599731445e-01,-6.411052904047625844e+00,0.000000000000000000e+00
7.438829999999999609e-01,-1.304903456831808285e-02,-1.062283082094771930e-02,9.304401278495788574e-01,1.254318834510951067e-02,-4.383511810214635318e-02,1.463650001245871395e-03,-5.674941980006800030e-02,1.218410859345324046e-02,-1.047139465808868408e-01,1.655003168261721391e-01,-1.258850994187715178e-01,1.281708552491125364e-01,-2.338069723989742998e-01,-3.189275860786437988e-01,-4.945628071536845027e-02,-1.556069612503051813e-01,-2.189275860786437933e-01,-5.447852611541748047e-02,5.184942387476501047e-01,-5.206258893013000488e-01,-2.989391088485717773e-01,-1.241288800133336139e+02,0.000000000000000000e+00
7.699089999999999545e-01,-1.492954602841358933e-02,-1.090279191322603841e-02,9.278410673141479492e-01,1.730205788498496641e-02,-4.757378529024247626e-02,6.293373189566627696e-03,-8.364677921258116544e-02,-8.553184903388400678e-03,-1.050459295511245728e-01,1.298524830409555908e-01,-1.082243870270150760e-01,1.327211745462127113e-01,-2.962774217128753551e-01,-3.210922360420226940e-01,-9.639434473498919437e-03,-1.962774217128753496e-01,-2.210922360420226884e-01,-2.847247123718261649e-02,5.179020584801324878e-01,-5.735549330711364746e-01,3.907872438430786133e-01,7.654265153753129880e+01,0.000000000000000000e+00
7.952620000000000244e-01,-1.702403621887911209e-02,-1.126944241022435726e-02,9.250264763832092285e-01,2.178722901185208005e-02,-4.746679840238354764e-02,1.140671950357576882e-02,-7.406838440482392538e-02,-7.291508023556060245e-04,-1.248289048671722412e-01,1.357971230699201171e-01,5.875292489666360946e-02,1.970474724336268302e-01,-3.182835876941680908e-01,-2.685815572738647350e-01,-1.645349905993320483e-01,-2.182835876941680853e-01,-1.685815572738647294e-01,-1.981066703796386663e-01,5.178039675781977991e-01,-6.777707338333129883e-01,4.612267017364501953e-02,-1.372693170329810641e+02,0.000000000000000000e+00
8.243500000000000272e-01,-1.920018540614710709e-02,-1.169966652604571659e-02,9.219659566879272461e-01,2.592478590283268242e-02,-4.306089057361051076e-02,1.655917774330013456e-02,-8.131463440760038075e-02,-2.567290401347034883e-03,-1.295110136270523071e-01,1.253585917016134255e-01,2.012187723188076371e-01,2.069330356725547493e-01,-3.071656167507171853e-01,5.911552309989928644e-02,1.189118198762720291e-01,-2.071656167507171520e-01,1.591155230998992920e-01,7.072958350181579590e-02,5.191579093118248167e-01,-6.460958123207092285e-01,1.017042398452758789e-01,1.341136193722734333e+02,0.000000000000000000e+00
8.445789999999999687e-01,-2.046054525065746366e-02,-1.189668880036633125e-02,9.198909997940063477e-01,2.810855069946382664e-02,-3.827285313321704407e-02,1.940879048617594194e-02,-7.995718263813331173e-02,-9.270059442318208734e-03,-1.325763314962387085e-01,1.005846558824567971e-01,2.907653399638674419e-01,1.330037775470460648e-01,-3.115998446941375954e-01,9.008030295372007612e-02,2.346107806289925712e-01,-2.115998446941375621e-01,1.900803029537200817e-01,1.785242378711700273e-01,5.199908933930064148e-01,-6.321220993995666504e-01,7.445561885833740234e-02,8.703167059308232467e+01,0.000000000000000000e+00
8.712609999999999522e-01,-2.239742196350001310e-02,-1.221627254189157005e-02,9.166313409805297852e-01,2.837433625583411778e-02,-2.883551299486519781e-02,2.315886167788202762e-02,-8.453366197078221456e-02,-1.176297624364778388e-02,-1.471190452575683594e-01,-7.349974678043456888e-02,3.305489961391225306e-01,1.059194082650454227e-01,-1.694409251213073730e-01,1.139041304588317705e-01,2.633910417408318327e-01,-6.944092512130736750e-02,2.139041304588317760e-01,1.971128225326538030e-01,5.250946970743362030e-01,-4.377411603927612305e-01,4.523003101348876953e-02,9.363571219967595027e+01,0.000000000000000000e+00
8.961489999999999734e-01,-2.443921249722854835e-02,-1.251472104848998755e-02,9.131753444671630859e-01,2.496100330647399793e-02,-1.854545628443027283e-02,2.569045812518446284e-02,-8.903851528177642027e-02,-9.017171192759017989e-03,-1.457615792751312256e-01,-1.676651707184569629e-01,3.449576923659239402e-01,1.007066936493443698e-01,2.971935272216796875e-02,4.987139701843260053e-02,-8.459474735972657977e-02,1.297193527221679743e-01,1.498713970184326061e-01,-1.574847221374511552e-01,5.268080222223662235e-01,-3.645338416099548340e-01,-1.266194581985473633e-01,7.861762202624615270e+01,0.000000000000000000e+00
9.222529999999999895e-01,-2.658707289716880431e-02,-1.282765191102304067e-02,9.097263813018798828e-01,1.858254786495983427e-02,-7.899113536610435915e-03,2.858816785718786349e-02,-8.718604075316302437e-02,-1.036756200047833122e-03,-1.557153761386871338e-01,-1.688571213069747501e-01,3.156176711171886917e-01,6.780216413251691221e-02,-2.930390834808350997e-02,7.244250774383542701e-02,-1.455823375360701388e-01,7.069609165191649558e-02,1.724425077438354326e-01,-2.260938763618469127e-01,5.262895896528578810e-01,-4.579737186431884766e-01,1.228828072547912598e+00,-3.144450900465558973e+00,0.000000000000000000e+00
9.444669999999999455e-01,-2.806614872317471712e-02,-1.320235132232937952e-02,9.074046015739440918e-01,1.264122151610655789e-02,-1.705776288057236911e-03,2.966171797371130667e-02,-1.022160942795702077e-01,-1.714352039226815783e-02,-1.610673367977142334e-01,-3.008836688534512471e-01,2.602159858703223527e-01,6.230273773167592510e-02,1.145779728889465277e-01,-3.114920851599987106e-01,-1.436131450952112809e-01,2.145779728889465332e-01,-2.140045166015625000e-01,-2.268597364425659069e-01,5.244286344350679308e-01,-6.027119755744934082e-01,3.700300455093383789e-01,7.518039762832893302e+01,0.000000000000000000e+00
9.704369999999999941e-01,-3.037469693795699643e-02,-1.382175482380312674e-02,9.040545821189880371e-01,3.567639588262277919e-03,2.645838434763625457e-03,2.877977449261109877e-02,-8.547529506583954884e-02,-4.358112270311688755e-03,-1.590796113014221191e-01,-2.883272946881783594e-01,4.660794584034408383e-02,-4.565220484544219026e-02,1.958191182554722687e-01,7.369380919305171251e-02,-1.461458157394041613e-01,2.271386146545409934e-01,1.300162553787231334e-01,-2.267514467239379883e-01,5.228940113522494437e-01,-7.035423517227172852e-01,3.294662237167358398e-01,6.899185691951468868e+01,0.000000000000000000e+00
9.962370000000000392e-01,-3.275930459947971191e-02,-1.428855899610597356e-02,9.008857011795043945e-01,-5.557922064748974274e-03,2.310101272785081150e-03,2.707225365385374644e-02,-1.023705736994258847e-01,-3.537354717870845166e-03,-1.497901231050491333e-01,-2.715469824866096893e-01,-2.995142355293194808e-02,-3.881850781965358321e-02,2.538134516674702135e-01,1.206715932243574985e-01,-1.505243480268520506e-01,2.270547151565551758e-01,1.964546263217925859e-01,-2.262046337127685547e-01,5.223521801110558860e-01,-7.217826843261718750e-01,4.140409231185913086e-01,-1.775187338872741094e+01,0.000000000000000000e+00
1.022831999999999963e+00,-3.565292918299723529e-02,-1.504203129528349468e-02,8.979071974754333496e-01,-1.178902904125053719e-02,-7.497746527229676161e-04,2.850864460813503157e-02,-9.580541585948654237e-02,-4.281592339674090801e-03,-1.439467668533325195e-01,-1.683195282094645528e-01,-1.072112324925802856e-01,8.701002907705975009e-02,2.847817588988396653e-01,1.185519234284711787e-01,-1.008596851895706692e-01,2.188305616378784235e-01,2.093922615051269365e-01,-1.804137110710143932e-01,5.224068296752211182e-01,-7.196145057678222656e-01,7.601344585418701172e-02,7.146902992769491902e+01,0.000000000000000000e+00
1.049690000000000012e+00,-3.798985310528899678e-02,-1.580654487641864475e-02,8.961564302444458008e-01,-1.387121683018232091e-02,-2.765130535243187637e-03,3.007793805627794609e-02,-1.049443677402964736e-01,-1.108003485338549844e-02,-1.462684869766235352e-01,-3.911835033128116534e-02,-1.467479430369957316e-01,9.487405752490393751e-02,2.351674518025642646e-01,-2.972326278686523993e-02,-1.211899636173592587e-01,1.609628677368163951e-01,7.027673721313476562e-02,-2.049990534782409612e-01,5.233219272478855100e-01,-6.990511417388916016e-01,5.574887990951538086e-01,5.888424928759550880e+01,0.000000000000000000e+00
1.074931999999999999e+00,-4.022591763341686749e-02,-1.650748024764473257e-02,8.944680094718933105e-01,-1.483448403575761063e-02,-2.978946926836423259e-03,3.192123752254545643e-02,-9.957218776859173837e-02,-4.010604087540189586e-03,-1.269139796495437622e-01,-3.118056694147963714e-02,5.740644849987529275e-02,6.367054948842726381e-02,3.088742608664927225e-01,1.234329998493194358e-01,-1.365441692593694079e-01,2.226423025131225586e-01,2.234329998493194414e-01,-2.255189180374145286e-01,5.323111176049136750e-01,-1.501085758209228516e-01,-4.635522365570068359e-01,9.933836008112466232e+01,0.000000000000000000e+00
1.096151000000000098e+00,-4.244224856202000185e-02,-1.720696782417536694e-02,8.928347229957580566e-01,-1.431527196075250974e-02,-2.874227104660009857e-03,3.399472105817500506e-02,-7.977630303173310899e-02,-1.034296419632108879e-03,-1.449847221374511719e-01,4.996533235317553168e-02,3.240924599814508367e-02,1.462446169782388727e-01,2.668257772349671431e-01,1.232817892918112168e-01,-9.925794213269745203e-02,1.833087086677551159e-01,2.215696334838867243e-01,-1.941010951995849609e-01,5.247112029057628968e-01,-6.552670598030090332e-01,-1.808446645736694336e-01,-9.177362504701206092e+01,0.000000000000000000e+00
1.124090000000000034e+00,-4.464495372708034843e-02,-1.786618491110858117e-02,8.914847970008850098e-01,-1.111356092995357224e-02,-3.204308124550747650e-03,3.571916202811892954e-02,-1.023684042865216082e-01,-1.075445680037359110e-02,-1.175463050603866577e-01,2.233320549295335078e-01,-8.494581759898817142e-02,7.122171852484335264e-02,2.490126698388125948e-01,8.358506560325620893e-02,2.554160562339474749e-01,1.938769340515136552e-01,1.835850656032562145e-01,1.557778000831603893e-01,5.230080384346554867e-01,-6.568607091903686523e-01,-8.360743522644042969e-03,1.019276506445306438e+02,0.000000000000000000e+00
1.147359999999999935e+00,-4.685745503002842344e-02,-1.846244150033307316e-02,8.901847600936889648e-01,-6.759386539057029089e-03,-3.670044833212093849e-03,3.766368219008712354e-02,-9.801170631163363955e-02,-8.264559042468720695e-03,-1.070505827665328979e-01,1.755668344430272865e-01,2.360837883492962128e-02,9.677131391449554643e-02,2.329091769823450342e-01,1.074608027935027854e-01,2.592819452285766713e-01,2.033312559127807562e-01,2.074608027935027910e-01,1.592819452285766657e-01,5.221823242097169970e-01,-6.758766174316406250e-01,5.791032314300537109e-02,9.942092340781177029e+01,0.000000000000000000e+00
1.170903999999999945e+00,-4.911292552719761367e-02,-1.893206565828103177e-02,8.890329599380493164e-01,-5.391824635143718791e-04,-5.576055567821924797e-03,3.930901027287553307e-02,-8.360657617001418518e-02,-8.041736922436291046e-04,-1.179164722561836243e-01,3.516992394467852723e-01,-9.807558016835261905e-02,9.279488826270743118e-02,6.063195321867886900e-02,6.941661834716794655e-02,2.460368037223815973e-01,6.675825119018553855e-02,1.694166183471679521e-01,1.460368037223815918e-01,5.248654437418095453e-01,-5.888952016830444336e-01,1.185227513313293457e+00,4.390691826803775655e+01,0.000000000000000000e+00
1.194876000000000049e+00,-5.136010053913704632e-02,-1.936106683405180995e-02,8.880218863487243652e-01,5.533745950818874659e-03,-7.122447659300812361e-03,4.104426245535146289e-02,-1.002435581373075368e-01,-1.291321329539346294e-02,-9.996158629655838013e-02,3.346222854184056628e-01,-9.721042926282923158e-02,6.945104639759580589e-02,-1.924522018735084217e-01,-1.447085261344909779e-01,1.843296527862549050e-01,-1.368585705757141002e-01,-4.470852613449096541e-02,8.432965278625488559e-02,5.254923499830806977e-01,-4.992690086364746094e-01,-1.461793184280395508e-01,2.160291162769901874e+01,0.000000000000000000e+00
1.222895000000000065e+00,-5.467587613447905809e-02,-1.998699999885917081e-02,8.865140080451965332e-01,1.446799648613284785e-02,-8.209303460385175555e-03,4.375117402340048672e-02,-8.411649944946768265e-02,-5.916436301373257690e-03,-1.049526482820510864e-01,2.652221504349974723e-01,1.361996514364829589e-02,7.271004972418820822e-02,-2.514707446098327637e-01,-8.985638618469321548e-04,1.182916283607483021e-01,-1.514707446098327581e-01,9.910143613815307340e-02,1.829162836074828963e-02,5.252448829157018162e-01,-5.487323403358459473e-01,1.017888903617858887e+00,7.565892751176919262e+01,0.000000000000000000e+00
1.243022000000000071e+00,-5.690928174130116535e-02,-2.041070921954580078e-02,8.856557607650756836e-01,2.060286079211105098e-02,-9.743332457921027867e-03,4.547037875028370896e-02,-8.670807381669677627e-02,-6.625815097095495015e-03,-1.009805649518966675e-01,3.350023684831948678e-01,-9.686050835768750256e-02,5.873983582690225219e-02,-2.917236566543578991e-01,-2.316449642181396540e-01,2.797961950302124134e-01,-1.917236566543578935e-01,-1.316449642181396484e-01,1.797961950302124079e-01,5.291477797189650945e-01,-3.346516489982604980e-01,2.693346738815307617e-01,1.276019765647717321e+02,0.000000000000000000e+00
1.269436999999999927e+00,-6.006813606519260940e-02,-2.116684902179957403e-02,8.843325376510620117e-01,2.891609204777366438e-02,-1.228513630277849877e-02,4.465743648440354679e-02,-9.093854577128319960e-02,-1.836299709497479435e-02,-9.578629583120346069e-02,2.625742291183057464e-01,-8.267404681602889827e-02,-9.596121251908160121e-02,-3.131101071834564431e-01,-3.124022364616393932e-01,3.202788114547729381e-01,-2.131101071834564098e-01,-2.124022364616393876e-01,2.202788114547729326e-01,5.434563607512058470e-01,4.604367017745971680e-01,2.921367883682250977e-01,4.791240074452169040e+01,0.000000000000000000e+00
1.295843000000000078e+00,-6.316997280486363886e-02,-2.208843811099170037e-02,8.829578757286071777e-01,3.624157989159067228e-02,-1.511702860833219475e-02,4.186164276544507290e-02,-9.599775663284594585e-02,-2.354069249838973074e-02,-1.046102195978164673e-01,1.987323566646803374e-01,-6.823651039782720196e-02,-1.037107914986937635e-01,-3.228429317474365012e-01,-3.221508502960205300e-01,3.216284096240997203e-01,-2.228429317474365234e-01,-2.221508502960204967e-01,2.216284096240997148e-01,5.423376541929572081e-01,3.463611602783203125e-01,-9.329140186309814453e-02,9.258170472771627146e+01,0.000000000000000000e+00
1.321166999999999980e+00,-6.625363588187888064e-02,-2.305686886459495238e-02,8.813796043395996094e-01,4.052603455375926311e-02,-1.728396593252257141e-02,3.920392500573114530e-02,-8.979207355909847588e-02,-2.237376175199106906e-02,-1.003648862242698669e-01,8.467219369574156829e-02,-2.173795981220726092e-02,-8.031961718388101745e-02,-3.264930248260498047e-01,-3.157955884933471569e-01,3.243750631809234619e-01,-2.264930248260497991e-01,-2.157955884933471513e-01,2.243750631809234564e-01,5.295015446423528838e-01,-3.628294467926025391e-01,-1.016310453414916992e-01,9.191870509517229948e+01,0.000000000000000000e+00
1.346098999999999934e+00,-6.914782495936222517e-02,-2.404480226182012861e-02,8.794930577278137207e-01,3.939936100691238119e-02,-1.650289103903279653e-02,3.630888613298097201e-02,-8.863254215448440609e-02,-2.700814978404194461e-02,-1.066969707608222961e-01,-1.075317876851546728e-01,6.626465570193895704e-02,-1.211201744282075221e-01,-1.861493527889251931e-01,-3.064685106277466042e-01,2.126876115798950195e-01,-8.614935278892517367e-02,-2.064685106277465709e-01,1.126876115798950140e-01,5.246498526606371282e-01,-6.713151335716247559e-01,-2.378531694412231445e-01,-8.192199924480661366e+01,0.000000000000000000e+00
1.371350999999999987e+00,-7.168783581152611550e-02,-2.511093035469489157e-02,8.778422474861145020e-01,3.404829941870188975e-02,-1.263170877977781714e-02,3.261113946698510763e-02,-8.978441683975842136e-02,-2.506898113433283365e-02,-1.188566759228706360e-01,-2.259251150993323298e-01,1.654295400401107619e-01,-1.138563131482662055e-01,1.046107053756713812e-01,-2.718375086784362571e-01,8.106143159355776173e-02,2.046107053756713867e-01,-1.718375086784362793e-01,-1.144169569015502860e-02,5.266616541775152038e-01,-6.285880208015441895e-01,-1.927393674850463867e-01,9.792824020621884529e+01,0.000000000000000000e+00
1.396789000000000058e+00,-7.407400021775027710e-02,-2.618060774708863211e-02,8.761103153228759766e-01,2.629204635307694909e-02,-6.041460648645191611e-03,2.741366665544101716e-02,-8.199785590520988765e-02,-3.123389655538523491e-02,-1.066820099949836731e-01,-2.651095952008950540e-01,2.407969813889552502e-01,-1.839616568269491770e-01,1.132818222045898215e-01,-1.279348134994508224e-02,-1.166473822287564521e-01,2.132818222045898271e-01,8.720651865005492331e-02,-1.940397977828979548e-01,5.275765713489984909e-01,-5.488820075988769531e-01,-2.122977972030639648e-01,1.469093094237536548e+02,0.000000000000000000e+00
1.417672999999999961e+00,-7.553530380827477853e-02,-2.702053899472382434e-02,8.751272559165954590e-01,1.988917102875167528e-02,6.729552569040286869e-05,2.359901557601160396e-02,-7.452643957110643980e-02,-3.495048386299364623e-02,-1.137901321053504944e-01,-3.502372414687071611e-01,3.105908588235214984e-01,-1.750932599589687111e-01,1.127602577209472490e-01,1.515753269195554975e-02,-1.583693974205359345e-01,2.127602577209472545e-01,1.151575326919555553e-01,-2.247430801391601396e-01,5.275432216686761766e-01,-5.944857597351074219e-01,1.140428185462951660e+00,-7.238529980485212434e+01,0.000000000000000000e+00
1.445017999999999914e+00,-7.765758189213362028e-02,-2.769762857562317257e-02,8.738221526145935059e-01,9.612363667597278311e-03,9.813860699504850515e-03,1.767694082913970344e-02,-7.089365376045453360e-02,-2.800855738713214568e-02,-9.254410862922668457e-02,-3.555176226547825946e-01,2.746844929252452716e-01,-1.881965268311080186e-01,8.738757257618313956e-02,1.795788236858361364e-01,-1.753625342775743112e-01,1.836230635643005260e-01,2.188608169555663896e-01,-2.248886704444885143e-01,5.265968344765704634e-01,-5.781729221343994141e-01,8.366259336471557617e-01,1.645658265414785149e+02,0.000000000000000000e+00
1.470752000000000059e+00,-7.977687545762654486e-02,-2.741506169228054637e-02,8.727823495864868164e-01,7.996198298572819750e-06,1.902350443124567470e-02,1.280113507961450764e-02,-6.502462965262256755e-02,-3.505908191682229752e-02,-8.088736981153488159e-02,-2.769563161309104848e-01,2.974907505278402420e-01,-1.566622449662397609e-01,-2.522845131827287646e-01,2.452098925565461551e-01,-1.903588386220561313e-01,-2.118148148059844915e-01,2.227828681468963512e-01,-2.262280225753784124e-01,5.313103835594836788e-01,-2.889711856842041016e-01,3.978240489959716797e-02,1.062577242009410980e+02,0.000000000000000000e+00
1.496185000000000098e+00,-8.182753459807881602e-02,-2.729595463284798310e-02,8.720575571060180664e-01,-4.330774902538126608e-03,2.604097903193824948e-02,1.037671112545941396e-02,-7.477903947957001418e-02,-3.916635497376753233e-02,-5.705552920699119568e-02,-4.587054959249742964e-02,1.806808075125262980e-01,-7.171579105227172957e-02,7.054319637281987465e-02,2.840971838362574831e-01,1.939696544363880559e-01,8.534141778945922296e-02,2.263801395893096924e-01,1.647826552391052080e-01,5.261454723887422080e-01,-4.897378683090209961e-01,2.680991888046264648e-01,9.467002140606932414e+01,0.000000000000000000e+00
1.521482999999999919e+00,-8.379403615199951250e-02,-2.733197216323772494e-02,8.717763423919677734e-01,-3.177979045725555333e-03,2.983506695119664265e-02,1.030063066217534046e-02,-6.377847610419148938e-02,-3.853124128472293353e-02,-4.089214652776718140e-02,8.316578506137549398e-02,1.114360951720046178e-01,-3.399685502698843176e-02,2.052886136495361002e-01,3.157886395384961742e-01,2.570653805233530931e-01,2.269226789474487194e-01,2.256976962089538574e-01,2.280389964580535889e-01,5.205342593983199873e-01,-7.392898797988891602e-01,1.172260046005249023e-01,-4.188406553778467867e+01,0.000000000000000000e+00
1.547522999999999982e+00,-8.664805726950559894e-02,-2.833133147303245822e-02,8.719128966331481934e-01,1.061107352904609117e-03,2.985000876944732262e-02,1.119005853032791625e-02,-5.743755758538775236e-02,-3.851894037029867518e-02,-2.558238618075847626e-02,1.411960237903222004e-01,-5.427082802832538383e-02,3.258313963291410709e-02,3.716387537886921277e-02,2.946998577457428103e-01,2.209256466501854643e-01,8.726449012756347379e-02,2.036618828773498480e-01,1.894876778125762773e-01,5.209937638762153211e-01,-6.611170768737792969e-01,-7.453382015228271484e-02,1.259635371262907313e+02,0.000000000000000000e+00
1.568319999999999936e+00,-8.844023925458578683e-02,-2.893956890894184078e-02,8.721036911010742188e-01,3.071689383887806369e-03,2.867870790596493968e-02,1.200876302373432743e-02,-6.331627505210582485e-02,-3.648940018100330779e-02,-2.457155287265777588e-02,5.337439860319099366e-02,-9.188915060060651174e-02,3.508684105209213672e-02,7.176494089446354419e-02,2.597090372323911378e-01,1.629588996322805794e-01,1.338239908218383789e-01,1.831461668014526256e-01,1.292829036712646318e-01,5.206854974134854652e-01,-6.809511184692382812e-01,1.237657904624938965e+00,-4.634097229198768986e+00,0.000000000000000000e+00
1.593855999999999939e+00,-9.079374418146934911e-02,-2.972618345330334255e-02,8.724612593650817871e-01,4.305553896680582374e-03,2.382868155642592356e-02,1.048653045377022884e-02,-3.304868040321510408e-02,-3.003081461855057477e-02,-1.367245987057685852e-02,4.526255030670178758e-02,-2.416473199168298891e-01,-8.479190368002452460e-02,1.405971059332282169e-01,2.705161294566308938e-01,8.687167776427481836e-02,2.072522163391113115e-01,2.036131918430328369e-01,5.748837590217589777e-02,5.193299303649472343e-01,-7.156478762626647949e-01,1.624304056167602539e-01,1.068745585848849515e+02,0.000000000000000000e+00
1.618973999999999913e+00,-9.307405615212598071e-02,-3.059423617584449209e-02,8.729064464569091797e-01,6.347792054457658539e-03,1.614032593353975642e-02,6.182495389083256590e-03,-3.848460252548750044e-02,-2.665371530375146639e-02,-4.532936029136180878e-03,1.329403631875409053e-01,-3.217309140884752616e-01,-1.715526951214151885e-01,1.310538517200954267e-01,1.833080737843773844e-01,1.671640519598627250e-01,2.105420351028442216e-01,1.765203595161437822e-01,1.498557329177856445e-01,5.195302967345176715e-01,-6.739729642868041992e-01,-8.825075626373291016e-02,1.448439831621468556e+02,0.000000000000000000e+00
1.644670999999999994e+00,-9.553342870528860886e-02,-3.138702586476138645e-02,8.733540177345275879e-01,8.744386092644504740e-03,6.571111428183229464e-03,1.879279616695583247e-03,-3.809151294580355451e-02,-4.133354053043149928e-02,-6.211047526448965073e-03,6.348917835422913936e-02,-3.430357069110336332e-01,-1.489825286088041489e-01,1.041862010955810491e-01,1.401013944717385273e-01,-3.945393452128196504e-02,2.041862010955810547e-01,1.962182700634002575e-01,-4.472615718841552873e-02,5.192251653185435689e-01,-7.022037506103515625e-01,-2.924486398696899414e-01,9.148035721461921810e+01,0.000000000000000000e+00
1.669931999999999972e+00,-9.784503729217806922e-02,-3.216459848258378801e-02,8.736575841903686523e-01,1.083619590730181860e-02,-2.438902308691925924e-03,-1.369243237164961520e-03,-3.342082689854770222e-02,-2.516737836944479140e-02,-1.543941069394350052e-02,2.574807829433120240e-02,-2.562895258300595391e-01,-9.024139734101675747e-02,9.666399955749510609e-02,1.012725889682769553e-01,-4.467461983996377783e-02,1.966639995574951116e-01,2.012725889682769609e-01,-4.096419811248779019e-02,5.198263849975210960e-01,-7.117868065834045410e-01,2.699240446090698242e-01,8.315521039001993131e+01,0.000000000000000000e+00
1.695392000000000010e+00,-1.000893132038152555e-01,-3.296263914969485564e-02,8.737607002258300781e-01,1.348360606806404093e-02,-1.197065533564822815e-02,-4.547044102633598754e-03,-3.387891627537568950e-02,-3.086742563208558915e-02,-7.321326527744531631e-03,1.311955643217935785e-01,-3.877434591446340950e-01,-6.447922465787769841e-02,9.816882610321042701e-02,2.764532566070554420e-02,1.395058477446729506e-01,1.981688261032104326e-01,1.276453256607055498e-01,1.519848704338073730e-01,5.206239882552646803e-01,-6.432040929794311523e-01,1.591676473617553711e-01,9.767979207515963935e+01,0.000000000000000000e+00
1.719602000000000075e+00,-1.023596175683265802e-01,-3.343365733862980332e-02,8.736692070960998535e-01,1.618406352754941241e-02,-1.967838676687150290e-02,-6.582689783833247515e-03,-4.509375606283533983e-02,-3.284227706743324260e-02,-1.285247784107923508e-02,1.244137195260521661e-01,-2.453869599192828321e-01,-5.942147739998651645e-02,6.158978939056394819e-02,-2.598590850830078125e-01,1.914987002956686502e-01,1.615897893905639537e-01,-1.598590850830078069e-01,2.094624280929565374e-01,5.223283886314873392e-01,-5.807197690010070801e-01,1.124421358108520508e-01,5.163342633264210946e+01,0.000000000000000000e+00
1.744601000000000068e+00,-1.046774540263708253e-01,-3.383469668434339883e-02,8.733226060867309570e-01,1.899596087797672528e-02,-2.588901123655373837e-02,-8.118507010772584714e-03,-4.453705917604267733e-02,-4.091008379073560880e-02,-1.610704883933067322e-02,1.259825391122634530e-01,-2.040937244809991336e-01,-9.287253426641134402e-02,-1.193689465522766169e-01,-3.099015235900878795e-01,1.930721040185245652e-01,-1.936894655227661133e-02,-2.099015235900878740e-01,2.151462972164153997e-01,5.225610678779163409e-01,-5.896140336990356445e-01,-2.112668752670288086e-01,8.775860762644678914e+01,0.000000000000000000e+00
1.771784999999999943e+00,-1.069079304366761657e-01,-3.438930651837893149e-02,8.727900981903076172e-01,2.180264551908293533e-02,-2.936496151471312821e-02,-1.111807228323903260e-02,-4.203627803206651942e-02,-4.342603841415967197e-02,-2.411160245537757874e-02,5.533693495916668093e-02,-4.897699130006889778e-02,-1.114937179680495216e-01,-3.121675610542297141e-01,-3.233520865440368541e-01,1.871149943660882498e-01,-2.121675610542297363e-01,-2.233520865440368486e-01,2.173654317855834850e-01,5.218650461743263858e-01,-6.685990095138549805e-01,1.474481821060180664e-01,1.017033813831332765e+02,0.000000000000000000e+00
1.796380000000000088e+00,-1.083543152574485552e-01,-3.481027526579491549e-02,8.723289370536804199e-01,2.395598817931846730e-02,-2.911103977365359086e-02,-1.398439000655699906e-02,-4.052272668313212228e-02,-3.851324120204489831e-02,-2.794090658426284790e-02,1.278238057765871960e-01,5.042230469274241317e-02,-1.912620296279667897e-01,-3.185253620147704967e-01,-3.190603733062744030e-01,1.637574454987197614e-01,-2.185253620147704912e-01,-2.190603733062743974e-01,2.018618702888488603e-01,5.220737433118686210e-01,-6.819754838943481445e-01,6.061565876007080078e-02,-5.021810356113603824e+00,0.000000000000000000e+00
1.820672000000000068e+00,-1.097077456029864617e-01,-3.568543060127165462e-02,8.712099790573120117e-01,2.406274265044619498e-02,-2.380468022713366771e-02,-1.836016281087160529e-02,-3.939366996986303632e-02,-4.035124511026976640e-02,-3.000454604625701904e-02,-7.199099351931734225e-02,2.622071839779196445e-01,-1.348282383326938894e-01,7.624244689941406250e-02,1.134882807731628362e-01,1.260895372704602668e-01,1.762424468994140681e-01,2.134882807731628418e-01,1.765836596488952470e-01,5.234240361395149366e-01,-6.294351816177368164e-01,-4.968011379241943359e-02,9.187599592229220491e+01,0.000000000000000000e+00
1.844259000000000093e+00,-1.105558652613826548e-01,-3.616843626206078105e-02,8.702768683433532715e-01,2.211815487853327142e-02,-1.785310570790921147e-02,-2.154505742810015542e-02,-3.836276330518297722e-02,-3.577437356351166609e-02,-3.760406374931335449e-02,-7.907268507688276771e-02,2.798811446064525810e-01,-1.832684556664058162e-01,8.951097726821899414e-02,1.209558188915252630e-01,1.260083151673752344e-01,1.895109772682189997e-01,2.209558188915252686e-01,1.856232941150665339e-01,5.250949041441541620e-01,-5.807313919067382812e-01,7.698856592178344727e-01,-1.824370028444385525e+02,0.000000000000000000e+00
1.870667000000000080e+00,-1.118405381773260321e-01,-3.696336806791004209e-02,8.687648177146911621e-01,1.651141271732992771e-02,-7.884541992180249537e-03,-2.580647271332410508e-02,-4.532819199065828836e-02,-4.313462369492804954e-02,-2.918829396367073059e-02,-1.701061464180642635e-01,2.867503023955629282e-01,-1.604683170799362235e-01,1.108312129974365068e-01,1.178916633129119818e-01,-2.761934609710988142e-01,2.108312129974365123e-01,2.178916633129119873e-01,-2.042226076126098522e-01,5.287051734135712611e-01,-3.652168512344360352e-01,-4.589207172393798828e-01,8.980812883031417471e+01,0.000000000000000000e+00
1.893982999999999972e+00,-1.128461650177982611e-01,-3.753932398574725410e-02,8.678461313247680664e-01,1.417584157503696748e-02,-3.971069582537678500e-03,-2.837765230596977356e-02,-4.575330500037985693e-02,-4.178342169151622043e-02,-4.488704353570938110e-02,-1.140430662880077689e-01,1.855070426643327108e-01,-1.148457661190150220e-01,1.021982908248901256e-01,1.207595527172088401e-01,-2.850633441786042388e-01,2.021982908248901312e-01,2.207595527172088457e-01,-2.057868719100952037e-01,5.323972824354181732e-01,-2.373649477958679199e-01,4.461952447891235352e-01,6.664471022256400090e+01,0.000000000000000000e+00
1.918814000000000020e+00,-1.140666437848162629e-01,-3.792624720760758017e-02,8.670127987861633301e-01,1.421313297662678277e-02,-3.239870639763386961e-03,-3.050461498276679784e-02,-5.534923969623096324e-02,-4.010799755611470924e-02,-2.311335131525993347e-02,5.816297458405519233e-02,-1.662765584292556428e-02,-8.945224045506411370e-02,-2.605009555816650280e-01,-2.612727165222167858e-01,1.239866446406081568e-01,-1.605009555816650224e-01,-1.612727165222167802e-01,2.092094600200652965e-01,5.243771822439349251e-01,-6.009989976882934570e-01,2.123173475265502930e-01,9.097415823485123099e+01,0.000000000000000000e+00
1.943540000000000045e+00,-1.161190833664175054e-01,-3.852442819261450019e-02,8.659098148345947266e-01,1.563499854370990760e-02,-5.000398903495906211e-03,-3.064370924610937755e-02,-7.201364277262216340e-02,-4.694196764799954402e-02,-1.246258150786161423e-02,5.334820759518061478e-02,-9.422922892871454792e-02,4.282719265922497391e-05,7.277109622955321711e-02,-1.480948686599731501e-01,1.054779915589346417e-01,1.727710962295532227e-01,-4.809486865997314453e-02,1.910409271717071478e-01,5.245733794679551254e-01,-5.608947277069091797e-01,9.542953968048095703e-02,8.610749818705541259e+01,0.000000000000000000e+00
1.972226999999999952e+00,-1.181802305195000652e-01,-3.925668474795655088e-02,8.650869131088256836e-01,1.699706771429516233e-02,-7.292563226837467383e-03,-3.058275753363476346e-02,-4.953071629184874203e-02,-5.476531275479919886e-02,-8.414119365625083447e-04,2.767383020751064751e-02,-3.903075239319971079e-02,-4.691128559871446391e-02,-2.758979082107543834e-01,-3.091252565383911244e-01,1.098708323135979548e-01,-1.758979082107543779e-01,-2.091252565383911188e-01,1.952507793903350830e-01,5.235436168014043767e-01,-5.800675749778747559e-01,3.372992277145385742e-01,1.193952037486779290e+02,0.000000000000000000e+00
1.996933000000000069e+00,-1.193679150840208647e-01,-3.970385864545637050e-02,8.644630908966064453e-01,1.584534962275295847e-02,-6.509177737801907782e-03,-3.215116960890863906e-02,-6.171554412646883259e-02,-4.532417424747604839e-02,-1.096771098673343658e-02,-8.888597536705189484e-02,4.793228147287957597e-02,-7.918626324468863720e-02,1.174815535545349066e-01,7.882112264633178711e-02,1.160830314562626697e-01,2.174815535545349121e-01,1.788211226463317927e-01,2.058395504951477106e-01,5.251474299730077844e-01,-5.433294177055358887e-01,2.507971525192260742e-01,9.634666892276737826e+01,0.000000000000000000e+00
2.022178999999999949e+00,-1.213050833627289521e-01,-4.032181628953031283e-02,8.634993433952331543e-01,1.338656154921713005e-02,-3.566105878724634692e-03,-3.490029396080378959e-02,-4.043264155460738613e-02,-4.653486851646942979e-02,-5.744231399148702621e-03,-8.880294198468430267e-02,1.025075958102812657e-01,-1.079891399815815362e-01,1.183560609817504716e-01,1.176399827003478948e-01,1.025390314311915574e-01,2.183560609817504772e-01,2.176399827003479004e-01,2.001340806484222246e-01,5.279467586488387765e-01,-3.802874684333801270e-01,-1.411950588226318359e-02,1.204215079733640437e+02,0.000000000000000000e+00
2.046844999999999803e+00,-1.226125135862020515e-01,-4.071742776946651182e-02,8.627269268035888672e-01,1.049731385194066502e-02,2.238877751037371411e-05,-3.705893131222955106e-02,-4.793377922857251089e-02,-4.846692696091598612e-02,-8.185380138456821442e-03,-1.503367985662257544e-01,2.077197840338052270e-01,-1.097902623503416164e-01,9.742939472198486328e-02,1.201094031333923284e-01,-3.217170119285583385e-01,1.974293947219848688e-01,2.201094031333923340e-01,-2.217170119285583330e-01,5.304095905355568075e-01,-2.661665678024291992e-01,-6.210196018218994141e-02,9.521102019965852037e+01,0.000000000000000000e+00
2.071285000000000043e+00,-1.245588185468055886e-01,-4.134509286551842078e-02,8.617436289787292480e-01,8.661898151950377100e-03,3.201081422203655436e-03,-4.043497673250354141e-02,-5.194965867152396416e-02,-5.087064738618357618e-02,-8.594509214162826538e-03,-3.867087632989914953e-02,6.768870797244527782e-02,-8.408156276987560629e-02,1.203544139862060547e-01,1.222423315048217773e-01,1.246070742607116588e-01,2.203544139862060602e-01,2.222423315048217829e-01,2.246070742607116644e-01,5.290417538453611179e-01,-3.541502356529235840e-01,-1.736676692962646484e-02,9.786663873009450754e+01,0.000000000000000000e+00
2.096651000000000042e+00,-1.259512446357562432e-01,-4.188959754469959162e-02,8.611363172531127930e-01,9.395139404815277054e-03,2.786023709713703056e-03,-4.154163224944074778e-02,-6.108298131763675864e-02,-4.976809052495651670e-02,2.182698063552379608e-02,1.069554683069919992e-01,-5.837912212738131240e-02,-2.861830986774937385e-02,-7.612347602844238281e-02,-1.496215462684631348e-01,1.137704849243164062e-01,2.387652397155761580e-02,-4.962154626846313615e-02,2.137704849243164118e-01,5.265159101269977215e-01,-3.805726170539855957e-01,1.082996129989624023e-01,1.179344721720223248e+02,0.000000000000000000e+00
2.121090999999999838e+00,-1.280978699644051422e-01,-4.281133062594565802e-02,8.606232404708862305e-01,1.231556971266677819e-02,5.036081355911381507e-04,-4.187873622036744625e-02,-4.299224822713499511e-02,-4.655683560122144543e-02,3.026213496923446655e-02,1.674394831005907025e-01,-1.451131103679361434e-01,-4.842078327164407031e-02,-2.901523113250732699e-02,-1.744596600532531960e-01,1.073704659938812256e-01,7.098476886749267856e-02,-7.445966005325317660e-02,2.073704659938812311e-01,5.266872051260270693e-01,-3.445816040039062500e-01,-5.485403537750244141e-02,1.008101087529115034e+02,0.000000000000000000e+00
2.144600000000000062e+00,-1.294428337200033419e-01,-4.348725081299987388e-02,8.603711724281311035e-01,1.415678213268418278e-02,-1.276843961427021057e-03,-4.365523815558347565e-02,-6.396334922748000973e-02,-6.048137532695701396e-02,2.536046132445335388e-02,6.986600390727511212e-02,-1.115502407610299701e-01,-1.010215518914638344e-01,-1.830250442028045765e-01,-2.897113561630249023e-01,8.817006945610045276e-02,-8.302504420280455710e-02,-1.897113561630248968e-01,1.881700694561004583e-01,5.232220623011867300e-01,-5.605458021163940430e-01,-5.100152492523193359e-01,2.604099096545488479e+01,0.000000000000000000e+00
2.168270000000000142e+00,-1.307116922219860033e-01,-4.419857085642958650e-02,8.601765632629394531e-01,1.502348294322581983e-02,-2.017318865154882346e-03,-4.561565728777147721e-02,-4.660082849976267261e-02,-4.888406757066478953e-02,2.738350816071033478e-02,1.176054228920626540e-02,-1.976410281065512503e-02,-8.803001193874622488e-02,-2.357794284820556585e-01,-2.860747098922729603e-01,5.897148847579955500e-02,-1.357794284820556530e-01,-1.860747098922729548e-01,1.589714884757995605e-01,5.210934501162028942e-01,-6.729163527488708496e-01,-2.492374181747436523e-01,-1.012014512715965537e+02,0.000000000000000000e+00
2.193051999999999779e+00,-1.323972325640225822e-01,-4.514239439802927162e-02,8.596298694610595703e-01,1.446099847818087779e-02,2.107278526037870137e-04,-4.898254309488028757e-02,-3.885123490679388142e-02,-4.875158041370922929e-02,2.673479914665222168e-02,-4.813926124197734358e-02,1.311786123651664249e-01,-1.249735221445210653e-01,1.208245515823364036e-01,1.219033360481261985e-01,1.243299305438995139e-01,2.208245515823364091e-01,2.219033360481262040e-01,2.243299305438995195e-01,5.232153524300817704e-01,-5.684353709220886230e-01,2.702963352203369141e-02,4.899800467158186024e+01,0.000000000000000000e+00
2.227421000000000095e+00,-1.336367678807402481e-01,-4.632966938767037191e-02,8.589764833450317383e-01,1.094974765253890238e-02,6.574345458605579395e-03,-5.207987693632536857e-02,-4.136971929600808534e-02,-4.831182619219329816e-02,1.601751334965229034e-02,-1.807927378844069732e-01,2.785589552195565921e-01,-1.147921895083556937e-01,9.814357757568351048e-03,1.312691281874301674e-01,-3.236698746681213601e-01,1.098143577575683566e-01,2.217821538448333796e-01,-2.236698746681213268e-01,5.315505687607304797e-01,-1.652411222457885742e-01,1.871274709701538086e-01,9.505805128300691820e+01,0.000000000000000000e+00
2.251803000000000221e+00,-1.339590125618836947e-01,-4.678227458955845630e-02,8.587454557418823242e-01,9.379069282381519504e-03,9.068796746245277873e-03,-5.300022953485571814e-02,-3.457989805018473611e-02,-4.422665930773630322e-02,2.216391451656818390e-02,-1.570635645812860914e-01,3.099895329731615079e-01,-1.255293969727228898e-01,-1.491774082183837946e-01,1.541228791115404340e-01,-3.238126039505004883e-01,-4.917740821838378906e-02,2.237683296203613337e-01,-2.238126039505004827e-01,5.287857597381341312e-01,-2.988994121551513672e-01,3.376377820968627930e-01,8.285906704798651390e+01,0.000000000000000000e+00
2.271297999999999817e+00,-1.342850413172227420e-01,-4.720269043431493672e-02,8.585259318351745605e-01,8.061297631879798739e-03,1.122122761821886527e-02,-5.374237413399202135e-02,-2.574405225334538624e-02,-3.609141850515335675e-02,2.576467394828796387e-02,-1.032516634605876449e-01,2.180369801522473172e-01,-9.694278092090496957e-02,-1.941027283668518288e-01,1.737298373684317832e-01,-3.217434406280517689e-01,-9.410272836685180942e-02,2.245056688785553034e-01,-2.217434406280517634e-01,5.255190485259702005e-01,-4.690141081809997559e-01,-2.889214754104614258e-01,1.016981357978507106e+02,0.000000000000000000e+00
2.294878000000000196e+00,-1.349569518372536192e-01,-4.810362942330244362e-02,8.582019805908203125e-01,6.369136999678499771e-03,1.385894247041874472e-02,-5.594105025009293852e-02,-3.576654242247801624e-02,-5.447723961264497317e-02,2.389203570783138275e-02,-9.114427553810035276e-02,6.265139375381628684e-02,-8.612650643135587314e-02,1.079520225524902288e-01,1.793660899438006828e-01,-2.390743970870971569e-01,2.079520225524902344e-01,2.217184424400329423e-01,-1.390743970870971513e-01,5.291022439715559189e-01,-2.892220020294189453e-01,2.155386209487915039e-01,9.478590922571693511e+01,0.000000000000000000e+00
2.323021999999999920e+00,-1.361963763125118299e-01,-4.955866490757931259e-02,8.578767776489257812e-01,6.471430173792014871e-03,1.356436194420007624e-02,-5.536708694195662667e-02,-4.746317948792196095e-02,-4.737098285868597547e-02,3.147502243518829346e-02,-1.563730458250779665e-02,-4.750925867256954038e-02,5.753344622209619064e-02,-2.844935655593872070e-01,1.422756836576413997e-01,-2.521537423133849987e-01,-1.844935655593872015e-01,1.958226084709167314e-01,-1.521537423133849931e-01,5.213005874125432593e-01,-6.905705928802490234e-01,8.859431743621826172e-02,9.361047465069275120e+01,0.000000000000000000e+00
2.348854000000000219e+00,-1.370461021066919638e-01,-5.050446338946366215e-02,8.578032255172729492e-01,6.717399371954600566e-03,1.141829233520108566e-02,-5.333611789298361300e-02,-4.615960758313063933e-02,-4.771951029178844034e-02,3.931805491447448730e-02,-6.237920504775441161e-03,-1.294789662644064421e-01,1.278434470653293797e-01,-2.476502597332000677e-01,1.251932903997771129e-01,-2.858629226684570312e-01,-1.476502597332000621e-01,1.914184927940368597e-01,-1.858629226684570257e-01,5.207811413444040083e-01,-6.930711269378662109e-01,-1.934744119644165039e-01,1.015404882016176487e+02,0.000000000000000000e+00
2.372860000000000191e+00,-1.379497608354811611e-01,-5.067259768578411677e-02,8.577509522438049316e-01,5.691325229109706584e-03,8.847652869889754967e-03,-5.112884555176770707e-02,-3.969100071028352356e-02,-3.206592127349647270e-02,3.922143206000328064e-02,-6.011892908405938596e-02,-1.235869614850072518e-01,1.044652527859151331e-01,-2.585985362529754639e-01,1.222769643766465075e-01,-2.610543489456176869e-01,-1.585985362529754583e-01,2.020795762538909746e-01,-1.610543489456176813e-01,5.208243128062205463e-01,-6.959107518196105957e-01,2.692663669586181641e-02,5.565375081019248427e+01,0.000000000000000000e+00
2.394127000000000116e+00,-1.388229567568589895e-01,-5.078879673258033384e-02,8.577553033828735352e-01,3.790916174950260085e-03,5.702112188724850483e-03,-4.895278627647750569e-02,-4.604901691741672409e-02,-4.901943982635108277e-02,4.862925037741661072e-02,-9.816308064283156554e-02,-1.863138678845219498e-01,1.013362328383191763e-01,-2.370164990425109863e-01,1.044610023498535045e-01,-2.701270103454589955e-01,-1.370164990425109808e-01,2.044610023498535101e-01,-1.701270103454589899e-01,5.200992706741264238e-01,-7.034681439399719238e-01,-1.647075414657592773e-01,1.097991499648360332e+02,0.000000000000000000e+00
