timestamp,x,y,z,roll,pitch,yaw,vx,vy,vz,p,q,r,psp,qsp,rsp,pres,qres,rres,thrust_sp, thrust_res,wind_mag,wind_angle,wind_obs
0.000000000000000000e+00,-2.467992715690143124e-04,2.122628625027251845e-02,1.000619530677795410e+00,1.232844110896860572e-02,-1.095812538601714792e-02,5.371979587104691936e-04,-6.462115262465299107e-04,-1.206810809685306303e-02,3.057141788303852081e-03,-4.187948612675274074e-02,1.337326649135488384e-02,-2.086390466006544583e-02,1.492734081452013195e-01,1.133975519127704140e-01,-1.631322302248514877e-01,2.258185386657714788e-01,1.852942049503326361e-01,-1.648358345031738226e-01,4.984432534963557648e-01,-6.979731321334838867e-01,-1.295493841171264648e-01,9.176549712189974173e+01,0.000000000000000000e+00
2.444100000000000092e-02,-1.524304383627478573e-05,2.120900932896431501e-02,1.000595927238464355e+00,1.318122099277389304e-02,-1.095039877440773246e-02,4.999584016342663176e-04,1.561012585303021144e-02,1.356880046285142798e-02,-1.676048152148723602e-03,4.770605522632397760e-02,1.430110140612109344e-02,-1.771864934179568848e-02,1.614446980072656301e-01,1.407475242951149452e-01,2.270547220017304357e-01,2.209674596786498912e-01,1.991707205772399736e-01,2.254383265972137451e-01,4.992497345720426916e-01,-6.748564243316650391e-01,-5.228877067565917969e-03,3.028785574230165878e+01,0.000000000000000000e+00
4.760699999999999654e-02,2.332861622835915422e-04,2.117990328831398025e-02,1.000562667846679688e+00,1.331055886424765619e-02,-1.088763283347171651e-02,3.475131832355297001e-04,5.870547806411190693e-03,-1.085326759507952536e-02,7.809603586792945862e-03,2.410686632882895822e-02,6.241278262092125190e-03,-1.133045955717584125e-03,1.380876336684873085e-01,1.352851246480058223e-01,2.241182618132239457e-01,2.219026565551757701e-01,2.033828437328338568e-01,2.229439079761505182e-01,4.982336589106507452e-01,-6.900026798248291016e-01,-2.858129739761352539e-01,8.950593394067612962e+01,0.000000000000000000e+00
7.568199999999999927e-02,5.725110732653472881e-04,2.111962041609703397e-02,1.000491380691528320e+00,1.282451027551486863e-02,-1.060121278604531092e-02,7.146263319315364544e-05,1.391959400089600070e-02,3.585962361393138335e-03,-1.650045160204172134e-03,-4.399482062350833222e-02,3.852992139940568384e-02,-2.921296797424373717e-02,1.591834697382575325e-01,1.406069992897590881e-01,3.370139386178483409e-02,2.245442032814025934e-01,1.986582934856414850e-01,3.330633044242858887e-02,5.015140096466391695e-01,-5.561459064483642578e-01,-3.887206315994262695e-01,1.464171123317842103e+02,0.000000000000000000e+00
9.982000000000000595e-02,7.938958959343654078e-04,2.089087472523086866e-02,1.000331521034240723e+00,1.286003406422915607e-02,-1.140728274965541189e-02,-1.054041501130071820e-03,1.378347065026502317e-02,-1.060983946021413007e-02,-2.660245634615421295e-03,1.375504300778031784e-02,-7.409704327139290947e-02,-7.903048558145861491e-02,5.578489120110839694e-02,-9.851654380483437778e-04,1.341514558836384152e-01,1.350404262542724554e-01,6.343713998794554831e-02,1.369150757789611705e-01,4.994191361811328722e-01,-6.705341339111328125e-01,-1.127020120620727539e-01,1.000840869648958176e+02,0.000000000000000000e+00
1.226269999999999999e-01,9.931880820717913037e-04,2.057128184674095542e-02,1.000099062919616699e+00,1.396467507435718118e-02,-1.326466114276225738e-02,-3.188015989326081767e-03,1.068137372697931103e-02,-6.444014282674046142e-03,-1.063681952655315399e-02,5.345738857745423178e-02,-1.262260472277497436e-01,-1.111783524442620241e-01,9.140740287530330077e-02,-5.627063970701062789e-02,1.820550396783503500e-01,1.725073099136352484e-01,2.261617183685302526e-02,1.907189369201660045e-01,5.006320859547142010e-01,-6.400088071823120117e-01,-2.920874357223510742e-01,9.920508259985020061e+01,0.000000000000000000e+00
1.455319999999999947e-01,1.131918817250890429e-03,2.015111319890228181e-02,9.997730851173400879e-01,1.597267168344344498e-02,-1.622932227247853021e-02,-5.256470976237049599e-03,-1.784586007006469521e-03,-2.089219590638652022e-02,-1.158750243484973907e-02,1.447279375319709960e-01,-1.791255457816120777e-01,-8.873442870944547867e-02,8.134869337081906959e-02,-1.641368746757507213e-01,1.914716537286432207e-01,1.813486933708190751e-01,-6.413687467575072965e-02,2.058292329311370850e-01,5.033286837400847702e-01,-5.040518045425415039e-01,-2.845755815505981445e-01,1.037217569243854030e+02,0.000000000000000000e+00
1.749769999999999937e-01,1.262160682257917497e-03,1.944339630790420034e-02,9.990467429161071777e-01,1.982874357412326219e-02,-2.064358625049877993e-02,-7.648650604344630656e-03,1.141562775816142364e-02,-1.173127041911814321e-02,-2.655231021344661713e-02,1.327301182791524037e-01,-1.138460162877670823e-01,-8.631413698103251875e-02,4.567087888717649702e-02,-2.710478663444518821e-01,1.938215911564692695e-01,1.456708788871765026e-01,-1.710478663444519043e-01,2.146818459033965898e-01,5.092285020728668510e-01,-2.556724548339843750e-01,-5.527991056442260742e-01,8.236677433336868148e+01,0.000000000000000000e+00
1.991549999999999987e-01,1.213800495812631525e-03,1.914534360898422979e-02,9.983352422714233398e-01,2.196841144406939603e-02,-2.268185132906630486e-02,-9.655049949538047765e-03,-5.452372890575152287e-03,-3.189412066100256321e-02,-3.769055008888244629e-02,1.196694893486284217e-01,-1.306579191112892113e-01,-8.337317575669560277e-02,-3.387714624404908337e-02,-2.934113383293152078e-01,1.847983156603845434e-01,6.612285375595092218e-02,-1.934113383293151744e-01,2.111666142940521185e-01,5.081398231297507007e-01,-3.621890544891357422e-01,-5.081410408020019531e-01,1.071686801909240359e+02,0.000000000000000000e+00
2.233519999999999950e-01,1.030079171582103494e-03,1.900271153736837054e-02,9.973643422126770020e-01,2.355539581599968083e-02,-2.322954417586675646e-02,-1.201002005039274872e-02,5.440412567306885869e-03,-1.216131512736377991e-02,-4.909194260835647583e-02,4.555323596855532370e-02,5.622647596106843809e-02,-1.471881569195045703e-01,-2.471352934837341420e-01,7.335222363471982643e-02,1.816147310955333605e-01,-1.471352934837341364e-01,1.733522236347198320e-01,2.144685029983520452e-01,5.056885876358532261e-01,-5.432862639427185059e-01,-5.532252788543701172e-02,9.426296262210406951e+01,0.000000000000000000e+00
2.463569999999999927e-01,8.333483977468521958e-04,1.878259153626604325e-02,9.961151480674743652e-01,2.486536160786779331e-02,-2.309634195428911241e-02,-1.418086910320581241e-02,1.381876060974437243e-02,-2.141783220401302298e-02,-6.367432326078414917e-02,9.859003111470628078e-02,-2.120926201212020978e-03,-8.512771160305319940e-02,-3.053764939308166726e-01,-2.067841768264770397e-01,1.836441363872622079e-01,-2.053764939308166393e-01,-1.067841768264770480e-01,2.226149797439575251e-01,5.087046149025945541e-01,-4.496105909347534180e-01,-2.457498311996459961e-01,1.018225750143391650e+02,0.000000000000000000e+00
2.759150000000000214e-01,6.345683360300502073e-04,1.839288654994295988e-02,9.937812685966491699e-01,2.602382508542796721e-02,-1.931107852831170923e-02,-1.817272071552644697e-02,2.881769027061706779e-03,-1.753372861766747462e-02,-7.932054251432418823e-02,3.295503111818484654e-02,2.382499451326766382e-01,-1.665001360719639834e-01,7.951864004135131281e-02,1.224574267864227128e-01,1.752216421463762275e-01,1.795186400413513184e-01,2.224574267864227184e-01,2.253970026969909501e-01,5.087499528585609498e-01,-5.224764347076416016e-01,-5.890691280364990234e-02,8.413477563021564265e+01,0.000000000000000000e+00
2.998140000000000249e-01,5.274884425622894434e-04,1.802949645422472283e-02,9.919646382331848145e-01,2.656437190942993049e-02,-1.569262102829882544e-02,-2.049798274900550832e-02,1.831990793763452890e-02,-2.807546616023493327e-02,-9.175288677215576172e-02,6.090128220212503302e-02,1.987605444212810213e-01,-7.928189685173078760e-02,7.694811820983885053e-02,1.350161455697350688e-01,1.697135435522910407e-01,1.769481182098388561e-01,2.228916049003601130e-01,2.266256153583526556e-01,5.064370769476028711e-01,-7.062738537788391113e-01,-4.576178789138793945e-01,9.956605126729620281e+01,0.000000000000000000e+00
3.246820000000000261e-01,6.997818293739382477e-04,1.791484981749210184e-02,9.900013804435729980e-01,2.613480167837300971e-02,-1.134764745738681135e-02,-2.364544326012460451e-02,-3.360602144835599537e-03,-4.003932693125920872e-02,-9.175503998994827271e-02,-6.479092217857852776e-02,1.558796120512414562e-01,-1.852630257898053301e-01,8.542965650558470569e-02,1.447066527079979570e-01,1.587246090078245908e-01,1.854296565055847112e-01,2.234898090362548717e-01,2.245280742645263672e-01,5.255974939859211492e-01,3.083903789520263672e-01,9.074913263320922852e-01,-1.085702964803131776e+00,0.000000000000000000e+00
3.475389999999999868e-01,8.427004380351705735e-04,1.772446245433286632e-02,9.878277778625488281e-01,2.465620947787960926e-02,-7.335521698249802824e-03,-2.620698252055746538e-02,8.915974849979002234e-03,-1.461896115612852654e-02,-1.069885641336441040e-01,-6.437079279025317846e-02,2.039095465923355943e-01,-1.419310889377757567e-01,-1.953342556953430176e-01,1.853000573787379479e-01,1.493533023222086420e-01,-9.533425569534301203e-02,2.255761027336120605e-01,2.225104808807372991e-01,5.257070816918311129e-01,2.396762371063232422e-01,8.089029788970947266e-02,1.573247468513761476e+02,0.000000000000000000e+00
3.769580000000000153e-01,1.029456476378291623e-03,1.747545492613463911e-02,9.843970537185668945e-01,1.926259160786011546e-02,-2.299033932903871147e-03,-3.046248474555355093e-02,7.600977094447312898e-03,-2.383634897471412564e-02,-1.158520132303237915e-01,-1.964399590066764623e-01,1.303255194778250303e-01,-1.507501580115996609e-01,1.250945568084716741e-01,2.079491719293344032e-01,-2.907151311158657769e-01,2.250945568084716797e-01,2.178233563899993896e-01,-2.054608583450317216e-01,5.116730340559517698e-01,-5.710756778717041016e-01,-3.246084451675415039e-01,1.559291616190241143e+02,0.000000000000000000e+00
4.019449999999999967e-01,1.072481132447150815e-03,1.717686836682537008e-02,9.820763468742370605e-01,1.649862050958803006e-02,-8.718974049859440356e-04,-3.311333827766563265e-02,-6.877808634656228624e-03,-3.179922701670585827e-02,-1.286835372447967529e-01,-1.186768580352022678e-01,3.761215341269868312e-02,-1.048505296116992724e-01,1.269763588905334362e-01,1.986118272803462093e-01,-3.070657016984863485e-01,2.269763588905334417e-01,2.101189970970153698e-01,-2.143868923187255693e-01,5.107125296730563591e-01,-6.894106268882751465e-01,-7.817876338958740234e-02,1.034673050570457491e+02,0.000000000000000000e+00
4.251229999999999731e-01,1.017025371964817631e-03,1.683581521619195720e-02,9.797387123107910156e-01,1.541600380182500153e-02,-1.953941330371744556e-03,-3.596853207273727204e-02,-1.660364519400291334e-03,-3.852834516258935027e-02,-1.133029386401176453e-01,-3.969273325417981002e-02,-9.092292920397915257e-02,-1.674005815895327487e-01,-6.070746183395386159e-02,-2.241292668090653570e-02,-2.237517952919006459e-01,3.929253816604614397e-02,-1.010227203369140625e-02,-1.237517952919006264e-01,5.090763589597029348e-01,-7.315242290496826172e-01,3.368974924087524414e-01,6.778157471934510170e+01,0.000000000000000000e+00
4.476930000000000076e-01,8.193889100939331536e-04,1.635799241910775373e-02,9.774106144905090332e-01,1.552557148056666302e-02,-4.500686916692586692e-03,-3.861567238441254019e-02,7.632664222316935636e-03,-3.539581199713143222e-02,-1.207455843687057495e-01,1.497540498889584314e-02,-1.525054696806892596e-01,-1.083354487166033886e-01,-1.197082281112670926e-01,-1.477634496065206512e-02,-2.435878038406372181e-01,-1.970822811126709054e-02,7.806462049484252756e-03,-1.435878038406372126e-01,5.100157620401435388e-01,-7.273902893066406250e-01,4.396365880966186523e-01,-3.230179849078244558e+01,0.000000000000000000e+00
4.774010000000000198e-01,5.596486152234401643e-04,1.565256613579260256e-02,9.739410281181335449e-01,1.531056950376202298e-02,-9.044032408236146736e-03,-4.218792465223247801e-02,-1.027029861751125803e-02,-3.534472618355023049e-02,-1.267910301685333252e-01,-7.437664432067443709e-02,-1.137303509431528831e-01,-4.619730199202132931e-02,1.006938219070434570e-01,1.053382689015774643e-01,-3.190055489540100098e-01,2.006938219070434626e-01,1.728931367397308350e-01,-2.190055489540100042e-01,5.109801268590030698e-01,-7.213385701179504395e-01,4.244879484176635742e-01,6.455844260096193921e+01,0.000000000000000000e+00
5.020189999999999930e-01,2.643071637535590276e-04,1.518259009966334110e-02,9.717170000076293945e-01,1.549533606186377643e-02,-1.254893564498926750e-02,-4.235298508153395591e-02,4.521997752631151668e-03,-3.339775421406568356e-02,-1.087426245212554932e-01,1.968185481170423717e-02,-1.859053428025329302e-01,3.123049813967108956e-02,8.653036355972287819e-02,6.556782234647229313e-03,-3.186441302299499734e-01,1.865303635597228837e-01,8.305166959762573520e-02,-2.186441302299499401e-01,5.099298410410532112e-01,-7.215224504470825195e-01,5.129500627517700195e-01,-2.136544473327789362e+01,0.000000000000000000e+00
5.250259999999999927e-01,-9.167627475844675590e-05,1.467545783248692601e-02,9.696198105812072754e-01,1.588151701589919987e-02,-1.631265889091970678e-02,-4.151800275866911888e-02,-2.201427017560545971e-02,-5.049704778445362335e-02,-1.111949235200881958e-01,-6.592586224017715074e-03,-1.962789560226102792e-01,2.928109051292920179e-02,6.640578508377073530e-02,-1.966086626052857000e-02,-3.182790994644165150e-01,1.664057850837707409e-01,8.033913373947143555e-02,-2.182790994644165095e-01,5.105736440996596626e-01,-7.125198245048522949e-01,3.331698179244995117e-01,1.608433734438215623e+01,0.000000000000000000e+00
5.483090000000000463e-01,-4.151651556311671877e-04,1.358548878320188676e-02,9.675561785697937012e-01,1.685175149779999035e-02,-1.984100326237348000e-02,-4.009538892855868397e-02,-1.198039449620999855e-02,-3.939126273432554115e-02,-1.121438294649124146e-01,3.040903663512317667e-02,-1.289136303856001087e-01,9.867691678426834812e-02,8.291116952896115944e-02,-2.674031019210815208e-01,-3.231570005416870006e-01,1.829111695289611650e-01,-1.674031019210815430e-01,-2.231570005416869951e-01,5.108532856789937959e-01,-7.166207432746887207e-01,-8.265364170074462891e-02,1.315135576005463349e+02,0.000000000000000000e+00
5.723759999999999959e-01,-6.784235407670659388e-04,1.206325436562304468e-02,9.655570387840270996e-01,1.704091817405633050e-02,-2.242603352804706240e-02,-3.881251409324021351e-02,-1.393717187934454503e-02,-4.362117713065460228e-02,-1.124491095542907715e-01,3.474521925615509967e-03,-1.064030980703621621e-01,3.888456385437626117e-02,7.474770545959472101e-02,-1.062720060348510825e-01,-3.217440128326415905e-01,1.747477054595947266e-01,-6.272006034851074392e-03,-2.217440128326415849e-01,5.113104541658997082e-01,-7.087908983230590820e-01,1.881273984909057617e-01,1.009145969868343542e+02,0.000000000000000000e+00
6.021360000000000046e-01,-1.041413816165103314e-03,9.858306796579006590e-03,9.624184966087341309e-01,1.528798470148669091e-02,-2.383265395411893195e-02,-3.593529383928324716e-02,-1.816576043191507617e-02,-4.091626996222940543e-02,-1.140643656253814697e-01,-4.883901371111237788e-02,-3.018251399477856270e-02,6.533247217110375871e-02,-2.379385173320770208e-01,-8.168306946754455566e-02,-1.712399005889892467e-01,-1.379385173320770153e-01,1.831693053245544295e-02,-7.123990058898925504e-02,5.124181021591941443e-01,-6.761252880096435547e-01,1.143497228622436523e-01,8.003526876961731773e+01,0.000000000000000000e+00
6.266380000000000283e-01,-1.413073404249991921e-03,8.341524686488381232e-03,9.603097438812255859e-01,1.449063692054028581e-02,-2.505638823708467022e-02,-3.322921883956796163e-02,-2.709543549193508052e-02,-5.256601223023294606e-02,-1.179570108652114868e-01,-4.067762864261900008e-02,-4.861709640822939327e-02,1.647928477682580606e-01,-2.836727917194366566e-01,-2.040712833404541016e-01,-1.974336714548869942e-01,-1.836727917194366511e-01,-1.040712833404540960e-01,-1.047824621200561523e-01,5.127246729957471993e-01,-6.915193200111389160e-01,7.046641111373901367e-01,-6.231780928902301397e+00,0.000000000000000000e+00
6.504780000000000006e-01,-1.850962004165732913e-03,6.772556713407490089e-03,9.581986665725708008e-01,1.514237015593992465e-02,-2.659333115542894532e-02,-3.062816991854718993e-02,-2.294961592288950747e-02,-4.409456913998130445e-02,-1.222074702382087708e-01,5.955178897961418971e-02,-8.129975057001520566e-02,1.289603817532846142e-01,-2.197668910026550348e-01,-2.848535537719726340e-01,-3.006247669659047328e-01,-1.197668910026550293e-01,-1.848535537719726562e-01,-2.153406143188476562e-01,5.131610944519682249e-01,-7.014367580413818359e-01,6.268237829208374023e-01,-5.495492342035721123e+01,0.000000000000000000e+00
6.751650000000000151e-01,-2.078920633678901179e-03,5.957409851913272013e-03,9.561598896980285645e-01,1.617865517504365677e-02,-2.760069586901425787e-02,-2.789799832666476492e-02,-3.696089631326352626e-02,-6.100326696653101538e-02,-1.057292595505714417e-01,6.817506951869131693e-02,-2.871785230170064915e-02,1.355935864080764774e-01,-2.919283807277679443e-01,-2.414081335067748968e-01,-2.530960439720973953e-01,-1.919283807277679388e-01,-1.414081335067748912e-01,-1.754434704780578613e-01,5.125653621990498010e-01,-6.839850544929504395e-01,2.647503614425659180e-01,7.828295812484115324e+00,0.000000000000000000e+00
6.986719999999999597e-01,-2.332609290840007704e-03,5.125357951770693164e-03,9.540807008743286133e-01,1.694093875405202829e-02,-2.683258149779654822e-02,-2.494353011506267315e-02,-2.407805863491774279e-02,-4.762115125085588513e-02,-1.306812018156051636e-01,2.756074168355722442e-02,8.635789798900884995e-02,1.572155581950866188e-01,-2.657073915004730114e-01,1.226567506790161022e-01,-2.793959933980830757e-01,-1.657073915004730058e-01,2.226567506790161077e-01,-2.100871682167053112e-01,5.335602878882683697e-01,3.384966850280761719e-01,-2.611800432205200195e-01,1.270364505618730249e+02,0.000000000000000000e+00
7.223380000000000356e-01,-2.558124969874731470e-03,4.259170350673284304e-03,9.519714713096618652e-01,1.795179011020264087e-02,-2.478603469207030230e-02,-2.184298892092780692e-02,-3.485197660452597074e-02,-5.602825920227883644e-02,-1.067899167537689209e-01,9.918988460103889127e-02,1.054120815778276238e-01,1.589602455723714836e-01,-2.725061297416687123e-01,1.147206485271453635e-01,-1.647743470534073773e-01,-1.725061297416687067e-01,2.147206485271453691e-01,-1.041206002235412625e-01,5.138981550272203602e-01,-6.500514149665832520e-01,-3.501387834548950195e-01,-3.405592084323595392e-01,0.000000000000000000e+00
7.491489999999999538e-01,-3.114042246441520861e-03,2.412064396907473256e-03,9.477018713951110840e-01,1.792571716546729338e-02,-1.913392497445576268e-02,-1.680617931369336737e-02,-3.588660112998941221e-02,-5.478114273204306300e-02,-1.242637261748313904e-01,-4.795598802296743846e-02,1.156188589862290200e-01,1.397431763082684908e-01,1.048219919204711748e-01,1.237151861190795843e-01,-2.622124203444697876e-01,2.048219919204711803e-01,2.237151861190795898e-01,-2.155638456344604326e-01,5.387494390495700669e-01,6.085758209228515625e-01,9.742510318756103516e-02,1.685294945998636535e+02,0.000000000000000000e+00
7.732400000000000384e-01,-3.459491610568477156e-03,1.779595271504430618e-03,9.454399347305297852e-01,1.559902411999378700e-02,-1.564524080259577232e-02,-1.468058854738114351e-02,-2.497910692841881150e-02,-4.980968286924775806e-02,-1.256670355796813965e-01,-1.589647833975980640e-01,1.847792225043156378e-01,8.566909860708152302e-02,7.893917560577390358e-02,-3.316346406936646063e-02,-2.650003814427846494e-01,1.789391756057739091e-01,6.683653593063354492e-02,-2.241714477539062389e-01,5.277545451232968921e-01,-1.967430114746093750e-02,1.137363791465759277e+00,7.848912738493798891e+00,0.000000000000000000e+00
7.984229999999999938e-01,-3.832726607259530696e-03,1.187193925316465176e-03,9.431096911430358887e-01,1.117347722515561574e-02,-1.175492248761078606e-02,-1.153107146493216432e-02,-3.544813366031015350e-02,-4.941877632225391559e-02,-1.362877488136291504e-01,-2.319579893261919379e-01,1.924636182073743151e-01,1.798863443363263037e-01,1.191291809082031250e-01,9.795480370521544855e-02,-2.561760229148590806e-01,2.191291809082031306e-01,1.979548037052154541e-01,-2.240277528762817383e-01,5.291454412798044515e-01,-4.613935947418212891e-03,1.307061910629272461e-01,7.277036537968993457e+01,0.000000000000000000e+00
8.267510000000000137e-01,-4.392069844256791394e-03,3.653076651860409510e-04,9.394636750221252441e-01,3.342065218354569201e-03,-4.871060979084962383e-03,-6.871220869520494601e-03,-2.760787380361394774e-02,-3.775245023065415539e-02,-1.382439732551574707e-01,-2.211443727928399383e-01,2.179978612507986746e-01,1.794223584055797682e-01,1.498295323708010163e-01,1.688224572712887783e-01,-2.440070141455161767e-01,1.954384088516235296e-01,2.199946939945220947e-01,-2.247640371322631725e-01,5.318663651764043987e-01,1.125812530517578125e-01,3.404456377029418945e-01,-5.878232237461141096e+01,0.000000000000000000e+00
8.507719999999999727e-01,-4.776926252873511108e-03,-1.610915027832741681e-04,9.370886087417602539e-01,-2.161239208975552269e-03,-1.025275636175049243e-03,-4.142728530784603805e-03,-2.885777976030700145e-02,-5.154373424974106888e-02,-1.250712424516677856e-01,-2.639735510629384052e-01,1.546169779561087088e-01,1.173361520526702284e-01,2.001807884239144020e-01,1.843180444435011944e-01,-2.378813658954073429e-01,2.227666139602661188e-01,2.128943145275115911e-01,-2.262336730957031083e-01,5.219004150336026271e-01,-3.975219726562500000e-01,-3.323529958724975586e-01,1.032846179873154142e+02,0.000000000000000000e+00
8.756049999999999667e-01,-5.622058094004478770e-03,-1.012138494784749513e-03,9.336868524551391602e-01,-9.526090559167007046e-03,1.002192935658507977e-03,-1.572695425114467105e-04,-2.646042404246829252e-02,-3.867726887421391035e-02,-1.156632304191589355e-01,-2.149211442572958874e-01,1.718122934774242438e-02,1.172571230867271164e-01,2.640585379759394780e-01,2.081728446763862761e-01,-2.258746169648476465e-01,2.275827884674072044e-01,2.223150551319122148e-01,-2.253933191299438421e-01,5.161763374198944376e-01,-6.910887956619262695e-01,-1.792982816696166992e-01,6.331611998339582925e+01,0.000000000000000000e+00
9.003640000000000532e-01,-6.513417667037091872e-03,-1.615919420397486520e-03,9.316536784172058105e-01,-1.313078231801681484e-02,9.456293179388453041e-06,2.924393319367931364e-03,-3.724831934338122125e-02,-4.782883631298569249e-02,-1.127152368426322937e-01,-1.588739600872327851e-01,-1.027499507739378509e-01,1.964736237455234624e-01,2.772540907373652885e-01,1.906283486489841750e-01,1.275247327951735121e-01,2.266216278076171875e-01,2.206470966339111328e-01,1.194557726383209117e-01,5.160213097650896419e-01,-7.050699591636657715e-01,-2.702182531356811523e-01,8.800236341754619218e+01,0.000000000000000000e+00
9.226950000000000429e-01,-7.825255853652629198e-03,-2.517793414392815142e-03,9.288913011550903320e-01,-1.573023198343875481e-02,-2.561206057045684048e-03,7.890795656225994478e-03,-2.919355064087860926e-02,-2.704342158135742552e-02,-1.089319139719009399e-01,-7.743587981559532651e-02,-2.548029358524548163e-02,2.055644966179376865e-01,3.112406404570438045e-01,1.821558297676499072e-01,2.268736938287922167e-01,2.270802140235900768e-01,2.222518622875213623e-01,2.049393117427825983e-01,5.163808755858273480e-01,-6.904793381690979004e-01,3.317269086837768555e-01,1.105333679798557256e+02,0.000000000000000000e+00
9.505160000000000275e-01,-9.097460398459964598e-03,-3.288568245958042955e-03,9.263928532600402832e-01,-1.575066218539090609e-02,-5.404930886211190000e-03,1.298423874866392290e-02,-4.061140358157575014e-02,-3.537602097853930622e-02,-8.834096044301986694e-02,-6.675659818930461224e-03,-8.148670230562009287e-02,1.763177315239001508e-01,-5.258719273841429287e-02,-1.013372456905817232e-01,-1.287809705492990175e-01,-1.270247519016265703e-01,-3.154488801956176897e-02,-1.648354768753051702e-01,5.147128793023193483e-01,-7.167356014251708984e-01,8.319747447967529297e-02,3.931931584406655134e+01,0.000000000000000000e+00
9.724500000000000366e-01,-9.876634405575943076e-03,-4.202750472127993707e-03,9.249439835548400879e-01,-1.381830479487291055e-02,-7.873908468375656611e-03,1.644279298786271645e-02,-2.096972277300803225e-02,-1.858774343759698675e-02,-8.038154989480972290e-02,1.310111131772794812e-01,-1.265688324408179855e-01,2.014249982860653321e-01,2.271715552617299960e-01,-4.033805766356628880e-02,-7.866467161182716383e-02,1.520469188690185547e-01,2.931336164474487166e-02,-1.244631886482238659e-01,5.145186232141734095e-01,-7.088759541511535645e-01,7.039691209793090820e-01,8.440130327200787974e+01,0.000000000000000000e+00
1.002779000000000087e+00,-1.096679942260053546e-02,-6.036884164809679966e-03,9.231340289115905762e-01,-8.922438179734688488e-03,-1.246141769424902179e-02,2.125787869085515522e-02,-3.881966346394633005e-02,-2.585126310637769070e-02,-6.456677615642547607e-02,2.291174868915608343e-01,-1.716596049634118992e-01,1.540126524435289079e-01,2.218890713485544841e-01,-6.469712257385254461e-02,9.167060067202945084e-02,1.876430511474609375e-01,3.530287742614746094e-02,3.246638774871826033e-02,5.142863139594313626e-01,-6.733368635177612305e-01,-5.330622196197509766e-02,2.036667129358880501e+01,0.000000000000000000e+00
1.028200000000000003e+00,-1.173798880811088331e-02,-7.258656838741848159e-03,9.220961332321166992e-01,-4.259659093187527848e-03,-1.610794760885259080e-02,2.399528859541687209e-02,-2.382698112458030842e-02,-3.295449441500461485e-02,-5.620501562952995300e-02,2.589464026286466547e-01,-1.487852196058995213e-01,1.142058872311505491e-01,8.911484436258904074e-02,-5.803701877593994696e-02,2.121161898595129713e-01,9.088894128799437921e-02,4.196298122406005859e-02,1.451709151268005260e-01,5.147924902429891203e-01,-6.239221096038818359e-01,-7.938683032989501953e-02,1.376504142679110885e+02,0.000000000000000000e+00
1.048138000000000014e+00,-1.208554417099436985e-02,-7.873731368083045079e-03,9.215653538703918457e-01,-1.485392908342411146e-03,-1.820464436143276465e-02,2.468651882760459354e-02,-3.187270824297796373e-02,-3.916043111176167185e-02,-5.186014249920845032e-02,3.359495751345594194e-01,-2.476255060036585132e-01,4.417174527962800662e-02,1.199528421233240078e-01,-1.627565741539001576e-01,2.574192392864790291e-01,1.440078020095825195e-01,-6.275657415390013816e-02,1.885131418704986406e-01,5.174547826458386623e-01,-4.727368354797363281e-01,9.573101997375488281e-03,6.808644704313779528e+01,0.000000000000000000e+00
1.078362000000000043e+00,-1.331507933662624300e-02,-1.028251703733704982e-02,9.198781847953796387e-01,9.053057466268442030e-03,-2.602727798365500611e-02,2.408921784669510596e-02,-2.944035476747313904e-02,-3.046405250434839479e-02,-5.379037186503410339e-02,2.834962187503344833e-01,-2.004724616154811012e-01,5.187073572689646084e-03,-4.172990186470724311e-02,-2.919083356857299916e-01,2.709179216961400405e-01,4.506804943084716936e-02,-1.919083356857299860e-01,2.032681703567504883e-01,5.222917007980802939e-01,-2.327218055725097656e-01,-3.752839565277099609e-02,7.597920874232943333e+01,0.000000000000000000e+00
1.102765999999999913e+00,-1.375739258387134560e-02,-1.136046023587086208e-02,9.188862442970275879e-01,1.333161155626489194e-02,-2.893369915896970568e-02,2.479060158895716320e-02,-3.730772607859532408e-02,-2.982081987713936649e-02,-6.766448915004730225e-02,1.663194066702939899e-01,-1.262068884787508338e-01,5.465462892667868888e-02,-1.266940236091613770e-01,-3.065497636795043723e-01,2.471505717489656528e-01,-2.669402360916137487e-02,-2.065497636795043945e-01,1.773165464401245117e-01,5.240101568870534354e-01,-2.058515548706054688e-01,1.193422079086303711e-01,8.716470901773583080e+01,0.000000000000000000e+00
1.123256000000000032e+00,-1.422274387083802619e-02,-1.237641976680441125e-02,9.178516268730163574e-01,1.662401166404657224e-02,-3.029269519363619878e-02,2.598560726166244950e-02,-4.332894175796744851e-02,-2.826049376726728207e-02,-5.978065729141235352e-02,1.892256744900424614e-01,-8.022767866572513840e-02,5.536387141641489762e-02,-2.769229054450988992e-01,-3.187757015228271373e-01,3.756679776212679123e-02,-1.769229054450988659e-01,-2.187757015228271318e-01,-3.580659627914428711e-02,5.193983995993219915e-01,-4.353813529014587402e-01,4.653202295303344727e-01,1.220481994864726261e+02,0.000000000000000000e+00
1.148311000000000082e+00,-1.496988246643618514e-02,-1.395943150986119798e-02,9.163209199905395508e-01,2.160959870306507213e-02,-3.042053967485580657e-02,2.660286568970791909e-02,-3.444368820248409901e-02,-3.464933755849967240e-02,-6.773651391267776489e-02,1.605629372413248657e-01,1.222755264922638710e-02,-2.935768754542630171e-02,-3.177959263324737771e-01,-3.062322616577148326e-01,1.002284556826455869e-01,-2.177959263324737438e-01,-2.062322616577148271e-01,2.494542002677917550e-02,5.193376088993317818e-01,-4.836759567260742188e-01,7.521048784255981445e-01,1.069537204773653940e+02,0.000000000000000000e+00
1.177594999999999947e+00,-1.546947675142262141e-02,-1.511996765851467486e-02,9.153993129730224609e-01,2.550192429228228738e-02,-2.982346906055033386e-02,2.601577603209023412e-02,-4.436402854485221176e-02,-3.835746703553677417e-02,-7.788655906915664673e-02,1.852400022138117053e-01,4.271158838752867754e-02,-2.753628809764053012e-02,-3.176963269710540994e-01,-2.918012619018554576e-01,2.464473769966176175e-01,-2.176963269710540660e-01,-1.918012619018554521e-01,1.726134717464447021e-01,5.197076943586097508e-01,-5.157766342163085938e-01,-4.991137981414794922e-02,8.519551083850780060e+01,0.000000000000000000e+00
1.201357999999999926e+00,-1.589617659976333419e-02,-1.684057501363423262e-02,9.139369726181030273e-01,3.110622002869042890e-02,-2.727005135054882956e-02,2.316589041616147135e-02,-3.828021462937618302e-02,-4.503069163247964968e-02,-7.065504044294357300e-02,2.075808085189458363e-01,1.147217386989041882e-01,-1.389074510316584132e-01,-3.208203136920929066e-01,-2.367925882339477484e-01,2.797158500628790234e-01,-2.208203136920929011e-01,-1.367925882339477428e-01,2.137401044368743841e-01,5.166276238474186711e-01,-6.665419340133666992e-01,2.306443452835083008e-01,1.351069747644034180e+02,0.000000000000000000e+00
1.226293000000000077e+00,-1.607578311674863480e-02,-1.808167256201812997e-02,9.129529595375061035e-01,3.353631986150807515e-02,-2.433330734616334645e-02,2.104828368231246097e-02,-2.823829445400671823e-02,-4.273830796268586474e-02,-9.175366163253784180e-02,1.083744857813773582e-01,1.882713270228041913e-01,-6.611747675653427414e-02,-3.093266367912292369e-01,1.118202686309814342e-01,2.804611457904621075e-01,-2.093266367912292314e-01,2.118202686309814398e-01,2.204399943351745550e-01,5.181943670134154800e-01,-6.783832311630249023e-01,7.753881216049194336e-01,-6.807460434889064160e+00,0.000000000000000000e+00
1.247403999999999957e+00,-1.624671678192629240e-02,-1.926352508321052190e-02,9.118561744689941406e-01,3.489009167762335134e-02,-1.981597620066199994e-02,1.857187075350973451e-02,-3.963995011221641690e-02,-5.619291630446279079e-02,-8.840076625347137451e-02,1.864087121733103147e-02,2.185637915683414367e-01,-1.284268764852616873e-01,-2.986404120922088734e-01,1.190856218338012529e-01,2.730523899196760640e-01,-1.986404120922088679e-01,2.190856218338012584e-01,2.200888752937316950e-01,5.205197495097264593e-01,-5.533683896064758301e-01,3.004852533340454102e-01,1.046411755187499892e+02,0.000000000000000000e+00
1.275557000000000052e+00,-1.660684722984834619e-02,-2.168502134812005239e-02,9.094362854957580566e-01,3.241836742155353168e-02,-7.462843514062234007e-03,1.561136234338754772e-02,-2.530033539140469009e-02,-4.787222946538344237e-02,-9.584101289510726929e-02,-1.668811009368685039e-01,3.753025449001211600e-01,-6.097867591393779652e-02,-3.084423840045928955e-01,1.477725218370073978e-01,-1.756241075365089777e-01,-2.084423840045928900e-01,2.233195245265960638e-01,-2.197443723678588756e-01,5.269842722116380163e-01,-2.506121397018432617e-01,-4.224091768264770508e-01,5.514397281129941319e+01,0.000000000000000000e+00
1.300616999999999912e+00,-1.665068009447808958e-02,-2.232103968995311979e-02,9.087383747100830078e-01,3.061961908840795873e-02,-4.234968150738760428e-03,1.530484110214203747e-02,-1.928086354666048649e-02,-5.147044071914676916e-02,-9.018720686435699463e-02,-1.441053622784014832e-01,2.676950911914909303e-01,-3.539035141479063284e-02,-3.077945768833160178e-01,1.702186163661126295e-01,-1.819984487364750825e-01,-2.077945768833160400e-01,2.224528849124908503e-01,-2.251056432723999023e-01,5.296614973526231340e-01,-9.395426511764526367e-02,-2.866286039352416992e-01,4.146215792256382571e+01,0.000000000000000000e+00
1.324581000000000008e+00,-1.662982655266898382e-02,-2.494086893813225736e-02,9.060614109039306641e-01,2.020903644673410424e-02,9.780581445860914158e-03,1.159776839396257052e-02,-2.075140699955163939e-02,-5.171590975887007530e-02,-9.311959147453308105e-02,-2.678316898621311282e-01,3.153927318477408592e-01,-1.347185885320389964e-01,-2.975524187088012806e-01,2.596325465724086956e-01,-1.941729414215240812e-01,-1.975524187088012751e-01,2.229822635650634821e-01,-2.265489578247070201e-01,5.341948981011133135e-01,1.234000921249389648e-01,3.268226385116577148e-01,9.322426843426354992e+01,0.000000000000000000e+00
1.347288000000000041e+00,-1.652653530864988882e-02,-2.625617137757018868e-02,9.047195911407470703e-01,1.394288029985754455e-02,1.630373501386928048e-02,8.810144856480723805e-03,-1.405437050632179531e-02,-5.817246461014750902e-02,-1.040322035551071167e-01,-3.059028552437390580e-01,3.112329863754642045e-01,-1.309889831124683435e-01,-3.069698870182037131e-01,3.081658924171449820e-01,-2.023574940278223266e-01,-2.069698870182037354e-01,2.238767445087432861e-01,-2.269335865974426159e-01,5.334429744715730726e-01,2.354145050048828125e-02,3.364762067794799805e-01,-5.130641395065482158e+01,0.000000000000000000e+00
1.373973000000000111e+00,-1.627348649423095844e-02,-2.833230395705834542e-02,9.028044342994689941e-01,5.102673082081479912e-03,2.287801036119785358e-02,3.913838830241289993e-03,-1.599970371137597255e-02,-4.959910968379773605e-02,-9.215943515300750732e-02,-2.395134135707239487e-01,1.176255566226311472e-01,-1.384213652841007891e-01,6.829324969129328682e-02,3.252042591571807639e-01,-2.145764813323323139e-01,1.535581111907959040e-01,2.252042591571807861e-01,-2.256134033203124889e-01,5.210782995727496480e-01,-6.207484602928161621e-01,3.887735605239868164e-01,1.113684952096731848e+02,0.000000000000000000e+00
1.401817000000000091e+00,-1.691443103327810310e-02,-3.001138839681653792e-02,9.010831713676452637e-01,-3.970874085848796059e-03,2.446427885331337038e-02,-6.466505363972611595e-04,-1.971702777643791205e-02,-5.569471525859966132e-02,-7.886271923780441284e-02,-2.619606491866954823e-01,-7.112899008173825810e-02,-1.137225182711944782e-01,1.937068730641004488e-01,3.208654284477233665e-01,-2.272567249942544221e-01,2.274498224258422741e-01,2.208654284477233887e-01,-2.258196830749511497e-01,5.184519894956149955e-01,-7.257602810859680176e-01,-5.110967159271240234e-02,9.420425031599864951e+01,0.000000000000000000e+00
1.425022000000000011e+00,-1.736542239733940632e-02,-3.101896503001367461e-02,9.001856446266174316e-01,-1.047678235746629313e-02,2.358120098602145553e-02,-1.041788746036737250e-03,-7.617433351319676318e-03,-4.330610512527090922e-02,-8.796638995409011841e-02,-3.750985287806612445e-01,-2.501671874150797684e-02,1.797660500675641107e-03,2.456841578312970453e-01,3.209986448287963645e-01,-2.277562007589735982e-01,2.276041030883788896e-01,2.209986448287963867e-01,-2.253705382347106767e-01,5.197581203873401501e-01,-7.039626240730285645e-01,-3.603831529617309570e-01,9.490383927192637259e+01,0.000000000000000000e+00
1.451224999999999987e+00,-1.776986623394711043e-02,-3.190824338965305568e-02,8.993149995803833008e-01,-1.711834366286215173e-02,2.086880507906729854e-02,-4.472276334745589068e-04,-7.960601742749357987e-03,-4.213075854736074433e-02,-6.945281475782394409e-02,-3.115332505627434467e-01,-2.095316778771919575e-01,7.107582054261002424e-02,2.866569540857268894e-01,3.207843720912933461e-01,-2.210157900249392349e-01,2.271481275558471513e-01,2.207843720912933405e-01,-2.203890323638915960e-01,5.181328851484192644e-01,-7.303766608238220215e-01,4.797995090484619141e-02,1.027592483740945006e+01,0.000000000000000000e+00
1.474358000000000057e+00,-1.828706115113590269e-02,-3.299436755958898293e-02,8.984138965606689453e-01,-2.746671768112631667e-02,1.534503896052652472e-02,1.356595932358986394e-03,-1.555074321795337292e-02,-2.814573456969947374e-02,-5.915679782629013062e-02,-3.249935950968420029e-01,-2.146594424966883075e-01,1.190375382068979276e-01,3.261206626892089733e-01,2.897297313580234901e-01,-2.170680909652397961e-01,2.261206626892089677e-01,2.161510884761810303e-01,-2.214046239852905107e-01,5.175395905698989552e-01,-7.330706715583801270e-01,4.171239137649536133e-01,8.626596540598887941e+01,0.000000000000000000e+00
1.496984000000000092e+00,-1.906213558165330973e-02,-3.410974560297389685e-02,8.980631828308105469e-01,-3.399506522405685432e-02,1.000473520020772611e-02,2.742763454018358991e-03,-5.845789341500337230e-03,-1.211817199731888423e-02,-4.896250739693641663e-02,-3.167488119333895513e-01,-2.801765481917931067e-01,5.068719626051108873e-02,3.258867025375365989e-01,2.545484114538374421e-01,-2.189451376461116483e-01,2.258867025375366211e-01,2.079006314277648815e-01,-2.270171284675598089e-01,5.169560775807700015e-01,-7.328501343727111816e-01,1.190971136093139648e-01,6.963290432406623154e+01,0.000000000000000000e+00
1.526626999999999956e+00,-2.012734425050324849e-02,-3.551568418847386721e-02,8.979499340057373047e-01,-4.153831071370141237e-02,5.998383474214996625e-05,5.277529572180804027e-03,-5.377947872791424312e-03,-1.729345229789203825e-02,-1.606226153671741486e-02,-1.674446814359765168e-01,-3.878434091565942654e-01,6.351452708583016360e-02,3.207490205764770286e-01,1.845706888214529995e-01,-2.094035969591104551e-01,2.207490205764770508e-01,2.046799778938293290e-01,-2.239746093749999944e-01,5.152285960694491518e-01,-7.020300030708312988e-01,1.505233049392700195e-01,8.136504512931627175e+01,0.000000000000000000e+00
1.555031000000000052e+00,-2.085476755434260976e-02,-3.635098400517700751e-02,8.982229828834533691e-01,-4.348096412538898781e-02,-7.726534454835842780e-03,7.173836525980499014e-03,-3.193223913856751799e-03,-9.436123732761174041e-03,-1.432753819972276688e-02,-4.884516736784251523e-02,-3.542178045318952750e-01,8.980634265279471840e-02,3.174018383026123158e-01,9.302715656486920670e-02,-1.977072820543571974e-01,2.174018383026123102e-01,1.628055453300475963e-01,-2.170622706413269098e-01,5.150655393616901945e-01,-7.085283994674682617e-01,4.389439821243286133e-01,1.271380018144527639e+02,0.000000000000000000e+00
1.577685000000000004e+00,-2.155104390062038272e-02,-3.707547349735276776e-02,8.986727595329284668e-01,-4.305281443018967036e-02,-1.566090069913572691e-02,9.240993781494299258e-03,-1.466865017819766158e-02,-1.729944918076021382e-02,-8.520629256963729858e-03,3.321613064379658892e-02,-4.063566102286004789e-01,1.308904801393307171e-01,3.178600311279297097e-01,-6.284185647964478372e-02,-1.874875463869846715e-01,2.178600311279296764e-01,3.715814352035522183e-02,-2.119635343551635742e-01,5.146525125351526508e-01,-7.116483449935913086e-01,1.617270708084106445e-01,1.140745615173188696e+02,0.000000000000000000e+00
1.600144999999999929e+00,-2.228686650860789084e-02,-3.767498366454843928e-02,8.993670940399169922e-01,-4.006812848996160747e-02,-2.342639826709369544e-02,1.125366830173860078e-02,-5.433810445911489012e-03,9.943239708763221274e-03,5.138912238180637360e-03,2.166590753014934201e-01,-3.796568964733192941e-01,8.301441826685083958e-02,3.181984186172485130e-01,-4.154651165008545893e-02,-6.930244867221763139e-02,2.181984186172485352e-01,5.845348834991454662e-02,-9.919631481170654297e-02,5.139403742161813282e-01,-6.974344253540039062e-01,-3.555357456207275391e-02,9.572913102933901541e+01,0.000000000000000000e+00
1.624527000000000054e+00,-2.261104460197845001e-02,-3.853619334198227914e-02,9.001789689064025879e-01,-3.609236154890133053e-02,-3.082690740362847848e-02,1.322341058062383688e-02,-2.140072316102436742e-02,-1.055537934244222924e-02,1.778656616806983948e-02,2.024127156180385023e-01,-3.569055963948340460e-01,1.020036842820218892e-01,3.157655477523803600e-01,-1.024314761161804199e-01,-1.277371838063647291e-01,2.157655477523803544e-01,-2.431476116180420009e-03,-1.626075983047485241e-01,5.133584020482340193e-01,-6.799098849296569824e-01,-1.304172277450561523e-01,1.141330279366141838e+02,0.000000000000000000e+00
1.665141999999999900e+00,-2.353029007541546092e-02,-3.982609722898412807e-02,9.020894765853881836e-01,-2.504574308099156640e-02,-4.408227366200123676e-02,1.756495115377003716e-02,-2.974317676425796558e-02,6.582838120915034640e-03,2.994270063936710358e-02,3.255299175814539425e-01,-3.467462120065871178e-01,1.256306315460383738e-01,2.955713748931884655e-01,-2.659181952476501465e-01,1.483367520210120138e-01,1.955713748931884599e-01,-1.659181952476501409e-01,1.012048959732055609e-01,5.142602428713429763e-01,-5.794026851654052734e-01,-1.735550165176391602e-01,7.198297434198168787e+01,0.000000000000000000e+00
1.686037000000000008e+00,-2.451309961068238660e-02,-4.046518529994521524e-02,9.036038517951965332e-01,-1.612452655724365413e-02,-5.261009623475887409e-02,2.079594491060122660e-02,-3.655202682696898769e-02,2.471588677991721703e-02,1.871778257191181183e-02,3.376507968805519400e-01,-2.792445849264818536e-01,1.163949851769574273e-01,2.555003229414057886e-01,-3.046470403671264759e-01,2.558670510911236207e-01,1.659663677215576227e-01,-2.046470403671264704e-01,1.991818785667419378e-01,5.150754501357635018e-01,-5.780058503150939941e-01,-4.363871812820434570e-01,6.958853541521783370e+01,0.000000000000000000e+00
1.702156999999999920e+00,-2.514478924497842022e-02,-4.078938260252359255e-02,9.045582413673400879e-01,-1.049888637558967462e-02,-5.704725087548734308e-02,2.287878228469486866e-02,-4.213104644527397580e-02,1.416221470699427672e-02,1.464330963790416718e-02,2.473888477620669601e-01,-2.007456905170594830e-01,1.210723356166219511e-01,1.177659992357027174e-01,-3.130898118019104226e-01,2.710233703473385880e-01,7.592078447341918390e-02,-2.130898118019103893e-01,2.082842409610748124e-01,5.154050129005603997e-01,-5.768921375274658203e-01,-1.072198152542114258e-01,8.307262657276530149e+01,0.000000000000000000e+00
1.722620000000000040e+00,-2.607316496726263394e-02,-4.125530650367398300e-02,9.059790968894958496e-01,-1.557544805353576478e-03,-6.162668233469958956e-02,2.577447933649969214e-02,-5.914290334940813798e-02,1.835129461407502063e-02,9.491791017353534698e-03,2.611531987728858417e-01,-8.132318192959589465e-02,1.373423280997347062e-01,-2.265427889333056222e-01,-3.259600162506103294e-01,1.206045870055104940e-01,-2.147125303745269775e-01,-2.259600162506103516e-01,4.893704652786255022e-02,5.145235488004578084e-01,-6.433216333389282227e-01,-3.523510694503784180e-01,8.726935434600960662e+01,0.000000000000000000e+00
1.748167000000000026e+00,-2.726256515415452844e-02,-4.163251878764665653e-02,9.072638154029846191e-01,7.779183515543363486e-03,-6.307492202072229048e-02,2.760597440164035826e-02,-5.664091482548504891e-02,2.963487134150467883e-02,4.609279334545135498e-03,3.444244133112810968e-01,1.773018023036090560e-02,1.047583524098682217e-01,-2.864586076513214175e-01,-3.255425930023193581e-01,-9.764734110278106005e-02,-2.217054963111877441e-01,-2.255425930023193248e-01,-1.754962205886840820e-01,5.142583603253670921e-01,-6.759797334671020508e-01,-2.624523639678955078e-02,8.089700641644114398e+01,0.000000000000000000e+00
1.773970999999999965e+00,-2.876314177829463609e-02,-4.201727782716937337e-02,9.083712697029113770e-01,1.791342900531721349e-02,-6.153881127638838322e-02,2.888234698548280618e-02,-6.816355301123293298e-02,2.033721976745888824e-02,5.495716352015733719e-03,3.478672965301706776e-01,1.067033806253122469e-01,3.502672470552511269e-02,-3.222308337688445934e-01,-3.237446188926696999e-01,-8.957394005911725743e-02,-2.222308337688445878e-01,-2.237446188926696666e-01,-1.718792438507079912e-01,5.141870658720152365e-01,-6.765833497047424316e-01,2.073289155960083008e-01,1.019968609513903885e+02,0.000000000000000000e+00
1.795012000000000052e+00,-2.954874168654845340e-02,-4.198659400853313461e-02,9.090400934219360352e-01,2.479388282374737559e-02,-5.904228298894920179e-02,2.837799291947371363e-02,-7.525644731305608515e-02,7.307532692172736925e-03,7.938947528600692749e-03,3.422875493167218397e-01,1.484752381614252437e-01,-4.665858853331542044e-02,-3.216720402240753063e-01,-3.232894659042358509e-01,-8.803359857151851764e-02,-2.216720402240753007e-01,-2.232894659042358454e-01,-1.694356441497802679e-01,5.137082550147327176e-01,-6.942874789237976074e-01,3.819334506988525391e-02,9.357424049714583703e+01,0.000000000000000000e+00
1.824537000000000075e+00,-3.134487016873592491e-02,-4.205257963843919700e-02,9.098780155181884766e-01,3.638377139407713429e-02,-4.972209830453033774e-02,2.440489334258584900e-02,-7.016621473383122254e-02,1.501457273030992745e-02,-1.914714276790618896e-02,2.291268207013362479e-01,2.966727112377170461e-01,-9.562253943563503444e-02,-3.161453664302825706e-01,-3.029116153717040794e-01,2.314119856744486226e-01,-2.161453664302825928e-01,-2.029116153717041016e-01,1.603267014026641679e-01,5.155971580780640551e-01,-7.021353840827941895e-01,-3.552424907684326172e-02,9.065353549483249651e+01,0.000000000000000000e+00
1.845963999999999938e+00,-3.238200936287388698e-02,-4.206537942470095492e-02,9.099733829498291016e-01,3.938257381233833260e-02,-4.325901181159297337e-02,2.271910488907791584e-02,-9.174377807922758088e-02,-3.559036311676382850e-03,-1.610057428479194641e-02,1.218895277015633188e-01,2.923425190210168223e-01,-4.672419364722945473e-02,-3.170061767101287620e-01,-1.768218278884887695e-01,2.155187366700666018e-01,-2.170061767101287842e-01,-7.682182788848876398e-02,1.492657542228698619e-01,5.159036090450339618e-01,-6.794470548629760742e-01,2.964490652084350586e-01,6.401985486414974957e+01,0.000000000000000000e+00
1.871135999999999910e+00,-3.419499268299353717e-02,-4.212810127098658153e-02,9.099422097206115723e-01,3.876611120956326151e-02,-3.156838096992919951e-02,2.227376676979519327e-02,-8.771359286993303528e-02,1.380414776187075324e-02,-2.908981963992118835e-02,-1.079517308194951897e-01,4.588456243802908618e-01,-1.450007349148888305e-02,-2.966096580028533825e-01,7.498795986175535444e-02,2.524882261794356708e-01,-1.966096580028533769e-01,1.749879598617553600e-01,1.879472672939300482e-01,5.179597515750552494e-01,-6.260269284248352051e-01,4.593631029129028320e-01,6.332257451216149491e+01,0.000000000000000000e+00
1.896241999999999983e+00,-3.621241405989247819e-02,-4.232178731787202691e-02,9.095554947853088379e-01,3.355080966937332848e-02,-1.921969632357467539e-02,2.307441248884162938e-02,-9.998783388573215247e-02,1.154627069947914949e-03,-4.625872522592544556e-02,-2.469404269133425034e-01,4.020974838421519926e-01,-3.201127047976655860e-03,6.570336818695066139e-02,3.580188751220703125e-02,2.750849407157408555e-01,1.657033681869506669e-01,1.358018875122070368e-01,2.091550111770629772e-01,5.205554795582181260e-01,-5.629312992095947266e-01,2.990783452987670898e-01,9.805057572444295033e+01,0.000000000000000000e+00
1.920848000000000111e+00,-3.834350084922665686e-02,-4.264228282480030802e-02,9.090944528579711914e-01,2.581121747240498754e-02,-7.392357543820615717e-03,2.336647070476348051e-02,-8.507307406641491376e-02,1.117123517766491957e-04,-5.178754776716232300e-02,-3.679046301839128952e-01,4.105009790909018297e-01,-2.023465527782888906e-03,6.361160278320310280e-02,-7.594525218009949563e-02,-6.813209870058692386e-02,1.636116027832031083e-01,2.405474781990051339e-02,-1.341318011283874345e-01,5.236281001361707821e-01,-4.269894957542419434e-01,1.303302049636840820e-01,6.385681824866155409e+01,0.000000000000000000e+00
1.946655000000000024e+00,-4.041189158430009976e-02,-4.306083004439930501e-02,9.083642363548278809e-01,1.675708086080747450e-02,2.526568689213748442e-03,2.080249999078350592e-02,-1.034204952211573159e-01,-1.033798708728032520e-02,-4.508326202630996704e-02,-2.711331743364299718e-01,2.406946375250901271e-01,-8.836233749789487724e-02,1.086962461471557562e-01,1.142348274989973267e-01,-1.630818854055593736e-01,2.086962461471557617e-01,1.984706461429595892e-01,-2.215101242065429521e-01,5.230868874411405134e-01,-4.404330253601074219e-01,3.800493478775024414e-01,7.937539736371321908e+01,0.000000000000000000e+00
1.972012000000000098e+00,-4.286114169138191543e-02,-4.328064273960263025e-02,9.073952436447143555e-01,7.039618205221622772e-03,9.256663836260781153e-03,1.701667062013830639e-02,-8.254925237901382384e-02,7.360787099866443819e-04,-4.994645714759826660e-02,-3.059136647960651878e-01,1.541149362135091072e-01,-1.599019409942910031e-01,1.479515983373567156e-01,1.847406734257654171e-01,-1.720474098975273425e-01,2.253420710563659446e-01,2.085848093032836859e-01,-2.197010278701782282e-01,5.193677641015904678e-01,-6.707638502120971680e-01,4.118531942367553711e-01,8.862357595274802691e+01,0.000000000000000000e+00
1.999778999999999973e+00,-4.554459214447987431e-02,-4.347057474800756355e-02,9.065574407577514648e-01,3.580397228176515227e-05,1.026037520910594303e-02,1.289447108950531745e-02,-1.011343806227962688e-01,-1.183992921336183592e-02,-3.135931119322776794e-02,-1.442545439655571193e-01,-4.757909778743961426e-02,-1.228737571228958325e-01,1.781160149270645532e-01,1.757352405358338365e-01,-1.628083107209875036e-01,2.216470599174499567e-01,2.127133905887603760e-01,-1.988558650016784557e-01,5.175094998351604803e-01,-7.079046368598937988e-01,1.123434305191040039e-01,8.667984071874579399e+01,0.000000000000000000e+00
2.020432000000000006e+00,-4.738906569969232596e-02,-4.366828668560816806e-02,9.060838222503662109e-01,-2.178241507014087863e-03,9.719404864366731900e-03,1.185332690531644070e-02,-9.420825455653182579e-02,-1.009829211518500740e-02,-4.874607175588607788e-02,-9.005314233551497960e-02,7.892954208864773336e-04,8.372891488479987723e-03,2.001682787576622990e-01,1.808130959186664000e-01,-1.903297304398212375e-01,2.265204906463622880e-01,2.145792782306671087e-01,-2.234546184539794866e-01,5.190072856578304972e-01,-7.046527266502380371e-01,9.060424566268920898e-01,6.265578412462816971e+01,0.000000000000000000e+00
2.045298999999999978e+00,-5.007672834917319127e-02,-4.397593961549155217e-02,9.056184291839599609e-01,-1.787911279028391422e-03,8.106974131874444822e-03,1.205848670096722718e-02,-8.930355637889444975e-02,-9.864226654764425214e-03,-2.540455013513565063e-02,9.233952993646635243e-02,-7.618198297588428536e-02,5.755507115968967052e-02,1.099749539230064632e-01,1.351353062621034329e-01,1.424281456067410245e-01,1.394906759262084794e-01,1.791169524192809948e-01,1.087445855140685980e-01,5.181434885739520935e-01,-6.667708754539489746e-01,1.313351392745971680e-01,7.669908336009208938e+01,0.000000000000000000e+00
2.070755000000000123e+00,-5.342959083776607776e-02,-4.508994052931817459e-02,9.054564237594604492e-01,1.476693453671290915e-03,5.444204942246955170e-03,1.327312982658072037e-02,-9.724592052876364356e-02,-1.896508307260129020e-02,-1.656878925859928131e-02,1.725775998607935457e-01,-1.121439856719430028e-01,6.292726923562669272e-02,8.325850916593853512e-02,1.065823351242852074e-01,2.049195941692911471e-01,1.417740583419799805e-01,1.773516118526458629e-01,1.678516209125518743e-01,5.189955127343967023e-01,-5.927749276161193848e-01,-1.321126222610473633e-01,6.956315443226206696e+01,0.000000000000000000e+00
2.095981000000000094e+00,-5.674035923615564081e-02,-4.624366802297989049e-02,9.055529236793518066e-01,6.829664241953082617e-03,6.602454785111788738e-04,1.501349222153940989e-02,-8.527087374296579703e-02,-2.049013761957946614e-02,-7.009858731180429459e-03,2.173693736906255891e-01,-2.069943148280948275e-01,9.272996410477180040e-02,7.634877942584090971e-02,-2.150800323287252458e-02,2.335067867122542773e-01,1.705847740173339899e-01,7.267688512802124301e-02,1.914909660816192516e-01,5.198749620555340734e-01,-5.119768977165222168e-01,9.690105915069580078e-02,9.044863664992128349e+01,0.000000000000000000e+00
2.120922000000000196e+00,-5.990202538835710105e-02,-4.741315003022639890e-02,9.057127833366394043e-01,1.252961000101881876e-02,-5.005362648534905645e-03,1.517305921631726014e-02,-8.154896077042944613e-02,-1.550447835513789861e-02,-1.576087437570095062e-02,2.015283856998074108e-01,-1.953648959803542251e-01,-3.818162023653245279e-02,7.136222124099730890e-02,-1.893997073173522838e-01,2.536879905776689981e-01,1.713622212409973145e-01,-8.939970731735229215e-02,2.110575199127197321e-01,5.269056510774814406e-01,-1.701835393905639648e-01,6.009610891342163086e-01,9.802539964716227416e+01,0.000000000000000000e+00
2.146201000000000025e+00,-6.287865124067225364e-02,-4.895170261049162919e-02,9.056723713874816895e-01,1.674610706194235021e-02,-1.070979839084773566e-02,1.234099064402049972e-02,-9.573238941276795977e-02,-2.717830451238012132e-02,-1.157980132848024368e-02,1.065624669486969212e-01,-1.842820677911512217e-01,-1.381638192251603003e-01,-1.199899315834045410e-01,-2.906838893890381081e-01,2.367779982073123790e-01,-1.998993158340453893e-02,-1.906838893890380748e-01,2.019201815128326416e-01,5.200326148999431242e-01,-5.327204465866088867e-01,4.986816644668579102e-01,1.145922557054599906e+02,0.000000000000000000e+00
2.172931999999999864e+00,-6.567170573795406974e-02,-5.065376154387701141e-02,9.053555727005004883e-01,1.912477926632868627e-02,-1.455645799903582116e-02,8.760397978769284000e-03,-6.528460283785332552e-02,-2.260271540645717933e-02,-2.240057662129402161e-02,4.715953461071652197e-02,-7.389340125918443525e-02,-1.274476223150584620e-01,-2.954349577426910178e-01,-3.133788824081421009e-01,2.245311042182483452e-01,-1.954349577426910400e-01,-2.133788824081420954e-01,1.995774507522583008e-01,5.187876308784983292e-01,-6.485356092453002930e-01,-9.836494922637939453e-02,1.001956581049879844e+02,0.000000000000000000e+00
2.202681000000000111e+00,-6.825441876416017684e-02,-5.234572916126249698e-02,9.048196077346801758e-01,2.052955243135383759e-02,-1.479715130673575629e-02,4.115421381156806821e-03,-7.949743665179070939e-02,-2.423178869066626787e-02,-3.253304958343505859e-02,-8.728712290299207865e-03,9.134519872371728300e-02,-1.428439077612085328e-01,-2.763676166534423939e-01,1.130675315856933538e-01,2.060985861814476350e-01,-1.763676166534423884e-01,2.130675315856933594e-01,1.940669953823089544e-01,5.205507182594985016e-01,-6.028036475181579590e-01,2.427700757980346680e-01,7.077420844380785070e+01,0.000000000000000000e+00
2.226341000000000125e+00,-6.987299510515218581e-02,-5.347195810169676211e-02,9.044040441513061523e-01,2.050438887466236870e-02,-1.248915960206686826e-02,8.129666303314222933e-04,-5.427220773753076155e-02,-2.655949928926209028e-02,-2.768378332257270813e-02,-5.477107323622078944e-02,1.993332785216805347e-01,-1.824606167940707735e-01,-6.260013580322271176e-03,1.234488964080810436e-01,2.127649298832209601e-01,9.373998641967773438e-02,2.234488964080810491e-01,2.100822687149047907e-01,5.235713635538463695e-01,-4.272186160087585449e-01,-2.840507030487060547e-02,5.856989666123484284e+01,0.000000000000000000e+00
2.251097000000000126e+00,-7.140279226298133775e-02,-5.430072648695565690e-02,9.038724303245544434e-01,1.871207881427863762e-02,-8.056551264942202195e-03,-2.413627402585374979e-03,-6.792926543669075556e-02,-2.767053431362007446e-02,-3.064452111721038818e-02,-7.340557960323353115e-02,1.981214359452946328e-01,-1.545219454693283201e-01,1.229432821273802878e-02,1.234243273735046165e-01,2.019561808724227581e-01,1.122943282127380343e-01,2.234243273735046220e-01,2.084065496921539140e-01,5.265289545364366663e-01,-2.872615456581115723e-01,8.398473262786865234e-02,9.539932851507577993e+01,0.000000000000000000e+00
2.275844000000000200e+00,-7.288310928448746284e-02,-5.485594682806475136e-02,9.032502770423889160e-01,1.504452210114158237e-02,-2.321979993104461570e-03,-5.942350881206105370e-03,-7.232093224295614575e-02,-2.687901087181690865e-02,-2.680971659719944000e-02,-2.274084608569918731e-01,2.749104706281555455e-01,-1.859136038941350266e-01,1.043572187423705833e-01,1.156111061573028564e-01,-2.182696553216160740e-01,2.043572187423705888e-01,2.156111061573028620e-01,-2.017765045166015625e-01,5.276134540217258806e-01,-2.217509150505065918e-01,6.900918483734130859e-02,9.409388128920041083e+01,0.000000000000000000e+00
2.306493000000000126e+00,-7.441945589702789188e-02,-5.537545689137246541e-02,9.026492834091186523e-01,1.159188044129228282e-02,1.548120286188225947e-03,-9.294895902384334857e-03,-5.800060450849141291e-02,-2.309011046004940879e-02,-3.700380772352218628e-02,-1.419219864624252370e-01,1.381329825642259312e-01,-1.706215544303474052e-01,1.112976312637329046e-01,1.353108122803367563e-01,1.624744981056459314e-01,2.112976312637329102e-01,2.190252006053924616e-01,1.884533822536468561e-01,5.309902370201043942e-01,-8.589780330657958984e-02,-2.767050266265869141e-02,1.150379801903166737e+02,0.000000000000000000e+00
2.329769999999999897e+00,-7.524309611878003679e-02,-5.566424556999885476e-02,9.023522138595581055e-01,9.777131705854882893e-03,2.335609764672286204e-03,-1.104702950098522193e-02,-6.242045901898631705e-02,-3.107990697051066578e-02,-3.300996869802474976e-02,-1.847324094470366995e-01,6.695247003960501375e-02,-1.586461340280963528e-01,1.247714757919311523e-01,1.306910738245256609e-01,-2.067894861992395084e-01,2.247714757919311579e-01,2.154749929904937744e-01,-1.758523821830749456e-01,5.200747610428609891e-01,-6.720238327980041504e-01,-1.507416963577270508e-01,8.946054733364138656e+01,0.000000000000000000e+00
2.350397000000000070e+00,-7.603867024290877907e-02,-5.597323726441130048e-02,9.020993113517761230e-01,8.571146722049482677e-03,2.489064524610729023e-03,-1.268543529437921903e-02,-7.507854099227678768e-02,-2.903958290153137167e-02,-2.041195705533027649e-02,-1.150385907597546858e-01,4.867440300571170171e-03,-1.774063881556993127e-01,1.217596769332885687e-01,1.205209945681974260e-01,-1.245395891627107052e-02,2.217596769332885742e-01,2.144719362258911133e-01,2.308904528617858679e-02,5.190409132322222341e-01,-6.853249669075012207e-01,-3.883928060531616211e-01,1.227371060265384557e+02,0.000000000000000000e+00
2.377677999999999958e+00,-7.769474321621630541e-02,-5.660932699513215871e-02,9.016926884651184082e-01,6.706903346469238886e-03,1.562437077358369564e-03,-1.573344910416155443e-02,-7.783679664143999810e-02,-2.763135048531259463e-02,-2.215752564370632172e-02,-1.018349787687738289e-01,-7.706665159246155195e-02,-8.536587633904541006e-02,1.802699565887450062e-02,9.455644488334655207e-02,-2.164272780788333017e-01,1.180269956588745062e-01,1.945564448833465576e-01,-1.723076462745666559e-01,5.191071130796082178e-01,-6.963675618171691895e-01,-6.800792217254638672e-01,3.350242963365479909e+01,0.000000000000000000e+00
2.397743000000000180e+00,-7.855306160279001970e-02,-5.693409479718201244e-02,9.015285968780517578e-01,6.271033384596036084e-03,3.825514956670161837e-04,-1.668907259856714301e-02,-7.298713487203192796e-02,-3.724070794898074604e-02,-8.646100759506225586e-03,-4.982490530296318498e-02,-1.167313531321981929e-01,-1.050110887226214512e-01,-1.966715335845947155e-01,9.046813249588012140e-02,-2.366633329721339607e-01,-9.667153358459472379e-02,1.904681324958801270e-01,-1.898254394531249944e-01,5.180276937682130045e-01,-7.072091698646545410e-01,-8.758985996246337891e-02,1.509532595256431193e+02,0.000000000000000000e+00
