timestamp,x,y,z,roll,pitch,yaw,vx,vy,vz,p,q,r,psp,qsp,rsp,pres,qres,rres,thrust_sp, thrust_res,wind_mag,wind_angle,wind_obs
0.000000000000000000e+00,1.928428365862818253e-02,-1.985453994152738821e-02,9.897495508193969727e-01,6.817153707829820206e-03,-9.027771473193224594e-03,3.116217328946652479e-04,-1.064546220167723184e-02,2.478506992869316389e-02,-1.965535106137394905e-03,4.614953499112590512e-05,-2.209201426209426999e-02,-3.384662248889357822e-02,7.707278393599154009e-02,4.990626176156590793e-02,-5.451396411445841306e-02,1.138273000717163058e-01,1.050701916217803983e-01,-5.548131465911865234e-02,4.995713719079905024e-01,-7.026031017303466797e-01,1.700013875961303711e-01,8.779342110064634142e+01,0.000000000000000000e+00
2.303499999999999992e-02,1.917242787204850168e-02,-1.952049801962986442e-02,9.899226427078247070e-01,6.980687805922047157e-03,-9.573617545460599842e-03,-3.512399585851341919e-05,-5.573045439211185212e-03,2.537248093110492861e-02,-6.893494282849133015e-04,-4.529086854575166583e-03,5.514146861177298894e-03,-2.372459120758271117e-02,1.754426260668053850e-01,1.608332390129549039e-01,2.096482749194299167e-01,2.161897659301757757e-01,2.139245867729187012e-01,2.096586585044860895e-01,5.005674701291658035e-01,-6.452856063842773438e-01,6.634366512298583984e-02,8.138345931931861799e+01,0.000000000000000000e+00
4.825499999999999928e-02,1.905252185653279889e-02,-1.900103733262932873e-02,9.901953935623168945e-01,7.130925887403308586e-03,-9.723671878554274173e-03,-6.075566980812323412e-04,-1.250402393192579821e-02,2.650461988054895676e-02,-8.997657336294651031e-03,-1.628563772626107423e-02,8.595775794430422431e-03,-3.734504195019010958e-03,1.856665467988988794e-01,1.122316767171352703e-01,-2.076956777420050082e-01,2.262110710144042969e-01,1.726911842823028453e-01,-2.060990095138549860e-01,5.007565038029264670e-01,-6.680492758750915527e-01,2.905310392379760742e-01,8.990667479965911468e+01,0.000000000000000000e+00
7.195799999999999419e-02,1.894680008403156965e-02,-1.868313842268652311e-02,9.904118776321411133e-01,7.815322498832169562e-03,-9.534799248824166185e-03,-1.704371633735274208e-03,-1.021250235439337233e-02,2.236200932398554886e-02,-5.610959487967193127e-05,3.502526285001559408e-02,2.398088580947017531e-02,-1.058709538205161726e-01,2.320005124801143709e-02,1.427420858091978384e-01,2.123096599282082997e-01,7.144689559936523438e-02,1.991549670696258489e-01,2.169821619987487848e-01,5.011573522415611048e-01,-6.113463044166564941e-01,1.152108311653137207e+00,-1.108817349482830572e+01,0.000000000000000000e+00
1.000290000000000068e-01,1.884562202015935967e-02,-1.839162485077673950e-02,9.907953143119812012e-01,9.806436720000743026e-03,-1.151468476315442580e-02,-3.476760464499524528e-03,-1.027800492300622558e-02,1.878027462461554289e-02,5.257042124867439270e-03,6.579622225209152964e-02,-1.147544176969515356e-01,-3.283291963369745076e-02,1.513867711250808934e-01,8.581870997819322777e-02,1.919175399207008748e-01,2.146217823028564453e-01,1.555460929870605413e-01,2.015039920806884766e-01,5.005337780311820417e-01,-6.217185258865356445e-01,4.530249834060668945e-01,8.888880585859796213e+01,0.000000000000000000e+00
1.231399999999999995e-01,1.864340559425788080e-02,-1.826268640929103529e-02,9.910078048706054688e-01,1.223830698467859648e-02,-1.352260784696679430e-02,-3.649994414217609152e-03,-1.771148800747840424e-02,2.173107736353897465e-02,-1.278327545151114464e-03,1.754652941906888752e-01,-1.332009131737307006e-01,-2.293506673861670994e-02,1.164685262930151843e-01,-8.530571637088139869e-02,2.075795576838261047e-01,1.925142288208007701e-01,3.604155778884887522e-03,2.175548315048217718e-01,5.092893861495726426e-01,-1.854974031448364258e-01,2.138849496841430664e-01,9.112251677381308923e+01,0.000000000000000000e+00
1.466490000000000016e-01,1.832775308079247212e-02,-1.807335395197466957e-02,9.911402463912963867e-01,1.498190974435260024e-02,-1.769706321084907330e-02,-6.401734553737944457e-03,-1.172743346140503462e-02,1.796112732775304033e-02,-8.002852089703083038e-03,9.172355906034160289e-02,-1.577232652310656957e-01,-1.168125069621770151e-01,7.802668908229683231e-02,-1.298572778701782282e-01,1.908670354872534225e-01,1.751329421997070146e-01,-2.985727787017822266e-02,2.084345698356628307e-01,5.035835314010330688e-01,-5.139672756195068359e-01,4.342542886734008789e-01,1.037456079449670909e+02,0.000000000000000000e+00
1.735819999999999863e-01,1.803959752692109453e-02,-1.797496691216178902e-02,9.911094903945922852e-01,1.682501488836054410e-02,-2.044880072916099856e-02,-8.826253860636752019e-03,-1.122598822781468823e-02,1.848471861742219738e-02,-1.991953141987323761e-02,8.298657435239388536e-02,-1.098796089411157445e-01,-1.254940404489567618e-01,1.171303987503051480e-02,-2.776566147804260254e-01,1.846149801406096191e-01,1.117130398750305204e-01,-1.776566147804260198e-01,2.088547646999359131e-01,5.051227944399327985e-01,-4.814988970756530762e-01,-1.345950365066528320e-01,1.123001330124629220e+02,0.000000000000000000e+00
1.969660000000000022e-01,1.795885566786982815e-02,-1.751887544491162810e-02,9.908873438835144043e-01,1.883373647451430308e-02,-2.226500033656675370e-02,-1.145541362034421806e-02,-2.959258677646062902e-02,8.976648712426536433e-03,-1.410975679755210876e-02,1.471709465850414289e-01,-7.809976815352596968e-02,-1.297957293694789183e-01,-2.328906893730163519e-01,-2.967805862426757812e-01,1.853043149827077463e-01,-1.328906893730163463e-01,-1.967805862426757757e-01,2.167783498764037919e-01,5.061290767129622559e-01,-4.074958562850952148e-01,3.816052675247192383e-01,1.001762535375559793e+02,0.000000000000000000e+00
2.226539999999999908e-01,1.781353751219131448e-02,-1.694561759011268057e-02,9.904667735099792480e-01,2.148456633099050592e-02,-2.155105621816422179e-02,-1.595717875380504858e-02,-1.352074320704116372e-02,1.296202224088548183e-02,-3.368971124291419983e-02,6.680618918325137434e-02,9.417181679687111617e-02,-1.732918227223175789e-01,-2.334356069564819391e-01,9.336035847663878839e-02,1.756970575238171739e-01,-1.334356069564819336e-01,1.933603584766387939e-01,2.197516500949859564e-01,5.051729657812640273e-01,-5.391067266464233398e-01,5.161293745040893555e-01,9.596238881968412215e+01,0.000000000000000000e+00
2.495209999999999928e-01,1.773032568481578211e-02,-1.636753102054365472e-02,9.897041320800781250e-01,2.226872808351293767e-02,-1.681866345624327685e-02,-1.990488303428284908e-02,-1.235616984861290235e-02,1.044363832872662566e-02,-4.720600694417953491e-02,-2.211897671289892245e-02,1.898414049323242092e-01,-8.292567149088195255e-02,-1.075040876865386991e-01,1.243304312229156494e-01,1.648586545059686770e-01,-7.504087686538696116e-03,2.243304312229156550e-01,2.200908601284027044e-01,5.130211073482543460e-01,-1.818846464157104492e-01,3.030103445053100586e-01,9.291795494055600102e+01,0.000000000000000000e+00
2.731160000000000254e-01,1.770665476675394728e-02,-1.591961249162308217e-02,9.890576004981994629e-01,2.058426958902076845e-02,-1.169599781603247735e-02,-2.309494611152970375e-02,-1.991998441695186708e-02,1.367635640107972388e-02,-5.312576889991760254e-02,-1.012909430853630721e-01,2.857953747268262013e-01,-1.896919823102453384e-01,-1.588607192039489802e-01,1.443478179440321196e-01,1.543933501707851208e-01,-5.886071920394897461e-02,2.239759683609008623e-01,2.187054812908172663e-01,5.177455169167015647e-01,4.209291934967041016e-02,3.513268232345581055e-01,8.781375457380546834e+01,0.000000000000000000e+00
2.976010000000000044e-01,1.747629091503999019e-02,-1.534995080646120447e-02,9.878511428833007812e-01,1.540840681549570171e-02,-6.349432010069655519e-03,-2.697523649170857282e-02,-1.896815409089283588e-02,6.601750746921242717e-03,-5.165078118443489075e-02,-2.041088626037643738e-01,9.550006342665633141e-02,-1.214508172833978911e-01,1.266211986541747880e-01,1.533005785575009550e-01,-2.733567487206824964e-01,2.266211986541747936e-01,1.962654948234558161e-01,-1.979612231254577470e-01,5.043109351843477750e-01,-6.751019358634948730e-01,3.560777902603149414e-01,6.050101653584005845e+01,0.000000000000000000e+00
3.221359999999999779e-01,1.717825583406924414e-02,-1.501042554206878307e-02,9.870508909225463867e-01,1.217948002637665901e-02,-5.749028993480509442e-03,-2.985678853958669693e-02,-1.991841301311869303e-02,1.847807677919150945e-02,-5.764322355389595032e-02,-1.285688527001229431e-01,9.157925163569618707e-03,-1.634980295400723649e-01,1.519334167234895894e-01,1.726809185965233751e-01,-2.261520327391546570e-01,2.264103055000304954e-01,2.129924476146697887e-01,-1.426656961441039873e-01,5.041045043205449883e-01,-7.163336873054504395e-01,1.549788713455200195e-01,9.081672920467161703e+01,0.000000000000000000e+00
3.498760000000000203e-01,1.649033336852234743e-02,-1.454876557109261413e-02,9.860072731971740723e-01,7.768336812824946924e-03,-8.185790530062408976e-03,-3.224903199380063645e-02,-4.126189023048010968e-02,9.706959105124406822e-03,-3.857471048831939697e-02,-8.485308349221361290e-02,-1.295782880564161077e-01,-1.321834213666299440e-02,8.771652349141739746e-02,1.260576280659879700e-01,-2.963187874330894811e-01,1.422594308853149248e-01,1.992279052734375056e-01,-2.061356306076049805e-01,5.028147400107580989e-01,-7.157057523727416992e-01,1.318451166152954102e-01,9.187450694105314142e+01,0.000000000000000000e+00
3.733659999999999757e-01,1.590176332431098363e-02,-1.426512421931749701e-02,9.854958057403564453e-01,6.157643993559130773e-03,-1.066150341852911687e-02,-3.209669439162407545e-02,-3.910375004237932883e-02,1.141100991429035323e-02,-4.686458036303520203e-02,-8.104984170877209404e-02,-1.134545103522716786e-01,-5.069439317738046397e-04,9.737708277823847736e-02,1.144646997365507818e-01,-2.937986022899902183e-01,1.384255528450012152e-01,1.993198335170745794e-01,-2.040388226509094183e-01,5.035896610087554626e-01,-7.127469182014465332e-01,2.517687082290649414e-01,9.174951447924190973e+01,0.000000000000000000e+00
3.970750000000000113e-01,1.505703217595483374e-02,-1.419050501525825382e-02,9.850791096687316895e-01,6.321829618490949591e-03,-1.400870617226512849e-02,-3.074751499145759667e-02,-4.208053751982621105e-02,9.972612400864246801e-03,-3.726183250546455383e-02,3.459058894488732661e-02,-1.479317041433987345e-01,1.359993666335949924e-01,1.553887486216676828e-01,-1.209639668464660700e-01,-3.085773809746847895e-01,1.988051176071166937e-01,-2.096396684646606445e-02,-2.226270318031310924e-01,5.028219551721385683e-01,-7.194738388061523438e-01,1.899870634078979492e-01,8.899317797930493157e+01,0.000000000000000000e+00
4.216969999999999885e-01,1.344534703678447983e-02,-1.430668409855238334e-02,9.846011400222778320e-01,8.242519745645408499e-03,-1.880915387301884678e-02,-2.807312943361509050e-02,-4.871541911332019636e-02,1.105110175812922500e-02,-2.853623963892459869e-02,7.686341742815241962e-02,-1.270359429917752581e-01,1.215644868126677103e-01,1.537899866235676871e-01,-1.563374400138854980e-01,-2.934310221414035968e-01,2.086596965789794811e-01,-5.633744001388549250e-02,-2.150831222534179688e-01,5.024240773943411398e-01,-7.100544571876525879e-01,-2.888759374618530273e-01,1.579698035769704916e+02,0.000000000000000000e+00
4.492990000000000039e-01,1.173279719026662504e-02,-1.437228777567655866e-02,9.841435551643371582e-01,9.979311969703004784e-03,-2.241243940788129052e-02,-2.448094875018029873e-02,-4.938065299463494789e-02,1.136829036373823015e-02,-3.116675838828086853e-02,7.542309800892524341e-02,-7.951911011696967402e-02,1.309699156023276245e-01,2.397522441877711352e-02,-2.028638243675232045e-01,-2.377514783828285350e-01,8.999719619750976007e-02,-1.028638243675231850e-01,-1.695683956146240290e-01,5.029620243403805091e-01,-6.963402628898620605e-01,4.960106611251831055e-01,2.738206104294645371e+01,0.000000000000000000e+00
4.728129999999999833e-01,1.061310484680050639e-02,-1.440266730997193621e-02,9.838171005249023438e-01,1.114786832083982694e-02,-2.330747033472779783e-02,-2.196125052743027814e-02,-5.632282801982693710e-02,9.083906390667764730e-03,-2.356469072401523590e-02,5.210903015478255546e-02,-1.907933139840515060e-02,1.198987176691581197e-01,3.873123147703903812e-02,9.379088878631453019e-04,-5.641037835164915137e-02,1.143632411956786998e-01,1.009379088878631509e-01,4.657816886901855295e-03,5.031535937126825342e-01,-6.595938801765441895e-01,5.412137508392333984e-02,8.774425739900058829e+01,0.000000000000000000e+00
4.970330000000000026e-01,9.608252844610424420e-03,-1.477400661493746305e-02,9.833564162254333496e-01,1.366385586623329942e-02,-2.185043973832589970e-02,-1.830431380754165074e-02,-4.842243390344851822e-02,-1.779165673066544859e-03,-1.791359670460224152e-02,1.018053699366926190e-01,5.893601030864452361e-02,7.240517965079207308e-02,1.217948675155639537e-01,1.121629834175109641e-01,1.674146084552544100e-01,2.217948675155639593e-01,2.121629834175109697e-01,2.182378470897674561e-01,5.020691210480924260e-01,-6.977552771568298340e-01,-1.619994640350341797e-02,1.370932210957998052e+02,0.000000000000000000e+00
5.220789999999999598e-01,9.189054274697875876e-03,-1.512679589261561874e-02,9.830413460731506348e-01,1.492364160555465988e-02,-1.895829758321365688e-02,-1.640713916848861656e-02,-4.533889295233801270e-02,6.360014753531146973e-04,-4.547420889139175415e-02,-5.243339667937854838e-03,1.640808976387380380e-01,8.990701032927150838e-02,1.157499551773071289e-01,1.219721257686614824e-01,1.762382238060410111e-01,2.157499551773071345e-01,2.219721257686614879e-01,2.217444419860839788e-01,5.122989471809599182e-01,-2.696427106857299805e-01,-7.065379619598388672e-02,9.227526829060364832e+01,0.000000000000000000e+00
5.496339999999999559e-01,8.543443280657619932e-03,-1.572073439679181478e-02,9.824580550193786621e-01,1.730050178380386494e-02,-1.528148491806669007e-02,-1.634919259632398869e-02,-5.538355646036457330e-02,-5.420031467059295387e-03,-3.602802008390426636e-02,1.034013082227424468e-01,4.575000731862878534e-02,-9.165087847519489198e-03,1.225787878036498912e-01,1.035917878150939830e-01,1.756057815590328919e-01,2.225787878036498968e-01,2.035917878150939886e-01,2.209505438804626465e-01,5.037716376152655551e-01,-6.892630457878112793e-01,2.926427125930786133e-01,9.679768680423082117e+01,0.000000000000000000e+00
5.735679999999999668e-01,8.014672821372186007e-03,-1.614154333908352987e-02,9.821389317512512207e-01,1.906563200022966253e-02,-1.465140535805442568e-02,-1.796531910751563918e-02,-4.642075746858757845e-02,-9.599986351553315561e-03,-2.589700743556022644e-02,5.633424046408188474e-02,-2.112594643203519543e-02,-1.257776922919972562e-01,-5.914273262023926614e-02,-2.517116069793701172e-01,1.643419912206738887e-01,4.085726737976073941e-02,-1.517116069793701116e-01,2.142164289951324352e-01,5.042517768660608191e-01,-6.273284554481506348e-01,-5.141241550445556641e-01,9.558067003753961899e+01,0.000000000000000000e+00
5.997719999999999718e-01,7.140893047954189818e-03,-1.646494265083165223e-02,9.814807176589965820e-01,2.141355793515654221e-02,-1.626302509119881279e-02,-2.039501177588629727e-02,-5.286195270422524434e-02,-1.290316157677789607e-02,-3.882956132292747498e-02,7.119649491183931145e-02,-1.194255131509275453e-01,-7.313508960367129386e-02,-5.286936759948731440e-02,-2.759871006011963002e-01,1.448404040551386496e-01,4.713063240051269115e-02,-1.759871006011962946e-01,2.013956487178802379e-01,5.077163002328903829e-01,-5.009903311729431152e-01,1.436768770217895508e-01,-4.529134297128597808e+01,0.000000000000000000e+00
6.219510000000000316e-01,6.670013865128427907e-03,-1.610890431663194663e-02,9.809035062789916992e-01,2.292385071232453872e-02,-1.801485802126689961e-02,-2.248116143000374739e-02,-6.244568276001122298e-02,-8.844309245811783973e-03,-4.091779142618179321e-02,5.992179349442513375e-02,-1.239613145173214526e-01,-1.022453517566997150e-01,-2.302332639694213978e-01,-2.941028118133545144e-01,1.316225291986322654e-01,-1.302332639694213923e-01,-1.941028118133544811e-01,1.938734650611877441e-01,5.070361749976380894e-01,-5.505994558334350586e-01,3.998717069625854492e-01,-8.597662493236879300e+01,0.000000000000000000e+00
6.510089999999999488e-01,5.993948091432312053e-03,-1.563788888322406243e-02,9.797371029853820801e-01,2.256334368181600256e-02,-1.761351848645920093e-02,-2.547587060451244126e-02,-4.640315619574187506e-02,-7.981259011320773408e-03,-5.602286756038665771e-02,-3.773037428757437112e-02,9.437269536914301427e-02,-1.339067993173595206e-01,8.910278081893918678e-02,1.197421014308929221e-01,1.482146405802381717e-01,1.891027808189391923e-01,2.197421014308929277e-01,2.189309120178222490e-01,5.161415411569985068e-01,-1.334495544433593750e-01,-6.532967090606689453e-02,1.106059865511113003e+02,0.000000000000000000e+00
6.735459999999999781e-01,5.615617173122802383e-03,-1.530408108257625202e-02,9.789045453071594238e-01,2.099171897082936777e-02,-1.484054472790208301e-02,-2.723218160320290196e-02,-5.043008787037022572e-02,-3.659051307605704333e-03,-5.852511897683143616e-02,-7.654301588058896877e-02,1.336411155377731363e-01,-5.351094721554038036e-02,7.898745536804196998e-02,8.491213321685789350e-02,-2.326102301726478694e-01,1.789874553680419755e-01,1.849121332168578991e-01,-1.568938493728637695e-01,5.164898978577869837e-01,-1.319653391838073730e-01,-1.652830839157104492e-01,1.152668871501604855e+02,0.000000000000000000e+00
7.012159999999999505e-01,5.045936336172660887e-03,-1.461830998115719836e-02,9.775332808494567871e-01,1.697206524426839169e-02,-7.638087572885421395e-03,-3.050287096404571616e-02,-4.644535574498190322e-02,-5.793448729427471203e-03,-6.935235857963562012e-02,-1.057601840211732230e-01,2.638768587640643037e-01,-1.365905074032162658e-01,-2.243224620819091741e-01,1.444891640949514389e-01,-2.274384053216886581e-01,-1.243224620819091686e-01,2.227543473243713268e-01,-1.422828197479248102e-01,5.221782340630031216e-01,1.218583583831787109e-01,2.016230821609497070e-01,7.909096779610636929e+01,0.000000000000000000e+00
7.222420000000000506e-01,4.830535402830467284e-03,-1.429654358407072938e-02,9.771006703376770020e-01,1.587967677590712556e-02,-6.105240376990561657e-03,-3.114489797347798003e-02,-4.986060946123896387e-02,-3.051399404481113745e-03,-6.420014053583145142e-02,-7.264016619501965921e-02,1.463430710426041892e-01,-4.420543849350951071e-02,-2.490329742431640625e-01,1.489260572683511752e-01,-3.114820612168666125e-01,-1.490329742431640569e-01,2.208345472812652532e-01,-2.244974613189697210e-01,5.191542075397610478e-01,-2.718770503997802734e-02,-1.978715658187866211e-01,2.070068052136185202e+02,0.000000000000000000e+00
7.494450000000000278e-01,3.810367408245501908e-03,-1.338303807404048716e-02,9.760587215423583984e-01,1.515188147341529033e-02,-3.782940357822894839e-03,-3.088252429217219763e-02,-5.802775086177927588e-02,2.064703127276852396e-04,-5.731135606765747070e-02,4.942212929470024552e-02,3.668863574439458486e-02,6.499034830523851836e-02,9.519994258880615234e-02,1.576209484860792431e-01,-2.721963099380356743e-01,1.951999425888061579e-01,2.212718904018401989e-01,-1.859166741371154619e-01,5.065480768065571127e-01,-6.810612082481384277e-01,-6.437455415725708008e-01,1.415390048869394377e+02,0.000000000000000000e+00
7.706399999999999917e-01,2.987168607938741997e-03,-1.282699868510261965e-02,9.755789041519165039e-01,1.499391682136185303e-02,-4.293638670043398164e-03,-2.972313824675461291e-02,-7.271340606311192667e-02,-1.088380373270060597e-02,-3.505364432930946350e-02,-1.558262864288579089e-02,-7.175118371604123635e-02,6.204755756271664729e-02,-3.781985044479371089e-02,8.591538274363330618e-02,-3.014339245992591065e-01,6.218014955520629466e-02,1.640501439571380449e-01,-2.184180021286010742e-01,5.043856851573252920e-01,-7.124006152153015137e-01,-1.960480213165283203e-02,9.072929595310627349e+01,0.000000000000000000e+00
7.982829999999999648e-01,1.654726173992624588e-03,-1.188980496532939836e-02,9.750645756721496582e-01,1.209836410348625289e-02,-6.000282837084869314e-03,-2.642286911032397725e-02,-5.431848522065937240e-02,5.813671337596326184e-03,-2.452363632619380951e-02,-1.387750659687310983e-01,-6.041934420847611814e-02,7.672759151259848920e-02,1.532945179277200864e-02,1.127792584797471936e-01,-2.107118535826640604e-01,9.650806188583373191e-02,1.865697205066680908e-01,-1.369157552719116044e-01,5.041806217575657278e-01,-6.857701539993286133e-01,9.115540981292724609e-02,8.292999856251709900e+01,0.000000000000000000e+00
8.294219999999999926e-01,-4.067260333418102106e-04,-1.080945273725706507e-02,9.748442173004150391e-01,7.607473473827838090e-03,-9.500423893021636701e-03,-2.258005860554294919e-02,-8.136052567296860050e-02,-2.490059441747638665e-03,-1.568257063627243042e-02,-1.204248210723617429e-01,-1.604044161101843835e-01,7.619357379175258072e-02,-1.423440535731267387e-01,9.627502560615538996e-02,-2.425752648376212628e-01,-8.166276812553405207e-02,1.962750256061553955e-01,-1.795091629028320312e-01,5.035477241513556246e-01,-6.876204609870910645e-01,5.317744016647338867e-01,-4.893753273799150705e+00,0.000000000000000000e+00
8.469299999999999606e-01,-1.112323313275670293e-03,-1.049667176764039304e-02,9.748354554176330566e-01,6.254023942582649133e-03,-1.090687453267746854e-02,-2.089078234837903406e-02,-7.189858100994370171e-02,4.897862484005279654e-03,-1.741800084710121155e-02,-1.214819703744945550e-01,-1.056613789909439521e-01,1.551175478342156633e-01,-2.163235755395880311e-01,6.755784749984738990e-02,-1.918149947169426606e-01,-1.719773769378662165e-01,1.675578474998473955e-01,-1.334706187248229925e-01,5.039203697192917719e-01,-6.767527461051940918e-01,-1.001399755477905273e-01,1.243820751258659811e+02,0.000000000000000000e+00
8.787230000000000318e-01,-3.306605065103730787e-03,-9.552750676815498221e-03,9.749386310577392578e-01,3.593389997993280249e-03,-1.561718648706578172e-02,-1.687099229462707059e-02,-7.348942720750077651e-02,3.152018099386049224e-03,-1.687452197074890137e-02,-4.002378208427208317e-02,-1.434073170428070143e-01,1.205674565698252459e-01,4.442020215258338234e-02,8.552879095077514648e-02,-2.400600869176394980e-01,7.322477102279663363e-02,1.855287909507751520e-01,-1.929156303405761552e-01,5.034727720838512166e-01,-6.999512314796447754e-01,-3.884834051132202148e-01,2.629589021018517414e+01,0.000000000000000000e+00
9.022890000000000077e-01,-4.774693350631668658e-03,-8.962170757372486113e-03,9.750544428825378418e-01,2.520697612058207197e-03,-1.859437408051589635e-02,-1.451822921165600577e-02,-8.321821147319374834e-02,4.657970123239347322e-04,-3.913878463208675385e-03,-5.104207457648816948e-02,-1.316294581771413064e-01,1.020587606831465932e-01,5.901531924473695651e-02,9.055299758911131147e-02,-2.299930385248537545e-01,8.240751028060912253e-02,1.905529975891113170e-01,-1.894015073776245117e-01,5.025632295363550162e-01,-6.977872252464294434e-01,3.693109750747680664e-01,2.047716258077318514e+02,0.000000000000000000e+00
9.280009999999999648e-01,-6.311429821984219750e-03,-8.375065775777870009e-03,9.751815199851989746e-01,1.085827747899568377e-03,-2.075075661714942399e-02,-1.217316085638565394e-02,-6.705865494684286332e-02,6.712038178068691768e-03,-2.548699453473091125e-02,-9.006256830551193082e-02,-6.750344175408694303e-02,1.277606571931763912e-01,-1.793234157055212663e-01,2.763123512268064741e-02,-1.570380175141805057e-01,-1.712128400802612194e-01,1.276312351226806530e-01,-1.229912996292114175e-01,5.048253183766142627e-01,-6.656281948089599609e-01,2.138098478317260742e-01,8.619344928757085711e+01,0.000000000000000000e+00
9.510549999999999837e-01,-7.764896161546666099e-03,-8.292786358886708453e-03,9.751334786415100098e-01,-9.830080713777117427e-04,-2.237532116771823176e-02,-9.907316133552781026e-03,-8.768339568828879826e-02,5.521386412578578595e-03,-4.318200983107089996e-03,-6.571046205662840756e-02,-1.047578286698601646e-01,1.198067072574935943e-01,-9.302478944052805510e-02,7.334659099578855201e-02,-1.764277209764920640e-01,-9.642330408096312644e-02,1.733465909957885576e-01,-1.486225605010986217e-01,5.032622503225641086e-01,-6.664841771125793457e-01,1.161018610000610352e-01,1.241654898272848726e+02,0.000000000000000000e+00
9.754150000000000320e-01,-9.285312465225402032e-03,-8.110781271293075745e-03,9.749999046325683594e-01,-3.810124872193638729e-03,-2.355442936335383486e-02,-7.452019028467422694e-03,-7.253151320832978977e-02,1.157840615982246024e-02,-1.819393597543239594e-02,-1.823278197522110733e-01,-2.815445389057931805e-02,1.010064084578089216e-01,2.287541915716591046e-01,1.000512540340423584e-01,-1.881922833686741348e-01,2.017089128494262695e-01,2.000512540340423639e-01,-1.671723961830139105e-01,5.039858543536378521e-01,-6.855289936065673828e-01,-2.116261720657348633e-01,7.562263871670892001e+01,0.000000000000000000e+00
9.993969999999999798e-01,-1.094392071462408668e-02,-7.950074552537904002e-03,9.748442769050598145e-01,-5.346055459529816707e-03,-2.550209248081580782e-02,-4.460370409551367606e-03,-8.512293322724054367e-02,1.265058943175545458e-02,-1.056193746626377106e-02,-1.555745654479978417e-02,-1.124156635558136857e-01,1.713077134301512761e-01,1.798738139687564713e-02,-5.330785512924195169e-02,-1.858037748638353970e-01,-1.912647485733032227e-02,4.669214487075805387e-02,-1.730637073516845537e-01,5.035192326783501926e-01,-6.827062964439392090e-01,3.072887659072875977e-01,6.271233809095587475e+01,0.000000000000000000e+00
1.024256000000000055e+00,-1.267020541960178423e-02,-7.733813432027059932e-03,9.747064709663391113e-01,-6.773118503626740852e-03,-2.753951366069862239e-02,-2.093876653456273190e-03,-8.997550204583865119e-02,8.399557194969122648e-03,-9.540648199617862701e-03,-8.494552602060231883e-02,-1.071543731899689544e-01,9.354250016784293464e-02,4.992646196132374814e-02,7.816734313964843195e-02,-1.709186220274694912e-01,6.901609897613525564e-03,1.781673431396484375e-01,-1.646809458732604869e-01,5.039952855905284190e-01,-6.560021638870239258e-01,1.046780347824096680e-01,-1.385664382582581879e+02,0.000000000000000000e+00
1.050753999999999966e+00,-1.536486353636072957e-02,-7.499288853826950769e-03,9.744083285331726074e-01,-9.049401383910117558e-03,-3.030787840322335391e-02,1.685866858620909672e-03,-9.716990418823143183e-02,1.270968338241713382e-02,-1.258687488734722137e-02,-7.149555662046312710e-02,-1.148358523537182235e-01,1.057672526036579214e-01,1.579208959179087546e-01,5.742987990379333496e-02,-1.760228165603405226e-01,9.582499265670775535e-02,1.574298799037933405e-01,-1.802336454391479381e-01,5.046595062208963922e-01,-6.363562941551208496e-01,2.411485910415649414e-01,-1.054818215414168208e+02,0.000000000000000000e+00
1.075512999999999941e+00,-1.821062721517660923e-02,-7.481550560307934604e-03,9.741385579109191895e-01,-1.056407709532119522e-02,-3.274319021910465644e-02,5.200463988410061050e-03,-1.000198064557536182e-01,2.677261277912641388e-02,-1.882285438477993011e-02,-5.705908429069181387e-02,-4.615123662536254473e-02,9.486745759787658383e-02,1.057288611041358461e-01,-2.194169878959655873e-01,-1.550018230888750848e-01,2.310658693313598702e-02,-1.194169878959655678e-01,-1.690253734588622880e-01,5.048898293884751531e-01,-6.522990465164184570e-01,-1.067870855331420898e-01,-6.652421544032121936e+00,0.000000000000000000e+00
1.097973000000000088e+00,-2.025336797364920768e-02,-7.484603879377614392e-03,9.739739298820495605e-01,-9.513225326292236439e-03,-3.478073739937337372e-02,7.823614634463529893e-03,-1.090702002285121597e-01,1.959392125364312412e-02,-1.253028400242328644e-02,8.816994243828761568e-02,-9.374110413284009180e-02,1.556669482304660068e-01,3.331326483903225555e-02,-2.831958770751953347e-01,-1.374643029523574811e-01,-3.486539125442504605e-02,-1.831958770751953014e-01,-1.587834119796752985e-01,5.040034462446402186e-01,-6.770137548446655273e-01,1.892532110214233398e-01,7.631027484158911989e+01,0.000000000000000000e+00
1.123337000000000030e+00,-2.346946592149349795e-02,-7.341363482531165253e-03,9.738124012947082520e-01,-7.229837041591614943e-03,-3.597363208402404311e-02,1.126856826419114430e-02,-1.108586451212615481e-01,3.450223518496094155e-02,-1.314140111207962036e-02,1.120454441453954536e-01,1.922029872181479915e-02,1.093257709165308816e-01,-2.935609902327043774e-02,-2.436689853668213002e-01,7.049064287419620767e-02,-9.586831927299499512e-02,-1.436689853668212946e-01,3.924170136451721191e-02,5.045840916698883794e-01,-6.516135931015014648e-01,-2.601486444473266602e-01,9.759147089900220351e+01,0.000000000000000000e+00
1.148287999999999975e+00,-2.690262163665624318e-02,-6.528209794852345496e-03,9.736313819885253906e-01,-4.233174492947262141e-03,-3.694267329005218592e-02,1.465827141986529927e-02,-1.209082674508937250e-01,2.340544934587968431e-02,-1.206035166978836060e-02,1.275917248816549887e-01,-5.408418129918701744e-02,9.625738327372324044e-02,-8.962583897295321733e-02,-3.101962804794311523e-01,6.718369733270784794e-02,-1.264261364936828669e-01,-2.101962804794311468e-01,2.635592222213745117e-02,5.052428970333872060e-01,-6.156144142150878906e-01,1.228712797164916992e-01,9.266116031833102795e+01,0.000000000000000000e+00
1.173345000000000082e+00,-3.046558909545010393e-02,-5.326245636241684622e-03,9.732339382171630859e-01,-1.936986828427414258e-03,-3.524691973863469663e-02,1.805715028867757588e-02,-1.215872423251090906e-01,3.020138385683372034e-02,-1.531387586146593094e-02,6.604658916818739733e-02,1.193779438631891177e-01,9.003338349616427094e-02,-1.111299483066380267e-01,-2.578944206237793191e-01,2.547300712948685764e-01,-1.410208940505981445e-01,-1.578944206237792858e-01,2.041268169879913164e-01,5.051939727336547392e-01,-6.348427534103393555e-01,-1.212359666824340820e-01,1.001030817209776380e+00,0.000000000000000000e+00
1.198862000000000094e+00,-3.405770555830579110e-02,-3.960980567821361341e-03,9.726433753967285156e-01,-1.218834092630482297e-03,-2.975957743956492152e-02,2.000610019658393551e-02,-1.261932279433323201e-01,3.710702502114571200e-02,-2.729569002985954285e-02,-2.017070790037243239e-02,2.120958027039866189e-01,2.430096304420593240e-02,2.568240285050776839e-01,-2.646288394927978627e-01,2.817547675978498423e-01,2.258844852447509655e-01,-1.646288394927978571e-01,2.255954146385192871e-01,5.056447999102530177e-01,-6.637762188911437988e-01,1.413954496383666992e-01,8.175709798767499592e+01,0.000000000000000000e+00
1.224302000000000001e+00,-3.765344818649162678e-02,-2.462747724915545500e-03,9.718484282493591309e-01,-1.752437149996736738e-03,-2.211815708924724788e-02,2.035704175798153451e-02,-1.090414852198464957e-01,4.561122262654879883e-02,-3.729654848575592041e-02,-3.535591479890564520e-02,2.761380685103151933e-01,2.039818548192907227e-02,2.678802838597945657e-01,-4.305360913276673474e-02,2.832531924792800471e-01,2.266842484474181907e-01,5.694639086723327082e-02,2.261127948760986162e-01,5.068270545014152972e-01,-6.467684507369995117e-01,6.340157985687255859e-02,1.286093338447002452e+02,0.000000000000000000e+00
1.248904000000000014e+00,-4.088240987457918835e-02,-8.820536046944749868e-04,9.709177613258361816e-01,-3.130408442540387470e-03,-1.325706853137265107e-02,1.790598591487188931e-02,-1.322272104509849278e-01,3.934310027030313295e-02,-3.771211579442024231e-02,3.326687254432468630e-03,2.849818080133100784e-01,-1.267639835055585085e-01,2.716877429781353603e-01,1.186131775379180853e-01,2.756995492970648609e-01,2.261873245239257590e-01,2.186131775379180908e-01,2.255394279956817460e-01,5.064576938007401274e-01,-6.760157346725463867e-01,2.199693918228149414e-01,5.719917673255624635e+01,0.000000000000000000e+00
1.274116999999999944e+00,-4.411344879513097450e-02,6.710659596838751059e-04,9.700225591659545898e-01,-2.413218981994019480e-03,-4.833391277378806805e-03,1.417710227863912438e-02,-1.096180495847626085e-01,4.264219443258920883e-02,-3.731081634759902954e-02,4.261611877961008626e-02,2.862285044818505542e-01,-1.517405881494279241e-01,2.709640044160224748e-01,1.226955175399780107e-01,2.668700616861211516e-01,2.258439302444457952e-01,2.226955175399780162e-01,2.271175146102905051e-01,5.058914079812801834e-01,-7.103886604309082031e-01,3.783595561981201172e-02,5.387945207893076116e+01,0.000000000000000000e+00
1.298923999999999968e+00,-4.740191943265244234e-02,2.030818598587898639e-03,9.691703915596008301e-01,3.353340298384038191e-03,1.066786296047173010e-03,9.970640633914682263e-03,-1.274001641376402150e-01,4.154512194640748446e-02,-3.625748679041862488e-02,2.406472837550847343e-01,1.262590967268718833e-01,-1.293218619762843968e-01,2.227698620704173516e-01,1.058953225612640214e-01,2.532235956523539722e-01,2.155652046203613281e-01,2.058953225612640270e-01,2.251124739646911399e-01,5.063065182664172603e-01,-6.919937133789062500e-01,1.962629556655883789e-01,9.062414519083392861e+01,0.000000000000000000e+00
1.322076000000000029e+00,-4.989464810364993563e-02,3.131069683878854367e-03,9.686426520347595215e-01,8.921008703878669996e-03,2.492704841836612673e-03,6.990313084272325832e-03,-1.342932066026843452e-01,3.613441710245667710e-02,-2.731828577816486359e-02,3.359732968490252158e-01,5.267924379765163284e-02,-1.609759195112608621e-01,1.820422032847453242e-01,7.450255155563353937e-02,2.381691908386842638e-01,2.145345926284789873e-01,1.745025515556335449e-01,2.182849645614624023e-01,5.067928935574016469e-01,-6.362349987030029297e-01,4.677261114120483398e-01,9.130943173063964480e+01,0.000000000000000000e+00
1.349549000000000110e+00,-5.403784732614026753e-02,4.938791080634903803e-03,9.678424596786499023e-01,1.729766280464679201e-02,1.297956093106789055e-03,2.722093651106101408e-03,-1.180029930098127067e-01,3.831440045974099373e-02,-2.817791886627674103e-02,2.648370002862533990e-01,-8.474492591574757372e-02,-1.747727846543776775e-01,-4.364712171318674977e-02,-1.762109637260437234e-01,2.286639391358486484e-01,4.001162052154540877e-02,-7.621096372604370395e-02,2.205238044261932373e-01,5.113595101274067689e-01,-4.029365777969360352e-01,7.960160970687866211e-01,-7.602111536798204838e+00,0.000000000000000000e+00
1.372841999999999896e+00,-5.678894220439001383e-02,6.128751190855635973e-03,9.672127962112426758e-01,2.254982348658959510e-02,-6.035191985920285163e-04,-1.178088494139165174e-04,-1.272848700501824082e-01,3.757995150091306136e-02,-3.711584955453872681e-02,2.809064783405840204e-01,-1.076037411274469863e-01,-1.263609129021843192e-01,-1.776755928993224987e-01,-2.489302635192870983e-01,2.195825686472177574e-01,-7.767559289932250699e-02,-1.489302635192870927e-01,2.191281795501708873e-01,5.201140125995414865e-01,2.442097663879394531e-02,1.741133928298950195e-01,-4.751708305573968971e+01,0.000000000000000000e+00
1.400199999999999889e+00,-5.950843456609199167e-02,7.274456889442680423e-03,9.666128754615783691e-01,2.693521573413852968e-02,-2.546225143697400384e-03,-3.066197579957668368e-03,-1.255654404153386527e-01,3.663120355772465919e-02,-3.558491915464401245e-02,1.954554228559662321e-01,-9.766985624334893756e-02,-1.597992239713258988e-01,-2.854531526565551869e-01,-2.868440389633178933e-01,2.104639277761537475e-01,-1.854531526565551813e-01,-1.868440389633178600e-01,2.180522561073303112e-01,5.114435758650039965e-01,-4.401348829269409180e-01,1.142865777015686035e+00,-9.258335934104270137e+00,0.000000000000000000e+00
1.421631000000000089e+00,-6.218893388631804853e-02,8.423178581100752502e-03,9.658477902412414551e-01,3.029361662596802285e-02,-3.438079669932925242e-03,-5.989459166726841463e-03,-1.146273479874464762e-01,3.759819978719746575e-02,-4.389100894331932068e-02,1.361894176393500244e-01,-3.250370283909864710e-02,-1.429091157635380693e-01,-3.187580883502960094e-01,-2.342869043350219727e-01,2.070017572017676666e-01,-2.187580883502960039e-01,-1.342869043350219671e-01,2.226629555225372314e-01,5.108213063828327405e-01,-5.126745104789733887e-01,1.178129911422729492e-01,7.681777155729940887e+01,0.000000000000000000e+00
1.447710000000000052e+00,-6.671093831598123858e-02,1.058019807002655473e-02,9.646311998367309570e-01,3.093800295395550751e-02,-3.936577869179114231e-04,-1.064467355776839950e-02,-1.151070182931317049e-01,3.967564396557742012e-02,-3.990120813250541687e-02,-4.760263633404565597e-02,1.968907908749120972e-01,-1.850251544487301614e-01,-1.297640800476075607e-02,1.218534469604491965e-01,1.946883464577996159e-01,8.702359199523924949e-02,2.218534469604492021e-01,2.234576582908630316e-01,5.113952323822977819e-01,-4.752667546272277832e-01,2.759326696395874023e-01,8.281843425261411085e+01,0.000000000000000000e+00
1.474914000000000058e+00,-7.137220933776530774e-02,1.297291017745765516e-02,9.632829427719116211e-01,2.661960338080315500e-02,6.729744191418030042e-03,-1.503461221854705300e-02,-1.031702773609700641e-01,5.169210692591989093e-02,-5.345830693840980530e-02,-1.831884663528300095e-01,2.732253527365217094e-01,-1.275796672792866016e-01,9.024339914321899414e-02,1.395773598676175731e-01,-7.414448492256262013e-02,1.902433991432189997e-01,2.204337537288665605e-01,-3.263089656829833846e-02,5.156573885238165955e-01,-3.107810616493225098e-01,4.401808977127075195e-01,9.487747474173012563e+01,0.000000000000000000e+00
1.496231000000000089e+00,-7.433624835151808607e-02,1.457872662925620462e-02,9.623213410377502441e-01,2.188503514768100691e-02,1.187632653984138642e-02,-1.804901550418420292e-02,-1.178042320178948887e-01,3.694767908451638411e-02,-4.887821525335311890e-02,-1.966994463224245593e-01,2.324812131630336620e-01,-1.509182599250551704e-01,8.798848390579222523e-02,1.586055313557714896e-01,-7.166642876339063273e-02,1.879884839057922308e-01,2.216732382774352916e-01,-2.149915695190429688e-02,5.146926068259886078e-01,-3.531773686408996582e-01,2.233747243881225586e-01,4.501036264920999486e+01,0.000000000000000000e+00
1.523986000000000063e+00,-7.879448637348357432e-02,1.679025814126533858e-02,9.610924124717712402e-01,1.648706277987635471e-02,1.543333869763841015e-02,-2.199914981966169872e-02,-1.016153469847544677e-01,4.145417204560977037e-02,-3.465322032570838928e-02,-1.134936645663087162e-01,5.823432350601884938e-02,-1.511399063891679384e-01,1.558168480495224772e-01,1.920215287037180529e-01,1.330324503597635766e-01,2.264251828193664384e-01,2.210307776927948054e-01,1.944813430309295654e-01,5.078022641930645120e-01,-6.718462109565734863e-01,2.623776197433471680e-01,9.375478288747679301e+01,0.000000000000000000e+00
1.547276000000000096e+00,-8.210716561229573773e-02,1.772543798002142873e-02,9.604501724243164062e-01,1.507674387768641495e-02,1.442428404093454297e-02,-2.303010340954947388e-02,-1.184913268146113169e-01,2.486396375944009696e-02,-2.354100719094276428e-02,-3.595179021513410927e-02,-9.334901102886240809e-02,-7.795433899559025409e-03,1.229153793116966459e-01,1.405601008236223304e-01,-2.658690414354307752e-01,1.977101325988769587e-01,1.945406556129455622e-01,-2.016175031661987249e-01,5.062310030150615203e-01,-7.176735997200012207e-01,3.660453557968139648e-01,9.237005082571590719e+01,0.000000000000000000e+00
1.571765000000000079e+00,-8.703571327696291160e-02,1.896758414259094166e-02,9.597555398941040039e-01,1.621535565103478238e-02,1.041454693615428972e-02,-2.494117350941665520e-02,-1.101186565885180491e-01,2.670326679407603390e-02,-2.100240439176559448e-02,3.911440276363876284e-02,-1.246231735555036885e-01,-8.053238417371695601e-02,1.278633720787528127e-01,2.871431208465244356e-02,1.172920554719148745e-01,2.053050041198730413e-01,1.036807537078857366e-01,1.867802560329437089e-01,5.067244431310080621e-01,-6.871013641357421875e-01,3.320595026016235352e-01,6.992484709976008617e+01,0.000000000000000000e+00
1.600494000000000083e+00,-9.179265539687543607e-02,2.001925210874971883e-02,9.593731164932250977e-01,1.942851411872837525e-02,4.222046459415151887e-03,-2.652254678155251469e-02,-1.108243466016193418e-01,2.283887855141038259e-02,-5.454502999782562256e-03,7.196164688028064416e-02,-2.283568532644009996e-01,6.101067161142002815e-02,1.137356519699096458e-01,-1.690720319747925082e-02,-2.622159050019348125e-01,2.137356519699096513e-01,8.309279680252075473e-02,-1.885808944702148382e-01,5.053116512505676505e-01,-7.044432163238525391e-01,4.777282476425170898e-01,8.519556548002115903e+01,0.000000000000000000e+00
1.623240999999999934e+00,-9.487783436367408507e-02,2.063588560216584114e-02,9.592306017875671387e-01,2.211260475875738776e-02,8.140210745251064139e-04,-2.746339784055938649e-02,-1.095664047088470150e-01,1.904857627472403281e-02,5.674967542290687561e-03,1.503601892134475704e-01,-1.860252170867764399e-01,-1.152834520837190263e-01,7.355530261993406538e-02,-2.330160379409789984e-01,1.199631416855180821e-01,1.735553026199340709e-01,-1.330160379409789928e-01,1.960347890853881836e-01,5.074256056248701574e-01,-5.511613488197326660e-01,4.969507455825805664e-01,9.385647074383993527e+01,0.000000000000000000e+00
1.646015000000000006e+00,-9.832171679213101700e-02,2.135947714188907859e-02,9.591037631034851074e-01,2.408861232738457661e-02,-2.181295451465281587e-03,-2.866654301271437041e-02,-1.102691466344654231e-01,1.635213476627272317e-02,9.106064215302467346e-03,5.981775004226104475e-02,-1.317646312737899006e-01,-9.728722368840894003e-03,1.020419359207153098e-01,-3.696041703224182962e-02,7.682956276797245354e-02,2.020419359207153154e-01,6.303958296775817594e-02,1.560730576515197698e-01,5.061913109339981620e-01,-6.051980853080749512e-01,4.886263608932495117e-01,9.053237476914564752e+01,0.000000000000000000e+00
1.671048000000000089e+00,-1.033861643901233529e-01,2.236519429215237317e-02,9.589382410049438477e-01,2.691103992691751268e-02,-4.405564943253281740e-03,-2.896821950529047604e-02,-1.043542308438377558e-01,1.380587735121444753e-02,-1.932537648826837540e-03,7.589853554813975889e-02,-2.356487428855684463e-02,-1.922353688554981690e-02,-2.742431819438934104e-01,-3.078549265861511008e-01,1.408156375931894910e-01,-1.742431819438934326e-01,-2.078549265861511230e-01,2.207198739051818848e-01,5.155661563418962867e-01,-1.526550054550170898e-01,5.615488290786743164e-01,8.639082126401670791e+01,0.000000000000000000e+00
1.699629999999999974e+00,-1.080871015842216759e-01,2.316719798851914203e-02,9.587603211402893066e-01,2.953432486675575119e-02,-3.431413391510096389e-03,-3.106171989725620489e-02,-8.634036442069140116e-02,1.348901856135023905e-02,-6.304534152150154114e-03,1.217004783363710430e-01,7.693631347741347604e-02,-7.611603488737951617e-02,-3.065706670284271129e-01,1.005727469921111894e-01,1.352145506884131210e-01,-2.065706670284271074e-01,2.005727469921111950e-01,2.209894001483917181e-01,5.058213745913130444e-01,-6.907995939254760742e-01,4.583238363265991211e-01,6.935999728558920197e+01,0.000000000000000000e+00
1.723321000000000103e+00,-1.110923367332220940e-01,2.356452796057123544e-02,9.586355090141296387e-01,3.141318423071667865e-02,-1.952067227433795793e-03,-3.310616029933252658e-02,-9.695949268732506621e-02,-7.844610709743503893e-04,8.767009712755680084e-03,6.217555204217245501e-02,6.308421099406991139e-02,-1.445883707325573697e-01,-2.966714203357696533e-01,9.360363483428954523e-02,1.148384055053999486e-01,-1.966714203357696478e-01,1.936036348342895508e-01,2.062950968742370550e-01,5.051562903099240387e-01,-6.692737340927124023e-01,-2.587102651596069336e-01,9.387362134884584464e+01,0.000000000000000000e+00
1.746291000000000038e+00,-1.140152024661936908e-01,2.384956739288783198e-02,9.583777785301208496e-01,3.085800187921943286e-02,1.232425654981161856e-03,-3.508558024442096079e-02,-8.924374509108849718e-02,3.912346661545720687e-03,2.426112070679664612e-03,-7.062516879587542318e-02,1.755031620801189574e-01,-9.696110187818142434e-02,9.572565555572509766e-02,1.207265615463256614e-01,5.252902662149622204e-02,1.957256555557251032e-01,2.207265615463256669e-01,1.497028470039367676e-01,5.089913669928409767e-01,-4.940999746322631836e-01,-2.726870775222778320e-01,1.179835129302630179e+02,0.000000000000000000e+00
1.771798999999999902e+00,-1.184207743645063066e-01,2.420925961258971540e-02,9.577375054359436035e-01,2.616257058705798513e-02,5.926395196499179008e-03,-3.842773120037281526e-02,-8.357101751411590007e-02,1.155830872394881387e-02,-5.501282867044210434e-03,-1.534418124095269231e-01,9.424028421541695566e-02,-1.071019577096888054e-01,1.229416370391845648e-01,8.515540957450865034e-02,1.151731908321380615e-01,2.229416370391845703e-01,1.851554095745086559e-01,2.151731908321380671e-01,5.073057794972187784e-01,-6.197055578231811523e-01,8.365809917449951172e-02,1.379552182898120805e+02,0.000000000000000000e+00
1.799792999999999976e+00,-1.227600494445737905e-01,2.455854685781936816e-02,9.571305513381958008e-01,1.899007739321333793e-02,6.844645823001593854e-03,-4.137979821488153853e-02,-1.014983627573805697e-01,2.940732839520570838e-03,-6.112270639277994633e-04,-2.171902132975699062e-01,-1.223431517114110731e-02,-1.351849892948713827e-01,1.060018062591552568e-01,9.945766329765318159e-02,-2.177368164062500056e-01,2.060018062591552623e-01,1.994576632976531871e-01,-1.177368164062500000e-01,5.056905110390080837e-01,-6.915285587310791016e-01,-4.349735975265502930e-01,8.788225454099152500e+01,0.000000000000000000e+00
1.823660999999999976e+00,-1.256879316777469724e-01,2.462819680954691712e-02,9.568999409675598145e-01,1.591628671278171731e-02,4.672991167305351468e-03,-4.274688873757490071e-02,-9.349303494066371623e-02,4.542888555694376824e-04,-8.396021090447902679e-03,-1.561951436052065045e-01,-7.809440927720288916e-02,-6.044505150274574745e-02,6.903373476018856425e-02,8.882722854614255592e-02,-2.398841381072998047e-01,1.600084304809570312e-01,1.888272285461425615e-01,-1.398841381072997991e-01,5.063407014210188350e-01,-6.909568905830383301e-01,2.591954469680786133e-01,-1.359783702987136280e+02,0.000000000000000000e+00
1.845834999999999892e+00,-1.287027554388944506e-01,2.506123208643127806e-02,9.567523002624511719e-01,1.551945115245482662e-02,1.532437601904135249e-03,-4.436556095394616345e-02,-9.238784363981615566e-02,-8.279102972650840067e-03,1.676120981574058533e-02,4.116939080020121794e-02,-2.139249400958668779e-01,-5.090616971664178869e-02,1.127142441223767944e-01,7.759284973144531250e-02,-8.172800540924073098e-02,2.074046373367309515e-01,1.775928497314453181e-01,1.827199459075927804e-02,5.044579868776611908e-01,-6.930420994758605957e-01,2.887588739395141602e-01,9.151369536795805004e+01,0.000000000000000000e+00
1.873591999999999924e+00,-1.333195494017448690e-01,2.619607520528778946e-02,9.567193388938903809e-01,1.678757607563331408e-02,-2.590728569625833089e-03,-4.423994685346135936e-02,-9.810946376644370803e-02,-3.902867417125728891e-03,1.524190045893192291e-02,9.217038309686678699e-02,-1.109823353012158870e-01,1.672883820198315177e-02,5.186719485314227052e-02,-1.601054430007934626e-01,7.929651737213133655e-02,1.493023395538330134e-01,-6.010544300079345703e-02,1.792965173721313421e-01,5.077946604505416683e-01,-5.249322056770324707e-01,1.075140237808227539e-01,1.099359859746680712e+02,0.000000000000000000e+00
1.899159000000000042e+00,-1.363291972520243589e-01,2.689048942241540133e-02,9.567694067955017090e-01,1.804415533269599844e-02,-4.570355603130016320e-03,-4.356820242719324637e-02,-9.244549021400177979e-02,-1.287133066532061137e-02,1.188814174383878708e-02,4.601258260459841626e-02,-1.345437491872292779e-01,1.411058385954990467e-02,9.039038419723510742e-02,6.259250640869129523e-03,-4.854466319084168452e-02,1.903903841972351130e-01,1.062592506408691351e-01,5.145533680915832103e-02,5.054528521482021253e-01,-6.631182432174682617e-01,2.949968576431274414e-01,8.776847724979745635e+01,0.000000000000000000e+00
1.924544000000000032e+00,-1.406449549485329353e-01,2.777856373240732493e-02,9.568688273429870605e-01,2.007234984082310880e-02,-6.347998134855981078e-03,-4.342987496804113362e-02,-9.304634661144023378e-02,-1.284486140689940215e-02,1.515967026352882385e-02,2.763789700386413625e-02,-3.845075616655240641e-02,1.567710082033437922e-03,4.241081476211547296e-02,-2.104745030403137318e-01,7.723035812377929132e-02,1.424108147621154785e-01,-1.104745030403137124e-01,1.772303581237792969e-01,5.077252916081964607e-01,-5.314283967018127441e-01,-2.360178232192993164e-01,9.929776826688727454e+01,0.000000000000000000e+00
1.947441999999999895e+00,-1.432695064202371416e-01,2.853129961059981679e-02,9.568465352058410645e-01,2.130444309450366808e-02,-6.539024155598704979e-03,-4.421373542734682166e-02,-8.564848987751147447e-02,-6.085808161884716412e-03,1.616559550166130066e-02,9.843046377458666840e-02,-7.296405750094894782e-03,-4.270515234126386062e-02,-3.140250086784363015e-01,-3.115020513534546009e-01,1.085133373737335039e-01,-2.140250086784362682e-01,-2.115020513534545954e-01,2.085133373737335094e-01,5.067908872654834918e-01,-5.781196951866149902e-01,1.748410463333129883e-01,7.969243425441769091e+01,0.000000000000000000e+00
1.972428999999999988e+00,-1.468870708199033204e-01,2.988466748810018198e-02,9.568077325820922852e-01,2.272897859965200551e-02,-5.496665416183876829e-03,-4.491340307920817232e-02,-8.994840152231280139e-02,-1.488747921345451829e-02,1.060574688017368317e-02,5.061460355936892030e-02,8.008001219819775585e-02,-5.863212136045166389e-02,-2.742038249969482311e-01,1.095861136913299505e-01,1.176909446716308538e-01,-1.742038249969482255e-01,2.095861136913299561e-01,2.176909446716308594e-01,5.050901261916539431e-01,-6.922024488449096680e-01,2.496517896652221680e-01,8.656177406875295333e+01,0.000000000000000000e+00
2.001742000000000132e+00,-1.502610726729005086e-01,3.103734554842769652e-02,9.566581845283508301e-01,2.341498065485956778e-02,-2.358978989197124676e-03,-4.682841269773584114e-02,-8.139442796352010234e-02,-1.206623217050514438e-02,3.262476762756705284e-03,-1.671485582280573048e-02,1.531554916560230462e-01,-1.023515828198467564e-01,1.237844228744506836e-01,1.211657822132110596e-01,1.236775994300842174e-01,2.237844228744506891e-01,2.211657822132110651e-01,2.236775994300842230e-01,5.058603712397928831e-01,-6.828224062919616699e-01,2.927957773208618164e-01,2.256676572525641689e+00,0.000000000000000000e+00
2.024294999999999956e+00,-1.523362274792716409e-01,3.181486102038216107e-02,9.563482999801635742e-01,2.114560638933686565e-02,1.843785194688418727e-03,-4.825345233234955289e-02,-7.671963143473409241e-02,-1.225423059486558872e-02,-6.839693523943424225e-03,-1.233160761435897063e-01,1.894415859102263899e-01,-6.842359442204482001e-02,1.195980668067931907e-01,1.071355223655700573e-01,-3.043221712112426647e-01,2.195980668067931962e-01,2.071355223655700628e-01,-2.043221712112426591e-01,5.102198020032565617e-01,-4.954469203948974609e-01,5.140936374664306641e-02,9.455918109621835299e+01,0.000000000000000000e+00
2.054545000000000066e+00,-1.553014063384357824e-01,3.263253419233611008e-02,9.558711051940917969e-01,1.619747593802312036e-02,6.268074553052560560e-03,-5.091741436394627701e-02,-7.316605145379603825e-02,-3.609912904977917968e-03,-6.826962810009717941e-03,-1.058866156767933470e-01,7.452765097148698892e-02,-1.002337951075248229e-01,1.330400228113199634e-01,1.052338898181915117e-01,1.166410744190216064e-01,2.231148004531860185e-01,2.052338898181915172e-01,2.166410744190216120e-01,5.076686015019398202e-01,-6.352839469909667969e-01,4.265626668930053711e-01,1.810885322569812672e+01,0.000000000000000000e+00
2.074380999999999808e+00,-1.562376234944446718e-01,3.261369537301845450e-02,9.557068943977355957e-01,1.470775534872618279e-02,6.271670738034140768e-03,-5.128874186887399933e-02,-8.436633506851168307e-02,-4.438469989547216311e-03,-1.420272863470017910e-03,-9.782774544992058063e-02,-4.608150015083388451e-02,1.470881985288523090e-02,9.199972240796637502e-02,9.221877455711363636e-02,-2.433807373046875111e-01,1.746790766716003473e-01,1.922187745571136419e-01,-1.433807373046875056e-01,5.064544211834217657e-01,-6.819173097610473633e-01,-1.017962694168090820e-01,8.925885184745091294e+01,0.000000000000000000e+00
2.099352000000000107e+00,-1.592053509138223466e-01,3.253021891111791686e-02,9.554076194763183594e-01,1.319332970669951678e-02,4.534728886737227072e-03,-4.999508165173458668e-02,-8.962794574807855796e-02,-8.233208958790840665e-03,1.801065518520772457e-03,-7.861172298247801060e-03,-4.443078949347361445e-02,5.785813890022787481e-02,-1.771909585095147177e-01,6.898683905601499244e-02,-2.411281108856201116e-01,-1.016342461109161349e-01,1.689868390560149980e-01,-1.411281108856201061e-01,5.065300301073747402e-01,-6.689184308052062988e-01,-3.457080125808715820e-01,9.461840566651153495e+01,0.000000000000000000e+00
2.123727000000000142e+00,-1.620877936214500381e-01,3.220155885207295898e-02,9.553556442260742188e-01,1.478949735227943867e-02,2.390068402968736905e-04,-4.922374237283070469e-02,-8.848458520243293601e-02,-2.516463521546762061e-02,1.267658267170190811e-02,1.066326115856475881e-01,-1.709552548160583607e-01,8.550620794503464850e-02,6.795978222486938336e-02,-1.480566382408142201e-01,-2.295175790786743164e-01,1.665086746215820312e-01,-4.805663824081420760e-02,-1.295175790786743109e-01,5.062730598714062502e-01,-6.413796544075012207e-01,-2.374619245529174805e-01,-9.464005736618048559e+00,0.000000000000000000e+00
2.147104000000000124e+00,-1.639651609389340126e-01,3.193036618267697246e-02,9.553728699684143066e-01,1.619690689528714353e-02,-2.124296291565075379e-03,-4.809103423930730786e-02,-8.939392335833655501e-02,-1.778867024560451884e-02,1.944727078080177307e-02,7.532378261984866430e-02,-1.028399149032980103e-01,2.463521445799848539e-02,4.743190181345845191e-02,-1.542227864265441895e-01,4.207991957664489191e-02,1.467323541641235296e-01,-5.422278642654419084e-02,1.420799195766448975e-01,5.072445940574557000e-01,-5.647347569465637207e-01,1.048768758773803711e-01,9.119223934486056748e+01,0.000000000000000000e+00
2.171860000000000124e+00,-1.673142515815895792e-01,3.172785752432164680e-02,9.553485512733459473e-01,1.652298013516091332e-02,-4.691362158602885302e-03,-4.515182968757752019e-02,-8.479428845203354492e-02,-2.850288903460292123e-02,1.228738855570554733e-02,-1.236017657566368388e-02,-1.105366620313236597e-01,5.001678532314080688e-02,1.059744119644164817e-01,6.145673394203185480e-02,-2.968084454536438210e-01,2.059744119644164873e-01,1.614567339420318604e-01,-1.968084454536437877e-01,5.052447799934864925e-01,-7.002838850021362305e-01,-4.583296775817871094e-01,9.158712673172486518e+01,0.000000000000000000e+00
2.199870999999999910e+00,-1.703741284511033072e-01,3.147869935927462975e-02,9.552892446517944336e-01,1.566607955041618774e-02,-3.746511555025255902e-03,-4.312094094690763213e-02,-6.233543984142957128e-02,-2.192067047024713611e-02,3.010367508977651596e-03,-7.691487901785250270e-02,8.857587662863282418e-02,2.617604940358190732e-02,1.246157581550718374e-01,-3.203046321868907587e-03,-3.008915901184082142e-01,2.221546769142150879e-01,9.679695367813109796e-02,-2.008915901184082087e-01,5.074231760151711734e-01,-6.229802370071411133e-01,-4.481899738311767578e-02,1.527461705223931290e+02,0.000000000000000000e+00
2.223993999999999804e+00,-1.723209353180171211e-01,3.122093994843045534e-02,9.552637934684753418e-01,1.612647588692241868e-02,-2.286860101190502093e-03,-4.183208579072577454e-02,-7.966824448170096995e-02,-2.547537497865048906e-02,1.016050297766923904e-02,5.196306992897751359e-02,4.771744567774346274e-02,8.738227629867716117e-02,-2.930083811283111794e-01,1.146055817604064719e-01,-2.982588768005370872e-01,-1.930083811283111461e-01,2.146055817604064775e-01,-1.982588768005371094e-01,5.064542632781339204e-01,-6.493497490882873535e-01,2.385377883911132812e-04,9.846271616915068137e+01,0.000000000000000000e+00
2.246802000000000188e+00,-1.742693945211101214e-01,3.090729109242176115e-02,9.553076028823852539e-01,1.735051012681975910e-02,-1.339107832814656618e-03,-3.946036594569796163e-02,-8.062020110728820854e-02,-1.758367963173707027e-02,2.263479307293891907e-02,5.059273948432819329e-02,2.481587020235122287e-02,1.042118984703487017e-01,-2.905168771743774636e-01,1.042405426502227561e-01,-2.856935858726501465e-01,-1.905168771743774303e-01,2.042405426502227617e-01,-1.856935858726501409e-01,5.054884320084138682e-01,-6.520975232124328613e-01,8.574298620223999023e-01,9.939843159487492130e+01,0.000000000000000000e+00
2.275367000000000139e+00,-1.765914888335495814e-01,2.947931904169288908e-02,9.555374979972839355e-01,2.023078107555759467e-02,-1.118461745095444826e-03,-3.492809678975265786e-02,-8.367374880927047620e-02,-3.389218703778720115e-02,2.715582586824893951e-02,9.642075238284200656e-02,-3.517534160538156318e-02,1.030774716728840024e-01,-2.958391129970550648e-01,-2.432241678237914984e-01,-3.049236140744814305e-01,-1.958391129970550593e-01,-1.432241678237914928e-01,-2.080503344535827581e-01,5.049396743190972536e-01,-6.635192036628723145e-01,-3.131142854690551758e-01,1.954804375174934705e+02,0.000000000000000000e+00
2.298048000000000091e+00,-1.781078361038636038e-01,2.854237011223134668e-02,9.556468725204467773e-01,1.980863518946422708e-02,-1.335820371723084321e-03,-3.141783131963726133e-02,-7.863040175172925084e-02,-2.627877712194190071e-02,1.179029792547225952e-02,-1.072769773163023965e-01,1.161067934021390788e-02,2.035066043810352665e-01,-1.822076678276062234e-01,6.397559642791747492e-02,-1.436063968077365693e-01,-8.220766782760620395e-02,1.639755964279174805e-01,-5.658702850341796459e-02,5.067674187061024238e-01,-6.286392807960510254e-01,4.425922632217407227e-01,9.792313122471968256e+01,0.000000000000000000e+00
2.325139000000000067e+00,-1.796361511038172820e-01,2.770760315300270157e-02,9.557154774665832520e-01,1.778154844654981567e-02,-1.714454774739415654e-03,-2.794031596221012784e-02,-6.782866477120973181e-02,-1.493840274836431836e-02,1.766313984990119934e-02,-8.485082198969992606e-02,-2.394356747400985808e-02,1.647655270234318625e-01,-2.242289602756500355e-01,2.923258543014525812e-02,-1.452163517386836356e-01,-1.242289602756500161e-01,1.292325854301452637e-01,-6.787698268890381137e-02,5.063651561601911766e-01,-6.272992491722106934e-01,1.702975034713745117e-01,1.109035369121137364e+02,0.000000000000000000e+00
2.347534000000000010e+00,-1.811118408290392223e-01,2.695397054035221854e-02,9.558981060981750488e-01,1.298786074202111333e-02,-2.094684957913983681e-03,-2.448774987776678597e-02,-7.881187174221734870e-02,-2.930624056973460748e-02,1.099890097975730896e-02,-3.245571119437161700e-01,-1.772055659867216235e-02,1.584758720395630371e-01,1.048616857729075258e-01,9.337201714515686035e-02,-2.046929833925854314e-01,1.935499191284179576e-01,1.933720171451568659e-01,-1.367517828941345048e-01,5.065369450885380820e-01,-6.464615464210510254e-01,4.573723077774047852e-01,-5.409413175473343216e+01,0.000000000000000000e+00
2.375483000000000011e+00,-1.832498879855432861e-01,2.586813491847594557e-02,9.560446739196777344e-01,4.443490649641912774e-03,-6.187447561871728396e-04,-1.982263038644181338e-02,-6.092379695159293868e-02,-1.870579043206539380e-02,1.515838783234357834e-02,-2.951972641452784152e-01,2.003969612654201218e-02,1.666974701386224056e-01,1.957288725557329578e-01,1.094855844974517711e-01,-2.318925052049020941e-01,2.181655883789062333e-01,2.094855844974517767e-01,-1.766467809677123857e-01,5.059537524526706020e-01,-6.605750918388366699e-01,1.442086696624755859e-02,9.709826293903557826e+01,0.000000000000000000e+00
2.399439999999999795e+00,-1.846310691860024167e-01,2.519057861960054268e-02,9.562130570411682129e-01,-7.785007675611992821e-04,3.561706388222063424e-05,-1.742735034067578737e-02,-7.704796271125559370e-02,-2.296171727453284739e-02,4.893443081527948380e-03,-2.381909456655587898e-01,2.044307785453939111e-02,1.096025900895189059e-01,2.278610770348549197e-01,1.102989912033081055e-01,-2.356145875089136199e-01,2.215684533119201549e-01,2.102989912033081110e-01,-1.868179321289062389e-01,5.068697108733755119e-01,-6.554265022277832031e-01,-9.075486660003662109e-02,8.972391942803707821e+01,0.000000000000000000e+00
2.422699000000000158e+00,-1.860259909695641256e-01,2.447017587429869273e-02,9.564503431320190430e-01,-5.052893103179590013e-03,-4.102043829166124311e-04,-1.478471892094038870e-02,-6.635373591820976913e-02,-1.804296416267227657e-02,2.867555432021617889e-02,-2.013523233137041180e-01,-3.025906947387869625e-02,9.514608330723237084e-02,2.505594456677840975e-01,1.027856409549713079e-01,-1.986728138023710899e-01,2.118339657783508134e-01,2.027856409549713135e-01,-1.571132898330688532e-01,5.048368996175368606e-01,-6.679053306579589844e-01,3.113752603530883789e-01,8.456546686870913732e+01,0.000000000000000000e+00
