timestamp,x,y,z,roll,pitch,yaw,vx,vy,vz,p,q,r,psp,qsp,rsp,pres,qres,rres,thrust_sp, thrust_res,wind_mag,wind_angle,wind_obs
0.000000000000000000e+00,2.463021654733388646e-02,1.275481474392372618e-02,9.909260272979736328e-01,1.655558331378056969e-02,-1.012735963532129801e-02,-1.111913077503018073e-03,1.354458474438639641e-02,3.699444919367738532e-02,2.004405017942190170e-03,-5.145690360440284550e-02,-2.450617690939571602e-02,2.622823614797208450e-02,-6.960598601283619902e-02,-3.942854196523622179e-02,-2.923169045080054040e-03,0.000000000000000000e+00,0.000000000000000000e+00,0.000000000000000000e+00,5.124909757756697104e-01,-0.000000000000000000e+00,-2.986847162246704102e-01,4.135164887688760160e+01,1.459089517593383789e-01
2.580599999999999908e-02,2.510229386300917576e-02,1.446341215406389373e-02,9.909809231758117676e-01,1.674397687443983027e-02,-1.022872514817074752e-02,-8.959303470108093788e-04,-1.772881323954022268e-03,3.647762178377349923e-02,9.965368546545505524e-03,6.778014056361410244e-02,-3.352371664878091989e-02,4.355953483843243330e-03,-7.539305239594792929e-02,-5.400778313688671395e-02,-2.254037489145876982e-03,0.000000000000000000e+00,0.000000000000000000e+00,0.000000000000000000e+00,5.118928419235453386e-01,0.000000000000000000e+00,5.072726011276245117e-01,9.333503361203365500e+01,1.459089517593383789e-01
5.349500000000000088e-02,2.572557880564087934e-02,1.691489522969520307e-02,9.911577701568603516e-01,1.688588588936081741e-02,-1.108971058632590712e-02,-8.022571201415527528e-04,9.424971042232607038e-03,3.206910413824638761e-02,5.520122125744819641e-03,-1.590557531853369413e-02,-1.745956331564651673e-02,-2.504133528535095951e-02,-7.810859716188546520e-02,-4.781074220653224599e-02,-2.022327161234793724e-03,0.000000000000000000e+00,0.000000000000000000e+00,0.000000000000000000e+00,5.122134856464837238e-01,-0.000000000000000000e+00,3.085941076278686523e-01,1.195343620228277786e+02,1.459089517593383789e-01
7.868500000000000494e-02,2.610488090788310941e-02,1.846967098370144722e-02,9.913226366043090820e-01,1.702169583674258829e-02,-1.120023583754203855e-02,-7.278104275346019723e-04,7.841045766001487546e-03,3.601014504684293960e-02,2.167251659557223320e-03,2.875112139084701895e-02,4.690390716197224800e-03,1.026085976512296737e-02,-7.402420492138896135e-02,-5.111275125517459467e-02,-1.788506700028946739e-03,0.000000000000000000e+00,0.000000000000000000e+00,0.000000000000000000e+00,5.124565807627292635e-01,0.000000000000000000e+00,5.578197240829467773e-01,-1.004084663089580687e+02,1.459089517593383789e-01
1.001660000000000050e-01,2.654586236186421908e-02,1.997475425749848862e-02,9.914675951004028320e-01,1.704866456050361384e-02,-1.094519630995316462e-02,-8.412107635117969766e-04,-3.693322041678526266e-03,3.087142633124931312e-02,1.260635629296302795e-02,8.532216918883863549e-03,-2.034478006494535533e-03,-1.615532548889770520e-02,-7.771783726696461503e-02,-5.813327758576262300e-02,-2.078218032833867301e-03,0.000000000000000000e+00,0.000000000000000000e+00,0.000000000000000000e+00,5.116663558378234944e-01,-0.000000000000000000e+00,-1.275967359542846680e-01,6.376530054397255043e+01,1.459089517593383789e-01
1.267669999999999908e-01,2.712432069264517076e-02,2.256900758859340522e-02,9.916700720787048340e-01,1.595627787856447252e-02,-9.144262150473592143e-03,-6.813370292888440947e-04,9.723924228623080646e-03,4.155886739755088738e-02,-9.727886877954006195e-03,-6.651081515747352124e-02,1.142713419904813343e-01,1.700522412111008658e-02,-5.959036096770151114e-02,-3.352250397611259564e-02,-1.743570428444696230e-03,0.000000000000000000e+00,0.000000000000000000e+00,0.000000000000000000e+00,5.133274496755380056e-01,-0.000000000000000000e+00,-2.303949594497680664e-01,7.997469182186847547e+01,1.459089517593383789e-01
1.539190000000000003e-01,2.772623178011690559e-02,2.509182064610213092e-02,9.917062520980834961e-01,1.392879628729799465e-02,-7.488252941876494262e-03,-4.480022497218615952e-04,7.993522817844244885e-03,3.898119672888809145e-02,-5.599644035100936890e-03,-3.297525054107409287e-02,1.104741529272267389e-02,3.331778557937577212e-02,-4.821968988971215425e-02,-2.558157712872084766e-02,-1.141818106462300086e-03,0.000000000000000000e+00,0.000000000000000000e+00,0.000000000000000000e+00,5.130312429255553530e-01,0.000000000000000000e+00,-1.957398653030395508e-01,8.180462244391995341e+01,1.459089517593383789e-01
1.798329999999999929e-01,2.806120665680261750e-02,2.675304050764931718e-02,9.917973279953002930e-01,1.192640463538131683e-02,-6.215207407815892537e-03,-4.607605792149049883e-04,2.266652637928286227e-03,3.773432134017888628e-02,-1.377119403332471848e-02,-1.115193652527390750e-01,7.109844417245037018e-02,-5.501232734716870673e-03,-3.464095019965743316e-02,-2.137886417617663667e-02,-1.204865551875211604e-03,0.000000000000000000e+00,0.000000000000000000e+00,0.000000000000000000e+00,5.136489303001926521e-01,-0.000000000000000000e+00,2.943001985549926758e-01,9.877505388970620004e+01,1.459089517593383789e-01
2.047930000000000028e-01,2.840390308840123196e-02,2.836895696579448331e-02,9.918020367622375488e-01,1.047743091272443708e-02,-5.447223027168934806e-03,-1.311971601734568523e-04,1.217220638497444607e-02,4.203081837512284008e-02,-1.202107965946197510e-02,-7.163041105974989053e-02,4.902288363295864704e-02,1.048752949016833712e-02,-2.032173297692553560e-02,-7.211820923507252304e-03,-3.396665832344214486e-04,0.000000000000000000e+00,0.000000000000000000e+00,0.000000000000000000e+00,5.135415664527839263e-01,-0.000000000000000000e+00,-1.112533807754516602e-01,1.324906844632083676e+02,1.459089517593383789e-01
2.286660000000000081e-01,2.883955800711603817e-02,2.961849574739003343e-02,9.917830228805541992e-01,9.165248240700845511e-03,-4.787697316085859356e-03,-2.008939523832700691e-04,9.288009438234491946e-03,3.750131782838930783e-02,-1.392942108213901520e-02,-7.167255805436274774e-02,2.392618608169808439e-02,2.856919850457670406e-04,-1.506093768588119552e-02,-6.303135865288862771e-03,-5.407738882580170880e-04,0.000000000000000000e+00,0.000000000000000000e+00,0.000000000000000000e+00,5.137028828168506145e-01,-0.000000000000000000e+00,2.629387378692626953e-02,6.709315995289952639e+01,1.459089517593383789e-01
2.501189999999999802e-01,2.930010723972270581e-02,3.087077892839948726e-02,9.917663335800170898e-01,8.399386008743018467e-03,-3.842297914187220442e-03,-1.905775778135770297e-04,3.017722644942574632e-03,3.896692373549413141e-02,-1.529594045132398605e-02,-1.199085518253233812e-02,4.665132431000381524e-02,2.781319683694408358e-03,-7.230258158543043101e-03,-4.375883768576380173e-03,-5.188449344566969934e-04,0.000000000000000000e+00,0.000000000000000000e+00,0.000000000000000000e+00,5.138274049645931152e-01,-0.000000000000000000e+00,6.132447719573974609e-02,9.142515562574718047e+01,1.459089517593383789e-01
2.759110000000000174e-01,2.975351635110272744e-02,3.208666756478127657e-02,9.916903376579284668e-01,7.415902762900939728e-03,-3.121476344765561350e-03,-2.357047676423034473e-04,1.519896289219332779e-02,4.035712460218499747e-02,-1.706455834209918976e-02,-9.049587626506902516e-02,2.778184986647849394e-02,-1.067582618444141464e-02,1.058922769578639431e-03,1.142684848501946022e-02,-6.968894676022130419e-04,0.000000000000000000e+00,0.000000000000000000e+00,0.000000000000000000e+00,5.139904490067394027e-01,-0.000000000000000000e+00,7.425349950790405273e-01,-3.727869437668769326e+00,1.485069990158081055e-01
3.028910000000000213e-01,3.042959934127386842e-02,3.393895738558162789e-02,9.914967417716979980e-01,6.149694140931022748e-03,-2.208551624388155332e-03,2.422138055615948265e-04,8.505394686823635614e-03,4.501687264697789431e-02,-1.901294849812984467e-02,-2.652157978557241613e-02,1.735084437343825323e-02,5.616511916744482136e-02,1.421693959244188510e-02,1.077595558080312807e-02,6.445906459088823759e-04,0.000000000000000000e+00,0.000000000000000000e+00,0.000000000000000000e+00,5.141749502354002743e-01,-0.000000000000000000e+00,3.903993368148803711e-01,9.998892876937919993e+01,1.485069990158081055e-01
3.242869999999999919e-01,3.088801678745163939e-02,3.517117071652320348e-02,9.913330674171447754e-01,5.358063479787893157e-03,-1.949127578913412151e-03,7.533493847519293725e-05,8.520433903209509788e-03,3.567440048845901823e-02,-1.777739264070987701e-02,-2.845767621252119975e-02,-1.446108009131088015e-02,-4.380955949352837581e-02,1.222301761491355332e-02,1.387352833910416618e-02,1.732999139344437722e-04,0.000000000000000000e+00,0.000000000000000000e+00,0.000000000000000000e+00,5.141179456675625259e-01,-0.000000000000000000e+00,2.289389371871948242e-01,9.925685543375890063e+01,1.485069990158081055e-01
3.530929999999999902e-01,3.133860145113077228e-02,3.629475887190969363e-02,9.910659193992614746e-01,4.515265442517784646e-03,-1.896350108604005769e-03,5.007650393231176996e-04,1.414986612912268009e-02,4.476778050766274525e-02,-2.320502325892448425e-02,-4.936094213391566815e-02,-3.234587257376805771e-03,4.448177306824436378e-02,2.725982550813682570e-02,1.914807817653903232e-02,1.347626146187830276e-03,0.000000000000000000e+00,0.000000000000000000e+00,0.000000000000000000e+00,5.145735403877016445e-01,-0.000000000000000000e+00,6.049191951751708984e-02,8.244594305603828843e+01,1.485069990158081055e-01
3.765020000000000033e-01,3.165784512549422308e-02,3.706072908022964296e-02,9.908627867698669434e-01,4.783278278224101926e-03,-2.053511985008249496e-03,4.906439470213078613e-04,1.395939440194274295e-02,4.481841293461903686e-02,-2.261790819466114044e-02,5.683578390448876250e-02,-3.728494722511402348e-02,-1.392494145190247001e-02,2.499749985181312986e-02,1.750965340505837575e-02,1.323245354627078374e-03,0.000000000000000000e+00,0.000000000000000000e+00,0.000000000000000000e+00,5.145744860198741000e-01,0.000000000000000000e+00,3.298360109329223633e-01,9.932624332553706381e+01,1.485069990158081055e-01
3.997370000000000090e-01,3.200971207305925575e-02,3.781852732934899014e-02,9.906134009361267090e-01,4.752944060428793312e-03,-1.882936242003641070e-03,5.918810735683667241e-04,9.266152306421018489e-03,4.467875786560265849e-02,-2.638505958020687103e-02,-4.388974427972485923e-03,1.775854114638929573e-02,1.988573676934074150e-02,2.578400812540493012e-02,1.523065099188122135e-02,1.613104929713171654e-03,0.000000000000000000e+00,0.000000000000000000e+00,0.000000000000000000e+00,5.149038171147940490e-01,-0.000000000000000000e+00,6.982123851776123047e-02,9.448449297764426547e+01,1.485069990158081055e-01
4.279640000000000111e-01,3.257959909753979644e-02,3.901662292058596937e-02,9.901102185249328613e-01,5.375352735613375676e-03,-1.928005777661168096e-03,6.656285597013438969e-04,2.260547052948423674e-02,4.853647637224402234e-02,-2.862195484340190887e-02,3.015101456607116939e-02,2.075956021031131565e-05,2.097071172405614442e-02,2.584874494590803234e-02,2.682002015517470639e-02,1.778714486631693958e-03,0.000000000000000000e+00,0.000000000000000000e+00,0.000000000000000000e+00,5.151469413255342911e-01,0.000000000000000000e+00,1.835385560989379883e-01,1.109209675548756024e+02,1.485069990158081055e-01
4.521379999999999844e-01,3.327223252294581740e-02,3.935799541098334436e-02,9.897183775901794434e-01,5.412533476492596869e-03,-2.064726462197796764e-03,8.036637881656670968e-04,1.607377341962860917e-02,4.820123830229287171e-02,-2.791871875524520874e-02,3.951451606199961678e-03,-3.270944084421363585e-02,-2.612394664141259870e-03,2.529751818547074094e-02,1.937383618448598743e-02,2.188896112767679814e-03,0.000000000000000000e+00,0.000000000000000000e+00,0.000000000000000000e+00,5.151576293033763854e-01,-0.000000000000000000e+00,1.779967546463012695e-01,4.591795818612128954e+01,1.485069990158081055e-01
4.737310000000000132e-01,3.394621943554308047e-02,3.971928077130760376e-02,9.892199635505676270e-01,5.643406200058934813e-03,-2.359295092642765823e-03,1.027001317090513611e-03,2.059088544105849156e-02,4.610036038884787052e-02,-3.305648267269134521e-02,1.429708317313626437e-02,-3.960381023350471180e-02,1.602394631273080378e-02,2.260432083736981998e-02,2.259353398429796503e-02,2.803803898175583065e-03,0.000000000000000000e+00,0.000000000000000000e+00,0.000000000000000000e+00,5.156149702455377071e-01,0.000000000000000000e+00,1.874530315399169922e-02,9.267372786640385129e+01,1.485069990158081055e-01
5.037850000000000383e-01,3.498300122002172968e-02,4.029649201316257145e-02,9.885105490684509277e-01,6.312778029329823085e-03,-2.991716997827742475e-03,1.032336668926805024e-03,2.465314761357054532e-02,4.867004378697459971e-02,-3.201124444603919983e-02,3.290877693265539805e-02,-1.301513561934693544e-02,-9.177919563165912870e-03,2.127798660283108587e-02,2.192169173294105516e-02,2.815525409697927639e-03,0.000000000000000000e+00,0.000000000000000000e+00,0.000000000000000000e+00,5.156333259472393182e-01,0.000000000000000000e+00,-7.586085796356201172e-02,1.050180312062054497e+02,1.485069990158081055e-01
5.251160000000000272e-01,3.568994780993825500e-02,4.070358545462010591e-02,9.879929423332214355e-01,6.785918945522578793e-03,-3.496725276161516405e-03,1.187652497461161869e-03,2.027202794442708664e-02,4.664145790198705177e-02,-3.697436302900314331e-02,9.229978554984911987e-03,-5.654153167214952952e-02,3.368524385072482752e-02,1.668693893502714090e-02,1.514351598501510049e-02,3.272856640978705212e-03,0.000000000000000000e+00,0.000000000000000000e+00,0.000000000000000000e+00,5.160809984040848342e-01,0.000000000000000000e+00,3.164708614349365234e-02,9.812488135242351461e+01,1.485069990158081055e-01
5.506649999999999601e-01,3.660924176346561087e-02,4.090620687981886411e-02,9.872464537620544434e-01,8.106744338390573304e-03,-3.615760140931678635e-03,1.271698520734355952e-03,2.541637588587353572e-02,5.010426295188719764e-02,-3.276433795690536499e-02,6.025969654006216314e-02,4.887894421524187349e-02,9.083138003808858760e-03,1.163789938404523328e-02,1.993375006021878837e-02,3.483535885885791217e-03,0.000000000000000000e+00,0.000000000000000000e+00,0.000000000000000000e+00,5.158718225119104384e-01,-0.000000000000000000e+00,-4.053791761398315430e-01,-3.831280550759513659e+01,1.485069990158081055e-01
5.776649999999999840e-01,3.744658304611791361e-02,4.091970271260190334e-02,9.863408207893371582e-01,9.165838322925654036e-03,-4.156211127581244114e-03,1.112517321776619822e-03,2.165532685865603421e-02,4.552045159119153667e-02,-3.481642901897430420e-02,3.872281272720634604e-02,-3.275708883461250776e-02,-3.184201559200944276e-02,8.700090812914238261e-04,1.335576657026210645e-02,3.062002387033302409e-03,0.000000000000000000e+00,0.000000000000000000e+00,0.000000000000000000e+00,5.161319782419497848e-01,0.000000000000000000e+00,1.330007314682006836e-01,7.730066593161930655e+01,1.485069990158081055e-01
5.991950000000000331e-01,3.800753133675795203e-02,4.100264510181250016e-02,9.857133626937866211e-01,9.334076988879171435e-03,-4.429746976716941731e-03,1.485376550820734784e-03,1.688544636147764483e-02,4.364185439865161248e-02,-4.308551922440528870e-02,6.447148041123568728e-03,6.131130546671200755e-03,3.895708482128446004e-02,-8.401068781857608421e-04,8.806532379059808444e-03,4.123996760743153800e-03,0.000000000000000000e+00,0.000000000000000000e+00,0.000000000000000000e+00,5.168391631337809766e-01,0.000000000000000000e+00,3.998891115188598633e-01,1.060593891678222747e+02,1.485069990158081055e-01
6.267530000000000046e-01,3.883405337005674945e-02,4.121418537327064396e-02,9.846584796905517578e-01,9.859160589511271888e-03,-5.300645237686918421e-03,1.618711744347604495e-03,3.548699463404304810e-02,5.055784455742611677e-02,-4.071056842803955078e-02,3.425596606699572028e-02,-1.787843759722024944e-02,-8.559590903363643172e-03,1.955726949837002099e-03,1.942721367718395348e-02,4.448698634816616870e-03,0.000000000000000000e+00,0.000000000000000000e+00,0.000000000000000000e+00,5.168032017280648205e-01,0.000000000000000000e+00,-2.049618959426879883e-01,3.966259432156222431e+01,1.485069990158081055e-01
6.483079999999999954e-01,3.945380719912501555e-02,4.135785188785744138e-02,9.839836359024047852e-01,1.014498572933495574e-02,-6.035641483369103000e-03,1.763368571052724822e-03,1.855911111493163332e-02,4.583820577540671098e-02,-3.893146663904190063e-02,1.932027237742901457e-02,-6.260580746188845747e-02,2.434364172675065191e-02,-4.243071734618802590e-03,-9.201982471131634833e-04,4.941468009661553751e-03,0.000000000000000000e+00,0.000000000000000000e+00,0.000000000000000000e+00,5.167652809021604510e-01,0.000000000000000000e+00,2.854526042938232422e-02,3.262253051382790403e+01,1.485069990158081055e-01
6.750429999999999486e-01,4.043156510991880587e-02,4.160667545911290316e-02,9.829540848731994629e-01,1.075381427338558196e-02,-6.492768183135932958e-03,1.839782323718499799e-03,2.801225890908488197e-02,4.858996421779472608e-02,-3.994505852460861206e-02,2.486693118433873015e-02,3.745875688759357780e-02,1.052191173054799894e-02,-4.912762193227912175e-03,6.912410490979923293e-03,5.120613151647024353e-03,0.000000000000000000e+00,0.000000000000000000e+00,0.000000000000000000e+00,5.169740319179727539e-01,0.000000000000000000e+00,1.264146566390991211e-01,9.370004575146830916e+01,1.485069990158081055e-01
7.030110000000000525e-01,4.142593700838548970e-02,4.192286260816854848e-02,9.818630814552307129e-01,1.099670912592805479e-02,-6.538242596895837977e-03,1.893786259466268083e-03,3.046592115533838449e-02,4.527677025947994538e-02,-3.949359431862831116e-02,4.211031840726813663e-02,-4.426762389240433693e-02,1.517719952923261189e-03,-9.044264097216290349e-03,8.047073105159877407e-03,5.266992763620137463e-03,0.000000000000000000e+00,0.000000000000000000e+00,0.000000000000000000e+00,5.170740046577738669e-01,-0.000000000000000000e+00,2.688204050064086914e-01,8.264765220260710521e+01,1.485069990158081055e-01
7.236690000000000067e-01,4.207901411513000067e-02,4.218134815846608099e-02,9.811576604843139648e-01,1.058530604441717746e-02,-6.543582568526273846e-03,1.923247611499936732e-03,1.580515726473933139e-02,4.126662469473695027e-02,-4.885525628924369812e-02,-2.979693549048963858e-02,7.606574082673913349e-03,2.393087396537812647e-02,-8.749368603414540979e-03,-3.484614319231860591e-03,5.400120276354780646e-03,0.000000000000000000e+00,0.000000000000000000e+00,0.000000000000000000e+00,5.178717177764068369e-01,0.000000000000000000e+00,5.908501148223876953e-02,7.245182072472617030e+00,1.485069990158081055e-01
7.517840000000000078e-01,4.290986319713370467e-02,4.261962504686037795e-02,9.799532890319824219e-01,1.000690795303546717e-02,-7.157994081313567847e-03,2.453430025587603151e-03,4.300522260739950142e-02,4.818306992232902763e-02,-4.993375018239021301e-02,-1.875197476294438934e-02,-2.970117227236207871e-02,3.353786480997846681e-02,1.545469016051324168e-03,1.701967547620694687e-02,6.795393296575746866e-03,0.000000000000000000e+00,0.000000000000000000e+00,0.000000000000000000e+00,5.181176439518838661e-01,-0.000000000000000000e+00,7.789713144302368164e-01,7.247207735825713826e+01,1.557942628860473633e-01
7.744090000000000140e-01,4.340972071095795110e-02,4.290366340994800076e-02,9.791720509529113770e-01,9.905839223061029333e-03,-7.575978914185599322e-03,2.445500242951665053e-03,2.399177790882326203e-02,4.286738815999870805e-02,-4.353485628962516785e-02,-1.601339907446677714e-03,-4.145000153940224530e-02,-1.945557398800534105e-02,-2.430436674985676088e-03,-4.112474423633066638e-03,6.864770727228020064e-03,0.000000000000000000e+00,0.000000000000000000e+00,0.000000000000000000e+00,5.177546018642461556e-01,-0.000000000000000000e+00,5.120121240615844727e-01,-3.879218574958706256e+01,1.557942628860473633e-01
7.992479999999999585e-01,4.418908537062306990e-02,4.335906230928094490e-02,9.779550433158874512e-01,9.604865502921087345e-03,-7.756996218086120720e-03,2.597842841301697091e-03,3.200920430610407902e-02,4.369007599510128792e-02,-4.929584637284278870e-02,-6.230038285356703093e-02,1.724569912072723005e-02,2.875671330200576387e-02,1.396657800688782571e-03,4.487597534304651158e-03,7.255273425622654759e-03,0.000000000000000000e+00,0.000000000000000000e+00,0.000000000000000000e+00,5.183381716109446424e-01,-0.000000000000000000e+00,3.415595293045043945e-01,8.449321029747957823e+01,1.557942628860473633e-01
8.248959999999999626e-01,4.497027118274476987e-02,4.388460260103787397e-02,9.768193960189819336e-01,9.927091452091033746e-03,-7.814735155676766354e-03,2.672527026285336383e-03,2.979349109375309043e-02,4.714384076576313282e-02,-4.608755931258201599e-02,4.731053841625503659e-02,4.511420977314802364e-03,3.006286412363516625e-02,2.579416551974633709e-03,1.968075451627726222e-03,7.474638461883231777e-03,0.000000000000000000e+00,0.000000000000000000e+00,0.000000000000000000e+00,5.182511680826196176e-01,0.000000000000000000e+00,2.465704679489135742e-01,1.027243443998884374e+02,1.557942628860473633e-01
8.514089999999999714e-01,4.566894156782374398e-02,4.425301643830990839e-02,9.756282567977905273e-01,9.762651683125362495e-03,-7.401146073528819258e-03,2.488082777340050802e-03,2.167935417829910602e-02,3.814206632651991752e-02,-4.172522947192192078e-02,-5.589879834386265664e-03,4.127356526295399008e-02,-4.076456812022745402e-02,-3.409462243504157199e-03,-7.858193648911214338e-04,6.969969035375722655e-03,0.000000000000000000e+00,0.000000000000000000e+00,0.000000000000000000e+00,5.180740513333774722e-01,-0.000000000000000000e+00,-2.610732316970825195e-01,8.399037177078324135e+01,1.557942628860473633e-01
8.748660000000000325e-01,4.615171193886424134e-02,4.454380462953867054e-02,9.748223423957824707e-01,9.376032314999345474e-03,-7.362763901384905552e-03,2.770222663130615225e-03,3.297003055544808769e-02,4.853544060715230674e-02,-5.495289713144302368e-02,-4.659739275538931497e-02,4.425312110425004553e-02,3.166272804391304790e-02,8.878817548681096003e-03,1.000334185889282211e-02,7.713393072134144823e-03,0.000000000000000000e+00,0.000000000000000000e+00,0.000000000000000000e+00,5.191876007743740917e-01,-0.000000000000000000e+00,1.639512777328491211e-01,9.418557657880782585e+01,1.557942628860473633e-01
8.989430000000000476e-01,4.681256914567478306e-02,4.505693910945113290e-02,9.735692143440246582e-01,9.257428742500435973e-03,-7.664032649558505383e-03,3.124277064021297769e-03,2.356196614613090962e-02,4.554211079410528523e-02,-4.171037673950195312e-02,5.286727538392321790e-02,-2.425362003422476195e-02,8.778075492184648707e-03,6.583610643245228940e-03,-2.247750232418150771e-04,8.749109705828483907e-03,0.000000000000000000e+00,0.000000000000000000e+00,0.000000000000000000e+00,5.183661690779792774e-01,0.000000000000000000e+00,-4.203702211380004883e-01,-1.012584013888961181e+02,1.646731615066528431e-01
9.235710000000000308e-01,4.748524399549231001e-02,4.560294292263076393e-02,9.724103212356567383e-01,9.253733120859464895e-03,-8.001075906334920163e-03,3.023816704378476904e-03,3.498038159992167967e-02,3.926381207225337899e-02,-4.165248200297355652e-02,-6.447096419432229650e-03,7.813509846991480157e-03,-2.924243410218436631e-02,2.654095746787159434e-03,8.643403792753384662e-03,8.431492059043088627e-03,0.000000000000000000e+00,0.000000000000000000e+00,0.000000000000000000e+00,5.185141012583804887e-01,-0.000000000000000000e+00,-1.523768901824951172e-02,9.717161917072151311e+01,1.646731615066528431e-01
9.492730000000000334e-01,4.794236050604147592e-02,4.668308909208063184e-02,9.713938832283020020e-01,9.776669216629648232e-03,-7.969200974281331895e-03,3.153446471300827211e-03,2.879834324972495307e-02,4.342424027448200941e-02,-4.208910837769508362e-02,-4.989365966552907969e-03,-2.436805166231810829e-02,2.405524851566294420e-02,4.407310471369578139e-03,2.853867999793940295e-03,8.817373163463038122e-03,0.000000000000000000e+00,0.000000000000000000e+00,0.000000000000000000e+00,5.186863227302697110e-01,-0.000000000000000000e+00,-4.222859144210815430e-01,9.055498269529837785e+01,1.646731615066528431e-01
9.745449999999999946e-01,4.827372215210615214e-02,4.743806950558338009e-02,9.707322716712951660e-01,1.016675498052141240e-02,-7.570832698897023150e-03,3.228508302663368051e-03,2.468354983995324839e-02,4.066151034559949834e-02,-3.340832516551017761e-02,5.745471493327181794e-02,5.817844999786378653e-03,1.102561039139204717e-02,-3.317083181246863188e-05,3.625739650988245733e-03,9.024117390325769872e-03,0.000000000000000000e+00,0.000000000000000000e+00,0.000000000000000000e+00,5.181541753821389262e-01,0.000000000000000000e+00,-3.162980079650878906e-03,9.484219681466700536e+01,1.646731615066528431e-01
1.001360000000000028e+00,4.880279777933036606e-02,4.857398852720035826e-02,9.698258638381958008e-01,1.028998476827816880e-02,-7.328006851689217171e-03,3.174699138877570045e-03,3.031525431530929932e-02,4.483991502645731653e-02,-3.652201592922210693e-02,-1.369105356101624335e-03,1.191843433842948094e-02,-3.778057708287619471e-02,3.816139214925654173e-03,1.080872175724335513e-02,8.840034573965038778e-03,0.000000000000000000e+00,0.000000000000000000e+00,0.000000000000000000e+00,5.185162387583097665e-01,-0.000000000000000000e+00,1.228891611099243164e-01,8.958180368197662347e+01,1.646731615066528431e-01
1.027446000000000081e+00,4.933605806807457583e-02,4.994765028744592439e-02,9.689120054244995117e-01,1.006215006066352689e-02,-7.416520441937413111e-03,3.456644968655368192e-03,2.093515492156125188e-02,4.617739977826811060e-02,-4.089467972517013550e-02,-2.166060268843022314e-04,-2.664748316811923340e-02,2.683690949377126947e-02,6.840387989304817611e-03,2.524908730505955393e-03,9.667369501211775518e-03,0.000000000000000000e+00,0.000000000000000000e+00,0.000000000000000000e+00,5.189684720018594710e-01,0.000000000000000000e+00,3.434058427810668945e-01,1.252513123203984833e+02,1.646731615066528431e-01
1.053228000000000053e+00,4.976133269685148464e-02,5.111108132157597683e-02,9.683795571327209473e-01,1.023795137348385356e-02,-7.674308883243829982e-03,3.410004894429925857e-03,2.177899029709364984e-02,4.398110743959507407e-02,-3.860945254564285278e-02,4.545062132523298298e-02,2.438773326284833336e-03,-1.413924279701422003e-02,4.824651648459575212e-03,3.385056576811640988e-03,9.532783399103905708e-03,0.000000000000000000e+00,0.000000000000000000e+00,0.000000000000000000e+00,5.189056661844539953e-01,0.000000000000000000e+00,1.739388704299926758e-01,1.807183701549124422e+01,1.646731615066528431e-01
1.079172000000000020e+00,5.020159246362002753e-02,5.225063407218830114e-02,9.678826928138732910e-01,1.040029260387737194e-02,-7.926529048043473580e-03,3.341967165818104848e-03,3.333181113907744686e-02,4.677599283507187511e-02,-4.184150695800781250e-02,-1.832369697920055440e-02,-1.758122092987454699e-02,-2.966012812587336036e-03,7.241914443719457348e-03,1.125709610917836889e-02,9.304531600158927329e-03,0.000000000000000000e+00,0.000000000000000000e+00,0.000000000000000000e+00,5.192541239602833647e-01,-0.000000000000000000e+00,-8.716976642608642578e-02,1.007419571253731050e+02,1.646731615066528431e-01
1.100508000000000042e+00,5.042291314640273692e-02,5.282510185290011095e-02,9.676221609115600586e-01,1.073769188411451830e-02,-7.991965141018297913e-03,3.126179511816364227e-03,3.216264003533292337e-02,4.229988694157404971e-02,-3.616452217102050781e-02,1.207870426643284367e-02,-1.409298132441640442e-02,-4.799726969371474056e-02,1.887559830821412994e-03,8.705422188270552780e-03,8.712637216325758160e-03,0.000000000000000000e+00,0.000000000000000000e+00,0.000000000000000000e+00,5.189176981470825512e-01,-0.000000000000000000e+00,2.503287792205810547e-02,1.013236228652805693e+02,1.646731615066528431e-01
1.125920000000000032e+00,5.090890559623956896e-02,5.394718304377184304e-02,9.672539830207824707e-01,1.128135126549545224e-02,-8.063654794217223198e-03,3.233167062380193357e-03,2.231830082427640680e-02,4.890497772562873297e-02,-3.085043653845787048e-02,6.762273164671674108e-02,-5.718476998177745435e-03,3.508497780838126107e-02,5.352433492912008275e-03,1.258533409268819403e-03,9.046865874196174939e-03,0.000000000000000000e+00,0.000000000000000000e+00,0.000000000000000000e+00,5.186149242859990904e-01,0.000000000000000000e+00,4.468132257461547852e-01,-7.851027877325022075e+01,1.646731615066528431e-01
1.150298000000000043e+00,5.136663033340654189e-02,5.509397226319116131e-02,9.669048190116882324e-01,1.138293993559949362e-02,-7.942317019284272916e-03,2.864973423564023524e-03,2.780622669765671004e-02,4.064807795435027016e-02,-3.589491918683052063e-02,-9.344852559950897128e-03,-1.500611260594502706e-02,-4.123903458113045012e-02,-1.846420459735505400e-03,8.242836940528392928e-03,7.982171365912615890e-03,0.000000000000000000e+00,0.000000000000000000e+00,0.000000000000000000e+00,5.190735020976907643e-01,-0.000000000000000000e+00,-5.739115476608276367e-01,1.005558139799227604e+02,1.646731615066528431e-01
1.176274999999999959e+00,5.179960972510024020e-02,5.635861664663843057e-02,9.665343761444091797e-01,1.143145374309355658e-02,-7.634413151887731175e-03,3.084972934069062610e-03,3.024648938311352495e-02,5.150438041080367124e-02,-3.320709243416786194e-02,2.043931847815354252e-02,2.289765508344229761e-02,2.075748762465630653e-03,8.769456366768570502e-03,1.199422601638128888e-02,8.575659645073452353e-03,0.000000000000000000e+00,0.000000000000000000e+00,0.000000000000000000e+00,5.189730088724280321e-01,-0.000000000000000000e+00,4.868090152740478516e-02,1.021444476789760216e+02,1.646731615066528431e-01
1.200822999999999974e+00,5.220734935526743364e-02,5.771229904836261415e-02,9.662353992462158203e-01,1.113435581091654775e-02,-7.856829596217584921e-03,2.943262095395820892e-03,3.189910512671004922e-02,4.368093162366629145e-02,-3.059078752994537354e-02,-3.242756033129069737e-02,-5.508234904640883084e-02,1.232985987687883547e-03,4.167807376846448947e-03,1.203936200837069440e-02,8.181895084604595692e-03,0.000000000000000000e+00,0.000000000000000000e+00,0.000000000000000000e+00,5.188593985059366531e-01,-0.000000000000000000e+00,-4.866719245910644531e-03,7.117624020854397315e+01,1.646731615066528431e-01
1.225079999999999947e+00,5.259391188080646262e-02,5.908268997969957914e-02,9.659174680709838867e-01,1.104888282882846365e-02,-7.998213586995595037e-03,3.071539925455374961e-03,2.208416332343813779e-02,5.113643866888581413e-02,-3.692707046866416931e-02,3.617855930510895102e-02,-5.212923309069802252e-03,1.191689079316209446e-02,1.284325703026021823e-02,3.559005126893011357e-03,8.582226381249280500e-03,0.000000000000000000e+00,0.000000000000000000e+00,0.000000000000000000e+00,5.194148418931556765e-01,0.000000000000000000e+00,3.162339925765991211e-01,1.000762595681069911e+02,1.646731615066528431e-01
1.250690000000000079e+00,5.318804178440581648e-02,6.106934820969977390e-02,9.654641151428222656e-01,1.103650205401065371e-02,-8.727348818207136816e-03,3.000726110522032499e-03,3.121356138822668075e-02,4.625654983535214954e-02,-2.913099341094493866e-02,-7.330795555563544147e-03,-6.358169813209655317e-03,-3.083068174606265824e-02,9.686317432823800949e-03,8.175690118888467861e-03,8.360747070215335253e-03,0.000000000000000000e+00,0.000000000000000000e+00,0.000000000000000000e+00,5.189379044034759803e-01,-0.000000000000000000e+00,9.531682729721069336e-01,9.571050168837780259e-01,1.906336545944213867e-01
1.277360000000000051e+00,5.405409059282927781e-02,6.297055797033539182e-02,9.650283455848693848e-01,1.153279772235574381e-02,-9.147672444520971169e-03,2.788051333725555594e-03,2.737109791190176292e-02,4.881587134071192075e-02,-2.910686656832695007e-02,7.465474520416194235e-03,-3.109353736590152878e-02,-1.446814803127970811e-02,1.074220786303891305e-02,1.883384012861264020e-03,7.796812247046869260e-03,0.000000000000000000e+00,0.000000000000000000e+00,0.000000000000000000e+00,5.190286376616317643e-01,-0.000000000000000000e+00,-4.895000457763671875e-01,9.149314332874548938e+01,2.043650388717651312e-01
1.298586999999999936e+00,5.491642952766236790e-02,6.419197101526834259e-02,9.647261500358581543e-01,1.205730172074427446e-02,-9.057555356595470286e-03,2.697672475875057159e-03,2.468894470575519820e-02,4.546493161154053358e-02,-2.835138514637947083e-02,3.507546145883131544e-02,-1.635718680061509778e-02,-4.320433340377825794e-04,5.450880888426845941e-03,1.696692833895101053e-03,7.544648100885842368e-03,0.000000000000000000e+00,0.000000000000000000e+00,0.000000000000000000e+00,5.190528207345034284e-01,0.000000000000000000e+00,4.292809963226318359e-02,1.114184648736409855e+02,2.043650388717651312e-01
1.325987999999999944e+00,5.622163861408149832e-02,6.598838261922529425e-02,9.643310904502868652e-01,1.245146530838724987e-02,-8.688170411969897700e-03,2.485672915633587148e-03,2.823203393162703953e-02,4.910862920155797950e-02,-2.386291511356830597e-02,-4.769135308347309359e-03,3.988745250678156495e-02,-1.971991671173642727e-02,7.825390671649695706e-03,8.418875818184980847e-03,6.912821119338163900e-03,0.000000000000000000e+00,0.000000000000000000e+00,0.000000000000000000e+00,5.188133740067916166e-01,-0.000000000000000000e+00,1.757351160049438477e-01,9.924178803644984725e+01,2.043650388717651312e-01
1.353115999999999985e+00,5.746985191294123191e-02,6.779599035684853725e-02,9.637899994850158691e-01,1.241525642435927120e-02,-8.631243413987910174e-03,2.411246371066325372e-03,2.337787372508815312e-02,5.054530753754237632e-02,-2.476590126752853394e-02,-1.047176479381604561e-02,-6.169509328623816631e-03,-1.856174889972555739e-02,1.016197461709938618e-02,5.455367879375828261e-03,6.720801699832745779e-03,0.000000000000000000e+00,0.000000000000000000e+00,0.000000000000000000e+00,5.189757402004918641e-01,-0.000000000000000000e+00,3.016966581344604492e-01,1.153645178741566468e+02,2.043650388717651312e-01
1.375162999999999913e+00,5.820112061250937163e-02,6.897964402077418067e-02,9.634411334991455078e-01,1.248358354352161782e-02,-8.936890511002104631e-03,2.589434941792692277e-03,2.259770120337923835e-02,4.737620269153692415e-02,-2.611071988940238953e-02,1.312208462648409117e-02,-7.855833857825050143e-03,1.759253102453254072e-02,8.077955058361521723e-03,4.261441945032154455e-03,7.226684720222142921e-03,0.000000000000000000e+00,0.000000000000000000e+00,0.000000000000000000e+00,5.191573334272617801e-01,0.000000000000000000e+00,-5.727609395980834961e-01,1.049830333168983003e+02,2.043650388717651312e-01
1.402050999999999936e+00,5.915593227931346954e-02,7.069216830095693960e-02,9.630271196365356445e-01,1.298712610240734290e-02,-9.132706966319403818e-03,2.241437378324998703e-03,3.463945594395120148e-02,4.911233166565816266e-02,-2.110870368778705597e-02,2.943213745512241603e-02,2.930915151501836333e-02,-3.558051669827585334e-02,8.180970185035309206e-03,1.356124476847505624e-02,6.196694287736170814e-03,0.000000000000000000e+00,0.000000000000000000e+00,0.000000000000000000e+00,5.188828684003252700e-01,-0.000000000000000000e+00,-7.131835818290710449e-01,1.257530580168276231e+02,2.043650388717651312e-01
1.424563999999999941e+00,5.981027805529532532e-02,7.182516003129037208e-02,9.627707004547119141e-01,1.323551510284979096e-02,-9.083507374673338575e-03,2.282345360057287664e-03,2.072869480524008184e-02,4.828383179767640337e-02,-2.074270322918891907e-02,1.731356150564154111e-03,-3.423155446334418418e-03,2.934799873680580748e-02,6.784634023172766114e-03,1.827044101994082775e-03,6.380091421257783058e-03,0.000000000000000000e+00,0.000000000000000000e+00,0.000000000000000000e+00,5.189224367025204732e-01,0.000000000000000000e+00,-5.556882619857788086e-01,7.438962564698152846e+01,2.043650388717651312e-01
1.451453000000000104e+00,6.077520551219513234e-02,7.349559840536896982e-02,9.623406529426574707e-01,1.394867748374682519e-02,-8.498376550229114201e-03,2.079620277874964698e-03,3.164039940760797476e-02,5.168721564925422146e-02,-1.476729754358530045e-02,3.868620198828892631e-02,8.733298943805453685e-02,-6.768744778111055772e-03,6.518702994376058407e-03,1.724254370388221894e-02,5.715871166151631488e-03,0.000000000000000000e+00,0.000000000000000000e+00,0.000000000000000000e+00,5.185736829781032453e-01,-0.000000000000000000e+00,-3.318928480148315430e-01,1.757148809274737289e+01,2.043650388717651312e-01
1.473020999999999914e+00,6.141884412639626173e-02,7.457345805654903848e-02,9.620289802551269531e-01,1.398790576219874522e-02,-8.555765664573389273e-03,1.937283556176589306e-03,3.936702427008597488e-02,4.725621076642051027e-02,-2.504056319594383240e-02,-3.632518509456954259e-02,-2.361374039567667657e-02,1.379664567295128645e-02,3.121558795027521219e-03,2.194166694142283061e-02,5.290078552671828582e-03,0.000000000000000000e+00,0.000000000000000000e+00,0.000000000000000000e+00,5.194091379052326873e-01,-0.000000000000000000e+00,1.571761369705200195e-01,1.022520299885928949e+02,2.043650388717651312e-01
1.498669000000000029e+00,6.288155654068076916e-02,7.708211459513632235e-02,9.616433978080749512e-01,1.402004871975019717e-02,-8.490430121721903589e-03,1.965551949186716482e-03,1.717109152089218993e-02,4.395180759910304047e-02,-1.824141666293144226e-02,5.976197189443543251e-03,1.580086825829703570e-02,3.212345015481295890e-02,3.048030699590338968e-03,4.989835163479269808e-03,5.473238955963855012e-03,0.000000000000000000e+00,0.000000000000000000e+00,0.000000000000000000e+00,5.189820583364714857e-01,-0.000000000000000000e+00,1.445442438125610352e-01,8.890870219965020738e+01,2.043650388717651312e-01
1.524053000000000102e+00,6.426628537201051206e-02,7.953494862104369678e-02,9.612881541252136230e-01,1.397937176961225499e-02,-9.051998161737850879e-03,1.998738862162725231e-03,4.030447147348788228e-02,5.267203728621799169e-02,-1.995991915464401245e-02,1.854639578487997376e-02,-1.279510784059209420e-02,-1.648443100524441332e-02,1.253879427796904950e-02,2.400035745498268341e-02,5.442174190509907472e-03,0.000000000000000000e+00,0.000000000000000000e+00,0.000000000000000000e+00,5.192086359047217714e-01,0.000000000000000000e+00,1.069303154945373535e+00,-3.623733812261816123e+00,2.138606309890747070e-01
1.552821000000000007e+00,6.564222522097892809e-02,8.187680406533533184e-02,9.609661102294921875e-01,1.427822919101429111e-02,-9.602492872463397333e-03,1.758357863767517253e-03,1.842063469030661566e-02,4.260486083663479057e-02,-6.498883944004774094e-03,2.965269160496275189e-02,-4.096320258151456284e-02,-2.280991037304279725e-02,3.572946851133375172e-03,1.084400382565288597e-03,4.916902474509932119e-03,0.000000000000000000e+00,0.000000000000000000e+00,0.000000000000000000e+00,5.182701630086459232e-01,-0.000000000000000000e+00,-9.047019481658935547e-02,8.082469520369821225e+01,2.138606309890747070e-01
1.573822999999999972e+00,6.648979846549435413e-02,8.304834767087634906e-02,9.607650637626647949e-01,1.434856283544398529e-02,-9.581087733694149122e-03,1.722356710523639681e-03,2.583853134165254445e-02,4.724930259550071121e-02,-1.682703383266925812e-02,-2.347219373545785664e-03,2.506917873958631679e-02,-1.187465568972981538e-03,9.159104850794515945e-03,1.092843120346631038e-02,4.751999464378653393e-03,0.000000000000000000e+00,0.000000000000000000e+00,0.000000000000000000e+00,5.191048205354772405e-01,-0.000000000000000000e+00,3.119915723800659180e-01,-7.283684361088167236e+01,2.138606309890747070e-01
1.599529999999999896e+00,6.765638288829796398e-02,8.429099461535748128e-02,9.604152441024780273e-01,1.459705575185563792e-02,-9.796756998849742715e-03,1.779206379483230620e-03,3.433894381128636819e-02,4.960732869230646130e-02,-8.968364447355270386e-03,2.121305618216970390e-02,-2.754039135909239905e-02,1.828310027764053908e-02,1.010930014931559623e-02,1.637149235671311875e-02,4.873587233441278865e-03,0.000000000000000000e+00,0.000000000000000000e+00,0.000000000000000000e+00,5.186053226710117814e-01,-0.000000000000000000e+00,-3.988468647003173828e-02,9.245256634107883542e+01,2.138606309890747070e-01
1.626567000000000096e+00,6.879226205788843695e-02,8.550934836332801936e-02,9.600842595100402832e-01,1.467532962502776823e-02,-1.009239067159706238e-02,1.521938691190058120e-03,1.581857446744204185e-02,3.772070170684731216e-02,-5.496243480592966080e-03,2.059352548215073742e-02,1.439152552210311515e-03,-3.556386176388722647e-02,1.130010395592235053e-03,-4.357761625780793863e-04,4.264454112700766242e-03,0.000000000000000000e+00,0.000000000000000000e+00,0.000000000000000000e+00,5.184016645779834231e-01,0.000000000000000000e+00,1.538275480270385742e-01,8.960358515523979861e+01,2.138606309890747070e-01
1.649010000000000087e+00,6.951927554479832294e-02,8.629238024558893994e-02,9.598529934883117676e-01,1.446709921654495273e-02,-1.063693525892506209e-02,1.802958900764680631e-03,3.453320594785116993e-02,4.698320177769383515e-02,-1.633678935468196869e-02,-2.889017916080887597e-03,-1.035525757968233304e-02,2.994988280727639562e-02,1.215502860845764366e-02,1.414826986865128262e-02,4.954633491154436520e-03,0.000000000000000000e+00,0.000000000000000000e+00,0.000000000000000000e+00,5.192847448371262775e-01,-0.000000000000000000e+00,-5.139112472534179688e-04,1.078919152617583421e+02,2.138606309890747070e-01
1.675191000000000097e+00,7.068146383459415760e-02,8.789615248104926115e-02,9.594789743423461914e-01,1.494378664062960896e-02,-1.118369678491126784e-02,1.759610469037877108e-03,2.267829826605287369e-02,4.424723702674730058e-02,-3.674509469419717789e-03,8.161435174842601725e-02,-2.037882984727708985e-02,1.338898113612981260e-03,7.292784002785022285e-03,-2.449777848491010838e-04,4.928857862114888189e-03,0.000000000000000000e+00,0.000000000000000000e+00,0.000000000000000000e+00,5.184161710812439372e-01,-0.000000000000000000e+00,5.605112314224243164e-01,1.041349765389820021e+02,2.138606309890747070e-01
1.702126999999999946e+00,7.187628204457827130e-02,8.966246105493980156e-02,9.591401219367980957e-01,1.534255155522093461e-02,-1.126257712815870171e-02,1.314900607510465684e-03,3.053675059516887391e-02,3.737078178846842125e-02,-1.261055842041969299e-02,-4.670911688543244802e-03,-6.320776533409355052e-03,-5.435075093448624162e-02,9.838133204991567765e-04,8.040151037920439947e-03,3.628470382479043188e-03,0.000000000000000000e+00,0.000000000000000000e+00,0.000000000000000000e+00,5.191486280655494001e-01,-0.000000000000000000e+00,3.067945241928100586e-01,4.284323241802415794e+01,2.138606309890747070e-01
1.728093000000000101e+00,7.300776857691917976e-02,9.138246101462373094e-02,9.587766528129577637e-01,1.531022260998484916e-02,-1.120641379952869165e-02,1.494260767346070442e-03,2.634587170152588240e-02,4.310250279659310485e-02,-1.363268494606018066e-02,-2.341303865716895527e-02,-3.285147796646670226e-02,4.611938174503626281e-02,8.175810872189021028e-03,4.991961571918173898e-03,4.149908314523165220e-03,0.000000000000000000e+00,0.000000000000000000e+00,0.000000000000000000e+00,5.193047425768235748e-01,-0.000000000000000000e+00,3.826721906661987305e-01,-6.405078879090073940e+01,2.138606309890747070e-01
1.751058999999999921e+00,7.373759701122434285e-02,9.251772497489442471e-02,9.585516452789306641e-01,1.556408691846909026e-02,-1.105633301848096828e-02,1.470141760950997856e-03,1.709483194409531365e-02,4.071300317515314654e-02,-8.211854845285415649e-03,5.376174857488658781e-02,-7.514005802489109702e-03,-2.205120641088716832e-02,5.089179611931829959e-03,9.924125482243322210e-05,4.116002227100679089e-03,0.000000000000000000e+00,0.000000000000000000e+00,0.000000000000000000e+00,5.189651383703615117e-01,0.000000000000000000e+00,2.000457048416137695e-01,7.561152599892930937e+01,2.138606309890747070e-01
1.777171999999999974e+00,7.432404291784720785e-02,9.404414695608831476e-02,9.581903815269470215e-01,1.541294046594402119e-02,-1.156990139724722866e-02,1.378201696688182093e-03,2.676974814372548236e-02,4.064359160394177828e-02,-8.355853147804737091e-03,-3.123959582559626344e-02,-2.504556380089882628e-02,-2.234370239395041743e-02,7.733177260730639269e-03,6.422979752899870588e-03,3.814882158387156164e-03,0.000000000000000000e+00,0.000000000000000000e+00,0.000000000000000000e+00,5.190560512993787068e-01,-0.000000000000000000e+00,7.648432254791259766e-02,1.034345816207322173e+02,2.138606309890747070e-01
1.803195000000000103e+00,7.462600941047273229e-02,9.547887717399919372e-02,9.577812552452087402e-01,1.587962116556801417e-02,-1.199666484122374754e-02,1.479839766123219056e-03,1.814948964525210998e-02,4.161314248521914144e-02,-8.814549073576927185e-03,3.245856305220640170e-02,-6.198464324610850236e-03,3.572000656097024107e-02,6.797549685967561352e-03,-4.059254150464475935e-03,4.172546504698393388e-03,0.000000000000000000e+00,0.000000000000000000e+00,0.000000000000000000e+00,5.191641270414415477e-01,0.000000000000000000e+00,5.438297986984252930e-01,1.868486903312414711e+02,2.138606309890747070e-01
1.823026000000000035e+00,7.483134197228671902e-02,9.640750292841643310e-02,9.575171470642089844e-01,1.627963879981084161e-02,-1.197357190471293187e-02,1.256953408626350962e-03,1.983264594093648789e-02,3.412139311481195841e-02,-1.019732560962438583e-02,3.084040407710886972e-02,5.986896638034719907e-03,-6.792777668393422050e-03,-8.751523505568549466e-04,-9.505875961340745292e-04,3.526323880816584211e-03,0.000000000000000000e+00,0.000000000000000000e+00,0.000000000000000000e+00,5.193312072291326187e-01,0.000000000000000000e+00,-4.612184762954711914e-01,1.243974020703634977e+02,2.138606309890747070e-01
1.850333000000000006e+00,7.516421298225008096e-02,9.774719417697898260e-02,9.570893049240112305e-01,1.675188882102615628e-02,-1.163076174297961174e-02,1.094302867458864193e-03,2.675209591130222817e-02,3.647088778961879441e-02,-8.010505698621273041e-03,-1.249998854607936062e-02,2.152376570500894731e-02,-2.431952903353507348e-02,3.097888402559759863e-04,7.060745123541227811e-03,3.013203838343359031e-03,0.000000000000000000e+00,0.000000000000000000e+00,0.000000000000000000e+00,5.192567695317856780e-01,-0.000000000000000000e+00,-6.808961033821105957e-01,1.446999208121729623e+02,2.138606309890747070e-01
1.876567000000000096e+00,7.555429296990237575e-02,9.952462811354303995e-02,9.567401409149169922e-01,1.687579752218334658e-02,-1.157087994065220116e-02,1.399400166205671267e-03,2.232770497106977350e-02,3.937835958228238370e-02,-9.189226664602756500e-03,3.063990209487148578e-02,-2.686567731347654087e-02,4.691598849513012315e-02,2.959108909577274835e-03,3.537568714280876249e-03,3.892549829826952301e-03,0.000000000000000000e+00,0.000000000000000000e+00,0.000000000000000000e+00,5.194179808249318464e-01,-0.000000000000000000e+00,6.108747720718383789e-01,8.560408592446879084e+01,2.138606309890747070e-01
1.901391999999999971e+00,7.609519222584150422e-02,1.021078453775426248e-01,9.562506675720214844e-01,1.647840479210559497e-02,-1.150621569360499308e-02,1.373978468171499923e-03,1.383796201235054646e-02,3.822793521301626890e-02,-1.020773313939571381e-02,-5.477933680747228487e-03,2.991333206495981265e-02,-2.685684315596960012e-02,6.239897915213686412e-03,-1.499424434051261799e-03,3.858421840689352234e-03,0.000000000000000000e+00,0.000000000000000000e+00,0.000000000000000000e+00,5.195758973957262938e-01,-0.000000000000000000e+00,-9.509265422821044922e-02,9.483054451194296064e+01,2.138606309890747070e-01
1.927273000000000014e+00,7.657680432739404075e-02,1.045981574163736827e-01,9.557366371154785156e-01,1.611528407884859140e-02,-1.210548475634665166e-02,1.394507537896756124e-03,2.098277709397396509e-02,3.587734942778939701e-02,-8.292700164020061493e-03,-2.937277318933904577e-02,-3.105138824022978319e-02,-1.543819950232302833e-02,8.929998339799381096e-03,2.110914265663651427e-03,3.889617350838259213e-03,0.000000000000000000e+00,0.000000000000000000e+00,0.000000000000000000e+00,5.195268579692770006e-01,-0.000000000000000000e+00,-7.333857417106628418e-01,1.033248068203917711e+02,2.138606309890747070e-01
1.950587999999999989e+00,7.689071376339312591e-02,1.061859229604128485e-01,9.554104804992675781e-01,1.642750871158595027e-02,-1.245851379889684196e-02,1.502931860166537275e-03,1.254803986662658861e-02,4.149405266990814634e-02,-7.663899101316928864e-03,6.870803063379525566e-02,-1.399121820949812342e-02,1.640885283285175786e-02,1.314520003076597235e-02,-7.350812376250134318e-03,4.263848622417465428e-03,0.000000000000000000e+00,0.000000000000000000e+00,0.000000000000000000e+00,5.195545500076756973e-01,-0.000000000000000000e+00,4.407318830490112305e-01,2.822002963145863674e+01,2.138606309890747070e-01
1.976977999999999902e+00,7.707865258171266165e-02,1.078831211407963314e-01,9.551171064376831055e-01,1.648274880197564407e-02,-1.244932723728231494e-02,1.242284288723980671e-03,1.832809956745311275e-02,3.083008526264841009e-02,-6.367485504597425461e-03,-3.051303981524748979e-02,-2.001819643856826356e-02,-2.503288909725340586e-02,5.107477429525917462e-03,-1.104284605544777163e-03,3.486671580082478794e-03,0.000000000000000000e+00,0.000000000000000000e+00,0.000000000000000000e+00,5.195252794891501713e-01,-0.000000000000000000e+00,9.135925769805908203e-02,9.719362604022730068e+01,2.138606309890747070e-01
2.002648000000000206e+00,7.728845286046154284e-02,1.095527203054460774e-01,9.547882676124572754e-01,1.694760800521367961e-02,-1.203509819509052114e-02,1.238610192777388685e-03,1.937626456079405771e-02,4.033038445960458740e-02,-8.932686410844326019e-03,4.594721561136245330e-02,6.343571643821026285e-02,-3.393549451119159434e-03,1.256154234175069564e-02,1.992378409885346095e-03,3.453059754509657520e-03,0.000000000000000000e+00,0.000000000000000000e+00,0.000000000000000000e+00,5.197975671088772565e-01,-0.000000000000000000e+00,-2.184377908706665039e-01,4.957111901464845971e+01,2.138606309890747070e-01
2.024893000000000054e+00,7.746087650210188580e-02,1.111593389886448013e-01,9.544632434844970703e-01,1.677595859448519772e-02,-1.228668200463123306e-02,1.162725915294707951e-03,2.012925942583560640e-02,3.624910736710513365e-02,-1.124695222824811935e-02,-4.186636805555449259e-02,-3.914101123619934813e-02,1.641199485624346768e-02,1.050396496377554306e-02,1.171021038225059790e-03,3.247039053972389233e-03,0.000000000000000000e+00,0.000000000000000000e+00,0.000000000000000000e+00,5.200410055322109981e-01,-0.000000000000000000e+00,-2.730861902236938477e-01,9.955006179444920633e+01,2.138606309890747070e-01
2.050577000000000094e+00,7.770313219164126650e-02,1.135189770113538138e-01,9.538831710815429688e-01,1.647630762400391011e-02,-1.200383964870810338e-02,1.287938660891716327e-03,7.536848639362188698e-03,3.642450163388246537e-02,-1.175278145819902420e-02,-4.491945540038318196e-02,2.738910077818502639e-02,2.569760229468861720e-02,1.509204406286161412e-02,-6.587212893709324703e-03,3.656667209498531967e-03,0.000000000000000000e+00,0.000000000000000000e+00,0.000000000000000000e+00,5.201708914039637754e-01,-0.000000000000000000e+00,1.433187723159790039e-01,8.224768998518950980e+01,2.138606309890747070e-01
2.077697999999999823e+00,7.790968330177935885e-02,1.158808464762531854e-01,9.532967805862426758e-01,1.633907164439734119e-02,-1.240052756154286229e-02,1.369018888365005531e-03,2.105733388145316493e-02,4.071775737682700735e-02,-1.192964334040880203e-02,1.653926280318539568e-02,-1.776129261102129750e-02,4.636288376828633095e-03,2.125838815529280598e-02,3.744642557334689533e-03,3.804617145010513735e-03,0.000000000000000000e+00,0.000000000000000000e+00,0.000000000000000000e+00,5.202943071436325617e-01,-0.000000000000000000e+00,1.709450483322143555e-01,9.445474750380886064e+01,2.138606309890747070e-01
2.100729999999999986e+00,7.805901035454293480e-02,1.174991213197021656e-01,9.529204368591308594e-01,1.626153975847494798e-02,-1.277867348407912829e-02,1.426103092641527008e-03,6.788853135542909437e-03,3.819173294414014708e-02,-2.782773924991488457e-03,-5.493542335969876615e-03,-4.141472906032003798e-02,-1.650299868691747045e-03,2.092166635854203829e-02,-1.137009209557138592e-02,4.081090242477991570e-03,0.000000000000000000e+00,0.000000000000000000e+00,0.000000000000000000e+00,5.196895125943159499e-01,-0.000000000000000000e+00,-2.567088603973388672e-02,1.007388630496790967e+02,2.138606309890747070e-01
2.125380999999999965e+00,7.820796293325030235e-02,1.190386402197806948e-01,9.525621533393859863e-01,1.652745461417359785e-02,-1.277595755700655644e-02,1.306879192214753602e-03,1.029163304191570844e-02,3.106578534288439650e-02,-7.243153173476457596e-03,3.121697530975965640e-02,1.228327639740082935e-03,8.474932107150787500e-03,1.525519271141822369e-02,-6.251117016858675525e-03,3.707294342755518279e-03,0.000000000000000000e+00,0.000000000000000000e+00,0.000000000000000000e+00,5.200922849195669384e-01,-0.000000000000000000e+00,-3.025639057159423828e-02,-9.593181689295914794e+01,2.138606309890747070e-01
2.150418000000000163e+00,7.833579219012355710e-02,1.205299798608392009e-01,9.523022770881652832e-01,1.697610290969891675e-02,-1.262902764956086443e-02,1.083335153950598304e-03,1.511786548854498514e-02,3.572167609675683253e-02,-2.898851176723837852e-03,-1.327933812607980102e-02,5.381116952345512544e-02,-2.703445781983903826e-02,1.859190716390921733e-02,-1.559773001533700659e-03,3.046034595725444216e-03,0.000000000000000000e+00,0.000000000000000000e+00,0.000000000000000000e+00,5.198486115657937612e-01,-0.000000000000000000e+00,-3.865021467208862305e-01,1.566900310321852032e+02,2.138606309890747070e-01
2.174684000000000061e+00,7.847896855670270788e-02,1.219311781166423636e-01,9.520338773727416992e-01,1.761889191156928991e-02,-1.262140551157364676e-02,1.089091482578812779e-03,1.305247919419418035e-02,3.804624333676472070e-02,-6.903666071593761444e-04,5.977352909921989504e-02,-2.878378099448447580e-02,2.736476435194637111e-02,1.702589413163980298e-02,-3.402890074281226564e-03,3.077573581859782692e-03,0.000000000000000000e+00,0.000000000000000000e+00,0.000000000000000000e+00,5.197531037060768577e-01,-0.000000000000000000e+00,4.609858989715576172e-02,9.844281982809843612e+01,2.138606309890747070e-01
2.205287999999999915e+00,7.859300520962278491e-02,1.239934236080733748e-01,9.517314434051513672e-01,1.827093858195927983e-02,-1.159201212383753621e-02,7.197350574854650572e-04,3.632015552948693500e-03,2.805291101680739904e-02,4.712351597845554352e-03,2.757648854042842046e-02,8.037108248329945248e-02,-4.141335775688267246e-02,6.524107154222390410e-03,-3.468536523060883597e-03,2.043553827340449658e-03,0.000000000000000000e+00,0.000000000000000000e+00,0.000000000000000000e+00,5.194093331356962606e-01,-0.000000000000000000e+00,1.226516962051391602e-01,4.764804168779092919e+01,2.138606309890747070e-01
2.230096000000000078e+00,7.862620040126318266e-02,1.253226017185939400e-01,9.515690207481384277e-01,1.828816195133021669e-02,-1.142484202867311005e-02,7.901859054219787090e-04,1.305833418130194525e-02,3.564880201879630506e-02,-4.795393440872430801e-03,-4.190848793099508085e-02,2.601567728151757755e-02,2.575822289818601590e-02,1.490054986132160336e-02,6.580734337228411404e-03,2.157696150433041637e-03,0.000000000000000000e+00,0.000000000000000000e+00,0.000000000000000000e+00,5.201812812807842246e-01,-0.000000000000000000e+00,1.642531156539916992e-01,1.108226674723407825e+02,2.138606309890747070e-01
2.250950000000000006e+00,7.863226286991380209e-02,1.259589966684711848e-01,9.514624476432800293e-01,1.829064474807606810e-02,-1.143321107257366798e-02,7.699976451093432442e-04,1.763487954051401116e-02,3.375526751106835283e-02,-5.696678068488836288e-03,-4.621850834258032364e-02,-2.340037644669430358e-02,6.065540766766355611e-03,1.319282802306542129e-02,9.074901315433651222e-03,2.080763334668389586e-03,0.000000000000000000e+00,0.000000000000000000e+00,0.000000000000000000e+00,5.203052080913610489e-01,-0.000000000000000000e+00,5.559504032135009766e-02,-1.537666827466630615e+01,2.138606309890747070e-01
2.273937999999999793e+00,7.862687530840514749e-02,1.272275129987601727e-01,9.512975215911865234e-01,1.858203837153251173e-02,-1.128415153746176181e-02,9.986540708388116742e-04,4.120188626957148304e-04,3.686388177104175934e-02,5.513073410838842392e-03,6.651242763730536023e-02,-1.809613272378732263e-02,4.511240250660086999e-03,1.566717501356455419e-02,-3.708328210721311378e-03,2.828270397981946793e-03,0.000000000000000000e+00,0.000000000000000000e+00,0.000000000000000000e+00,5.195325438394663431e-01,-0.000000000000000000e+00,3.376458883285522461e-01,1.888986076860807373e+02,2.138606309890747070e-01
2.303799000000000152e+00,7.859329360237785056e-02,1.289953207847215622e-01,9.511227011680603027e-01,1.868300863913904125e-02,-1.167624086411622741e-02,7.967033875587070831e-04,6.875774958519225225e-03,2.838321308646724050e-02,6.042756605893373489e-03,4.132278345748740590e-04,1.878284131507101679e-03,-5.038281432353494682e-02,9.502643209644084932e-03,1.562900841682112124e-03,2.217977929836689732e-03,0.000000000000000000e+00,0.000000000000000000e+00,0.000000000000000000e+00,5.195449944689811694e-01,-0.000000000000000000e+00,1.777957677841186523e-01,1.549396721139643773e+02,2.138606309890747070e-01
2.329498000000000069e+00,7.823802591174432164e-02,1.306705504515993099e-01,9.510588645935058594e-01,1.888757432410333170e-02,-1.192453212153177233e-02,9.039073704023919357e-04,7.671948250682732867e-03,3.483084921630212605e-02,1.750505325617268682e-04,4.936036878701020349e-03,1.795182849476632684e-03,3.607436731083196041e-02,1.587018498108188486e-02,-3.669866595135140314e-04,2.534489498631942173e-03,0.000000000000000000e+00,0.000000000000000000e+00,0.000000000000000000e+00,5.200328144251227247e-01,0.000000000000000000e+00,6.265558004379272461e-01,9.714386128193459058e+01,2.138606309890747070e-01
2.355605999999999867e+00,7.789142928110123765e-02,1.322856297123105318e-01,9.510508775711059570e-01,1.944006566695117427e-02,-1.207605359183183680e-02,6.701889605864026853e-04,-3.229108080363606243e-04,2.399314892883077505e-02,1.356680784374475479e-02,2.551497698394662034e-02,-4.932426110802104469e-02,-2.406930017776204647e-02,4.736396682467970513e-03,-7.544698629390745107e-03,1.941166856418208297e-03,0.000000000000000000e+00,0.000000000000000000e+00,0.000000000000000000e+00,5.190730660782288952e-01,-0.000000000000000000e+00,-3.657997846603393555e-01,8.434388870184476161e+01,2.138606309890747070e-01
2.380945999999999785e+00,7.755147673458778756e-02,1.338243864840014119e-01,9.510427117347717285e-01,1.964819680770659230e-02,-1.164903210246426291e-02,7.216973373049983707e-04,-3.808463560526296164e-03,2.752424455632170724e-02,6.096334196627140045e-03,7.708054459329784051e-03,7.179253800421928067e-02,1.743330739666403700e-02,8.994153579882892963e-03,-6.437251320450169609e-03,2.077482994946977524e-03,0.000000000000000000e+00,0.000000000000000000e+00,0.000000000000000000e+00,5.196661075652904138e-01,-0.000000000000000000e+00,-2.778686285018920898e-01,-1.036901092428661464e+01,2.138606309890747070e-01
2.403452999999999840e+00,7.721794231552227272e-02,1.353255238366938562e-01,9.511045217514038086e-01,1.969873753479422368e-02,-1.168226329360333438e-02,4.887032780461758727e-04,7.384615674323015584e-03,2.926704326050871829e-02,8.229418657720088959e-03,-2.038823543849955372e-02,1.074097343121761979e-02,-3.438553143980226795e-02,1.107968855238265771e-02,2.758686917478358688e-03,1.344146111809885191e-03,0.000000000000000000e+00,0.000000000000000000e+00,0.000000000000000000e+00,5.195511385294575568e-01,-0.000000000000000000e+00,-1.732484102249145508e-01,9.681877159819865142e+01,2.138606309890747070e-01
2.427165000000000017e+00,7.684679541414905779e-02,1.367689764618923443e-01,9.511869549751281738e-01,1.953100590397416000e-02,-1.165041203753003352e-02,7.848937351722397576e-04,-2.987878968182459353e-03,3.280409106595193885e-02,3.040782175958156586e-03,6.779062932331377661e-03,-1.300093419714886712e-02,3.367011378528202842e-02,1.598546624602850338e-02,-6.845773863698910444e-03,2.259316786908993624e-03,0.000000000000000000e+00,0.000000000000000000e+00,0.000000000000000000e+00,5.199662362582421204e-01,-0.000000000000000000e+00,-7.774794101715087891e-02,9.574520246445605665e+01,2.138606309890747070e-01
