timestamp,x,y,z,roll,pitch,yaw,vx,vy,vz,p,q,r,psp,qsp,rsp,pres,qres,rres,thrust_sp, thrust_res,wind_mag,wind_angle,wind_obs
0.000000000000000000e+00,1.695430643363284246e-03,3.167492979927087442e-03,9.993950128555297852e-01,9.991372166295966681e-03,-1.001644269807400178e-02,9.265416223863403786e-03,5.804797881471964426e-03,-1.296257310533781987e-02,-3.690326120704412460e-03,5.820469138578995838e-02,-4.750203310403159490e-03,-1.749703996082787108e-02,1.288721558965392755e-01,1.001060866960431922e-01,2.315400102571151530e-01,2.024898290634155329e-01,1.593768954277038630e-01,2.054865181446075273e-01,5.010270146200134223e-01,-5.947085618972778320e-01,8.940696716308593750e-06,9.742436349076866975e+01,0.000000000000000000e+00
2.421299999999999841e-02,2.004200459195451447e-03,3.297967443819002555e-03,9.992762207984924316e-01,1.003843908276497859e-02,-9.415955521068664069e-03,9.287158440113220392e-03,-6.971346920920589796e-04,-1.295746583692025493e-02,-7.166533265262842178e-03,-4.061390329926933829e-02,5.770542419078426161e-02,2.977120894140525623e-02,1.129245828507479121e-01,1.541741872069963826e-01,-1.700234308837220432e-01,1.848340272903442327e-01,2.154252469539642278e-01,-1.961462259292602595e-01,5.113298688713818763e-01,-6.494164466857910156e-02,-8.931517601013183594e-03,1.195669556855470717e+02,0.000000000000000000e+00
4.739700000000000163e-02,2.314526544130748615e-03,3.434478489764454176e-03,9.991037845611572266e-01,1.024508303026074214e-02,-9.231687734979843185e-03,9.226263948262650866e-03,1.572235813803735116e-02,-7.960112667656518703e-03,-3.644759301096200943e-03,-9.031284324406637504e-03,3.365022646873570139e-02,-1.784220960926906699e-02,4.760091602798748045e-02,1.796789990016121052e-01,2.429004051865826241e-01,1.168647766113281167e-01,2.252475678920745628e-01,2.169705212116241344e-01,5.060501815755847899e-01,-3.319926261901855469e-01,-1.677691936492919922e-02,9.656205210805455863e+01,0.000000000000000000e+00
7.182800000000000296e-02,2.599265097801041913e-03,3.569855089927177934e-03,9.989570975303649902e-01,9.979108144076400538e-03,-8.988130630836366208e-03,9.277356415264115252e-03,7.637058051599495030e-03,-5.991760070588875511e-03,-9.983577765524387360e-03,-2.338486171389220908e-02,2.540329771735444844e-02,3.680591366075686155e-02,1.464030651520613069e-01,1.683372126542219405e-01,-9.375479528610641822e-02,2.129440784454345592e-01,2.210464954376220592e-01,-1.198416352272033691e-01,5.163731436543587128e-01,1.914701461791992188e-01,4.361331462860107422e-02,1.362146538628610415e+02,0.000000000000000000e+00
9.665500000000000480e-02,2.854664407949816102e-03,3.745425427363392214e-03,9.988029003143310547e-01,1.005702574488457658e-02,-9.206649958545254364e-03,9.953485053502096613e-03,-8.785898777832109804e-03,-9.910042453019693789e-03,5.013281945139169693e-03,1.504459135371598484e-02,-2.780313008800058827e-02,4.209212165091442276e-02,6.085220197737058190e-02,4.732387284777470060e-02,-9.003132665588486905e-02,1.311934947967529352e-01,1.133839845657348550e-01,-1.180331110954284668e-01,4.981757408996243530e-01,-7.127777338027954102e-01,-3.928614854812622070e-01,1.798529168851801074e+01,0.000000000000000000e+00
1.214370000000000033e-01,3.261518115593869255e-03,3.999933159854943306e-03,9.986290931701660156e-01,1.043832633967488495e-02,-1.021208160550246546e-02,1.041852952452746936e-02,5.966780096118620529e-03,-8.789305257261794194e-03,-1.377169787883758545e-02,-9.777359590638483658e-03,-5.043288300052867906e-02,1.192277902401795700e-03,1.129264463548926151e-01,1.284130330731027003e-01,-1.796815947045625195e-01,1.842459082603454534e-01,1.863952517509460394e-01,-2.089769840240478516e-01,4.994112821175320516e-01,-7.238805294036865234e-01,1.346260309219360352e-01,1.014469897420693343e+02,0.000000000000000000e+00
1.454840000000000022e-01,3.604978540831307691e-03,4.235267852986667435e-03,9.984697699546813965e-01,1.137850680913696406e-02,-1.292562968532640078e-02,9.549035894162730825e-03,3.622339091914659071e-03,-9.316669516227516976e-03,-8.144185412675142288e-04,3.697995278343232939e-02,-1.339750620676253001e-01,-5.076704607079219472e-02,1.299948821189237380e-01,1.067712930230039770e-01,9.404944684157609536e-02,2.078854680061340277e-01,1.861917436122894343e-01,6.712805628776549738e-02,4.992859030189861214e-01,-6.799917817115783691e-01,3.060833215713500977e-01,1.005369285068676675e+02,0.000000000000000000e+00
1.688280000000000058e-01,3.853701214261878814e-03,4.443237884101293098e-03,9.982172846794128418e-01,1.237474895815618078e-02,-1.637917567384117312e-02,1.004946334025885388e-02,-9.627109462143087701e-03,-1.012743735898340158e-02,-4.541827365756034851e-03,5.872515469491879081e-02,-1.985247396058005542e-01,8.934304877654233867e-02,1.240929280186286315e-01,5.550593137741088867e-02,-1.803661334491201695e-01,2.088983058929443359e-01,1.555059313774108942e-01,-2.087867259979248047e-01,4.990462270009801138e-01,-7.085599303245544434e-01,-3.963816165924072266e-02,6.694151609294689820e+01,0.000000000000000000e+00
1.998000000000000054e-01,4.092794930342611402e-03,4.767059955790641651e-03,9.978182315826416016e-01,1.449759713850344404e-02,-2.144957532073399342e-02,1.146961904363362483e-02,-5.365918153486512465e-03,-4.259921581831847305e-03,-6.802766583859920502e-03,9.799011078615652015e-02,-1.139322601079086755e-01,5.608148832441240544e-02,1.007102699538786894e-01,-2.401065826416017013e-02,2.028125300988032342e-01,1.944161653518676758e-01,7.598934173583983542e-02,1.702603876590728649e-01,5.038859521467027314e-01,-4.656366109848022461e-01,-6.103259325027465820e-01,3.187936495099549816e+01,0.000000000000000000e+00
2.183660000000000045e-01,4.162777824016408376e-03,4.858063411361345299e-03,9.976590275764465332e-01,1.499482753653874970e-02,-2.312630443783425527e-02,1.226492661226215135e-02,-4.492566921507193389e-03,-6.159309145738521042e-03,-1.913395151495933533e-02,4.829978868526502850e-02,-1.122430165993354850e-01,1.179887253086659982e-01,8.848730323534303999e-02,-9.469128251075745184e-02,-1.761987829803730310e-01,1.878132104873657116e-01,5.308717489242553711e-03,-2.110156774520874079e-01,5.002716691685420436e-01,-7.058142423629760742e-01,1.556581258773803711e-01,1.015883746578886075e+02,0.000000000000000000e+00
2.465690000000000104e-01,4.554010587321891471e-03,5.102572725285515337e-03,9.969866871833801270e-01,1.764447522066315763e-02,-2.729713828563040678e-02,1.350845099600225460e-02,-1.793535209281344953e-02,-1.524124578460333591e-02,-1.860484108328819275e-02,1.547161889938172274e-01,-1.553612516032658042e-01,-1.024033493540637239e-02,7.941825389862058882e-02,-2.445126295089721791e-01,2.538911305834341547e-01,1.794182538986205944e-01,-1.445126295089721735e-01,2.154087960720062200e-01,5.149733677378478536e-01,7.097017765045166016e-02,1.597129106521606445e-01,1.596225317711951561e+02,0.000000000000000000e+00
2.716979999999999951e-01,4.819081576809909097e-03,5.181617467461142185e-03,9.964655041694641113e-01,2.001255075905314373e-02,-2.983390006413388917e-02,1.455496943077580138e-02,-1.330206942170923494e-02,-1.040915878493898876e-02,-3.047727420926094055e-02,8.952657619293591384e-02,-9.325835848518231053e-02,7.814021309286149630e-02,2.564561367034909334e-03,-2.755797266960143821e-01,1.133207983820442161e-01,1.025645613670349149e-01,-1.755797266960144043e-01,7.173655629158019742e-02,5.056744520492786332e-01,-4.740629792213439941e-01,1.308039426803588867e-01,9.278736855381451676e+01,0.000000000000000000e+00
2.955570000000000142e-01,4.992658122346933444e-03,5.203252498022877502e-03,9.957806468009948730e-01,2.270106241900489430e-02,-3.195815646702526713e-02,1.570289145828973262e-02,-1.060875226614493155e-02,-2.057521334232352908e-02,-3.326620161533355713e-02,1.749596923475799648e-01,-1.151980943280925679e-01,3.667758079551625833e-02,-8.493524789810180664e-02,-3.113434433937072865e-01,2.537957251691994598e-01,1.506475210189819197e-02,-2.113434433937072809e-01,2.088872730731964056e-01,5.159463880168104755e-01,5.686199665069580078e-02,1.976001262664794922e-02,9.873551392460099407e+01,0.000000000000000000e+00
3.223360000000000114e-01,5.147913885818897022e-03,5.154842780926534133e-03,9.949609637260437012e-01,2.507522232003464580e-02,-3.308279667681435221e-02,1.592770398847982716e-02,-2.430442149386212794e-02,-1.928833230988323544e-02,-4.791013896465301514e-02,9.384788149214304265e-02,-1.287660673872393149e-02,5.573321356905940049e-02,-3.181583464145660289e-01,-3.170870542526245117e-01,-1.742788370675717458e-01,-2.181583464145660234e-01,-2.170870542526245062e-01,-2.200358390808105358e-01,5.045716959743358210e-01,-6.116150617599487305e-01,-6.344497203826904297e-01,9.736668254322790972e+01,0.000000000000000000e+00
3.461540000000000172e-01,5.236275354387826680e-03,5.087662001795936403e-03,9.939864873886108398e-01,2.753147500519074337e-02,-3.301287742323610885e-02,1.697968537518164400e-02,-9.698826054496597140e-03,-1.723327204999509574e-02,-4.446535184979438782e-02,8.603115045761011714e-02,5.594006538637466552e-02,1.963366266737287882e-02,5.383681058883665882e-02,1.076852321624755804e-01,2.660507889081602517e-01,1.538368105888366644e-01,2.076852321624755859e-01,2.172984302043914628e-01,5.030294644073394217e-01,-6.855189800262451172e-01,-2.154196500778198242e-01,9.241564233842574083e+01,0.000000000000000000e+00
3.701820000000000110e-01,5.310106153765286295e-03,5.511127822285654711e-03,9.928087592124938965e-01,2.926431464337242438e-02,-3.173704768845286850e-02,1.670226269618484832e-02,-1.832527242198890571e-02,-2.371281818766506067e-02,-5.572617799043655396e-02,1.246590689715107170e-01,5.684823972971756595e-02,-2.854846703703762395e-02,-2.936528086662292258e-01,-9.870805144309997836e-02,2.566606187797251803e-01,-1.936528086662292480e-01,1.291948556900024371e-03,2.086370766162872203e-01,5.055033250971769920e-01,-6.075171232223510742e-01,3.280690908432006836e-01,-4.576023545780735446e+01,0.000000000000000000e+00
3.939520000000000244e-01,5.362499509781678414e-03,5.873342462592003911e-03,9.915227890014648438e-01,2.989600304407660780e-02,-2.855751781197835015e-02,1.579355064707095926e-02,-2.168633053133420252e-02,-2.755398136466085876e-02,-6.810829788446426392e-02,-2.000596061969326257e-03,2.057929711991191013e-01,-4.343143888236066646e-02,-1.863094091415405384e-01,1.170029759407043290e-01,2.637543744393215928e-01,-8.630940914154051902e-02,2.170029759407043346e-01,2.183722436428069957e-01,5.069093874368866270e-01,-5.910615921020507812e-01,1.152044534683227539e-01,7.571082328908295267e+01,0.000000000000000000e+00
4.222710000000000075e-01,5.423015436213029887e-03,6.271066245381652984e-03,9.893150925636291504e-01,3.057729609342632951e-02,-2.188271497770655216e-02,1.406203524195103090e-02,-3.568800359552634638e-03,-2.704616539522545354e-02,-7.857722043991088867e-02,2.112206995996480235e-02,2.000421724163500836e-01,-6.828009409759279447e-02,-8.679924011230469305e-02,1.214487731456756481e-01,2.640962589596189125e-01,1.320075988769531250e-02,2.214487731456756536e-01,2.238804101943969727e-01,5.075158975379600035e-01,-6.134698390960693359e-01,2.128106355667114258e-01,9.736543944879896628e+01,0.000000000000000000e+00
4.491700000000000137e-01,5.428333258374926085e-03,6.480780678174440437e-03,9.877490997314453125e-01,2.955653985099048267e-02,-1.618326987542428874e-02,1.316970600148585288e-02,-2.720686195881278843e-02,-2.478678121480446320e-02,-8.386483043432235718e-02,-7.416606381180951280e-02,2.938586763339857133e-01,1.740360256669710483e-03,-2.366874456405639593e-01,1.221356511116027665e-01,2.202646055865567221e-01,-1.366874456405639537e-01,2.221356511116027721e-01,1.826610088348388505e-01,5.117484135798618938e-01,-4.206017851829528809e-01,-8.032357692718505859e-02,9.672801204450752266e+01,0.000000000000000000e+00
4.681139999999999746e-01,5.421528777164805711e-03,6.576096759046887869e-03,9.869332909584045410e-01,2.858501127410463527e-02,-1.304488109856971612e-02,1.320758081642351735e-02,-3.128932046247509535e-02,-3.215596973577520418e-02,-8.141279220581054688e-02,-1.093287415555459913e-01,3.355982775420774944e-01,-1.338140680482676793e-02,-2.758178710937500000e-01,1.215283632278442161e-01,-1.527376607447972906e-02,-1.758178710937499944e-01,2.215283632278442216e-01,-5.281977653503417552e-02,5.142431444128132689e-01,-2.857248187065124512e-01,-1.655427217483520508e-01,1.387832421228927160e+02,0.000000000000000000e+00
4.957759999999999945e-01,5.192394446896664989e-03,6.664284552917561048e-03,9.844050407409667969e-01,2.491469067104692264e-02,-5.633921933083430034e-03,1.185273490071305641e-02,-1.098148087005955745e-02,-2.239603104421167626e-02,-1.000991985201835632e-01,-1.207053366758911034e-01,2.164815036893251443e-01,-7.354381487988273514e-02,-2.518821060657501221e-01,1.819057921961779178e-01,-1.910743524042567143e-01,-1.518821060657501165e-01,2.195175826549529974e-01,-2.244508981704711748e-01,5.170914234580766822e-01,-2.225229740142822266e-01,2.271701097488403320e-01,9.060333360443290474e+01,0.000000000000000000e+00
5.192499999999999893e-01,4.939752275818167296e-03,6.517036949816031738e-03,9.826957583427429199e-01,2.262529130654775469e-02,-3.130311728424484130e-03,9.757970902122438742e-03,-2.601272111105530985e-02,-3.406267817293565786e-02,-9.229724854230880737e-02,-1.267306817776504002e-01,1.132925868577973061e-01,-1.218927600505994857e-01,1.159723639488220159e-01,1.838274987070491751e-01,1.700917613448000576e-01,2.159723639488220215e-01,2.202916145324707031e-01,1.426172018051147516e-01,5.164367153022332291e-01,-2.392125725746154785e-01,-1.727119684219360352e-01,1.022127837216220030e+02,0.000000000000000000e+00
5.462879999999999958e-01,4.530704131130963708e-03,6.267124212855666905e-03,9.800148606300354004e-01,1.752992099410489654e-02,-1.171373224393645884e-03,6.234511883756117638e-03,-2.114814846044116639e-02,-3.197049394212170270e-02,-1.056567057967185974e-01,-2.052039499853118842e-01,2.991637560847599728e-02,-9.690635957628700170e-02,1.267445087432861051e-01,1.863748023039164814e-01,-2.075258907530814767e-01,2.267445087432861106e-01,2.044803321361541582e-01,-2.250401973724365234e-01,5.090645632545132138e-01,-7.022032141685485840e-01,2.545598745346069336e-01,1.822886784564225593e+02,0.000000000000000000e+00
5.730330000000000146e-01,4.235590008479847048e-03,6.049931400951531237e-03,9.781472086906433105e-01,1.432336316649569265e-02,-1.644209039961319618e-03,3.509108074050555116e-03,-2.403199829417927008e-02,-3.183610317825744801e-02,-1.047309339046478271e-01,-1.503186030814566143e-01,-2.455336114982023532e-02,-1.663656780111356648e-01,1.266776323318481168e-01,1.863448029849566479e-01,-1.574308512873267007e-01,2.266776323318481223e-01,2.107660889625549150e-01,-1.673171997070312389e-01,5.087387949540784771e-01,-7.295560240745544434e-01,-4.004873037338256836e-01,-4.734791634547140404e+01,0.000000000000000000e+00
5.964819999999999567e-01,3.342165200316959874e-03,5.764221437968185952e-03,9.752131104469299316e-01,8.737360662564025784e-03,-3.895097268106439969e-03,5.081318315739417500e-04,-2.557005915872479287e-02,-2.844095358353702224e-02,-1.104171499609947205e-01,-2.316134245070478048e-01,-7.790492128013591644e-02,-4.077188052521967671e-02,1.535555237535967954e-01,1.713714157289564777e-01,-2.106107571147185498e-01,2.257008433341979869e-01,2.118244886398315263e-01,-2.120890617370605469e-01,5.096362165029206803e-01,-7.227255702018737793e-01,-6.673943996429443359e-02,9.533601949165893075e+01,0.000000000000000000e+00
6.207169999999999632e-01,2.553787042822333857e-03,5.643537136997323761e-03,9.731854200363159180e-01,4.504362576231418953e-03,-5.848072245762780952e-03,-2.603784896402679670e-04,-2.421740363528926063e-02,-2.331630619687649272e-02,-1.080870851874351501e-01,-2.096310206053228209e-01,-1.224762614563223856e-01,-2.414151881624886434e-02,1.780830239517378066e-01,1.503604197057716307e-01,-2.070121566432218396e-01,2.193362474441528376e-01,2.027830302715301347e-01,-2.063131570816039984e-01,5.097894698539714442e-01,-7.201110124588012695e-01,5.246266126632690430e-01,-1.278242855618773035e+02,0.000000000000000000e+00
6.433809999999999807e-01,1.319060998279351048e-03,5.619489513595060659e-03,9.701223373413085938e-01,-3.140251029534947124e-03,-9.620999069120506064e-03,6.826976947619949098e-04,-3.486690132347751436e-02,-2.297758645681525699e-02,-1.082586869597434998e-01,-2.763243059542495605e-01,-1.440614483093892451e-01,5.002121225123138011e-03,2.315613028391512174e-01,1.219091033233579702e-01,-2.060291013651787684e-01,2.236516356468200573e-01,2.082092106342315618e-01,-2.078465223312377930e-01,5.101039982193579236e-01,-7.231613397598266602e-01,1.532958745956420898e-01,9.712183392186129538e+01,0.000000000000000000e+00
6.681439999999999602e-01,4.379613134311332104e-04,5.613370140285614193e-03,9.681314826011657715e-01,-7.211643347762630545e-03,-1.316131401508369159e-02,9.351497656846268413e-04,-2.744863102235837668e-02,-1.845922874592608592e-02,-1.004926264286041260e-01,-1.572904179284509985e-01,-2.081881981946602511e-01,3.715010591480959190e-02,1.956549972781761459e-01,9.648720622062681440e-02,-2.020105444725518729e-01,1.578769683837890625e-01,1.964872062206268200e-01,-2.044385433197021540e-01,5.100059474121290126e-01,-7.121036648750305176e-01,-2.223252058029174805e-01,9.461156864715235315e+01,0.000000000000000000e+00
6.974280000000000479e-01,-1.067322447899413411e-03,5.567903827553624500e-03,9.653649330139160156e-01,-9.053327323638548155e-03,-1.979582593928030931e-02,2.762294743751246996e-03,-4.858559585484684140e-02,-2.010146269051137774e-02,-8.687037229537963867e-02,4.964932756829563282e-02,-2.464951732810552187e-01,6.983100386302944218e-02,2.577658169069599881e-01,-1.558503508567810059e-01,-2.107990822574985212e-01,2.100455760955810547e-01,-5.585035085678100725e-02,-2.181518912315368597e-01,5.091520443243787719e-01,-7.208704352378845215e-01,3.926140069961547852e-01,9.619856993099398323e+01,0.000000000000000000e+00
7.208040000000000003e-01,-2.182453923012709664e-03,5.540447647154722599e-03,9.636048078536987305e-01,-8.275546856374299542e-03,-2.462912156432972566e-02,4.624907478441906035e-03,-3.831419820244583163e-02,-2.140995687294840188e-02,-9.129390865564346313e-02,3.769868113337659227e-02,-2.199824788402080789e-01,1.077628529824354447e-01,2.509062148270279069e-01,-2.426041126251220759e-01,-2.074870834693311461e-01,2.091534733772277832e-01,-1.426041126251220703e-01,-2.200315475463867076e-01,5.098515733954074314e-01,-7.144024372100830078e-01,-2.925573587417602539e-01,9.718834630399888397e+01,0.000000000000000000e+00
7.449820000000000331e-01,-3.982931613665951706e-03,5.525047817829271263e-03,9.610495567321777344e-01,-4.657882215013734589e-03,-3.124355043572868418e-02,8.210777506161877001e-03,-6.123514504679052062e-02,-1.798398692422217837e-02,-9.657175838947296143e-02,9.653158361195389447e-02,-1.821800600694742645e-01,1.613971412484870027e-01,1.817932526022565942e-01,-2.998391985893249512e-01,-1.921738943037355762e-01,1.607264757156371959e-01,-1.998391985893249456e-01,-2.148368597030639593e-01,5.109071593907822395e-01,-6.962970495223999023e-01,-2.083779573440551758e-01,1.000182576016752449e+02,0.000000000000000000e+00
7.711500000000000021e-01,-5.283127348654163141e-03,5.565889194247442863e-03,9.593789577484130859e-01,-1.313559340372306462e-03,-3.515337770884774393e-02,1.074097764213696911e-02,-4.925661525407121905e-02,-1.094357147296574732e-02,-9.071788936853408813e-02,1.511988445186018826e-01,-1.840025236199631931e-01,1.091038975270980232e-01,1.304554938163904609e-01,-2.997464656829834095e-01,-1.177317086751462349e-01,1.262967824935913030e-01,-1.997464656829834040e-01,-1.476925849914550726e-01,5.119384539125859668e-01,-6.311997175216674805e-01,-8.484593629837036133e-01,1.224100902294565856e+02,0.000000000000000000e+00
7.953139999999999654e-01,-7.346310782687347218e-03,5.670215065685043493e-03,9.568370580673217773e-01,4.174573076240059404e-03,-3.995877683336668262e-02,1.498303244242793486e-02,-7.241915859307296310e-02,-1.928901005757940185e-02,-8.945925533771514893e-02,1.700716515767585202e-01,-1.652957745609843487e-01,1.235986266954178375e-01,-1.394615858903705541e-01,-3.120757579803467019e-01,-7.425931141163105709e-02,-1.005413174629211370e-01,-2.120757579803466686e-01,-1.163687109947204590e-01,5.134503486121492211e-01,-5.626666545867919922e-01,-2.184998989105224609e-02,8.274046081304923916e+01,0.000000000000000000e+00
8.195449999999999680e-01,-8.792854020041014976e-03,5.802395993898049921e-03,9.553274512290954590e-01,8.316128722459884340e-03,-4.258423656182008799e-02,1.807404624693163472e-02,-6.150193240596193295e-02,-5.276516610029824590e-03,-9.484162926673889160e-02,2.021754422502285709e-01,-1.299320831595424386e-01,1.591057676481225369e-01,-2.212382595346158720e-01,-3.172480940818786510e-01,-7.471041196893465908e-02,-1.673363864421844316e-01,-2.172480940818786455e-01,-1.258914113044738714e-01,5.146249937081562864e-01,-5.337973833084106445e-01,1.126562952995300293e+00,-2.364809224634886320e+01,0.000000000000000000e+00
8.485759999999999970e-01,-1.113840292579159133e-02,5.996636089802022222e-03,9.528948664665222168e-01,1.398107358461879446e-02,-4.494890903830861539e-02,2.280732585233031726e-02,-8.527822032406763564e-02,-1.550535530210222536e-02,-9.326724708080291748e-02,1.923669333376604729e-01,-5.551683792441558518e-02,1.659060515133334024e-01,-3.121600508689880149e-01,-3.197319984436035045e-01,-1.332815325802372275e-01,-2.121600508689880371e-01,-2.197319984436034990e-01,-1.981010913848876842e-01,5.126922891599576815e-01,-6.480300426483154297e-01,1.075032949447631836e-01,-7.569598128801651171e+01,0.000000000000000000e+00
8.717310000000000336e-01,-1.276754549806609351e-02,6.081511412272010315e-03,9.512570500373840332e-01,1.781055174091767876e-02,-4.405703194902566011e-02,2.612157210462973111e-02,-7.401489232769604965e-02,-1.861764250440855898e-03,-1.093849167227745056e-01,1.429806625829215250e-01,1.228486368370551168e-01,1.777031711743752851e-01,-3.006161987781524880e-01,-1.411842107772827426e-02,4.040274974163201444e-02,-2.006161987781524547e-01,8.588157892227173129e-02,-3.406652212142944475e-02,5.142234938180001436e-01,-6.439641118049621582e-01,1.340798139572143555e-01,1.604159402055621797e+02,0.000000000000000000e+00
8.971350000000000158e-01,-1.503425872894432157e-02,6.044516821320041269e-03,9.485792517662048340e-01,2.374641770234975705e-02,-3.981396729923836197e-02,3.105270608541237445e-02,-8.637943310294361743e-02,-2.186442297159677320e-02,-1.071486547589302063e-01,1.909506383076116920e-01,1.867931655391002754e-01,1.873621593409253439e-01,-3.060588121414184459e-01,2.959035634994505726e-02,2.543005694689579044e-02,-2.060588121414184404e-01,1.295903563499450628e-01,-6.301739215850829523e-02,5.145192364293829090e-01,-6.382089853286743164e-01,7.239116430282592773e-01,9.306207876223243147e+01,0.000000000000000000e+00
9.188330000000000108e-01,-1.627769848572511655e-02,5.800003423042177433e-03,9.469748735427856445e-01,2.759819500043355148e-02,-3.487746604622610214e-02,3.381494507834743868e-02,-7.437524659563971019e-02,-1.256655400351441507e-02,-1.119037419557571411e-01,1.354419422772054071e-01,3.151190958294916578e-01,1.252271537210551122e-01,-3.048124611377716064e-01,1.012429237365722601e-01,2.858626603755971551e-01,-2.048124611377716009e-01,2.012429237365722656e-01,1.895487606525421143e-01,5.149712917488262764e-01,-6.470602154731750488e-01,2.667423486709594727e-01,9.139064951006027115e+01,0.000000000000000000e+00
9.421859999999999680e-01,-1.757491674681840518e-02,5.523849054007348887e-03,9.452815651893615723e-01,3.077416289000970903e-02,-2.936505009758150209e-02,3.661456441500286763e-02,-8.368659652782806102e-02,-1.808046685399531534e-02,-1.081506684422492981e-01,1.541467890345208647e-01,2.532292567316410947e-01,1.451539198547458220e-01,-3.027380764484405296e-01,1.054269909858703558e-01,2.936011314392089622e-01,-2.027380764484405518e-01,2.054269909858703613e-01,1.936011314392089844e-01,5.147712202292678008e-01,-6.580750942230224609e-01,2.295219898223876953e-02,2.270337804639313362e+01,0.000000000000000000e+00
9.717479999999999452e-01,-2.022475131786540675e-02,4.979306889151726388e-03,9.416412115097045898e-01,3.085079043654498712e-02,-1.502563018150238072e-02,4.128568771587335512e-02,-7.736279732291555244e-02,-1.049000248893896745e-02,-1.247725188732147217e-01,-1.099591011565080184e-01,4.225277416178320200e-01,1.197649018261489617e-01,-1.876420199871063343e-01,1.221965014934539573e-01,2.093851685523986927e-01,-8.764201998710631492e-02,2.221965014934539628e-01,1.093851685523986733e-01,5.200937131194528495e-01,-4.610832929611206055e-01,-2.900207042694091797e-02,1.068685070372803239e+02,0.000000000000000000e+00
9.970170000000000421e-01,-2.158703503700798790e-02,4.901286350180885515e-03,9.396747350692749023e-01,2.801948758333537917e-02,-7.418232424220905230e-03,4.395657796562105202e-02,-8.211921673361813334e-02,-1.440319410623062957e-02,-1.284200847148895264e-01,-2.009834763282921932e-01,3.319048582791409019e-01,1.417943743414995794e-01,-2.613257169723511020e-02,8.860762715339659534e-02,-1.229606628417968528e-01,7.386742830276489535e-02,1.886076271533966009e-01,-2.229606628417968583e-01,5.228035613824811856e-01,-3.463668823242187500e-01,2.263723611831665039e-01,-8.493846349928354300e+01,0.000000000000000000e+00
1.022766999999999982e+00,-2.296820532997783867e-02,5.015282617732176422e-03,9.376575350761413574e-01,2.376203664062594839e-02,-7.752903969517888072e-04,4.562258042136854708e-02,-1.007992307800329584e-01,-2.078096724954026087e-02,-1.174378767609596252e-01,-2.320302918325281571e-01,2.858106544463190346e-01,5.122921457707951820e-02,3.101110458373912415e-04,-1.987865213767091299e-02,-1.262742280960082730e-01,1.003101110458373968e-01,6.855524182319640281e-02,-2.262742280960082786e-01,5.215278301392373139e-01,-3.895157575607299805e-01,-2.772217988967895508e-01,9.819168743269540300e+01,0.000000000000000000e+00
1.049447999999999936e+00,-2.514803289292411731e-02,5.055066967218989349e-03,9.345563054084777832e-01,1.539166452386868736e-02,5.179568088818031768e-03,4.749650540836763968e-02,-7.781026109572258820e-02,-1.455100642502432477e-02,-1.314526200294494629e-01,-3.364358942601149427e-01,1.201781693712835192e-01,3.203474246343832738e-02,1.268033027648925726e-01,1.532471715704333826e-01,-1.264842271804809404e-01,2.268033027648925781e-01,1.844009935855865367e-01,-2.264842271804809459e-01,5.176172825107901998e-01,-6.771560907363891602e-01,-3.691209554672241211e-01,1.069421501369113940e+02,0.000000000000000000e+00
1.071309000000000067e+00,-2.653662558340677199e-02,5.072093630630081749e-03,9.324697852134704590e-01,9.477743916933647345e-03,6.075587298166817973e-03,4.666961841642301018e-02,-8.792160590724230895e-02,-1.678346979615591775e-02,-1.260416060686111450e-01,-3.134419398337611740e-01,7.490034631628182497e-03,-7.903413550991862657e-02,1.591663310879505300e-01,1.589707579987719166e-01,-1.259664535522460882e-01,2.271949052810668945e-01,1.969618856906890925e-01,-2.259664535522460938e-01,5.168635955415123995e-01,-7.145892381668090820e-01,2.463704347610473633e-01,1.086268026353167073e+02,0.000000000000000000e+00
1.097760999999999987e+00,-2.871657196059692468e-02,5.061057612384714868e-03,9.292137026786804199e-01,-6.461664782272794928e-04,4.717315173133229678e-03,4.513867945458382297e-02,-8.147601381065291970e-02,-1.037617776781795016e-02,-1.383728235960006714e-01,-3.684109764172580070e-01,-9.996370194348484783e-02,-4.367956051787982852e-03,2.296757271449298143e-01,1.655985595378632325e-01,-1.242859244346618541e-01,2.270720958709716575e-01,2.079403817653655839e-01,-2.242859244346618597e-01,5.178969540536262350e-01,-7.309117913246154785e-01,1.273335218429565430e-01,-4.641130958006047535e+01,0.000000000000000000e+00
1.121207000000000065e+00,-2.972126834975313131e-02,5.326597409956459160e-03,9.280818104743957520e-01,-3.862814474591279908e-03,3.699761021130232308e-03,4.461289753018179982e-02,-8.133799858457639587e-02,-1.269808452201680836e-02,-1.343117952346801758e-01,-3.452789638098019420e-01,-1.350584781024237735e-01,-2.869636001340940268e-02,2.479952131912791791e-01,1.600481529656236634e-01,-1.189761161804199219e-01,2.270481348037719505e-01,2.110625088214874157e-01,-2.189761161804199274e-01,5.178384249402071537e-01,-7.328647971153259277e-01,5.718964338302612305e-01,7.297984045134505493e+01,0.000000000000000000e+00
1.150983000000000089e+00,-3.376424421010298937e-02,6.445389759761408453e-03,9.238914251327514648e-01,-1.415422085285464836e-02,-1.282664626102825167e-03,4.568373128067137329e-02,-8.890069220092930435e-02,-1.051198788001667453e-02,-1.262810975313186646e-01,-2.290543619118709517e-01,-1.082601969624949201e-01,8.609049713751697197e-02,3.146698487306199277e-01,1.185326399606868308e-01,-1.179150700569152610e-01,2.241468071937560980e-01,2.111122548580169622e-01,-2.179150700569152665e-01,5.178469283079212282e-01,-7.276514768600463867e-01,7.546222209930419922e-02,7.544049806211218367e+01,0.000000000000000000e+00
1.172061000000000019e+00,-3.576475177742799438e-02,7.066266666306983413e-03,9.219983220100402832e-01,-1.691019118475243360e-02,-3.747857386781294764e-03,4.773802790971586052e-02,-8.184946627779499106e-02,1.186092688782281997e-03,-1.081423312425613403e-01,-9.735224658538439713e-02,-1.004315203059352318e-01,1.091168921467493974e-01,3.175376653671264648e-01,1.038024663925170843e-01,-1.165718555450439287e-01,2.175376653671264593e-01,2.038024663925170898e-01,-2.165718555450439342e-01,5.173797033273853652e-01,-6.977358460426330566e-01,-4.149726629257202148e-01,-7.405489856632671319e+01,0.000000000000000000e+00
1.196275999999999895e+00,-3.868937435755320786e-02,7.989734087209791544e-03,9.194657802581787109e-01,-1.817251591380550022e-02,-6.638168348914952333e-03,5.103172425303972165e-02,-8.926759994984194424e-02,-8.098871088176872487e-05,-9.370647370815277100e-02,7.171429415655818096e-02,-9.636941834007188568e-02,7.510361052419736727e-02,3.043500661849975475e-01,-1.429386615753173717e-01,-4.902195930480954256e-03,2.043500661849975419e-01,-4.293866157531738004e-02,-1.049021959304809598e-01,5.164735035648261308e-01,-7.084163427352905273e-01,-3.574789762496948242e-01,1.119887446882020328e+02,0.000000000000000000e+00
1.223464000000000107e+00,-4.085069756246931943e-02,8.616608834282574875e-03,9.180306792259216309e-01,-1.723429156365238399e-02,-8.744218977903450707e-03,5.356406810230977117e-02,-8.683430399454994397e-02,2.549316517327579034e-03,-1.029566079378128052e-01,5.122022201104388384e-02,-8.815160847928757426e-02,1.664046362717520877e-01,1.889984846115112527e-01,-1.926249027252197321e-01,-7.213959693908689186e-02,8.899848461151123324e-02,-9.262490272521972656e-02,-1.721395969390868974e-01,5.173401782131024085e-01,-7.132849693298339844e-01,1.080292463302612305e-01,1.352005483560325843e+02,0.000000000000000000e+00
1.245479999999999920e+00,-4.411054521826790475e-02,9.602636810372969581e-03,9.161886572837829590e-01,-1.207676023096760677e-02,-1.227517317871851255e-02,5.729705820196703825e-02,-8.455198712800172933e-02,7.688199542940880350e-03,-9.408716857433319092e-02,2.570105000418054231e-01,-1.125708675569645906e-01,1.434896558142459977e-01,2.769894381743540079e-01,1.876127719879147615e-03,2.512694001197814941e-01,1.861625432968139482e-01,1.018761277198791532e-01,1.512694001197814886e-01,5.180242179945027114e-01,-6.576992869377136230e-01,2.657135725021362305e-01,-4.328329126096432589e+01,0.000000000000000000e+00
1.269303999999999988e+00,-4.627705879499990904e-02,1.028139784008054100e-02,9.151332378387451172e-01,-7.610689176931585177e-03,-1.533561242100711652e-02,5.964187792367320329e-02,-9.828092898218725171e-02,4.125226036668666434e-03,-8.346613496541976929e-02,2.141887786677194039e-01,-1.486048021656639351e-01,1.112589453025203123e-01,2.326040411137735575e-01,-1.362883210182189997e-01,2.262056946754455455e-01,1.733187675476074163e-01,-3.628832101821899414e-02,1.262056946754455400e-01,5.178029816781573036e-01,-6.407423019409179688e-01,-6.701004505157470703e-02,-8.458284286995765910e+01,0.000000000000000000e+00
1.297317000000000053e+00,-4.849671920302570105e-02,1.096540605852786877e-02,9.141661524772644043e-01,-2.490136854321555338e-03,-1.837638543769148924e-02,6.234612271891159380e-02,-8.551270345044784116e-02,1.532413138610595575e-02,-8.968899399042129517e-02,2.874289198254176281e-01,-1.357782136346793178e-01,1.381923838540572713e-01,1.587299057617297393e-01,-1.915614962577819880e-01,2.556180298328399880e-01,1.237975716590881264e-01,-9.156149625778198242e-02,1.556180298328399547e-01,5.189255535251091622e-01,-6.171351671218872070e-01,-5.686402320861816406e-03,9.355819638278548211e+01,0.000000000000000000e+00
1.333574999999999955e+00,-5.213592659064875817e-02,1.150906187023644119e-02,9.128206372261047363e-01,5.792006920774518848e-03,-2.274351664248586147e-02,6.628610266770383619e-02,-9.955660763382320755e-02,1.468116382103554739e-02,-8.173665404319763184e-02,3.073412290116506740e-01,-1.362870415724745932e-01,1.326938732395264997e-01,-5.520162218115703262e-02,-2.922690749168396218e-01,2.117755174636840876e-01,-3.526176810264586986e-02,-1.922690749168395885e-01,1.117755174636840820e-01,5.210045412401169695e-01,-4.879779815673828125e-01,-3.149425983428955078e-02,1.160026487879325998e+02,0.000000000000000000e+00
1.352117000000000013e+00,-5.587680095296469751e-02,1.175669042407113951e-02,9.115948081016540527e-01,1.462041632337448757e-02,-2.524239881501166849e-02,6.920887053245368403e-02,-9.169313148816642112e-02,9.975311577386639095e-03,-8.244276046752929688e-02,2.591802173494588968e-01,6.571578100579718827e-03,6.783005641919361006e-02,-2.758387606892187538e-01,-3.031515121459961160e-01,-5.524951219558715820e-02,-1.948696911334991400e-01,-2.031515121459960826e-01,-1.552495121955871638e-01,5.187836975729356315e-01,-6.236844062805175781e-01,3.667005300521850586e-01,1.321234781255028423e+01,0.000000000000000000e+00
1.367580999999999936e+00,-5.830034615834814304e-02,1.189605288559510837e-02,9.106788635253906250e-01,2.038882167551387195e-02,-2.501144354368212142e-02,7.130871980856721970e-02,-8.826036661140959638e-02,1.375312076362165785e-02,-7.852325588464736938e-02,2.939953333523716017e-01,7.708475998034947096e-02,1.128238682696293960e-01,-3.040971159934997559e-01,-1.777020215988159291e-01,-5.172476768493650123e-02,-2.040971159934997503e-01,-7.770202159881590964e-02,-1.517247676849365068e-01,5.186125359833784199e-01,-6.294682025909423828e-01,-5.508083105087280273e-01,9.899269103741949039e+01,0.000000000000000000e+00
1.393235000000000001e+00,-6.184503959470693396e-02,1.200964971296030262e-02,9.094508886337280273e-01,2.876862359483417161e-02,-2.245657617648011417e-02,7.153197326300521353e-02,-9.834820319717105241e-02,-1.627621725621954335e-03,-8.345478773117065430e-02,2.712127649438902943e-01,1.016661560040949264e-01,-5.874815846716732043e-02,-3.196179330348968284e-01,-2.759029865264892578e-01,3.066541373729705922e-01,-2.196179330348968506e-01,-1.759029865264892523e-01,2.066541373729705866e-01,5.192830337357159376e-01,-6.268373727798461914e-01,-1.288360357284545898e-01,9.513150313734124097e+01,0.000000000000000000e+00
1.418938000000000033e+00,-6.526700682772901274e-02,1.230123372428143166e-02,9.081662893295288086e-01,3.737336844858418078e-02,-1.900618590284475218e-02,7.046650605994232708e-02,-8.853599544280048306e-02,-7.156892985870776276e-04,-8.188490569591522217e-02,2.679383815994819673e-01,1.622965380373962707e-01,-2.024112042874888495e-02,-3.194335758686065452e-01,9.552611708641051136e-02,3.143068552017211914e-01,-2.194335758686065674e-01,1.955261170864105169e-01,2.143068552017211859e-01,5.183108052617756423e-01,-6.864544749259948730e-01,-2.712169885635375977e-01,9.464106140398847344e+01,0.000000000000000000e+00
1.443500999999999923e+00,-6.861165321269631356e-02,1.267850914879860812e-02,9.069405794143676758e-01,4.532856835920662936e-02,-1.391338175244283271e-02,6.812491327165999533e-02,-8.980006496564325869e-02,-1.391200442269817719e-02,-8.276353031396865845e-02,2.239137119686555599e-01,2.007784706327931101e-01,-1.154714699203094885e-01,-3.227432072162628174e-01,1.056317865848541149e-01,3.213330090045928844e-01,-2.227432072162628118e-01,2.056317865848541204e-01,2.213330090045928789e-01,5.184967537701062890e-01,-6.937742233276367188e-01,2.527438402175903320e-01,1.044466653915663699e+02,0.000000000000000000e+00
1.470293999999999990e+00,-7.185556882797736189e-02,1.283707183019407866e-02,9.055987596511840820e-01,4.949303105217843501e-02,-6.652186421349570722e-03,6.734643189614968051e-02,-9.076918425752505959e-02,-7.889892963572026768e-03,-8.746679127216339111e-02,3.501679332299736241e-02,2.958226396973895889e-01,7.087872299987714453e-02,-3.159057199954986572e-01,1.224795639514922874e-01,3.163199961185455544e-01,-2.159057199954986517e-01,2.224795639514922929e-01,2.163199961185455211e-01,5.194435779022331667e-01,-6.758859753608703613e-01,5.212843418121337891e-02,1.083949313733731117e+02,0.000000000000000000e+00
1.496248999999999940e+00,-7.519412706335724950e-02,1.292707057849649607e-02,9.040428996086120605e-01,4.783558093762348834e-02,3.205136751124548766e-03,6.817609393805712514e-02,-8.817315420783780611e-02,-1.002954339369105038e-02,-9.987029433250427246e-02,-1.350571243938347155e-01,3.748562838507362160e-01,-3.802470732188981822e-03,-3.154573619365692028e-01,1.386172483392142385e-01,2.750647068023692743e-03,-2.154573619365691972e-01,2.252721369266509899e-01,-9.724935293197631281e-02,5.223481723455839498e-01,-5.839211344718933105e-01,-7.417094707489013672e-02,7.509683026383382298e+01,0.000000000000000000e+00
1.519592000000000054e+00,-7.749856153881173881e-02,1.270513565768545579e-02,9.031754136085510254e-01,4.346391582562143807e-02,9.267661754976286304e-03,6.743777475480890182e-02,-7.772144654722958068e-02,-1.401931751789440260e-02,-9.775353968143463135e-02,-3.108778180731722185e-01,2.802185773922046819e-01,-2.403326508194805755e-02,-4.258688688278199075e-02,1.682659655382122976e-01,-9.558174610137937233e-02,5.741311311721801480e-02,2.104341745376586970e-01,-1.955817461013793779e-01,5.227953825084370454e-01,-5.642220973968505859e-01,2.480672597885131836e-01,8.360779921499248246e+01,0.000000000000000000e+00
1.549279999999999990e+00,-8.078217332176600152e-02,1.237553657481465369e-02,9.017079472541809082e-01,3.405631274744612413e-02,1.699160682523315202e-02,6.463253196545604151e-02,-7.779754292143914451e-02,-1.513166425460008013e-02,-9.488102793693542480e-02,-3.624326993461805535e-01,1.890575748062661710e-01,-1.288339154829135358e-01,1.175773978233337347e-01,2.206764660816469825e-01,-9.127519130706784889e-02,2.175773978233337402e-01,2.176352620124816784e-01,-1.912751913070678544e-01,5.210397438422355032e-01,-6.635062098503112793e-01,-2.512720823287963867e-01,9.062739636087886197e+01,0.000000000000000000e+00
1.572189000000000059e+00,-8.294660274725346172e-02,1.204591574335720471e-02,9.007998108863830566e-01,2.691735598257432097e-02,1.907475001171943241e-02,6.242779614402535482e-02,-7.502629205903110776e-02,-1.624189178928581515e-02,-9.373128414154052734e-02,-3.584082241842185268e-01,4.457949090751919113e-02,-8.819128613113956516e-02,1.247007012367248313e-01,2.357872831712889417e-01,-1.234624505043029619e-01,2.247007012367248369e-01,2.196269989013671931e-01,-2.234624505043029674e-01,5.202735745934058409e-01,-7.135574221611022949e-01,-1.635009050369262695e-01,9.460446525041554366e+01,0.000000000000000000e+00
1.596241999999999939e+00,-8.509230283371153891e-02,1.162388041204408598e-02,8.999037146568298340e-01,1.965890456971510283e-02,1.894216096315504139e-02,5.964185719357088106e-02,-7.776749305297517290e-02,-2.877206784854663760e-02,-9.125457704067230225e-02,-3.931103557485374211e-01,-7.468965896843157704e-02,-1.416559549008720720e-01,1.244021892547607366e-01,2.235775736600177366e-01,-1.227316379547118974e-01,2.244021892547607422e-01,2.136849582195281816e-01,-2.227316379547119030e-01,5.201431140908761019e-01,-7.241742610931396484e-01,6.825625896453857422e-02,8.479754303632783774e+01,0.000000000000000000e+00
1.619490000000000096e+00,-8.783787775868726055e-02,1.129592749528647924e-02,8.990157842636108398e-01,1.235068840883652569e-02,1.722656394284394210e-02,5.785975210353572901e-02,-7.042384247088408211e-02,-2.088633017474714193e-02,-9.054489433765411377e-02,-3.147209919390291932e-01,-1.484532337487444453e-01,-4.089519377481763696e-02,1.450324516975369793e-01,2.187753724932472998e-01,-1.098905086517333873e-01,2.255207061767577903e-01,2.164734542369842474e-01,-2.098905086517333929e-01,5.202676655666277350e-01,-7.275077104568481445e-01,1.513588428497314453e-02,1.192261155855850916e+02,0.000000000000000000e+00
1.647218999999999989e+00,-9.188049657916774748e-02,1.090899763535835808e-02,8.979315757751464844e-01,2.150254273733067777e-03,1.322941459600901482e-02,5.752579639948458834e-02,-8.092114039370262857e-02,-2.444316348040191308e-02,-7.713074237108230591e-02,-2.906503018938471627e-01,-1.728108407399738533e-01,-3.802041074803462397e-03,2.034578721232564447e-01,1.760103156522789813e-01,-1.087589740753173717e-01,2.215337991714477484e-01,2.128568351268768366e-01,-2.087589740753173773e-01,5.196607953221503706e-01,-7.211422920227050781e-01,-8.293235301971435547e-02,8.009318877377901913e+01,0.000000000000000000e+00
1.672034000000000020e+00,-9.448380597987711405e-02,1.060573627556772765e-02,8.973268270492553711e-01,-2.609820968248170552e-03,9.763228856412675682e-03,5.857090403164314646e-02,-7.146801980693974488e-02,-2.009023241107591937e-02,-7.766988128423690796e-02,-2.316835544519335321e-01,-1.814691344140722806e-01,9.241214046985452013e-02,1.895188203074667788e-01,1.554294522699155578e-01,-6.480093002319334272e-02,1.735437870025634821e-01,2.084251821041107067e-01,-1.648009300231933483e-01,5.204596632529762124e-01,-6.912140846252441406e-01,1.142562985420227051e+00,1.065506573540646116e+02,0.000000000000000000e+00
1.696538000000000102e+00,-9.702744805081039980e-02,1.024541232701541710e-02,8.971395492553710938e-01,-4.702274823127678208e-03,5.399507397408687126e-03,5.959163349811297944e-02,-7.443198885902475859e-02,-2.139728630200034287e-02,-5.918644741177558899e-02,-3.091975826472657951e-02,-2.229407640337909280e-01,4.791046739938031179e-02,2.186632687548744902e-01,8.564787779271607060e-02,-9.407774209976194069e-02,1.909378051757812389e-01,1.733086109161376953e-01,-1.940777420997619462e-01,5.186869499692629004e-01,-7.229347825050354004e-01,-2.283462285995483398e-01,9.653835818182378148e+01,0.000000000000000000e+00
1.718367999999999896e+00,-9.948398278652319238e-02,9.834315344035986922e-03,8.971235752105712891e-01,-4.671182357919983000e-03,7.902228536633693068e-04,6.122277071703958323e-02,-8.491018419448294330e-02,-2.821675171136771645e-02,-4.876482859253883362e-02,3.913643531404937398e-02,-2.203012465863559699e-01,1.051224242178530055e-01,2.267779019314819788e-01,1.359895467758177878e-02,-1.014326453208923284e-01,2.043392658233642578e-01,1.135989546775817843e-01,-2.014326453208923340e-01,5.181697455255354079e-01,-7.178268432617187500e-01,1.462733745574951172e-02,9.003954929977254551e+01,0.000000000000000000e+00
1.743106999999999962e+00,-1.030480664874795921e-01,8.471220009659226335e-03,8.972330689430236816e-01,-1.828157030598608459e-03,-6.331682165847007937e-03,6.369039901299942963e-02,-7.367495247768712785e-02,-1.903266628794956367e-02,-4.190143942832946777e-02,1.225776929237466090e-01,-1.803965068723901166e-01,8.841635537162230440e-02,2.196233200742471470e-01,-1.553668379783630649e-02,1.102745950222015492e-01,2.093135476112365778e-01,8.446331620216369906e-02,1.027459502220153843e-02,5.188105706483387980e-01,-6.625792980194091797e-01,5.732020139694213867e-01,1.154127116889402629e+02,0.000000000000000000e+00
1.769176000000000082e+00,-1.064998355902914418e-01,7.189215045057161663e-03,8.974013328552246094e-01,2.345930055009130041e-03,-1.288435514653318847e-02,6.628307530110527646e-02,-7.465740269366177850e-02,-2.511001922386868479e-02,-3.568356484174728394e-02,2.053621279080891371e-01,-2.165715991984801803e-01,1.178079067243815725e-01,1.220126153305953615e-01,-1.946663856506347656e-01,1.893914461135864369e-01,1.456767439842223955e-01,-9.466638565063476007e-02,8.939144611358641745e-02,5.200948405592575874e-01,-5.753560662269592285e-01,2.744411230087280273e-01,-1.641603182104548608e+01,0.000000000000000000e+00
1.793536000000000019e+00,-1.098961122945277952e-01,5.945992191799535226e-03,8.978753685951232910e-01,6.866661529125051532e-03,-1.904380639567793132e-02,6.863066061502048898e-02,-7.446078306453236817e-02,-1.796299393756658688e-02,-3.114665858447551727e-02,1.646073905385918301e-01,-1.347732927265621883e-01,5.477919052229199282e-02,-2.648278596843109747e-02,-2.871465921401977761e-01,2.586612641811371072e-01,2.130260467529296667e-02,-1.871465921401977428e-01,1.586612641811370739e-01,5.215454141728045334e-01,-4.839867353439331055e-01,-1.087847948074340820e-01,2.876820695386552273e+01,0.000000000000000000e+00
1.820848999999999940e+00,-1.128256856735800062e-01,4.675716548458122568e-03,8.982960581779479980e-01,1.179144028521215276e-02,-2.484423638686661384e-02,7.101495217004918925e-02,-7.471401727654780611e-02,-3.196255521647033138e-02,-3.135498240590095520e-02,1.706925253485358784e-01,-2.134866959439554734e-01,6.853100992300516225e-02,3.870334973442174364e-02,-2.837445497512817161e-01,3.036128163337707409e-01,1.312329411506652777e-01,-1.837445497512817383e-01,2.036128163337707353e-01,5.198706239808903451e-01,-5.804804563522338867e-01,-3.711167573928833008e-01,7.095073468290684104e+01,0.000000000000000000e+00
1.840781000000000001e+00,-1.146677998771215151e-01,3.834286403358389342e-03,8.986107707023620605e-01,1.538963738226665351e-02,-2.753258155360049919e-02,7.269980789497239304e-02,-8.597655098534137674e-02,-2.801359553581914130e-02,-3.155471011996269226e-02,2.205072773075965886e-01,-1.027276862691945125e-01,9.366113155647454169e-02,-2.948897898197174183e-01,-3.207471966743469238e-01,1.784547209739685281e-01,-1.948897898197174128e-01,-2.207471966743469183e-01,7.845472097396850863e-02,5.207919105547011984e-01,-5.375481843948364258e-01,-6.117308139801025391e-02,1.059507345185057119e+02,0.000000000000000000e+00
1.866792000000000007e+00,-1.173964439352816469e-01,2.451579976065543232e-03,8.990076184272766113e-01,2.126714488588720905e-02,-3.066464380881339657e-02,7.387810565089605874e-02,-7.118921088307177125e-02,-3.396197323454875489e-02,-2.841372787952423096e-02,2.087688391923149533e-01,-9.069552555515339454e-02,-1.547749117240975088e-02,-2.951777875423431396e-01,-3.239186048507690652e-01,3.119376957416534202e-01,-1.951777875423431341e-01,-2.239186048507690319e-01,2.119376957416534424e-01,5.217239301129732443e-01,-4.790687561035156250e-01,-5.975023508071899414e-01,1.438784403003171803e+02,0.000000000000000000e+00
1.892317000000000027e+00,-1.200174010790028001e-01,9.398468631880038627e-04,8.992105722427368164e-01,2.720344412417800839e-02,-3.067274216586968194e-02,7.318901562493392021e-02,-8.818468264630542619e-02,-3.709764116127207967e-02,-3.773862868547439575e-02,1.611929836134983196e-01,8.136448474019043753e-02,-2.735623480953135178e-02,-3.207792401313781516e-01,-3.009933710098266491e-01,1.242090821266174372e-01,-2.207792401313781738e-01,-2.009933710098266435e-01,2.420908212661743164e-02,5.191236884929651962e-01,-6.635011434555053711e-01,3.115183115005493164e-01,9.030303067719495402e+01,0.000000000000000000e+00
1.918832000000000093e+00,-1.228669514080585196e-01,6.000818606876725299e-04,8.993169069290161133e-01,3.164178024193287780e-02,-2.633217975076052042e-02,7.052367851226015727e-02,-6.800821866924117165e-02,-3.702640169838895823e-02,-3.994495421648025513e-02,1.208376177376954685e-01,2.272585388244329208e-01,-1.210301226075415487e-01,-3.069604992866515891e-01,8.533627986907957319e-02,2.881314814090728538e-01,-2.069604992866516113e-01,1.853362798690795787e-01,1.881314814090728760e-01,5.190016200429802273e-01,-6.844183206558227539e-01,-5.875087976455688477e-01,5.062658302444864589e+00,0.000000000000000000e+00
1.944644000000000039e+00,-1.255755749534316901e-01,2.231140724789875795e-04,8.992413282394409180e-01,3.352220771905014413e-02,-1.872675023015424323e-02,6.755033227951913466e-02,-7.067614673412733750e-02,-3.460116757403174786e-02,-4.200915247201919556e-02,-2.987120324023731510e-02,2.806433498665465431e-01,-6.401828936269655934e-02,-3.030358731746673473e-01,1.141537547111511064e-01,2.408626079559326172e-01,-2.030358731746673417e-01,2.141537547111511119e-01,1.408626079559326116e-01,5.198621368771555451e-01,-6.540437936782836914e-01,-1.356137990951538086e-01,7.580412367314532673e+01,0.000000000000000000e+00
1.969689000000000023e+00,-1.281941962663539492e-01,-2.323293276010508920e-04,8.988953828811645508e-01,3.133014565071143981e-02,-8.217344577679419615e-03,6.399513903931551562e-02,-6.855201493810229862e-02,-3.256868128766967491e-02,-4.379579797387123108e-02,-1.008380770795407472e-01,3.445199152000092413e-01,-1.436225241010463394e-01,-7.165713310241700329e-02,1.231354892253875566e-01,2.183646142482757457e-01,2.834286689758300573e-02,2.231354892253875621e-01,1.183646142482757541e-01,5.203239379169735113e-01,-6.447976827621459961e-01,-1.013432741165161133e-01,-6.784714453537722534e+01,0.000000000000000000e+00
1.996413999999999911e+00,-1.306291064203263796e-01,-3.440757169885224828e-04,8.983657360076904297e-01,2.509597151287406083e-02,3.283412758748216476e-03,6.092033859270708229e-02,-7.359665492893338601e-02,-3.856385392815671331e-02,-5.025261640548706055e-02,-2.986470644012380604e-01,3.672020336660815620e-01,-8.528732707366598609e-02,7.488145828247069757e-02,1.151244819164276012e-01,-1.242240905761718694e-01,1.748814582824707031e-01,2.151244819164276068e-01,-2.242240905761718750e-01,5.251027364698904742e-01,-4.215911626815795898e-01,-2.385127544403076172e-02,5.981118109004710703e+01,0.000000000000000000e+00
2.017694999999999794e+00,-1.322091079203822628e-01,-1.791184098657551068e-04,8.979203701019287109e-01,1.959551094462451404e-02,1.005348883276302452e-02,5.872458457376245056e-02,-6.268755434440100027e-02,-3.641548675486359216e-02,-4.264435917139053345e-02,-2.863527734281447468e-01,2.492556813343481670e-01,-1.311083309758399040e-01,1.056994676589965709e-01,1.423879947318021644e-01,-1.181493878364562877e-01,2.056994676589965765e-01,2.182846426963806208e-01,-2.181493878364562933e-01,5.241977049335797556e-01,-4.491966366767883301e-01,-3.220177888870239258e-01,1.107547207504774889e+02,0.000000000000000000e+00
2.048815999999999971e+00,-1.345550296142498103e-01,1.316390900246592372e-05,8.973163962364196777e-01,1.025609388523195629e-02,1.537622737170174503e-02,5.507845976537316390e-02,-6.867160860762351604e-02,-3.500265290267896845e-02,-3.334964439272880554e-02,-3.162378550448824988e-01,5.728206788766294910e-02,-1.483669106392516701e-01,1.405820133840009478e-01,1.660583154877736667e-01,-1.026102066040038840e-01,2.240352630615234375e-01,2.164240479469299316e-01,-2.026102066040038896e-01,5.191563450549272485e-01,-6.948451399803161621e-01,3.054624795913696289e-01,-1.003410386814717015e+02,0.000000000000000000e+00
2.072410999999999781e+00,-1.361094312649592242e-01,1.452057224983096639e-04,8.970105051994323730e-01,4.223015597615828454e-03,1.584293844791195838e-02,5.279428901382526851e-02,-6.830735172065707794e-02,-3.206987818349463226e-02,-3.037490136921405792e-02,-2.714270455594415821e-01,-4.181971300167820066e-02,-9.436159686856375461e-02,1.794700202411942391e-01,1.650757686271298041e-01,-1.119440078735351451e-01,2.219814062118530273e-01,2.132971286773681641e-01,-2.119440078735351507e-01,5.190560625301365860e-01,-6.963874697685241699e-01,-6.620661020278930664e-01,7.268735809070676623e+01,0.000000000000000000e+00
2.093573999999999824e+00,-1.376865145015348790e-01,2.313174509228017102e-04,8.968382477760314941e-01,-7.541309099472297533e-04,1.430411157011102219e-02,5.097154422284767145e-02,-6.404963262667390245e-02,-3.626447041573260810e-02,-2.860175445675849915e-02,-2.367591998876481529e-01,-1.386681293527290415e-01,-5.175244998481661612e-02,1.921682819408008780e-01,1.528776818590930897e-01,-9.126782417297363281e-02,2.064296007156372070e-01,2.100093305110931341e-01,-1.912678241729736384e-01,5.190556667501908805e-01,-6.966080665588378906e-01,-4.507839679718017578e-02,1.032348122478876888e+02,0.000000000000000000e+00
2.120842999999999812e+00,-1.405231120930956479e-01,-2.833595181946491529e-05,8.966823220252990723e-01,-4.455495297515461341e-03,1.006542347982652963e-02,5.166062972010516952e-02,-8.106833409897346021e-02,-3.311427876463420017e-02,-2.342426031827926636e-02,-8.726751465182942813e-02,-1.526142177097834784e-01,7.224861804605632598e-02,1.673723539259989318e-02,1.039289593696594016e-01,-6.021478176116942804e-02,3.811204433441161762e-03,2.039289593696594072e-01,-1.602147817611694336e-01,5.189536014349506177e-01,-6.896929144859313965e-01,1.528035402297973633e-01,6.193274029909061795e+01,0.000000000000000000e+00
2.145280000000000076e+00,-1.423374359275176027e-01,-2.499761899168971568e-04,8.966886997222900391e-01,-4.265929162609576747e-03,6.385940707136050776e-03,5.268157031939747770e-02,-6.234198021497853320e-02,-3.209737681465036491e-02,-3.103608731180429459e-03,6.535238388565961509e-02,-1.888883995595825038e-01,5.330002740694151503e-02,2.294808470163443581e-01,5.025218129158018354e-02,-3.875070810317993164e-02,2.185026168823242243e-01,1.502521812915801891e-01,-1.387507081031799372e-01,5.173691236753644729e-01,-6.989482045173645020e-01,-3.323987722396850586e-01,1.087931314019848514e+02,0.000000000000000000e+00
2.169248000000000065e+00,-1.440988633181339851e-01,-4.890726887616736809e-04,8.968292474746704102e-01,-3.101602485413878542e-03,2.583794835569364068e-03,5.366984792497639378e-02,-5.945762531554841385e-02,-3.348748896166083705e-02,-8.216075599193572998e-03,6.209732012526043149e-02,-1.580906287156114698e-01,6.207185328431839844e-02,2.191092150967111629e-01,3.955724835395812988e-02,-3.942251205444335938e-02,2.172060370445251520e-01,1.395572483539581354e-01,-1.394225120544433649e-01,5.179185318036239050e-01,-6.947734355926513672e-01,-1.926767826080322266e-02,-7.869752840934613403e+01,0.000000000000000000e+00
2.198147000000000073e+00,-1.457652509977005739e-01,-7.302220440519402531e-04,8.969922661781311035e-01,-3.574306704753745455e-04,-1.363529558865650415e-03,5.514634811458980768e-02,-6.897174613357268114e-02,-3.012966702901860930e-02,4.370742011815309525e-03,1.848470929629930370e-01,-1.952601852604898824e-01,8.313654893860443484e-02,1.566294280831611596e-01,-1.515162587165833075e-02,2.211782157421112172e-01,1.698094010353088379e-01,8.484837412834167480e-02,1.211782157421111977e-01,5.191366910697321480e-01,-5.844112038612365723e-01,1.499617099761962891e-02,9.392951961701322716e+01,0.000000000000000000e+00
2.221153999999999851e+00,-1.465865360191264122e-01,-8.799090186968069145e-04,8.971334099769592285e-01,1.028296266235412563e-03,-3.214708961080559035e-03,5.569528137631878095e-02,-6.522017421914966251e-02,-3.640375333274881164e-02,-2.827453194186091423e-03,1.146969406944190611e-01,-1.894399255772733215e-01,8.730541117124025752e-02,1.748762691132497160e-01,3.254747390747070312e-02,1.215836286544799832e-01,2.027120590209960938e-01,1.325474739074707087e-01,2.158362865447998116e-02,5.184284596146983004e-01,-6.555472016334533691e-01,1.771255731582641602e-01,1.043325329305354501e+02,0.000000000000000000e+00
2.243504000000000165e+00,-1.477287732960031463e-01,-1.516275210394615663e-03,8.973984122276306152e-01,5.139253923688943786e-03,-6.671315899672736194e-03,5.680031102667484899e-02,-6.187668579115444822e-02,-2.701448929840733620e-02,1.174132339656352997e-02,2.187242099686518282e-01,-9.876287066300615258e-02,1.923298457666002687e-02,-1.407256522628094475e-01,-2.829639911651611328e-01,2.221985101699829046e-01,-9.353059530258178711e-02,-1.829639911651611273e-01,1.221985101699828991e-01,5.205895920693108803e-01,-4.848846197128295898e-01,1.614105701446533203e-02,9.376875062432945640e+01,0.000000000000000000e+00
2.272953999999999919e+00,-1.493147152968895275e-01,-2.477068548310412503e-03,8.977751135826110840e-01,9.999906667206782257e-03,-1.075040384673120464e-02,5.802171583669173127e-02,-5.184468989073485329e-02,-3.352155349016440467e-02,7.628975436091423035e-03,1.515667210681612420e-01,-1.374285267556829282e-01,1.962328513882632963e-02,6.014976927899706727e-05,-2.308523893356323187e-01,2.816171288490295632e-01,8.624364137649535855e-02,-1.308523893356323131e-01,1.816171288490295299e-01,5.208901751034574756e-01,-4.878195524215698242e-01,7.134703397750854492e-01,1.146927004673941894e+02,0.000000000000000000e+00
2.295376999999999779e+00,-1.503368346181208071e-01,-3.097432765466892352e-03,8.980335593223571777e-01,1.351881695675431760e-02,-1.213954158478847134e-02,5.875083473830949865e-02,-5.548008694606445385e-02,-3.182058395314334848e-02,5.033758934587240219e-03,2.142919343948206379e-01,-3.979743937680674248e-02,3.791438536791419400e-02,-2.923875391483307107e-01,-3.135170340538024902e-01,-8.097865581512450617e-02,-1.923875391483306774e-01,-2.135170340538024847e-01,-1.809786558151245117e-01,5.189692522334431457e-01,-6.058675646781921387e-01,1.031262040138244629e+00,1.365200589414089904e+02,0.000000000000000000e+00
2.317031000000000063e+00,-1.513193141140745657e-01,-3.760364447869147132e-03,8.981727957725524902e-01,1.732513617045254237e-02,-1.353562495531646093e-02,5.929988877688533583e-02,-4.598191244449385123e-02,-3.517290073055680949e-02,9.803939610719680786e-03,1.517050191536624404e-01,-2.816101603605169687e-02,2.324655521237528957e-02,-2.966100156307220348e-01,-3.166708827018737682e-01,-8.012317419052122913e-02,-1.966100156307220292e-01,-2.166708827018737626e-01,-1.801231741905212347e-01,5.188077365479749625e-01,-5.993726253509521484e-01,3.117203712463378906e-03,1.069084226627898744e+02,0.000000000000000000e+00
2.344657000000000213e+00,-1.524924958935182373e-01,-5.045039991035188236e-03,8.983234167098999023e-01,2.361931204921141961e-02,-1.435852603819065543e-02,5.830513662856164764e-02,-5.362942013724145834e-02,-3.667770001952735948e-02,8.087879978120326996e-03,2.515663919840107621e-01,-3.137227031252574558e-03,-2.138428773139793362e-02,-3.187345385551452748e-01,-3.196955204010009655e-01,-8.234962224960326593e-02,-2.187345385551452692e-01,-2.196955204010009599e-01,-1.823496222496032715e-01,5.185282871070894251e-01,-6.258897185325622559e-01,1.050584435462951660e+00,-5.510464714337941494e+00,0.000000000000000000e+00
2.371172000000000057e+00,-1.532686157350691969e-01,-6.576865406971290316e-03,8.982167243957519531e-01,2.894074002647323632e-02,-1.355817953653781771e-02,5.620102549084440846e-02,-4.385225317055494593e-02,-4.831898707309862512e-02,-3.220091108232736588e-03,1.172089597247759074e-01,7.579382257067061868e-02,-1.007672054881938173e-01,-3.174083113670349010e-01,1.358851194381713312e-02,3.111284196376800648e-01,-2.174083113670348955e-01,1.135885119438171387e-01,2.111284196376800593e-01,5.181272024358823947e-01,-6.974354386329650879e-01,-3.816050291061401367e-01,8.539500017359635820e+01,0.000000000000000000e+00
2.393774000000000068e+00,-1.536618421221170039e-01,-7.615454607671196148e-03,8.979260325431823730e-01,3.005901703996425103e-02,-1.156551568677710584e-02,5.464555401161546450e-02,-4.122227753381623588e-02,-3.852227668348485318e-02,-4.866579547524452209e-03,2.628594700443781865e-02,1.358180791192518388e-01,-8.896710245645467197e-02,-2.340720772743224987e-01,1.153913795948028342e-01,3.136312246322631725e-01,-1.340720772743224931e-01,2.153913795948028398e-01,2.136312246322631669e-01,5.186569963232744440e-01,-6.818017959594726562e-01,2.714170217514038086e-01,5.640738022283334629e+01,0.000000000000000000e+00
2.420068000000000108e+00,-1.541956474694254065e-01,-9.131773312169168266e-03,8.970592021942138672e-01,2.924393739952495935e-02,-5.695047269653308319e-03,5.219449510261328640e-02,-3.407970109521962776e-02,-4.761653095620752701e-02,-1.049793884158134460e-02,-8.579785807339222747e-02,1.991338113410088262e-01,-4.387977801146593360e-02,4.513987302780150812e-02,1.216966807842254639e-01,-4.439736604690550092e-02,1.451398730278015137e-01,2.216966807842254694e-01,-1.443973660469055065e-01,5.207249585780594492e-01,-6.014981269836425781e-01,2.119585275650024414e-01,6.834126774069262922e+01,0.000000000000000000e+00
