timestamp,x,y,z,roll,pitch,yaw,vx,vy,vz,p,q,r,psp,qsp,rsp,pres,qres,rres,thrust_sp, thrust_res,wind_mag,wind_angle,wind_obs
0.000000000000000000e+00,1.319079611814724141e-02,1.548624596891642847e-03,9.881984591484069824e-01,1.133146592098304394e-02,-8.741376106917941868e-03,-6.041502853000955270e-04,-3.990445258079775882e-03,-7.165605265839944046e-03,1.243698596954345703e-02,7.782796668878146085e-02,-2.748382682015488784e-02,-3.148889842583259008e-03,-7.861784787438180766e-03,-6.138174002779769878e-02,-1.744464261003185190e-01,7.061498165130615512e-02,-9.632813930511473915e-03,-1.728728413581848145e-01,5.167898089979018339e-01,2.613143920898437500e-01,1.615074872970581055e-01,1.345647943480877871e+02,1.502024888992309626e-01
2.538400000000000031e-02,1.341372321763898215e-02,1.680740689891156367e-03,9.886073470115661621e-01,1.175481186340565469e-02,-8.602910792086193581e-03,-1.108195381532148293e-03,1.071391601281466988e-02,-9.142613357616501471e-03,1.184411440044641495e-02,4.218371906857708124e-03,1.039196925286922299e-02,-2.791626161474656392e-02,-2.958005447411182764e-01,-5.129136116055223876e-02,1.796704881218729455e-01,-2.141064405441284180e-01,-1.311746835708618199e-02,1.826834499835967851e-01,5.061394433933903425e-01,-3.066939115524291992e-01,3.001168966293334961e-01,9.955203571911934546e+01,1.502024888992309626e-01
4.861100000000000143e-02,1.351222846437790011e-02,1.810302915179530210e-03,9.889142513275146484e-01,1.174840831792934442e-02,-7.909956541512608297e-03,-9.697037883142823776e-04,3.969058938056645516e-03,-4.760202817393867705e-03,-1.578712253831326962e-03,-3.870426399359094133e-02,6.096849047335366895e-02,1.854462121577183514e-02,-2.626444245814890666e-01,9.838449580920710646e-02,1.701496554005245965e-01,-1.848841845989227239e-01,1.395731449127197155e-01,1.727624952793121171e-01,5.124263316789592348e-01,-2.534800767898559570e-02,1.287854909896850586e-01,8.625026963127618274e+01,1.502024888992309626e-01
7.415499999999999869e-02,1.369570838499094105e-02,1.996696754795355619e-03,9.892670512199401855e-01,1.106644017801196485e-02,-7.538465113908765503e-03,-1.731483886722821062e-03,2.627436926525193294e-03,-5.540471980223302638e-03,4.223002586513757706e-03,-4.345907517310852730e-02,-1.822466677484847059e-02,-4.089388722215953759e-02,-2.480214624067461071e-01,-2.135372549620685456e-01,-1.021898711701685059e-01,-1.735352396965026689e-01,-1.748527050018310602e-01,-9.743067026138305109e-02,5.112531100533065365e-01,-6.388622522354125977e-02,1.214572191238403320e-01,7.377925945218169090e+01,1.502024888992309626e-01
1.004649999999999987e-01,1.383806671582800754e-02,2.172801685907586617e-03,9.893208742141723633e-01,8.313843076679795774e-03,-6.939391368099956381e-03,-3.295022866264088121e-03,2.708830980960326602e-03,2.515195776631211290e-04,-9.531498886644840240e-03,-1.884721253119577555e-01,5.352880603124691994e-02,-9.208190075514986750e-02,-2.307660982370452196e-01,-9.223789564974843591e-02,-4.918506944628059374e-02,-1.790918827056884599e-01,-5.780339241027832031e-02,-4.002338647842407227e-02,5.109894492135540478e-01,-1.330512762069702148e-01,1.283990144729614258e-01,1.396680794694895269e+02,1.502024888992309626e-01
1.250350000000000072e-01,1.421724313501423857e-02,2.349122105606123601e-03,9.891826510429382324e-01,2.445472182639642743e-03,-7.238004928738606125e-03,-5.075417385657696352e-03,-2.295711932563657999e-03,4.462984367843973732e-03,-7.822672836482524872e-03,-2.259714541342873473e-01,1.371565595795508179e-02,1.510152889236384029e-03,-7.071886529345312866e-02,-1.296331430886950575e-01,-1.895917647769378156e-01,-5.987720489501952709e-02,-8.951268196105956199e-02,-1.754084587097168024e-01,5.110232368603622177e-01,-1.259712576866149902e-01,2.378896474838256836e-01,8.838623370927925293e+01,1.502024888992309626e-01
1.525660000000000072e-01,1.462831904766559096e-02,2.616101228119207568e-03,9.887018203735351562e-01,-5.063134280255144129e-03,-5.759911782436955008e-03,-5.284860023327897505e-03,6.875720962470215601e-03,1.754712534363915555e-02,-1.608965359628200531e-02,-1.957524046769157644e-01,2.849056374485717941e-02,-4.826383325037019931e-03,1.460358457395960485e-01,8.595884437467095351e-02,-2.202204422690451358e-01,9.794054031372069480e-02,1.080546855926513700e-01,-2.054099321365356334e-01,5.077726464741266765e-01,-3.345633149147033691e-01,2.893890142440795898e-01,6.964021262647814581e+01,1.502024888992309626e-01
1.765980000000000050e-01,1.490772169547079778e-02,2.896555415651572932e-03,9.883430600166320801e-01,-1.044868607775201012e-02,-3.695089074450930156e-03,-4.540922616507454650e-03,-8.819236681191633745e-03,1.118250084332844327e-02,-2.440519072115421295e-02,-2.906216677317676744e-01,1.096726799907213473e-01,8.376181558320580645e-02,2.708951961531012587e-01,1.835129232789370624e-01,-2.224676486671815501e-01,1.946821689605712780e-01,2.058635473251342607e-01,-2.097089767456054576e-01,5.054025704250594275e-01,-4.958478808403015137e-01,1.727179288864135742e-01,1.272828701267487332e+02,1.502024888992309626e-01
2.014849999999999974e-01,1.518194404981527100e-02,3.246398699890094830e-03,9.879173040390014648e-01,-1.421680469120496261e-02,-1.960842299396858834e-03,-3.140934606896925250e-03,7.727787226048133404e-04,2.004030573298443835e-02,-1.090210303664207458e-02,-1.155004689689073105e-01,4.717592155703690532e-02,5.825715998472413143e-02,3.080834865570068470e-01,2.133027467265501964e-01,-2.263905592036365155e-01,2.080834865570068415e-01,2.141666829586028886e-01,-2.175938844680786188e-01,5.035339888167080780e-01,-5.438830256462097168e-01,1.009594202041625977e-01,9.862185274662280676e+01,1.502024888992309626e-01
2.249369999999999981e-01,1.521109192612026678e-02,3.454050239342504759e-03,9.874199628829956055e-01,-1.592353577033314010e-02,-1.539970570333393241e-03,-7.738953404666130487e-05,-7.522414847861389441e-03,1.821059153092365393e-02,-1.203176472336053848e-02,7.562366381647779578e-02,-6.853297527851445747e-02,1.071495230640696905e-01,1.732366800308227650e-01,-1.200141211890121545e-01,-1.797326909566587805e-01,7.323668003082274558e-02,-1.138440728187560952e-01,-1.794977188110351562e-01,5.192975707295792720e-01,2.880152463912963867e-01,1.113451719284057617e-01,1.044825648658439547e+02,1.502024888992309626e-01
2.525769999999999960e-01,1.498140814253273549e-02,3.505672399612536246e-03,9.870910644531250000e-01,-1.151015137717855547e-02,-4.549065483215208872e-03,3.150869008887887540e-03,-5.820036784576643890e-03,1.843887225919144460e-02,-8.842664770781993866e-03,2.306799338843994740e-01,-8.761867920718609259e-02,6.861720802809184727e-02,2.253789922406236323e-01,-3.230010617154448899e-02,-1.758178418725991066e-01,1.359571337699889970e-01,-9.027743339538573872e-03,-1.845937728881835993e-01,5.175625614271391894e-01,2.048363685607910156e-01,4.645043611526489258e-01,-6.402433546824528321e+01,1.502024888992309626e-01
2.775210000000000177e-01,1.476735452268207634e-02,3.504913781809678320e-03,9.869269728660583496e-01,-6.780505765954445742e-03,-7.487516198649180055e-03,5.593517217713906906e-03,-5.763115911807333708e-03,1.680979105978858829e-02,-2.390644140541553497e-02,2.201202634903967892e-01,-8.824584904161840437e-02,1.280991287108547150e-01,1.628417130796373513e-01,-1.166777427687665097e-01,-1.600494197338492575e-01,1.055258631706237765e-01,-7.399760484695434848e-02,-1.756675958633422685e-01,5.189366314021266469e-01,2.167799472808837891e-01,1.949785947799682617e-01,9.320104579108551945e+01,1.502024888992309626e-01
3.013129999999999975e-01,1.464815652123859814e-02,3.640804977502616700e-03,9.866966605186462402e-01,-1.871731898780560786e-03,-8.867065904321513869e-03,7.653322803549285867e-03,-1.091130250204266558e-02,1.354204631271026422e-02,-1.065200939774513245e-02,2.546097200245557857e-01,-7.328076046250667219e-02,9.878582981645500638e-02,1.014865515218534159e-01,-1.023485284187976851e-01,-1.522271390406723379e-01,7.829600572586059570e-02,-4.655900001525879045e-02,-1.736542940139770563e-01,5.189685238473098483e-01,2.687635421752929688e-01,3.470138311386108398e-01,1.176849926823984447e+02,1.502024888992309626e-01
3.260290000000000132e-01,1.425737029871564608e-02,3.676951676609161411e-03,9.863470792770385742e-01,4.674013124152441231e-03,-8.434786988549936027e-03,1.070105568873358677e-02,5.817819588350178588e-03,2.099950101332565336e-02,-1.870257221162319183e-02,2.225252776116670717e-01,4.189710068653240693e-02,9.855176456388298201e-02,-1.667452991415451224e-01,-7.016102626139844589e-03,-1.138292094612667477e-03,-1.537736177444457841e-01,3.182317614555358470e-02,-3.116276264190673620e-02,5.177879109971537108e-01,1.703367233276367188e-01,2.893817424774169922e-02,9.403882996449010534e+01,1.502024888992309626e-01
3.491569999999999951e-01,1.392894438767107793e-02,3.700451237162275062e-03,9.860372543334960938e-01,8.429611890415916395e-03,-7.224188251713004050e-03,1.277889059653810298e-02,-1.003616615103220845e-02,1.470098250873075330e-02,-2.018929645419120789e-02,2.074174018149474163e-01,-4.464723382805530633e-03,1.180297042723816164e-01,-1.742729895371074034e-01,-7.104710068429578862e-02,-8.141507590382729420e-02,-1.309587121009826716e-01,-2.479584217071533273e-02,-1.172975778579711803e-01,5.196871855786580063e-01,2.638907432556152344e-01,6.515467166900634766e-02,9.435926145921209240e+01,1.502024888992309626e-01
3.739239999999999786e-01,1.349729609258388391e-02,3.784006820639680690e-03,9.855697154998779297e-01,1.309120790172695059e-02,-4.689203395296104304e-03,1.528903118083901544e-02,1.124521640517654394e-02,3.324424135540502562e-02,-2.248774655163288116e-02,1.411221006331176420e-01,1.046283986101049779e-01,6.124409854740400089e-02,-2.617808767413553617e-01,4.302039170783358846e-02,2.207493256684443794e-01,-2.038868308067321722e-01,5.330189466476440568e-02,1.779013931751251276e-01,5.134309325476376085e-01,-8.486992120742797852e-02,8.601105213165283203e-02,9.593126364763637071e+01,1.502024888992309626e-01
4.013749999999999818e-01,1.323249118348431702e-02,3.893236014638121450e-03,9.852441549301147461e-01,1.439197713208734478e-02,-3.144105986495171479e-03,1.614281456522296057e-02,5.865860382286726231e-03,2.397324956237364968e-02,-3.153508901596069336e-02,-7.331501967854562804e-03,5.997224710482510629e-02,6.013640046461728866e-02,-2.777260580282444047e-01,1.865401819963714847e-01,2.356668348253848910e-01,-2.014990568161010576e-01,1.943740010261535700e-01,1.904379844665527177e-01,5.155686891728131771e-01,-9.682297706604003906e-03,3.317952156066894531e-03,3.092130114630698046e+01,1.502024888992309626e-01
4.251219999999999999e-01,1.269617850278264085e-02,4.547386493834835487e-03,9.846615195274353027e-01,1.258092270438859912e-02,-2.664064343320671213e-04,1.667126615467985282e-02,-4.792772041737614064e-04,3.449778561273000171e-02,-3.817647323012351990e-02,-1.166959695276053033e-01,1.057395611532741808e-01,-9.449555766783569039e-03,-1.941626327637439586e-01,1.779443591042156048e-01,1.293667384296914025e-01,-1.400712490081787165e-01,1.715447902679443359e-01,8.270981311798095148e-02,5.128077139013500485e-01,-1.886285543441772461e-01,-1.993860006332397461e-01,5.590942528139356682e+01,1.502024888992309626e-01
4.506229999999999958e-01,1.199105654592935374e-02,5.441880434715795981e-03,9.841417074203491211e-01,9.136713431136079394e-03,2.623968897053075011e-04,1.525892779592307076e-02,6.912001691350644350e-03,3.233327457331874877e-02,-3.806107491254806519e-02,-2.237336875775230716e-01,2.461456035631960377e-03,-1.039074003814313418e-01,-2.007554635743749316e-01,-1.069306716967427795e-01,-3.706869835372647581e-03,-1.664235413074493242e-01,-1.230435490608215304e-01,-4.638708829879760465e-02,5.170327087480299788e-01,3.327822685241699219e-02,8.118236064910888672e-02,9.829566340243052025e+01,1.502024888992309626e-01
4.752330000000000165e-01,1.092368916933131665e-02,6.881299455873447074e-03,9.832149744033813477e-01,1.640451431684249346e-03,-1.315275413971583873e-03,1.331131991584047318e-02,-9.097173817070298638e-03,4.415085849273003155e-02,-4.386335611343383789e-02,-2.881879650201329968e-01,-4.263634174986396380e-02,-3.984494736271453758e-02,-3.318969470596774829e-02,-1.390702246240719808e-01,-1.309977802428672622e-01,-5.846378803253173689e-02,-1.303626894950866699e-01,-1.682832598686218317e-01,5.131576522586787092e-01,-2.039522528648376465e-01,7.476866245269775391e-02,8.842422322144287250e+01,1.273748636245727595e-01
4.990890000000000049e-01,1.016946571049802406e-02,7.937626347329349019e-03,9.825828671455383301e-01,-3.197526395136450050e-03,-4.445841674757033957e-03,1.220716028586483690e-02,-2.497829573321919041e-03,4.437607065464213574e-02,-4.411910846829414368e-02,-2.618683523365881172e-01,-1.258981221949915241e-01,-5.491496775258735558e-02,1.342773830165847893e-01,-2.002864824761866058e-01,-1.800574232568967759e-01,7.838591337203978937e-02,-1.782350063323974443e-01,-2.142479896545410045e-01,5.066352727569134462e-01,-5.570954680442810059e-01,-2.087248563766479492e-01,1.057777394872076258e+02,1.273748636245727595e-01
5.248829999999999885e-01,9.038333563328854875e-03,9.595292372705720510e-03,9.815009236335754395e-01,-1.042539415032600787e-02,-7.170103855346665611e-03,1.224200955111098832e-02,-7.678965812603353799e-03,5.170733376895127187e-02,-4.873482137918472290e-02,-2.482823395905422725e-01,-4.956666412215828682e-02,2.126317414823994389e-02,2.760673165321350098e-01,-1.405616282685444030e-01,-1.850874276882784608e-01,1.760673165321350042e-01,-9.497587680816650668e-02,-2.193259477615356334e-01,5.075565022745804900e-01,-5.343280434608459473e-01,-4.584896564483642578e-02,9.710956007192278605e+01,1.273748636245727595e-01
5.508389999999999675e-01,8.399707614991001881e-03,1.075755929306408329e-02,9.809396862983703613e-01,-1.379134420092215617e-02,-6.991425880058521614e-03,1.330006866676884496e-02,-1.092297487200702757e-02,5.078608241330684336e-02,-3.593005239963531494e-02,-9.752508905446777288e-02,7.049153504239695847e-03,7.332268663545259135e-02,3.099876403808593528e-01,1.387806057042637320e-01,-1.831309216173005183e-01,2.099876403808593750e-01,1.854869306087493785e-01,-2.202957630157470759e-01,5.075535460513606045e-01,-4.888581633567810059e-01,2.644346952438354492e-01,1.148129800986781248e+02,1.273748636245727595e-01
5.753610000000000113e-01,7.492309481918466886e-03,1.249766548977079145e-02,9.801251292228698730e-01,-1.523239767705729907e-02,-4.750206683742153047e-03,1.554388306446240903e-02,6.122406823841544839e-03,5.852988654211345454e-02,-4.651043936610221863e-02,4.059645559747817462e-02,7.633988521376967873e-02,7.200686926356059114e-02,6.258355975151062844e-02,1.137367405003995718e-01,1.838918322110549008e-01,-3.741644024848937711e-02,1.323004961013793945e-01,1.404008209705352728e-01,5.169973782302113019e-01,-3.376388549804687500e-02,-1.228750944137573242e-01,9.254890615932185938e+01,1.273748636245727595e-01
6.012499999999999512e-01,6.927032357747490120e-03,1.364376852522387537e-02,9.797409176826477051e-01,-1.328122620123264180e-02,-2.544398480675669205e-03,1.752395887219334800e-02,-1.623288381169931890e-02,4.490561043313567868e-02,-4.576732590794563293e-02,1.097865404428539776e-01,9.643821766151873531e-02,1.123688115340226168e-01,-1.855067014694213035e-02,-3.359851715380883508e-03,1.708923693341083683e-01,-1.185506701469421359e-01,2.152179479598998954e-02,1.218659520149230902e-01,5.176179241183190838e-01,-2.086400985717773438e-03,6.312228441238403320e-01,1.411102465919810527e+02,1.273748636245727595e-01
6.268930000000000335e-01,6.265876365882768612e-03,1.518481659333934496e-02,9.791936278343200684e-01,-6.045983588787147943e-03,-1.776884428930092241e-03,1.910955275875948767e-02,6.626783576407285423e-03,5.093078576772099020e-02,-4.555108398199081421e-02,2.540296146653044373e-01,2.295623949181130330e-02,1.081180197034989398e-03,2.675029562395891958e-02,1.531835566392249770e-01,7.985219029595518048e-02,-5.818094015121459683e-02,1.517405033111572099e-01,2.634589076042175362e-02,5.196431255274197580e-01,1.021609306335449219e-01,-3.880393505096435547e-02,-7.418553276439237720e+01,1.837568521499633734e-01
6.561040000000000205e-01,6.100065907433703701e-03,1.603738873141323865e-02,9.788622260093688965e-01,-1.016543944664703844e-03,-2.837905689880848570e-03,1.832874756906792066e-02,-4.269963541230536834e-03,5.430376122075850076e-02,-3.319911286234855652e-02,2.520612245166656273e-01,-6.858553992596830295e-02,-8.199839483381204941e-02,2.253097872610919095e-01,3.306943887461884918e-02,-2.217627849929053319e-02,1.702133417129516602e-01,5.042340159416198314e-02,-7.352138757705688199e-02,5.199487438162883057e-01,1.633877754211425781e-01,1.861613988876342773e-01,8.269148835670024766e+01,1.837568521499633734e-01
6.781749999999999723e-01,6.003842035552960435e-03,1.705049298709925346e-02,9.784569144248962402e-01,2.184462965773885205e-03,-3.797371086508016802e-03,1.732091864852370461e-02,-1.201309597651354678e-02,6.204230556514749029e-02,-4.085827246308326721e-02,1.576791228024512770e-01,-8.253941576510676059e-02,-1.486823262163591841e-02,2.265733126024775945e-01,-8.305159256767527531e-02,-1.344798449694138975e-01,1.857747673988342230e-01,-5.494276285171508650e-02,-1.830438852310180553e-01,5.194079001308559151e-01,9.910285472869873047e-02,1.896013021469116211e-01,-6.666620482788202651e+01,1.837568521499633734e-01
7.020039999999999614e-01,5.865620472219614315e-03,1.818584654781899707e-02,9.779828786849975586e-01,3.879591567687490274e-03,-4.504516041645256763e-03,1.629855666020405686e-02,-4.037399119738716013e-03,5.903162328557762240e-02,-4.812602326273918152e-02,4.409547471712708944e-02,-3.338366444875984912e-02,-7.258990780295172807e-02,1.869973067747778273e-01,-1.366978574481118314e-01,1.922333022399601021e-01,1.599582910537719616e-01,-1.113148570060729925e-01,1.465311527252197155e-01,5.178146915099132164e-01,-2.069544792175292969e-02,9.638154506683349609e-02,9.521789820015273165e+01,1.837568521499633734e-01
7.257670000000000510e-01,5.708709201020902360e-03,1.935791816551168942e-02,9.775691628456115723e-01,5.090626161936061787e-03,-6.169942001976513879e-03,1.607573594715767246e-02,-2.350407998858337292e-03,7.309634568329458071e-02,-5.172550678253173828e-02,9.171305001927052003e-02,-1.055901486306841247e-01,-6.661060049592630247e-03,2.254691373842974689e-01,-1.912177368490100837e-01,-1.110049737953377191e-01,1.937848448753356767e-01,-1.552790164947509821e-01,-1.561352133750915361e-01,5.192648504582756397e-01,3.749227523803710938e-02,1.129044294357299805e-01,9.581954224338247172e+01,1.837568521499633734e-01
7.531379999999999741e-01,5.349811558917331143e-03,2.082565481729352699e-02,9.769963622093200684e-01,7.951408474236698609e-03,-8.954618042571693692e-03,1.686856450825681419e-02,-3.987516391500200291e-03,6.408849394084131790e-02,-4.138682037591934204e-02,1.596607759630160606e-01,-1.135147888363816360e-01,3.499850722373884504e-02,1.830415510478281826e-01,-1.805448357880593269e-01,-1.412942861585268772e-01,1.778436899185180664e-01,-1.247640967369079562e-01,-1.887285232543945146e-01,5.198776699504388255e-01,1.060940027236938477e-01,4.437979459762573242e-01,9.899404341487515069e+01,1.837568521499633734e-01
7.771730000000000027e-01,5.069150873716100902e-03,2.157111528163696904e-02,9.764976501464843750e-01,1.260573621148588369e-02,-9.439188605825821199e-03,1.585073586995681266e-02,-7.201028921009322570e-03,5.581539141240702412e-02,-4.412214457988739014e-02,1.515478234942851665e-01,3.802637996624841366e-02,-4.414722994392651645e-02,-1.899127568130755672e-01,1.364364091262795786e-02,2.026413451047440473e-01,-1.603280603885650635e-01,7.507460117340088168e-02,1.579842925071716364e-01,5.161537000532990804e-01,-1.102600693702697754e-01,6.192529201507568359e-02,4.407175463837225493e+01,1.837568521499633734e-01
8.022369999999999779e-01,4.869404142075146706e-03,2.229477104505724755e-02,9.760609865188598633e-01,1.880718488346259237e-02,-6.583280237288491321e-03,1.629957874430864109e-02,4.053310524692619286e-03,6.205441530206997486e-02,-5.238323658704757690e-02,1.687932035656446450e-01,1.942631948130379149e-01,4.267592435718037952e-02,-2.630090162778838114e-01,1.423400483008863820e-02,2.417344920641021910e-01,-1.998118221759796198e-01,4.757984876632690568e-02,1.958928108215332031e-01,5.181334314542028752e-01,-4.226243495941162109e-02,1.799393892288208008e-01,9.361199778287766549e+01,1.837568521499633734e-01
8.268809999999999771e-01,4.834103422551138361e-03,2.297836862714427303e-02,9.757513999938964844e-01,2.536249605765136805e-02,-1.343483669894451893e-03,1.668292982135416089e-02,-4.833302225543067987e-03,5.265209406246548762e-02,-3.220114484429359436e-02,2.090934645862067842e-01,1.615720259481231713e-01,-1.094283419131845438e-02,-3.080719351768493874e-01,1.003773402191310282e-01,2.431326571101594392e-01,-2.080719351768493541e-01,1.082534193992614746e-01,1.963613569736480657e-01,5.124881547507511570e-01,-2.688136696815490723e-01,2.236963510513305664e-01,9.368641269388496085e+01,1.837568521499633734e-01
8.508090000000000375e-01,4.579710138608364227e-03,2.350335312031702831e-02,9.754801988601684570e-01,2.730945918195282901e-02,1.839059734824566306e-03,1.495077074124404222e-02,7.365317305265283235e-03,5.247733793582384093e-02,-4.871053248643875122e-02,1.548455415294596599e-02,1.678385296271910909e-01,-1.132940960243387502e-01,-3.158871591091155784e-01,2.277382576800061065e-01,2.569363635567553095e-01,-2.158871591091156006e-01,2.041886150836944580e-01,2.152519762516021673e-01,5.128606842348012451e-01,-3.189425468444824219e-01,-1.825225353240966797e-02,9.433655791041095995e+01,1.837568521499633734e-01
8.741149999999999753e-01,4.230688303403952813e-03,2.441949691562820060e-02,9.748897552490234375e-01,2.500061821905602555e-02,4.561642903754714595e-03,1.177932446003371672e-02,-4.630123996794375542e-04,5.596583861151718103e-02,-4.783473908901214600e-02,-1.601694234253368820e-01,5.373826215338515372e-02,-9.974993858221344045e-02,-3.073091506958007812e-01,1.041784551264055281e-01,1.792503081081983640e-01,-2.073091506958007757e-01,7.134275436401367465e-02,1.465051352977752575e-01,5.181939663912626948e-01,-3.572875261306762695e-02,-1.480687856674194336e-01,9.565470245795337689e+01,1.837568521499633734e-01
9.004339999999999566e-01,3.980858836655602750e-03,2.518781968206583802e-02,9.743610620498657227e-01,2.069714961150485172e-02,4.491182904424517730e-03,9.289117291350354813e-03,3.903037882748355359e-05,5.688386059294121833e-02,-5.125796049833297729e-02,-2.978945936974172759e-01,-1.526029853547766248e-02,-1.450525553066718820e-01,-2.860667985190243900e-01,-8.331891676144037584e-02,1.641476379899581006e-01,-2.096068561077117920e-01,-1.168323040008544811e-01,1.383504688739776445e-01,5.164404150782456737e-01,-1.494300365447998047e-01,2.316335439682006836e-01,1.033509664449129275e+02,1.837568521499633734e-01
9.237229999999999608e-01,3.536520670695743763e-03,2.638666262472868715e-02,9.733915925025939941e-01,1.194784578925215876e-02,1.386715822941031462e-03,5.771781416761730295e-03,-4.118471085134386479e-04,6.669172704050475853e-02,-6.610077619552612305e-02,-3.392278056859557300e-01,-1.036562729767430413e-01,-1.061596967586818929e-01,-1.840294189368230082e-01,-1.257305779407126289e-01,-6.752846859541603020e-02,-1.728345751762390137e-01,-1.380706787109375056e-01,-8.363142013549804132e-02,5.178920765865167031e-01,-1.387679576873779297e-01,-7.017886638641357422e-02,9.099001793410400296e+01,1.837568521499633734e-01
9.498259999999999481e-01,3.196813660275634253e-03,2.739990527818723237e-02,9.726489782333374023e-01,5.681470186408438261e-03,-1.788987964863597568e-03,3.429951526373669572e-03,-3.493162505051105714e-03,5.688810846875040628e-02,-5.372789502143859863e-02,-3.133594659841207331e-01,-1.412872426348842081e-01,-1.171291608866537465e-01,-4.175901130324068122e-02,-1.644212201517447347e-01,-1.800969145650695158e-01,-6.321998834609984796e-02,-1.533398151397704912e-01,-1.897361040115356501e-01,5.122894471127682481e-01,-3.966972231864929199e-01,4.960310459136962891e-02,9.686231405415749407e+01,1.837568521499633734e-01
9.732939999999999925e-01,2.651340903367114480e-03,2.939328068967740973e-02,9.714743494987487793e-01,-3.855008788449028334e-03,-3.858995657560315706e-03,8.760851763979048265e-04,1.620022799620427856e-03,6.704963992561605024e-02,-7.436364144086837769e-02,-3.242007491558511201e-01,5.044997995128417886e-03,-3.813912928436832134e-02,2.729771946194594623e-01,1.542881375567022317e-01,-2.085042613986383964e-01,1.788919687271117998e-01,1.748327314853668213e-01,-2.109872817993163896e-01,5.158942789821951980e-01,-2.955343723297119141e-01,-2.059272527694702148e-01,2.444152117128339441e+01,1.837568521499633734e-01
9.990539999999999976e-01,2.396942879579935792e-03,3.078668428295797468e-02,9.706045389175415039e-01,-9.340120530490705550e-03,-3.604651803948311084e-03,8.101533610352943055e-04,7.241079795634125732e-04,7.246494675750816961e-02,-5.487119033932685852e-02,-2.090142138021918172e-01,1.645273159504040753e-02,1.158366449885845457e-03,3.140409231185913308e-01,1.882891200224710015e-01,-2.164939893811957949e-01,2.140409231185912975e-01,2.087560057640075739e-01,-2.187709808349609375e-01,5.098134649249889128e-01,-5.508591532707214355e-01,2.854763269424438477e-01,9.496880803131153925e+01,1.837568521499633734e-01
1.027913000000000077e+00,2.017294350170173011e-03,3.292864261810424242e-02,9.696025848388671875e-01,-1.454512833748508940e-02,-1.659696121056652984e-03,2.184841808373617043e-03,3.309769354512000217e-03,6.886330926619062265e-02,-4.436537995934486389e-02,-4.782670957785052634e-02,2.235593257851865162e-02,4.906342444856397200e-02,3.144783377647399902e-01,2.125777169764073715e-01,-2.124834182656270554e-01,2.144783377647399847e-01,2.183996200561523493e-01,-2.185964584350585938e-01,5.083266512566796402e-01,-5.959037542343139648e-01,-1.442259550094604492e-01,1.263574477961037132e+02,1.837568521499633734e-01
1.054815999999999976e+00,1.840506524750434077e-03,3.364572200710665845e-02,9.693400859832763672e-01,-1.467995263066582470e-02,-1.445282268931924463e-03,3.068938501451976518e-03,-7.615889460514853500e-03,7.135476030022387672e-02,-4.819241911172866821e-02,6.725595954877194860e-02,-4.293451328971487069e-02,9.138862361024810421e-02,2.412145495414733942e-01,-1.280837426987982974e-01,-1.463241263448976370e-01,1.412145495414733887e-01,-1.145766735076904214e-01,-1.549077987670898493e-01,5.209910425873467421e-01,6.166744232177734375e-02,-7.472789287567138672e-02,-3.217942199142333237e+01,1.837568521499633734e-01
1.077838000000000074e+00,1.507391773935069963e-03,3.449070189476286658e-02,9.689507484436035156e-01,-1.238246371921265972e-02,-2.595620608724091838e-03,4.748051660933587902e-03,-6.298957147813688366e-03,6.525893640491069181e-02,-2.829369343817234039e-02,1.607966737033177940e-01,-6.154597396018802319e-02,7.326252290114682042e-02,2.908991098403930775e-01,1.071177394636562280e-01,-1.787341248145487838e-01,1.908991098403930720e-01,1.256559848785400446e-01,-1.920225977897644098e-01,5.167063641715016198e-01,-9.485697746276855469e-02,-8.606553077697753906e-03,9.724354106268174291e+01,1.837568521499633734e-01
1.102227000000000068e+00,1.063747409483778135e-03,3.532319981307607826e-02,9.686878323554992676e-01,-7.663360586665318025e-03,-5.297590196850388011e-03,6.693855615272965680e-03,-3.062080148608689600e-03,5.876609299549748894e-02,-4.597875103354454041e-02,2.440761375952393009e-01,-1.401944891666490611e-01,1.333419626452372608e-01,2.901340723037719727e-01,-4.892465149107199512e-02,-1.718738944069853891e-01,1.901340723037719671e-01,-1.501321792602539062e-02,-1.906361103057861162e-01,5.191497366979311856e-01,-3.810441493988037109e-02,-1.927372217178344727e-01,1.114679700847452466e+02,1.837568521499633734e-01
1.125523999999999969e+00,6.234200912269831796e-04,3.620870039918829691e-02,9.684631228446960449e-01,-1.143519754879570270e-03,-8.664152170065220204e-03,8.591805508131591593e-03,-1.732917117600400389e-02,6.334220819407851422e-02,-2.388471364974975586e-02,3.733812256542791141e-01,-2.130390846508420089e-01,8.262449055964704581e-02,2.808198823413731726e-01,-3.547584687451235674e-02,-1.771644854484520915e-01,2.006124615669250544e-01,3.221313357353210172e-02,-2.013687372207641491e-01,5.189421804669205329e-01,3.412997722625732422e-02,-3.571726083755493164e-01,1.856058417891092915e+02,1.837568521499633734e-01
1.153008999999999951e+00,7.916534231907715606e-05,3.758114537889661877e-02,9.682098627090454102e-01,7.879514440039318141e-03,-1.115127473358201726e-02,1.112467693156610898e-02,5.428708388584141398e-03,6.270422352891188988e-02,-3.179334104061126709e-02,2.947683564837128012e-01,-2.755480799735521291e-02,4.779963298601610372e-02,1.680347120938308625e-01,8.077547120623196353e-02,-2.084529464297531914e-02,1.468047380447387584e-01,1.445982813835144098e-01,-5.225751399993896346e-02,5.209710398878311111e-01,1.081743240356445312e-01,-1.883304119110107422e-02,9.311268363379305413e+01,1.837568521499633734e-01
1.176724000000000103e+00,-4.807839358421838382e-04,3.941189298835771210e-02,9.678742885589599609e-01,1.611265877604322119e-02,-1.205482204810137681e-02,1.407095593153043570e-02,-1.702290183437755663e-02,6.180611435417435184e-02,-3.754189610481262207e-02,2.191991877573241376e-01,1.242469463607118185e-02,9.641227846054561956e-02,-7.504939655156527001e-02,2.237643116800602794e-02,1.009543682870417403e-01,-4.367262125015258789e-02,1.131077170372009194e-01,6.101757287979125977e-02,5.190013883377676551e-01,-2.564817667007446289e-02,3.542124032974243164e-01,8.136018203462721488e+01,1.837568521499633734e-01
1.199886999999999926e+00,-1.086034665840366177e-03,4.131766657571222384e-02,9.676838517189025879e-01,2.501014081265104036e-02,-1.239031875465590460e-02,1.721479957519082143e-02,-5.343905253461656533e-03,6.115246545948452295e-02,-4.005464166402816772e-02,2.749213801469853058e-01,5.549924198977246315e-02,1.091523524655093058e-01,-2.581041215442358983e-01,3.021739094356423738e-02,1.965108918026279572e-01,-1.697871208190917802e-01,1.105907142162323026e-01,1.476743638515472246e-01,5.166560958089270184e-01,-1.660540103912353516e-01,4.822099208831787109e-02,1.196092482168877922e+02,1.837568521499633734e-01
1.223713999999999968e+00,-1.617297440739218304e-03,4.308066575371339441e-02,9.674441218376159668e-01,3.387849983024662781e-02,-1.226804000148407070e-02,1.889566859663189061e-02,-8.851374908466587074e-03,5.504518412341662115e-02,-3.064370714128017426e-02,2.900383837154068001e-01,-1.886005571618079926e-02,4.566074209025455105e-02,-2.173047304153442327e-01,2.188128663421767817e-02,2.041389250129196364e-01,-1.173047304153442272e-01,1.059340059757232638e-01,1.504143655300140270e-01,5.156947274105700973e-01,-1.844625473022460938e-01,-1.059466600418090820e-01,1.461645455966554721e+02,1.837568521499633734e-01
1.251319000000000070e+00,-2.150802543679252062e-03,4.473215616883927104e-02,9.670232534408569336e-01,3.905184632953676710e-02,-1.224788617950434144e-02,1.836921313563644881e-02,-1.018747583332633988e-02,5.365176182291836460e-02,-3.507416695356369019e-02,1.185762231336414257e-01,-1.504039304994899025e-02,-6.095409442829759217e-02,-3.030245184898376354e-01,1.718655577134584056e-02,2.661715344970199126e-01,-2.030245184898376298e-01,1.019251406192779458e-01,2.138166368007659857e-01,5.110275470795314634e-01,-4.563526511192321777e-01,-5.381214618682861328e-02,1.033236388580436937e+02,1.837568521499633734e-01
1.275085999999999942e+00,-1.703100756478206825e-03,4.609292954063177322e-02,9.662964344024658203e-01,3.755497044096262754e-02,-1.195575688563721428e-02,1.638534339920956484e-02,5.033899036697463743e-04,5.735775486188149364e-02,-5.171902850270271301e-02,-1.748454284813756865e-01,2.806732470698355963e-02,-9.043019598088739008e-02,-3.129372119903564564e-01,-2.074773363437110163e-01,1.821548400389797762e-01,-2.129372119903564509e-01,-1.333207368850707897e-01,1.354835450649261308e-01,5.160751029428949366e-01,-2.596811652183532715e-01,-3.947645425796508789e-01,-4.515537098038394959e+01,1.837568521499633734e-01
1.301153000000000004e+00,-1.484621178730785151e-03,4.699613383425609026e-02,9.656304121017456055e-01,3.430195417739092395e-02,-1.237529024521299981e-02,1.469817946126865914e-02,-7.024783481299220686e-03,5.933895146113050273e-02,-4.746190831065177917e-02,-1.600311209171116633e-01,-5.439792567054408529e-02,-1.216511589754782213e-01,-3.058590233325958474e-01,-2.524033258835339244e-01,-4.073888888998900004e-03,-2.058590233325958141e-01,-1.679390430450439509e-01,-4.607659578323364258e-02,5.119614642834230400e-01,-4.695994257926940918e-01,1.810446977615356445e-01,1.090485394958083134e+02,1.837568521499633734e-01
1.325263999999999998e+00,-1.151440959454161188e-03,4.823260846902637650e-02,9.644905924797058105e-01,2.670601822656234331e-02,-1.233428878127251771e-02,1.151550079291442479e-02,-7.630061223197709061e-03,5.096824711493588150e-02,-5.878703668713569641e-02,-3.034045482390748116e-01,6.465795198689644474e-02,-8.420535424638053712e-02,-3.120817661285400502e-01,-2.109788827407546030e-01,1.162005123739490581e-01,-2.120817661285400446e-01,-1.270448684692382646e-01,8.327032327651977262e-02,5.173419331433781743e-01,-2.354124188423156738e-01,6.661585569381713867e-01,-2.857942394030095201e+00,1.837568521499633734e-01
1.347936000000000023e+00,-9.231280849061610427e-04,4.911653009659850549e-02,9.636277556419372559e-01,2.112947130630584563e-02,-1.101115318383638630e-02,9.864704695011893704e-03,-1.069218155560751164e-02,5.426917140681006974e-02,-6.192773208022117615e-02,-2.466873509763741479e-01,5.977312714045715514e-02,-7.944105924403284391e-02,-2.687090598200928548e-01,-1.692653683727394776e-01,1.392812010561647086e-02,-2.083075404167175348e-01,-9.152605533599852961e-02,-1.424750089645385707e-02,5.162973388609054526e-01,-3.123821020126342773e-01,8.055673837661743164e-01,-6.772085177630275510e+00,1.837568521499633734e-01
1.374891000000000085e+00,-4.409980539191359289e-04,5.080339922002290870e-02,9.621805548667907715e-01,1.090269589505774364e-02,-5.761497287498862363e-03,8.624211665688158793e-03,-1.552391529026526549e-03,5.384196161928844065e-02,-6.936401128768920898e-02,-3.946530803394485698e-01,2.363068178260960550e-01,-6.550654027176061600e-02,-1.312170706947564103e-01,1.133714169405766609e-01,-3.971799712140530736e-02,-1.377188801765441839e-01,1.493486344814300426e-01,-6.404414176940917414e-02,5.154899328184179286e-01,-3.961277008056640625e-01,1.082175970077514648e-01,9.003265080871082660e+01,1.837568521499633734e-01
1.400810000000000111e+00,-1.261109951473255982e-04,5.195637257959868222e-02,9.611671566963195801e-01,4.161678369435577000e-03,-1.710444539301470002e-03,7.864738094180282954e-03,3.697473587044482635e-03,5.368886623883742382e-02,-6.891696155071258545e-02,-3.003697978755112130e-01,1.636993143268622442e-01,-3.492952520349000556e-02,1.108508164222871684e-01,1.910951276342647276e-01,-1.443830908241049704e-01,5.952497720718383234e-02,1.978697776794433594e-01,-1.664291381835937556e-01,5.132888429031688959e-01,-5.215378999710083008e-01,2.787232398986816406e-03,9.282121214115193197e+01,1.837568521499633734e-01
1.424128999999999978e+00,3.047513850614496549e-04,5.370141635968746219e-02,9.596855640411376953e-01,-4.878065689864732185e-03,3.715575295137441003e-03,7.322543938156302577e-03,-1.048754343871827199e-02,5.667591492876311587e-02,-6.603295356035232544e-02,-2.711032297590099671e-01,1.290071004016919987e-01,-1.861004713101489447e-02,3.026901006698608509e-01,2.299764156000437265e-01,-1.919836266997868579e-01,2.026901006698608454e-01,2.131894111633300670e-01,-2.124591350555419811e-01,5.115357824603343762e-01,-6.149597167968750000e-01,-6.130421161651611328e-02,2.935916687368607114e+00,1.837568521499633734e-01
1.448452999999999991e+00,4.761468392562113929e-04,5.484407262293122115e-02,9.587724208831787109e-01,-9.097610976523553758e-03,5.278182484315552259e-03,7.751140912392805518e-03,-9.027718309212763581e-03,5.059923931459817115e-02,-6.785372644662857056e-02,-1.939539617949551376e-01,6.332098125583737747e-02,4.768105059635122794e-02,3.109291315078735463e-01,2.447422855020570664e-01,-1.951152397602865518e-01,2.109291315078735407e-01,2.146045804023742620e-01,-2.167996644973754772e-01,5.122443306094036641e-01,-5.932989120483398438e-01,7.144057750701904297e-02,1.063778808888199592e+02,1.611458063125610352e-01
1.476682999999999968e+00,3.168847097538751083e-04,5.667748653453529017e-02,9.577574133872985840e-01,-1.028275543079358763e-02,2.947576609952040627e-03,9.626148919632706094e-03,-1.375883113260371014e-02,5.177598637229081230e-02,-5.217760056257247925e-02,6.905287481611154139e-03,-1.088349931762632450e-01,1.051459209239446607e-01,2.667025804519653209e-01,-1.659367642018952649e-01,-1.942293335263388376e-01,1.667025804519653154e-01,-1.769590973854064941e-01,-2.211773157119751032e-01,5.137283850956507747e-01,-4.610135555267333984e-01,1.373922824859619141e-02,9.941207148264743410e+01,1.611458063125610352e-01
1.500839999999999952e+00,1.209285853037561236e-04,5.783668774872505192e-02,9.573298096656799316e-01,-7.408750794939193869e-03,-1.026242874690774798e-03,1.151057817160014082e-02,-1.816475038643522444e-02,5.343614878809156699e-02,-3.213156759738922119e-02,2.107553515321326787e-01,-2.549670576301023561e-01,1.039065665326587284e-01,3.049610376358032338e-01,-1.113839614768962344e-01,-1.699681462440279789e-01,2.049610376358032282e-01,-9.373844861984252652e-02,-2.022193908691406194e-01,5.121653988393856105e-01,-4.707908630371093750e-01,2.826575040817260742e-01,8.223566885225028500e+01,1.611458063125610352e-01
1.526370999999999922e+00,-2.340762180027605374e-04,5.956867012521213645e-02,9.568218588829040527e-01,-9.016336156425767316e-04,-7.555713276916398158e-03,1.458379540787740382e-02,-1.787346935693753108e-02,5.309898978254756069e-02,-3.050138428807258606e-02,2.559315555091645211e-01,-1.517279953443825269e-01,7.117965478919893729e-02,2.948075182517318482e-01,-4.381519212652961598e-02,-1.603721500241087061e-01,2.039241671562194713e-01,1.537528038024902309e-02,-2.013636231422424316e-01,5.141842983265273448e-01,-3.622682094573974609e-01,8.627188205718994141e-02,9.300592094687658573e+01,1.611458063125610352e-01
1.549679999999999946e+00,-4.113598123855114852e-04,6.073081052503560839e-02,9.564631581306457520e-01,3.898798362917061180e-03,-1.005987239341665784e-02,1.682908588289524013e-02,-6.954183439094437959e-03,5.650795682310300744e-02,-5.279590561985969543e-02,2.237040365061406799e-01,-5.287440543552668348e-02,1.513862362199430434e-01,2.232779513497809010e-01,-7.444231299513140443e-02,-9.397265049067826670e-02,1.603881239891052080e-01,-7.696580886840820139e-03,-1.413480520248412975e-01,5.228060539462867640e-01,7.403969764709472656e-03,1.208833456039428711e-01,1.030400972150289647e+02,1.611458063125610352e-01
1.575220000000000065e+00,-1.035500404484970220e-03,6.331128341411526583e-02,9.559258222579956055e-01,1.220484025385018198e-02,-1.004555811032115109e-02,1.975868099048466719e-02,-1.242986881759802938e-02,5.632982466635871877e-02,-3.914107009768486023e-02,3.181328585937197029e-01,5.418699427357139692e-02,1.078848312333593740e-01,2.992673574183448565e-03,-1.158210905369791432e-02,1.223561699226267813e-01,-7.561147212982177734e-03,6.088138818740844449e-02,6.662081480026245395e-02,5.195838431663748480e-01,-1.191557645797729492e-01,1.136628389358520508e-01,9.279589946008786683e+01,1.611458063125610352e-01
1.598257999999999956e+00,-1.602089121564531345e-03,6.519131873393997634e-02,9.556030631065368652e-01,1.820647254401036585e-02,-8.939602117734590792e-03,2.135707058395300978e-02,2.422204921822433341e-03,4.833556388626033401e-02,-4.103709012269973755e-02,2.920346696967335842e-01,8.718735950524758582e-02,8.000207507728017420e-02,-1.474749997961009584e-01,-2.690456671159443744e-02,1.886145699987356039e-01,-1.140758872032165416e-01,2.605558633804321358e-02,1.284523308277130127e-01,5.198720910517798943e-01,-1.164544224739074707e-01,-1.401404142379760742e-01,1.028150561422553864e+02,1.611458063125610352e-01
1.627094000000000040e+00,-2.115698118735906148e-03,6.703318074374006730e-02,9.551820755004882812e-01,2.400501892129683693e-02,-7.360035025074651571e-03,2.238887921597973452e-02,-1.285336388476471595e-02,5.119785419191198034e-02,-4.332419484853744507e-02,3.164572102624905736e-01,3.811062662743590346e-02,2.237418329443650530e-02,-1.107731854835485863e-01,-4.403252365299398924e-02,1.584556231986796182e-01,-4.481052160263061107e-02,1.273561120033264195e-02,9.529638290405273438e-02,5.190772684017130878e-01,-1.746129989624023438e-01,-3.104746341705322266e-02,9.482018311497205332e+01,1.611458063125610352e-01
1.652840000000000087e+00,-2.566683998553045531e-03,6.880850047847160422e-02,9.548082947731018066e-01,2.795340029974621374e-02,-5.880289796569071470e-03,2.230129794209163505e-02,-9.255614919897686352e-03,4.739277575382792873e-02,-4.569295793771743774e-02,1.365204289441413754e-01,1.059847053268844208e-01,-3.271458003545725524e-02,-2.856860134247161676e-01,7.578882059738334398e-03,2.555359149299979982e-01,-1.920445382595062089e-01,4.996418952941894531e-02,1.927055597305297741e-01,5.187235990949514708e-01,-2.089460492134094238e-01,5.708158016204833984e-02,1.000521899814718694e+02,1.611458063125610352e-01
1.675372000000000083e+00,-3.032680402205436328e-03,7.067330144546596360e-02,9.543626904487609863e-01,3.008318250175094286e-02,-4.949457968984161127e-03,2.137240966773825898e-02,4.051062874661999318e-03,5.450281269847900151e-02,-4.788241907954216003e-02,7.328289548476880910e-02,1.813167012478870618e-02,-7.247314798361605137e-02,-2.968572258949279674e-01,3.778802550082518974e-02,2.675429617569399232e-01,-1.968572258949279619e-01,6.442843079566955289e-02,2.074343562126159668e-01,5.174296934254483116e-01,-2.939282655715942383e-01,-7.213711738586425781e-03,1.240738969905150100e+02,1.611458063125610352e-01
1.700261999999999940e+00,-3.252417101940018995e-03,7.396238520905026870e-02,9.536401033401489258e-01,2.944154821939978101e-02,-3.576987574172463269e-03,1.914737632171730625e-02,-5.706754565136815463e-03,5.237028606921555196e-02,-4.619999602437019348e-02,-5.837841073344403331e-02,2.734771121385036821e-02,-1.094688518361723872e-01,-3.118810844863393883e-01,-1.323736950256970690e-01,1.569337038769040849e-01,-2.159747779369354248e-01,-1.046895146369933999e-01,1.030500054359436007e-01,5.156272256407679055e-01,-3.914973139762878418e-01,-1.215718984603881836e-01,9.807377104686430869e+01,1.611458063125610352e-01
1.728941000000000061e+00,-3.374695090887699315e-03,7.607948228086268416e-02,9.530728459358215332e-01,2.697767964029170948e-02,-2.565853025566555701e-03,1.737396735841922543e-02,-3.310202173049513891e-03,5.655389875896515289e-02,-5.474315583705902100e-02,-1.154140457043926760e-01,7.633524055918054080e-03,-7.141332936376558471e-02,-2.885026230995358931e-01,-1.682462935098006096e-01,1.396744091167796964e-01,-2.136797726154327226e-01,-1.501103281974792425e-01,9.085403680801391879e-02,5.177877075117587324e-01,-3.167998790740966797e-01,4.863822460174560547e-02,1.169994875765392806e+02,1.611458063125610352e-01
1.753455999999999904e+00,-3.459892132904485596e-03,7.822821235146419638e-02,9.525229930877685547e-01,2.317226385286168949e-02,-1.714627339180596621e-03,1.487990461453997035e-02,-6.059472745718668882e-03,5.924267916269192885e-02,-6.233012676239013672e-02,-2.297626852874905812e-01,5.548625252828085636e-02,-1.331558207687868201e-01,-2.529455467098314925e-01,-8.855071934356764651e-02,1.263167739217842811e-01,-2.059699773788452037e-01,-7.305682897567748746e-02,8.451628088951110285e-02,5.199305304253877269e-01,-2.391723990440368652e-01,8.661252260208129883e-01,-1.576419101005802759e+01,1.732250452041625977e-01
1.777927999999999953e+00,-3.546847511529344597e-03,8.036989899976137997e-02,9.519087672233581543e-01,1.805583336964051294e-02,-1.528542820619982479e-03,1.251254210076295156e-02,-3.421882814328950414e-03,6.545648597309440542e-02,-6.203408166766166687e-02,-2.310129946562160530e-01,-2.459845802358353803e-02,-1.117603494732260783e-01,-1.851012432065196889e-01,-1.601232031893061736e-01,1.805360902454995406e-02,-1.775631308555603027e-01,-1.479064822196960449e-01,-1.707859039306640694e-02,5.216709003066273276e-01,-1.522172689437866211e-01,-1.110595464706420898e-01,1.182865684237364832e+02,1.732250452041625977e-01
1.798877999999999977e+00,-3.888145883505291465e-03,8.272336693472841229e-02,9.512098431587219238e-01,1.165743345945841405e-02,-7.157554155159395748e-04,1.067377222231430389e-02,-7.382123833735859848e-03,6.380308942574575148e-02,-7.736629992723464966e-02,-3.651138753321837016e-01,7.235204586774553193e-02,-5.832893383098620987e-02,2.400237693297824909e-02,1.304515186190292608e-01,-1.419921459828145660e-01,-9.435206651687622070e-03,1.413621246814727728e-01,-1.719491958618163951e-01,5.207221227647050865e-01,-2.731113433837890625e-01,-6.502211093902587891e-02,8.100326366935902911e+01,1.732250452041625977e-01
1.826745999999999981e+00,-4.841797314998003490e-03,8.790316943684935158e-02,9.497770667076110840e-01,-1.053596377404851904e-03,2.588867564004226907e-03,7.091760226741497010e-03,4.218181116218282060e-03,6.965702548876538669e-02,-6.807336211204528809e-02,-3.274703102414242006e-01,1.652062485423678173e-01,-5.746783599501389950e-02,3.048406600952148215e-01,2.316017203771269517e-01,-1.905275575538942778e-01,2.048406600952148438e-01,2.125079512596130260e-01,-2.103159427642822266e-01,5.141657300489154148e-01,-6.007397174835205078e-01,-1.254522800445556641e-02,9.528849503541397326e+01,1.732250452041625977e-01
1.852514999999999912e+00,-5.439833514010276004e-03,9.174947283768426776e-02,9.487178325653076172e-01,-8.681461750128172811e-03,5.826448885708934711e-03,5.320248356030616091e-03,5.331866687671752217e-03,7.863227594867493175e-02,-5.350520089268684387e-02,-1.600637260632585268e-01,4.634108095960523532e-02,-3.309788655214488534e-02,3.176891922950744740e-01,2.583635256129280244e-01,-2.031195091655094154e-01,2.176891922950744684e-01,2.195426881313324030e-01,-2.179260849952697754e-01,5.127842690458189745e-01,-6.269081234931945801e-01,2.819646596908569336e-01,1.132097776061252148e+02,1.732250452041625977e-01
1.877026000000000083e+00,-6.026598167609685010e-03,9.555719739715815009e-02,9.478927850723266602e-01,-1.340215724638213306e-02,8.162776980464192533e-03,5.753815017621177752e-03,-7.156493997086638831e-03,7.520048703319071048e-02,-4.382164031267166138e-02,-5.926872893265786035e-02,3.938795464108938577e-02,3.252785179506414992e-02,3.161562919616699441e-01,2.662143828291130832e-01,-1.969378095966610454e-01,2.161562919616699108e-01,2.224948704242706299e-01,-2.129921078681945856e-01,5.114831680344908982e-01,-6.660492420196533203e-01,1.953877210617065430e-01,1.155982742683111724e+02,1.732250452041625977e-01
1.902209000000000039e+00,-6.774632888958154533e-03,9.845657487288969612e-02,9.475325942039489746e-01,-1.187754298860267156e-02,5.267100162732241131e-03,7.820190142340383704e-03,-2.823522397512036059e-03,7.686195808400528295e-02,-3.022773191332817078e-02,1.815288213360237157e-01,-1.805168465491616414e-01,6.563491803587968854e-02,3.165723919868469460e-01,1.348796842788412831e-01,-1.811565398592644149e-01,2.165723919868469127e-01,1.051195621490478432e-01,-2.030011653900146429e-01,5.136216131692101783e-01,-5.040536522865295410e-01,-6.325932741165161133e-01,1.298244654791805317e+02,2.090156793594360463e-01
1.927446999999999910e+00,-7.609875588922561211e-03,1.012300424518601666e-01,9.474995136260986328e-01,-5.172369843409778227e-03,-1.304560640659424564e-03,1.053250811104489842e-02,-2.116671360244930591e-02,6.699499717897217099e-02,-1.104127150028944016e-02,2.590847540713139274e-01,-2.337344103407953400e-01,7.700619830645562269e-02,3.182872891426086204e-01,2.069678255966309402e-02,-1.819727977852110823e-01,2.182872891426086426e-01,4.899106621742248258e-02,-2.115521907806396373e-01,5.126227926280941816e-01,-4.846929311752319336e-01,-3.158482313156127930e-01,1.217432178796532156e+02,2.090156793594360463e-01
1.952266000000000057e+00,-8.186401650592681559e-03,1.030517996518413720e-01,9.475672245025634766e-01,7.584866289628193828e-04,-6.373078474316340447e-03,1.244375785606412384e-02,4.328902181813344468e-04,7.782537713345163977e-02,-3.486388176679611206e-02,2.730444030052227022e-01,-1.939892371219218703e-01,1.031860825659438735e-01,3.144482612609863503e-01,2.197674034680109634e-03,-1.714863803445722812e-01,2.144482612609863170e-01,4.385862350463867049e-02,-2.065281629562377985e-01,5.175011080903546556e-01,-3.221988677978515625e-01,-6.421446800231933594e-03,9.851478270119369540e+01,2.090156793594360463e-01
1.974344000000000099e+00,-8.721297926392089159e-03,1.048661662465879413e-01,9.476380944252014160e-01,7.547732576241869898e-03,-1.131811535758808773e-02,1.435886682196775392e-02,-1.411733790071455219e-02,7.270714012782938940e-02,-1.726637966930866241e-02,3.787179199781889882e-01,-2.804077195018305768e-01,9.370875716285058388e-02,2.992450330721777019e-01,-8.702853320088148326e-02,-1.678546886618696721e-01,2.152194857597350963e-01,1.344913244247436393e-03,-2.085986852645873857e-01,5.165533335810192916e-01,-3.066431283950805664e-01,2.650257349014282227e-01,1.037090732630966841e+02,2.090156793594360463e-01
1.998355000000000103e+00,-1.024245319339830811e-02,1.088788161664185766e-01,9.476570487022399902e-01,1.702539451338592677e-02,-1.556313366749639826e-02,1.707022597792965876e-02,-2.060698197022517355e-03,7.634668031750191375e-02,-2.495834045112133026e-02,3.172641948910369103e-01,-6.006720669914714789e-02,5.329223674101542241e-02,2.227451409587645481e-01,7.646878957748412531e-02,4.729521038683173056e-02,1.941764116287231501e-01,1.764687895774841309e-01,-1.378798484802245964e-03,5.223097152615222560e-01,-3.086912631988525391e-02,1.822704076766967773e-01,1.018725446783069799e+02,2.090156793594360463e-01
2.024580999999999964e+00,-1.124744912411712594e-02,1.114613192544004761e-01,9.476309418678283691e-01,2.317431395702873251e-02,-1.733705211986480421e-02,1.941056971088212998e-02,-7.299903268844316548e-03,7.553287953315805658e-02,-2.743631787598133087e-02,3.489300236203461414e-01,-7.946683741673310486e-02,1.346687524728715224e-01,1.589123405744460593e-01,-6.451247930526735064e-02,9.949567847194205894e-02,1.693467378616332897e-01,3.548752069473266185e-02,4.395503997802734097e-02,5.238807967387665299e-01,4.031097888946533203e-02,-2.677868604660034180e-01,9.419168276792582617e+01,2.090156793594360463e-01
2.048273000000000010e+00,-1.263897201405951749e-02,1.151781119556489763e-01,9.474603533744812012e-01,3.265785447559946264e-02,-1.780701141906049223e-02,2.151419605873713253e-02,-9.636429523197504593e-03,7.336989460571230470e-02,-2.259135246276855469e-02,3.407641583225384241e-01,-2.270420929349222308e-02,1.935974202425051055e-02,5.699682943527223378e-02,1.717616319656370405e-02,2.484788536064518050e-01,1.276345968246459794e-01,1.171761631965637096e-01,1.867362499237060491e-01,5.229486240874492431e-01,4.377126693725585938e-03,5.920256376266479492e-01,-9.083876339493407670e+01,2.090156793594360463e-01
2.073430000000000106e+00,-1.353848216711872089e-02,1.174926909262734298e-01,9.473827481269836426e-01,3.848793472016208417e-02,-1.773435479812635052e-02,2.165453702821744028e-02,-2.387016708911533260e-03,6.889821210020036224e-02,-2.895997278392314911e-02,2.436937336818333633e-01,6.369577284306682241e-02,1.696535191072968962e-03,-2.575189650058746227e-01,3.342255353927611750e-02,2.600558392671341590e-01,-1.575189650058746171e-01,1.334225535392761230e-01,1.978441894054412675e-01,5.172058650857688233e-01,-3.349051475524902344e-01,-1.499720811843872070e-01,7.510735558534481981e+01,2.090156793594360463e-01
2.101167999999999925e+00,-1.422188884007897711e-02,1.209085673934291588e-01,9.471768736839294434e-01,4.615500986476066964e-02,-1.719657394005924544e-02,2.029735469662170486e-02,-1.303677693143563514e-02,5.937143079378214700e-02,-2.512498572468757629e-02,2.520555101836324252e-01,7.843276702987008603e-03,-5.565532649482511640e-02,-3.001434683799743541e-01,-2.115321159362804071e-03,2.720773132538395478e-01,-2.001434683799743486e-01,9.788467884063720148e-02,2.133892714977264349e-01,5.133842200201061967e-01,-5.290045738220214844e-01,-4.798185825347900391e-02,9.627239061554348609e+01,2.090156793594360463e-01
2.127037000000000067e+00,-1.449496315654541512e-02,1.231481301839495585e-01,9.469839334487915039e-01,4.934902433688566348e-02,-1.617415738276339887e-02,1.812428430213380154e-02,-1.463392314885288148e-02,5.699840796742484256e-02,-3.340494632720947266e-02,1.267232333068300520e-01,8.224825662601452370e-02,-1.303461163837384418e-01,-3.102022707462310791e-01,-4.206410646438599188e-02,2.725642167498600887e-01,-2.102022707462310736e-01,5.793589353561401367e-02,2.199665307998657227e-01,5.125784554236427759e-01,-6.098865270614624023e-01,1.932489871978759766e-02,1.025825906538539982e+02,2.090156793594360463e-01
2.154008999999999840e+00,-1.491825519820603498e-02,1.262946727098100408e-01,9.464113712310791016e-01,4.926877183832091556e-02,-1.541445671025121200e-02,1.456452567573490210e-02,-1.289319734661065371e-02,5.781124115707362426e-02,-4.056986793875694275e-02,-8.535688532069624079e-02,8.820938226454522191e-03,-9.993728971916528148e-02,-3.110399246215820312e-01,-2.371805787086486705e-01,2.035083534078235556e-01,-2.110399246215820257e-01,-1.371805787086486650e-01,1.609553754329681452e-01,5.174421967318645343e-01,-3.849174976348876953e-01,3.502489328384399414e-01,1.202907508318933196e+02,2.090156793594360463e-01
2.177556000000000047e+00,-1.523125400921572850e-02,1.283248711897248817e-01,9.458729624748229980e-01,4.595652122910024590e-02,-1.487562805818032352e-02,1.174757358092814660e-02,-1.833660605157692858e-02,5.339440863592346403e-02,-4.865171015262603760e-02,-2.175796287639090443e-01,2.972731977468176176e-02,-1.692773948873477485e-01,-3.121724605560302623e-01,-2.196495890617370661e-01,1.977387755565620242e-01,-2.121724605560302568e-01,-1.196495890617370605e-01,1.631397664546966608e-01,5.173848170780497302e-01,-4.271187782287597656e-01,9.618747234344482422e-02,1.041687176734818649e+02,2.090156793594360463e-01
2.204057000000000155e+00,-1.574255674108944805e-02,1.312656291059258462e-01,9.449158906936645508e-01,3.827142652078147078e-02,-1.420332290524473073e-02,7.565041625902996746e-03,-1.336967485186795271e-02,5.500372063413851847e-02,-4.857306927442550659e-02,-3.020321748470627954e-01,4.373652346573102256e-02,-1.225070738484004274e-01,-3.130658686161041371e-01,-1.942101955413818581e-01,1.828501883819755869e-01,-2.130658686161041315e-01,-9.421019554138183871e-02,1.602448403835296520e-01,5.180806517577061232e-01,-3.985831737518310547e-01,-3.471219539642333984e-02,9.938593234869379955e+01,2.090156793594360463e-01
2.223247000000000195e+00,-1.606675393943477262e-02,1.330760989050905896e-01,9.441472291946411133e-01,3.205570457164710896e-02,-1.277693450390748886e-02,4.780213967440109096e-03,-4.302976525179131977e-03,4.925144968678556168e-02,-5.857297778129577637e-02,-3.544762211058289370e-01,8.959187868370893648e-02,-1.451806422429695043e-01,-2.791422668077904179e-01,-1.543656749404220818e-01,1.741808660486320603e-01,-2.105917453765868974e-01,-6.012521982192992748e-02,1.597052156925201361e-01,5.203677105895974098e-01,-3.233675956726074219e-01,4.584265947341918945e-01,9.352981011659490207e+01,2.090156793594360463e-01
2.251126999999999878e+00,-1.649026940112019446e-02,1.356622287069360056e-01,9.428960084915161133e-01,2.212903043457939423e-02,-8.002381577896011677e-03,1.094560276434439422e-03,-1.552522965856862995e-02,5.210470611611527081e-02,-5.543483793735504150e-02,-3.056119927204520859e-01,1.567093061760224670e-01,-9.782035528060475937e-02,-1.569265679881423903e-01,8.458278131411328671e-02,6.268164221624553112e-02,-1.581619620323181097e-01,1.587016940116882380e-01,5.890645980834960382e-02,5.175839716780467059e-01,-4.718887209892272949e-01,-4.224721193313598633e-01,8.505489773406475251e+01,2.090156793594360463e-01
2.275778999999999996e+00,-1.686845331599022904e-02,1.381142771802456037e-01,9.415034651756286621e-01,1.164897353585627252e-02,-2.184668086941066178e-03,-2.558631523267634097e-03,-1.182870158491845097e-02,4.491884083149027401e-02,-6.069637089967727661e-02,-3.256060743410325031e-01,1.684975228039823636e-01,-1.423624741714372421e-01,1.630512552542694726e-01,1.684579704809502365e-01,-1.259128480838252462e-01,9.784626960754394531e-02,2.011079013347625566e-01,-1.189817905426025363e-01,5.177973316987718455e-01,-4.923763275146484375e-01,-2.109333276748657227e-01,8.966623848049631818e+01,2.090156793594360463e-01
2.298540000000000028e+00,-1.738632594535298101e-02,1.394439799950822345e-01,9.405333399772644043e-01,5.147802868603591764e-03,1.245798083099547426e-03,-4.495468361547499264e-03,-1.232439075484713549e-02,5.549897059251906323e-02,-7.280444353818893433e-02,-3.473035719756296102e-01,1.992954163440615878e-01,-7.426582751712342001e-02,2.950212717056274192e-01,2.013113692824984313e-01,-2.109065336511267985e-01,1.950212717056274414e-01,2.131625890731811412e-01,-1.983895540237426702e-01,5.170350082605943420e-01,-5.922896862030029297e-01,1.904705762863159180e-01,8.419166427581268408e+01,2.090156793594360463e-01
2.325251000000000179e+00,-1.829327533717458459e-02,1.413349150227121431e-01,9.392926692962646484e-01,-1.014740379901121281e-03,2.484934180591480413e-03,-5.888127030519022150e-03,-1.874115326746112961e-02,4.451809701226595167e-02,-4.586143791675567627e-02,-9.497961464905967099e-02,-5.664382549340594986e-02,3.011187529950083014e-02,3.079226255416870339e-01,-1.874567424091155010e-01,-2.407837819792143508e-01,2.079226255416870006e-01,-1.779021263122558538e-01,-2.243384599685668834e-01,5.137293956647455140e-01,-6.727462410926818848e-01,2.305604219436645508e-01,1.134975198154795208e+02,2.090156793594360463e-01
2.349368000000000123e+00,-1.901511383637261368e-02,1.425098893199926997e-01,9.387398362159729004e-01,-1.560639116353431180e-03,1.006505915677635699e-03,-5.711802657580218774e-03,-3.277822790770257289e-02,4.018573382143201395e-02,-3.146244212985038757e-02,3.005252510363082274e-02,-1.198278671257914374e-01,-6.219414378914460938e-03,3.183465480804443248e-01,-1.470642438692971454e-01,-2.230316506965276668e-01,2.183465480804443193e-01,-1.172653913497924694e-01,-2.071685314178466630e-01,5.122342380311560861e-01,-7.026282548904418945e-01,2.902673482894897461e-01,9.773432430549301841e+01,2.090156793594360463e-01
2.375783999999999896e+00,-2.017741470712255611e-02,1.440777854874651653e-01,9.382354617118835449e-01,2.191791389849095505e-03,-2.933879423494767380e-03,-3.784376944550653290e-03,-2.064969633606085486e-02,3.774830515155926797e-02,-2.134585566818714142e-02,1.644572104618247654e-01,-1.009434462842222213e-01,5.545765100637930350e-02,3.239362001419067161e-01,1.399737784304535548e-01,-2.169443909957775307e-01,2.239362001419067383e-01,1.846829831600189098e-01,-2.065813064575195146e-01,5.131236433778326722e-01,-6.212453842163085938e-01,-1.512714624404907227e-01,1.010573752612443030e+02,2.090156793594360463e-01
2.399065999999999921e+00,-2.097803985236981750e-02,1.450520788925208360e-01,9.379333257675170898e-01,6.096587179382286469e-03,-4.027706741337455654e-03,-1.900309358690268876e-03,-3.163115881197200996e-02,3.923323104033388242e-02,-2.770197577774524689e-02,2.236541606557494455e-01,-3.167796590144984076e-02,1.060748754756763307e-01,3.168069958686828835e-01,1.503061988584894759e-01,-3.701455183257326004e-02,2.168069958686828502e-01,2.127759754657745361e-01,-3.207836151123046736e-02,5.193468621464208956e-01,-3.185003995895385742e-01,-2.910256385803222656e-03,1.290641288207746982e+02,2.090156793594360463e-01
2.425473000000000212e+00,-2.218247820984466448e-02,1.464478967246211905e-01,9.377731084823608398e-01,1.388276397862435972e-02,-3.384958076301680663e-03,9.708450747371447694e-04,-9.977103677107629701e-03,4.302054755318028556e-02,-2.319147996604442596e-02,2.944948314261800482e-01,3.288664817673139784e-02,1.090961836054557543e-01,2.476696275653883506e-01,1.799745362085653499e-01,2.092001978773209703e-01,1.869622349739074596e-01,2.203942716121673473e-01,2.061581611633300781e-01,5.237823526742760860e-01,-6.581240892410278320e-02,7.729412317276000977e-01,-4.188145640552173887e+01,2.090156793594360463e-01
