timestamp,x,y,z,roll,pitch,yaw,vx,vy,vz,p,q,r,psp,qsp,rsp,pres,qres,rres,thrust_sp, thrust_res,wind_mag,wind_angle,wind_obs
0.000000000000000000e+00,-2.680256960695739108e-04,9.822609543660400927e-03,9.974845647811889648e-01,1.163950733090443092e-02,-7.748239757711106179e-03,1.149660196767443056e-02,-7.354076316123758436e-03,1.697581601456480196e-02,-1.084080431610345840e-02,-3.260477215147281754e-02,2.042347552493938012e-02,-1.704555647036712362e-02,-5.583473164435499153e-02,-5.610771971810844111e-02,3.236819886908198773e-02,0.000000000000000000e+00,0.000000000000000000e+00,0.000000000000000000e+00,5.129555335182920395e-01,-0.000000000000000000e+00,3.455680608749389648e-01,9.922035490283434456e+01,2.028442621231079102e-01
2.140799999999999995e-02,-3.841385615169510604e-04,1.018494297357872003e-02,9.972795248031616211e-01,1.174441661488947672e-02,-7.895568424444388000e-03,1.153317108469109099e-02,-9.789332831037177857e-03,1.910224731298194867e-02,-7.467468734830617905e-03,-1.479491370619336228e-02,2.518714879596413783e-02,-1.816269881042398282e-02,-5.694859180722882525e-02,-5.805965004121941414e-02,3.247723395958501680e-02,0.000000000000000000e+00,0.000000000000000000e+00,0.000000000000000000e+00,5.127305760099671872e-01,-0.000000000000000000e+00,2.056466341018676758e-01,9.263683801469660750e+01,2.028442621231079102e-01
4.981000000000000011e-02,-8.376750476267881117e-04,1.123805392710897251e-02,9.966684579849243164e-01,1.188959387512745006e-02,-8.121373876962323379e-03,1.153285717737850130e-02,-1.202259229250640833e-03,2.174509713956070817e-02,-1.179726794362068176e-02,-7.688539796642360029e-03,4.810690660644693743e-03,-1.389412058410151307e-02,-5.539216651002643738e-02,-5.252142973794120956e-02,3.246486861862396545e-02,0.000000000000000000e+00,0.000000000000000000e+00,0.000000000000000000e+00,5.131105984033870193e-01,-0.000000000000000000e+00,-3.501850366592407227e-01,9.783640831282802708e+01,2.028442621231079102e-01
7.398399999999999421e-02,-6.279508969947482843e-04,1.187321519068969440e-02,9.963552951812744141e-01,1.234256037949878031e-02,-8.112932389054305915e-03,1.143733909786557451e-02,-1.229760115032584034e-02,1.785897758490007092e-02,-4.734866786748170853e-03,3.776438629603950936e-02,-1.780902982301616616e-02,1.424591922986048493e-03,-6.122502822292025942e-02,-6.260406537441653985e-02,3.223054553556586876e-02,0.000000000000000000e+00,0.000000000000000000e+00,0.000000000000000000e+00,5.126188840121171930e-01,-0.000000000000000000e+00,1.443899869918823242e-01,9.804694889399367241e+01,2.028442621231079102e-01
9.701400000000000301e-02,-4.051977734733152258e-04,1.243698131220562220e-02,9.959679245948791504e-01,1.226504279340417947e-02,-7.496445657026784559e-03,1.111994443076731731e-02,-6.363235971578359504e-03,1.512896906586489593e-02,-1.213032845407724380e-02,-4.771977494836737721e-02,4.978895852049930459e-02,-2.547069576933358101e-02,-6.197521460208665900e-02,-5.208695747339544407e-02,3.130424704358425458e-02,0.000000000000000000e+00,0.000000000000000000e+00,0.000000000000000000e+00,5.132094379179120702e-01,-0.000000000000000000e+00,2.204173803329467773e-01,9.690166960415510289e+01,2.028442621231079102e-01
1.234409999999999952e-01,-9.855366425043329316e-05,1.332698494805031712e-02,9.952919483184814453e-01,1.149950071139985153e-02,-6.623254949648993417e-03,1.118441202713085607e-02,2.242373856713460352e-03,2.224443624919850843e-02,-2.072371169924736023e-02,-3.800582747366484937e-02,1.312925490417890355e-02,4.792195091230522230e-02,-5.028962013619037857e-02,-4.012144990173435732e-02,3.144857555447266861e-02,0.000000000000000000e+00,0.000000000000000000e+00,0.000000000000000000e+00,5.139196133878196626e-01,-0.000000000000000000e+00,-5.317652225494384766e-02,7.155734427366317618e+01,2.028442621231079102e-01
1.462289999999999979e-01,1.097576879405451193e-04,1.393250695885846387e-02,9.946942329406738281e-01,1.047723016574741810e-02,-5.692957156727018742e-03,1.096319438618507600e-02,-1.170802192596188951e-02,1.280435002805523081e-02,-2.766933664679527283e-02,-5.635417423572728485e-02,5.536066064069759124e-03,-3.417149439464763766e-02,-5.169327426803581316e-02,-4.651535146270293491e-02,3.082731124170262627e-02,0.000000000000000000e+00,0.000000000000000000e+00,0.000000000000000000e+00,5.145066105857990513e-01,-0.000000000000000000e+00,-4.724528789520263672e-01,5.253436243511264081e+01,2.028442621231079102e-01
1.740130000000000010e-01,5.604351972498030493e-04,1.448461569574847202e-02,9.935377240180969238e-01,8.401099349071617511e-03,-4.230041829822894783e-03,1.099632743027095620e-02,1.616182395089640336e-03,2.296318253318446745e-02,-4.810240492224693298e-02,-1.157879996434484776e-01,8.224216730246743101e-02,2.339920109305164420e-02,-2.842602395207651303e-02,-2.397035444069130217e-02,3.085420336162680854e-02,0.000000000000000000e+00,0.000000000000000000e+00,0.000000000000000000e+00,5.161507338547207668e-01,-0.000000000000000000e+00,1.387487649917602539e-01,9.893236680666993266e+01,1.632826566696166937e-01
1.964249999999999885e-01,9.019411288248507059e-04,1.473013525909310124e-02,9.926025271415710449e-01,7.553546659473141418e-03,-3.484497871568903449e-03,1.071591720575246209e-02,1.397520945995436902e-03,1.484438553830086729e-02,-4.572865739464759827e-02,-3.156223662892376769e-02,2.489286589396313629e-02,-3.322762064017256017e-02,-3.057504770262549007e-02,-2.110458070254246990e-02,3.005202332018491740e-02,0.000000000000000000e+00,0.000000000000000000e+00,0.000000000000000000e+00,5.160929236726483627e-01,-0.000000000000000000e+00,1.314598321914672852e-01,8.887903868808484731e+01,1.632826566696166937e-01
2.242550000000000099e-01,1.423278314099306286e-03,1.513060321205375244e-02,9.910081028938293457e-01,5.480323173792827837e-03,-2.037485350842249687e-03,1.079540649030144052e-02,-5.615983603103913771e-03,1.857371426644391713e-02,-6.445251405239105225e-02,-1.211106145162812314e-01,3.241990838175136391e-02,3.129913347517176286e-02,-1.262008003541212342e-02,-1.692284838948463974e-02,3.026020881561602982e-02,0.000000000000000000e+00,0.000000000000000000e+00,0.000000000000000000e+00,5.176567584304244685e-01,-0.000000000000000000e+00,-2.239919900894165039e-01,1.702335175147551070e+02,1.632826566696166937e-01
2.451389999999999958e-01,1.755580788716761030e-03,1.541235281390215643e-02,9.897633790969848633e-01,4.472540540345488515e-03,-1.152015964794639302e-03,1.076734522799221994e-02,8.333529977493599195e-03,1.977944985903325528e-02,-7.025598734617233276e-02,-5.991810380797467361e-02,6.335363380907202413e-02,-3.058516985062278981e-02,-5.487953167450924062e-03,1.129497532174885679e-03,3.014676244961317364e-02,0.000000000000000000e+00,0.000000000000000000e+00,0.000000000000000000e+00,5.182495753029968677e-01,-0.000000000000000000e+00,1.736243963241577148e-01,8.206166978314421101e+01,1.632826566696166937e-01
2.718380000000000241e-01,2.230270818181516370e-03,1.551694586744808806e-02,9.876501560211181641e-01,2.715816522592412290e-03,-6.124487455805294189e-04,1.075263259323689692e-02,-6.022179022851623272e-03,1.536132650113719057e-02,-7.739913463592529297e-02,-9.950011109722645131e-02,-1.788989541104622771e-02,-4.086542769475486558e-04,2.504004515998630755e-03,-8.515867260024500077e-03,3.011814285680575187e-02,0.000000000000000000e+00,0.000000000000000000e+00,0.000000000000000000e+00,5.190112620467004501e-01,-0.000000000000000000e+00,2.311903238296508789e-01,1.254188841814955850e+02,1.632826566696166937e-01
2.984990000000000143e-01,2.696897327745243021e-03,1.546276598294062977e-02,9.852636456489562988e-01,1.585434036600883497e-03,-1.686277730323926249e-04,1.083306461022263446e-02,6.148807773887893929e-03,2.013705269221778560e-02,-8.907733857631683350e-02,-3.316635902254985724e-02,3.180186273395219781e-02,1.211748394128216513e-03,1.417653336756771569e-02,6.370777549913596641e-03,3.032535027717286891e-02,0.000000000000000000e+00,0.000000000000000000e+00,0.000000000000000000e+00,5.201389067150866685e-01,-0.000000000000000000e+00,5.643725395202636719e-03,1.102483441857910833e+02,1.632826566696166937e-01
3.195270000000000055e-01,3.033789785913422292e-03,1.543464143199823127e-02,9.834920763969421387e-01,1.386840917600885978e-03,-1.653995272101749237e-04,1.072304057302472281e-02,2.692215764515215864e-03,1.425573926250880107e-02,-8.577829599380493164e-02,1.548524344252747049e-02,-2.569518254448741740e-02,-2.234540912263134269e-02,1.027418482061269109e-02,2.096750584249425405e-03,3.002261941755685060e-02,0.000000000000000000e+00,0.000000000000000000e+00,0.000000000000000000e+00,5.201207893307836505e-01,-0.000000000000000000e+00,-4.453837871551513672e-02,6.416250336496547391e+01,1.632826566696166937e-01
3.448950000000000071e-01,3.570539879882550244e-03,1.542352455327851597e-02,9.806672930717468262e-01,1.243617324133114693e-03,6.133518606816767971e-04,1.062504863106476100e-02,4.307242655933573271e-03,1.859466530223796710e-02,-1.090140491724014282e-01,-2.766938337969564871e-02,4.485669780167402670e-02,4.082940265181468111e-03,1.543204385920041513e-02,9.283950401061065449e-03,2.974051779045799870e-02,0.000000000000000000e+00,0.000000000000000000e+00,0.000000000000000000e+00,5.221452494185944149e-01,-0.000000000000000000e+00,3.528964519500732422e-02,1.055934609834006750e+02,1.632826566696166937e-01
3.705530000000000213e-01,4.453957202550296555e-03,1.493143818951719361e-02,9.776685833930969238e-01,1.699224167660973259e-03,7.791280488589347186e-04,1.052259836843846136e-02,1.475642359466174634e-02,1.899546056733552452e-02,-1.081752851605415344e-01,1.418066914340365518e-02,-2.758108443486536818e-02,2.340647408947208602e-02,1.189673744511479843e-02,1.890262942447465053e-02,2.944203543103596221e-02,0.000000000000000000e+00,0.000000000000000000e+00,0.000000000000000000e+00,5.224239506943603173e-01,0.000000000000000000e+00,-1.317273378372192383e-01,1.021919106635184420e+02,1.632826566696166937e-01
3.951210000000000000e-01,5.138973785167149852e-03,1.445511094055860861e-02,9.755330085754394531e-01,1.706707722427720742e-03,7.768134898962220092e-04,1.043693326714884712e-02,1.095857177798404553e-02,1.851079810799829278e-02,-1.126256212592124939e-01,-1.016064768497339753e-02,-1.820167670455674624e-02,-1.750577768991553110e-02,1.123093980864692601e-02,1.487335020164619326e-02,2.920701789473634236e-02,0.000000000000000000e+00,0.000000000000000000e+00,0.000000000000000000e+00,5.230302720021537954e-01,-0.000000000000000000e+00,-7.830274105072021484e-02,9.908754187442345085e+01,1.632826566696166937e-01
4.223149999999999959e-01,6.191355247097625296e-03,1.379761219701887767e-02,9.722924232482910156e-01,2.034554435464433660e-03,4.576962716755783589e-04,1.050990015100129044e-02,1.128710604138198105e-02,1.838302346220662895e-02,-1.150639355182647705e-01,-3.922210699828764142e-03,1.079114655549338019e-02,2.372597906088098896e-02,8.729906486752897488e-03,1.428147764921888427e-02,2.941114150486406897e-02,0.000000000000000000e+00,0.000000000000000000e+00,0.000000000000000000e+00,5.235757742313985608e-01,-0.000000000000000000e+00,-1.690438985824584961e-01,9.576078895614202224e+01,1.632826566696166937e-01
4.444400000000000017e-01,6.904814040460780129e-03,1.340718064766307019e-02,9.700096845626831055e-01,2.476698596804953380e-03,3.487202981466985818e-04,1.010262539363061471e-02,2.632354654331623897e-02,1.746476424044376627e-02,-1.222504973411560059e-01,2.759337051882853470e-02,-5.027002146350839466e-03,-4.710504009302136919e-02,4.882924364309603610e-03,2.572730132996085828e-02,2.825566184458150332e-02,0.000000000000000000e+00,0.000000000000000000e+00,0.000000000000000000e+00,5.244067893363644206e-01,-0.000000000000000000e+00,-1.052534580230712891e-02,9.371464869591379454e+01,1.632826566696166937e-01
4.752299999999999858e-01,7.853233559927263671e-03,1.273269677617236591e-02,9.665068387985229492e-01,2.707743996536896274e-03,3.950358339870341240e-04,9.984641354942473679e-03,5.128052416384283087e-03,1.343343165157284691e-02,-1.297917068004608154e-01,-2.046284317993023877e-02,-2.567136802283179545e-02,2.692361415614993522e-02,1.545579812874551737e-04,7.992354149367657257e-03,2.794770584810107872e-02,0.000000000000000000e+00,0.000000000000000000e+00,0.000000000000000000e+00,5.253572495258278519e-01,-0.000000000000000000e+00,7.849109172821044922e-02,1.368550114183064181e+02,1.632826566696166937e-01
4.995919999999999805e-01,8.450784556654726901e-03,1.229954903001236576e-02,9.640564918518066406e-01,2.717060663942573537e-03,2.771070010543219553e-04,9.911142075611584223e-03,2.145473624335170887e-02,2.184533265165324728e-02,-1.364821493625640869e-01,-1.917262774998299696e-02,2.688741104494925954e-02,-3.437187918800418268e-02,6.857364679977913727e-03,2.334834038853587229e-02,2.771856192785143724e-02,0.000000000000000000e+00,0.000000000000000000e+00,0.000000000000000000e+00,5.261821427832724662e-01,-0.000000000000000000e+00,1.137465238571166992e-01,1.524873200132279862e+02,1.632826566696166937e-01
5.270930000000000337e-01,9.034623560675943479e-03,1.189593751656367777e-02,9.615219235420227051e-01,2.516362659666831862e-03,-4.123170128313979887e-04,1.009610152567555312e-02,2.610909656133235737e-02,2.373423522902236293e-02,-1.401594132184982300e-01,-3.333313053389502789e-02,-3.006335173137322792e-02,3.688236184113709293e-02,8.244272628474044046e-03,2.059387049145226106e-02,2.824110313094729818e-02,0.000000000000000000e+00,0.000000000000000000e+00,0.000000000000000000e+00,5.267969170080856189e-01,-0.000000000000000000e+00,2.097812891006469727e-01,1.091986397330085055e+02,1.632826566696166937e-01
5.600910000000000055e-01,9.342247922052484416e-03,1.170895342334688644e-02,9.602388143539428711e-01,2.598406517104745028e-03,-1.002536819801225221e-03,9.991239753883530972e-03,1.951322550462436869e-02,1.593932274152488893e-02,-1.338630467653274536e-01,-9.305728790915880622e-03,-8.944929978642052193e-02,2.648649263700405144e-03,1.458469270598087338e-03,1.125421215084553526e-02,2.796231314201924611e-02,0.000000000000000000e+00,0.000000000000000000e+00,0.000000000000000000e+00,5.265908299028361217e-01,-0.000000000000000000e+00,-1.017636060714721680e-01,-6.290193731212625750e+01,1.632826566696166937e-01
5.867179999999999618e-01,9.652830269699212012e-03,1.153399088375513595e-02,9.589321613311767578e-01,2.846866454373033102e-03,-1.186880083136943043e-03,9.904408076367877262e-03,1.542144500556688266e-02,1.250728585362603784e-02,-1.319014281034469604e-01,3.416215873805680120e-02,-4.953668025222002919e-02,-1.922710590235808537e-02,-1.721456226060236183e-03,8.083494102317387298e-03,2.772288589918564528e-02,0.000000000000000000e+00,0.000000000000000000e+00,0.000000000000000000e+00,5.267015981994602747e-01,-0.000000000000000000e+00,2.125808000564575195e-01,1.021080222801323458e+02,1.632826566696166937e-01
6.257200000000000539e-01,9.959088969820241097e-03,1.135248972359561952e-02,9.576104879379272461e-01,2.918707539165393740e-03,-1.416949992580240902e-03,9.813960573761649347e-03,1.399826186789063232e-02,1.399829654129186064e-02,-1.373301893472671509e-01,3.431583831101320953e-02,-2.397229230856021132e-02,-1.309017240981655977e-02,-6.100230725743810856e-04,6.314456004745187291e-03,2.747129156048000453e-02,0.000000000000000000e+00,0.000000000000000000e+00,0.000000000000000000e+00,5.273557592814626105e-01,-0.000000000000000000e+00,3.267668485641479492e-01,1.153515814958686434e+02,1.632826566696166937e-01
6.476319999999999855e-01,1.047109857819855314e-02,1.090274907494775090e-02,9.550045728683471680e-01,3.059331218451148866e-03,-2.008022912020956952e-03,9.530945992315097148e-03,3.106727023172800931e-02,1.955752636764640853e-02,-1.379438191652297974e-01,-1.982902630115424350e-02,-4.407178741092034405e-03,-2.816561052110494803e-02,2.252971016507700468e-03,1.626909795452129853e-02,2.666385162586504265e-02,0.000000000000000000e+00,0.000000000000000000e+00,0.000000000000000000e+00,5.277596185362337655e-01,-0.000000000000000000e+00,-2.780318260192871094e-03,1.017498813110027243e+02,1.632826566696166937e-01
6.742479999999999585e-01,1.103311181461983509e-02,1.021923376505267517e-02,9.510044455528259277e-01,3.579612085653901318e-03,-2.671877772874475809e-03,9.294357490317001896e-03,2.284393532503676411e-02,1.882835446858750761e-02,-1.438880562782287598e-01,2.661052488235609095e-02,-3.752671384604334970e-02,2.388254505337141648e-02,-2.776358351157834185e-03,3.611708725196223751e-03,2.601895035444029558e-02,0.000000000000000000e+00,0.000000000000000000e+00,0.000000000000000000e+00,5.286535792673148215e-01,0.000000000000000000e+00,-3.544241189956665039e-01,-1.483901285867582764e+01,1.632826566696166937e-01
7.005179999999999740e-01,1.141231126468204848e-02,9.845685926260444934e-03,9.483913183212280273e-01,3.598250569335893854e-03,-2.872870378619607479e-03,9.083553840861756379e-03,1.804302530863891030e-02,1.257892417088894536e-02,-1.363712549209594727e-01,1.060365519235292354e-02,-8.411287069993628879e-03,-3.814815606490084415e-02,-7.712992042373448612e-03,7.125640671198284161e-05,2.543382906231633767e-02,0.000000000000000000e+00,0.000000000000000000e+00,0.000000000000000000e+00,5.284700358350040705e-01,-0.000000000000000000e+00,-1.166497468948364258e-01,-8.878125769992693961e+01,1.577156305313110463e-01
7.231039999999999690e-01,1.199910919714681015e-02,9.342383441692516874e-03,9.443460702896118164e-01,3.346932090213462080e-03,-3.492836007614297245e-03,9.002245495589396643e-03,2.757145281434776607e-02,1.999420654994977370e-02,-1.492913961410522461e-01,-2.309157093742873063e-02,-2.144273602750955757e-02,-2.162680917676414530e-02,1.366122802729068109e-04,4.448219490117624221e-03,2.519976483602237582e-02,0.000000000000000000e+00,0.000000000000000000e+00,0.000000000000000000e+00,5.298853257914764026e-01,-0.000000000000000000e+00,-2.027651071548461914e-01,2.018743551844608248e+02,1.577156305313110463e-01
7.464840000000000364e-01,1.248475475992644364e-02,9.273792743149112880e-03,9.416214823722839355e-01,3.354532815778072611e-03,-3.977433319059198169e-03,9.050076222813006541e-03,2.347632530748211543e-02,1.991428239955747581e-02,-1.383436322212219238e-01,5.003489505795482434e-02,-2.974881779688036063e-02,1.897066038962527635e-03,-9.034374860989666245e-04,-2.731675054346435153e-03,2.534404083761565563e-02,0.000000000000000000e+00,0.000000000000000000e+00,0.000000000000000000e+00,5.294705479530584791e-01,-0.000000000000000000e+00,4.316078424453735352e-01,7.502378822084970977e+01,1.577156305313110463e-01
7.778920000000000279e-01,1.332252418653498936e-02,9.613821097703357382e-03,9.376389980316162109e-01,3.250116602582921871e-03,-4.685661029340426609e-03,8.671621484795258641e-03,2.077379753750004110e-02,1.537367447491818848e-02,-1.460584700107574463e-01,1.056827326959464651e-02,-2.380084069238242589e-02,-5.732171887588449061e-02,-3.450824449589918151e-03,-8.315190974016142128e-03,2.429117546185954879e-02,0.000000000000000000e+00,0.000000000000000000e+00,0.000000000000000000e+00,5.305040980711797083e-01,-0.000000000000000000e+00,-4.157769680023193359e-02,9.714427792347395041e+01,1.577156305313110463e-01
7.969699999999999562e-01,1.391821794227634385e-02,9.869186564148863319e-03,9.349624514579772949e-01,3.317005116730525026e-03,-5.059727660008395134e-03,8.857907619730712862e-03,2.605290669328857653e-02,2.386345713861444048e-02,-1.447063833475112915e-01,2.317112940082865363e-02,1.721131632598240160e-02,1.876251984791034097e-02,3.432943397017940591e-03,-5.815954551479862560e-03,2.481105902961538989e-02,0.000000000000000000e+00,0.000000000000000000e+00,0.000000000000000000e+00,5.307931519211174232e-01,-0.000000000000000000e+00,-5.145907402038574219e-03,9.841067695786435365e+01,1.577156305313110463e-01
8.240150000000000530e-01,1.505539822119829514e-02,1.047513638145063097e-02,9.297158718109130859e-01,3.336821993245139579e-03,-5.190921843560625248e-03,8.724771540567777262e-03,2.232117439729825945e-02,2.870086158001740675e-02,-1.487444341182708740e-01,3.722337226000059507e-02,-4.738553770083589294e-03,1.784643169629195406e-02,6.254963356283938652e-03,-9.494250589746115743e-03,2.444499698061763926e-02,0.000000000000000000e+00,0.000000000000000000e+00,0.000000000000000000e+00,5.316614763342821792e-01,0.000000000000000000e+00,-1.062916517257690430e-01,9.647162040344359468e+01,1.577156305313110463e-01
8.477510000000000323e-01,1.536855852773715697e-02,1.140940641232334948e-02,9.270871281623840332e-01,2.591795826552997090e-03,-5.298652690718164138e-03,8.731587727652548314e-03,2.399257629385017493e-02,1.740302641182908672e-02,-1.503910869359970093e-01,-6.380492837795541383e-02,-2.567399961875984401e-03,6.639204674111584374e-03,2.433269549761548842e-03,-8.192158642026048376e-03,2.445814245525940178e-02,0.000000000000000000e+00,0.000000000000000000e+00,0.000000000000000000e+00,5.321711543907073905e-01,0.000000000000000000e+00,1.284254789352416992e-01,-1.517194974674918058e+02,1.577156305313110463e-01
8.714190000000000547e-01,1.543667985430163293e-02,1.299100992524305706e-02,9.244832396507263184e-01,2.321902428538925953e-03,-5.488734401271289087e-03,9.027138890971002361e-03,3.025690083014233658e-02,3.342703535682934463e-02,-1.508558839559555054e-01,-5.758812819310728075e-03,1.196241193556538129e-02,-7.356983209761496466e-03,1.893574909365603257e-02,-4.635404835695751402e-03,2.528349509388727601e-02,0.000000000000000000e+00,0.000000000000000000e+00,0.000000000000000000e+00,5.326020602469725418e-01,-0.000000000000000000e+00,4.959932565689086914e-01,-1.221858773171198642e+01,1.577156305313110463e-01
9.010059999999999736e-01,1.557368719144263530e-02,1.527798213757036727e-02,9.205584526062011719e-01,1.984578854209069227e-03,-5.960022998707570352e-03,9.010666451682003072e-03,2.606747452552796857e-02,2.704061950190805169e-02,-1.413587778806686401e-01,7.125262427689666930e-03,-3.656976963281904219e-02,-2.271785302626434799e-02,1.559095930049597852e-02,-1.155219767347953445e-02,2.524565955414548313e-02,0.000000000000000000e+00,0.000000000000000000e+00,0.000000000000000000e+00,5.324001197734816726e-01,-0.000000000000000000e+00,-3.802639245986938477e-01,9.137955728284816814e+01,1.577156305313110463e-01
9.247170000000000112e-01,1.569272728177922155e-02,1.679385596496857369e-02,9.179408550262451172e-01,1.858409016405866568e-03,-5.691066947209000304e-03,8.990741962827121861e-03,1.682932523222002361e-02,2.919788875892820323e-02,-1.457751989364624023e-01,-3.881621465897823822e-03,5.154894277564387589e-02,1.266221058716578141e-02,1.996617769079697333e-02,-1.607790643789292623e-02,2.519766050784971734e-02,0.000000000000000000e+00,0.000000000000000000e+00,0.000000000000000000e+00,5.331124038313194147e-01,-0.000000000000000000e+00,3.612148761749267578e-02,9.191602766101765098e+01,1.577156305313110463e-01
9.480269999999999531e-01,1.583890748397889792e-02,1.833201688563030132e-02,9.154354333877563477e-01,1.976886838408186374e-03,-5.669047013282968450e-03,8.891176310557557735e-03,3.017351598184534259e-02,3.552692283826536929e-02,-1.421250849962234497e-01,-1.684833807913611523e-02,4.190058252744339323e-02,-3.060433625607064320e-02,2.468892050286564110e-02,-4.276661062810779325e-03,2.490240508339069958e-02,0.000000000000000000e+00,0.000000000000000000e+00,0.000000000000000000e+00,5.332403248729805645e-01,-0.000000000000000000e+00,-4.402052164077758789e-01,1.036970248094007871e+02,1.577156305313110463e-01
9.730419999999999625e-01,1.587725102613797221e-02,1.926213825479247688e-02,9.129349589347839355e-01,1.963097943707681897e-03,-5.402079759735167741e-03,9.122769665667850025e-03,2.984226692938233075e-02,3.813163832362599648e-02,-1.472474932670593262e-01,7.377512927892663011e-03,5.235821693142709123e-04,2.853908608443197006e-02,2.653989963402484525e-02,-4.508066007550191184e-03,2.555156302445549255e-02,0.000000000000000000e+00,0.000000000000000000e+00,0.000000000000000000e+00,5.340002518766565620e-01,0.000000000000000000e+00,7.096070051193237305e-01,-7.131944195468246050e+01,1.577156305313110463e-01
9.978679999999999772e-01,1.598420718261978762e-02,2.073041259971012545e-02,9.092870354652404785e-01,1.887508020285655732e-03,-4.906560535375081855e-03,9.351896358323882885e-03,1.624737754731050282e-02,3.587116805310742312e-02,-1.316683441400527954e-01,1.830385745379045984e-02,1.271248958449331615e-03,9.804148593734506381e-03,2.616361082682711059e-02,-1.130624015216322859e-02,2.620447710897949589e-02,0.000000000000000000e+00,0.000000000000000000e+00,0.000000000000000000e+00,5.333437513246401807e-01,0.000000000000000000e+00,3.738522529602050781e-03,9.572531295359297587e+01,1.577156305313110463e-01
1.022094000000000058e+00,1.607852303587880421e-02,2.168914520655203931e-02,9.069538712501525879e-01,1.669867457448632369e-03,-4.747648255073011470e-03,9.452183545061724340e-03,2.761184322922821677e-02,4.197682126494813037e-02,-1.449484080076217651e-01,-3.052041596484623628e-02,1.847845386693731246e-02,4.625814830046424617e-03,3.304232810286707178e-02,3.367548854223848063e-04,2.646558502717033523e-02,0.000000000000000000e+00,0.000000000000000000e+00,0.000000000000000000e+00,5.346836582140767069e-01,-0.000000000000000000e+00,4.737273454666137695e-01,1.930108323589136319e+02,2.021757841110229381e-01
1.045447999999999933e+00,1.620426794530735112e-02,2.320621229516218326e-02,9.034806489944458008e-01,1.956646359357685789e-03,-4.937696874342645259e-03,9.960533032832546291e-03,2.572927201859845012e-02,4.025978692476054471e-02,-1.325315982103347778e-01,1.781858415342794932e-02,-4.547406274213743743e-02,5.931850194441036506e-02,3.020281914403358942e-02,-3.618159975392102289e-03,2.789629467103621474e-02,0.000000000000000000e+00,0.000000000000000000e+00,0.000000000000000000e+00,5.342494472556953422e-01,0.000000000000000000e+00,-3.625203371047973633e-01,6.215307537152606443e+01,2.021757841110229381e-01
1.074184999999999945e+00,1.668539065158169271e-02,2.519086881869283742e-02,9.004018902778625488e-01,2.844133237582910801e-03,-4.503619918994283822e-03,1.004766477703034934e-02,2.053599099454651161e-02,3.984013226842075817e-02,-1.310539990663528442e-01,7.984795239682662693e-02,3.785345047495325410e-02,-1.400736393307334959e-02,2.572516378061880452e-02,-4.049347957804053967e-03,2.814212906840918293e-02,0.000000000000000000e+00,0.000000000000000000e+00,0.000000000000000000e+00,5.345732413966062246e-01,-0.000000000000000000e+00,9.308444261550903320e-01,6.051262102723990921e+01,2.021757841110229381e-01
1.098997000000000002e+00,1.705520455898976162e-02,2.648731371769447521e-02,8.983829617500305176e-01,3.430058196591109429e-03,-4.004955753176053790e-03,1.020561451755903730e-02,2.770205930486088070e-02,4.425991780397565967e-02,-1.314575672149658203e-01,-4.345792962949982137e-03,3.658414104355456331e-02,2.437139642242518167e-02,2.620398812221221008e-02,5.696222432491771480e-03,2.856260522146319980e-02,0.000000000000000000e+00,0.000000000000000000e+00,0.000000000000000000e+00,5.349612697558094876e-01,-0.000000000000000000e+00,1.907023191452026367e-01,5.097451115322180470e+01,2.021757841110229381e-01
1.122695999999999916e+00,1.763251515620598356e-02,2.847578367891977560e-02,8.954590559005737305e-01,4.425769526597271401e-03,-3.351194991284112135e-03,1.051417967313567764e-02,2.665065150009740882e-02,4.750701969368560651e-02,-1.213739886879920959e-01,5.307046334986680741e-02,1.656779868770104011e-02,5.155074553230126755e-02,2.304832895867174603e-02,8.736094890673678712e-03,2.941678525472818384e-02,0.000000000000000000e+00,0.000000000000000000e+00,0.000000000000000000e+00,5.346542616743590326e-01,-0.000000000000000000e+00,-9.886252880096435547e-02,9.407733174084147265e+01,2.021757841110229381e-01
1.145073999999999925e+00,1.802068733615604448e-02,2.982062372188862276e-02,8.935601115226745605e-01,4.809032827581182813e-03,-3.166806376411646085e-03,1.072975313639125579e-02,2.804097527169291046e-02,4.560073652487651313e-02,-1.229600384831428528e-01,2.298284995803148364e-02,-2.483119854656512179e-02,5.794725567057402472e-03,1.962936026434768458e-02,1.147707558872074554e-02,3.001244769737265727e-02,0.000000000000000000e+00,0.000000000000000000e+00,0.000000000000000000e+00,5.351118981357284587e-01,-0.000000000000000000e+00,-6.772053241729736328e-02,9.709197233480999500e+01,2.021757841110229381e-01
1.173974999999999991e+00,1.867985484331113888e-02,3.151049053262038047e-02,8.909732699394226074e-01,5.612222271592731855e-03,-3.025074023587537297e-03,1.114013514386336459e-02,2.464069710933516899e-02,4.494063467845076099e-02,-1.249115169048309326e-01,-6.348308330815018163e-03,9.028467562823128470e-03,3.151048017348125063e-02,1.534791992183835198e-02,1.017081900002385700e-02,3.116313130335940373e-02,0.000000000000000000e+00,0.000000000000000000e+00,0.000000000000000000e+00,5.356485391603428292e-01,-0.000000000000000000e+00,3.011548519134521484e-02,8.393372901199631997e+01,2.021757841110229381e-01
1.198277000000000037e+00,1.916311035257127829e-02,3.258872811775546940e-02,8.893171548843383789e-01,6.649277135151176153e-03,-2.893892177995516235e-03,1.115995177322619963e-02,3.360880102279747289e-02,4.562593473584442699e-02,-1.127036586403846741e-01,4.216762647448440982e-02,2.526125039525128554e-02,-2.215782792218231115e-02,1.012601957346980983e-02,1.878648401876054780e-02,3.118817241348231795e-02,0.000000000000000000e+00,0.000000000000000000e+00,0.000000000000000000e+00,5.350984108620583379e-01,-0.000000000000000000e+00,-1.879476308822631836e-01,7.716310592173525151e+01,2.021757841110229381e-01
1.223190000000000000e+00,1.994072905338205651e-02,3.412795544809069798e-02,8.871676921844482422e-01,8.235002053040365450e-03,-2.990594616233188674e-03,1.138635245246135026e-02,2.789523042261812108e-02,4.898309727413220627e-02,-1.076902598142623901e-01,3.857690087770961063e-02,-1.486695604958784486e-02,5.331563781377485026e-06,3.469781453407695844e-03,1.330536434041377017e-02,3.183382701366066492e-02,0.000000000000000000e+00,0.000000000000000000e+00,0.000000000000000000e+00,5.350934670922887770e-01,0.000000000000000000e+00,1.469744443893432617e-01,9.350996158686685078e+01,2.021757841110229381e-01
1.247273999999999994e+00,2.045793008395925192e-02,3.518375646898741493e-02,8.856974840164184570e-01,9.118642047404576512e-03,-2.633926411002462942e-03,1.157132207226478464e-02,2.913878185321067821e-02,4.263846993837024091e-02,-1.141529455780982971e-01,6.610286760161937503e-02,-3.886822968842621861e-03,2.474098486706973951e-02,-6.774637236002956781e-03,1.772286634328172281e-02,3.233469159230278889e-02,0.000000000000000000e+00,0.000000000000000000e+00,0.000000000000000000e+00,5.358667485350002702e-01,0.000000000000000000e+00,4.142254590988159180e-01,-9.747414190943972301e+01,2.021757841110229381e-01
1.270205000000000028e+00,2.102685307719078314e-02,3.693605596222022946e-02,8.837876319885253906e-01,9.977522592314795255e-03,-2.170988684546237835e-03,1.169393561922422650e-02,3.384625360300889951e-02,4.860106021037693264e-02,-1.053797677159309387e-01,2.788609448217808841e-03,4.237030626419015927e-02,-2.835921909262448248e-02,-5.676668525010849196e-03,2.473050062869264903e-02,3.264218122965978353e-02,0.000000000000000000e+00,0.000000000000000000e+00,0.000000000000000000e+00,5.355806093771193765e-01,-0.000000000000000000e+00,-1.622213125228881836e-01,-2.771034042502477490e+01,2.021757841110229381e-01
1.299158000000000035e+00,2.142712422597874145e-02,3.880193790706436968e-02,8.817621469497680664e-01,1.014015724726941362e-02,-2.364047434704197315e-03,1.223142317382692329e-02,3.018425608395861742e-02,4.778212759286477873e-02,-1.031964868307113647e-01,-2.591471009561970365e-02,-2.751537698305837540e-02,1.178749232166651992e-02,-6.813529067231748407e-03,2.049655551611946278e-02,3.416401884285824586e-02,0.000000000000000000e+00,0.000000000000000000e+00,0.000000000000000000e+00,5.357689316135001434e-01,-0.000000000000000000e+00,3.111532926559448242e-01,1.104676752204185419e+02,2.021757841110229381e-01
1.323072999999999944e+00,2.175169756327330339e-02,4.003950009137500349e-02,8.805559277534484863e-01,1.057560863918688247e-02,-2.689989873570386436e-03,1.273710637875795186e-02,2.160250856227046573e-02,4.854050294530717208e-02,-9.549122303724288940e-02,6.562697414535915985e-02,-1.437895017554023658e-02,3.156876370663441733e-02,-7.858988464107929950e-03,1.284250854460338050e-02,3.560997054879144752e-02,0.000000000000000000e+00,0.000000000000000000e+00,0.000000000000000000e+00,5.354979687420914347e-01,0.000000000000000000e+00,1.389852762222290039e-01,1.028107804438349575e+02,2.021757841110229381e-01
1.345563000000000065e+00,2.206517996242265967e-02,4.120215318361392792e-02,8.793461918830871582e-01,1.070372489498617845e-02,-3.141104460796739772e-03,1.274154351071488632e-02,3.564732570695249708e-02,4.170489191556439601e-02,-1.013769432902336121e-01,-2.163043676721396191e-02,-2.773462234501910748e-02,-3.839152810804031743e-03,-1.322865360075984459e-02,2.190782468384530959e-02,3.558560090009865728e-02,0.000000000000000000e+00,0.000000000000000000e+00,0.000000000000000000e+00,5.362079111005612075e-01,-0.000000000000000000e+00,-4.334164857864379883e-01,5.214327946361604660e+01,2.021757841110229381e-01
1.374703999999999926e+00,2.233091856128760488e-02,4.315250308194284318e-02,8.778612017631530762e-01,1.177609721145869356e-02,-3.691919128955056806e-03,1.313875023728354810e-02,3.189802998961487057e-02,4.690813906591024401e-02,-9.547972679138183594e-02,1.266030370555162529e-02,-1.947455511373833575e-02,3.748117029732177946e-02,-1.387400992511855433e-02,1.404426205967584072e-02,3.672492821830602994e-02,0.000000000000000000e+00,0.000000000000000000e+00,0.000000000000000000e+00,5.360910617055917315e-01,0.000000000000000000e+00,-1.950074434280395508e-01,1.021674244353439462e+02,2.021757841110229381e-01
1.399170999999999943e+00,2.242755807260018650e-02,4.446482113098868677e-02,8.769177198410034180e-01,1.218672710059514296e-02,-4.119667953748074041e-03,1.329219681834748965e-02,2.936622933502692698e-02,4.315914163743156395e-02,-8.099680393934249878e-02,3.010758681999018208e-02,-4.261972913517259737e-02,-1.191352024264595924e-02,-1.887781003021765658e-02,1.018273640823399821e-02,3.717225139004992629e-02,0.000000000000000000e+00,0.000000000000000000e+00,0.000000000000000000e+00,5.353056876953137255e-01,-0.000000000000000000e+00,2.253326177597045898e-01,1.272090631025775878e+02,2.021757841110229381e-01
1.422879999999999923e+00,2.258465393043592589e-02,4.647530733562353633e-02,8.757838606834411621e-01,1.157331248011935626e-02,-4.691067969123441372e-03,1.400396962059342713e-02,2.391092189694470072e-02,4.661081421873775055e-02,-8.825953304767608643e-02,-4.307517573771769276e-02,-4.153137724395517677e-02,4.232362946475779625e-02,-1.043674131435677610e-02,2.965186240177982834e-03,3.919889032235490678e-02,0.000000000000000000e+00,0.000000000000000000e+00,0.000000000000000000e+00,5.361001417328251639e-01,-0.000000000000000000e+00,-5.860626697540283203e-02,1.040367174375821975e+02,2.021757841110229381e-01
1.446198000000000095e+00,2.270859391951146958e-02,4.777221781996233291e-02,8.750926852226257324e-01,1.134914419099916985e-02,-5.277310386339717496e-03,1.423829976337080173e-02,2.650659880664008733e-02,4.604634066485463473e-02,-8.388549089431762695e-02,1.153277698019678117e-02,-2.387253134199920218e-02,-2.009803634644269713e-02,-8.845383909255424490e-03,2.111073168785327497e-03,3.985898828461426069e-02,0.000000000000000000e+00,0.000000000000000000e+00,0.000000000000000000e+00,5.360266889170460791e-01,0.000000000000000000e+00,7.692021131515502930e-01,1.245479667604272578e+02,2.021757841110229381e-01
1.475232000000000099e+00,2.277455256753431814e-02,4.971411031282289839e-02,8.742765784263610840e-01,1.084046843310309746e-02,-6.398516883398208677e-03,1.452316451505682345e-02,3.287072552782126927e-02,4.314210955622038018e-02,-7.250762730836868286e-02,-2.914836330131909820e-02,-4.619556813194654332e-02,-7.468499530515659152e-03,-6.178683531640718346e-03,-4.560773253444605100e-04,4.066812524424218145e-02,0.000000000000000000e+00,0.000000000000000000e+00,0.000000000000000000e+00,5.354517422184154052e-01,-0.000000000000000000e+00,5.464683771133422852e-01,-2.070741577090240426e+01,2.061833620071411022e-01
1.499278000000000111e+00,2.282102121358102129e-02,5.095283348769860665e-02,8.738007545471191406e-01,1.063060606190606959e-02,-7.063672120863229154e-03,1.479763941079501564e-02,2.850433764692195115e-02,5.165117358534933312e-02,-7.477109134197235107e-02,2.504049635286906619e-02,-4.676026488738784653e-02,2.653690264489988807e-02,2.996684527049906649e-03,-8.675969676415814374e-03,4.147577721641948489e-02,0.000000000000000000e+00,0.000000000000000000e+00,0.000000000000000000e+00,5.358328841970768641e-01,-0.000000000000000000e+00,-2.930971384048461914e-01,1.229605761558029258e+02,2.061833620071411022e-01
1.523951999999999973e+00,2.287112798516693912e-02,5.281010575018633968e-02,8.733593225479125977e-01,1.007095332341047776e-02,-7.360701200982422421e-03,1.493728204459702190e-02,2.315985145511076024e-02,3.993400783361401168e-02,-6.966090202331542969e-02,-2.521617302699969906e-02,1.249218524796905875e-03,-5.311999307140082872e-03,-1.892378724574421845e-03,-1.392824008757820482e-02,4.188536057407860058e-02,0.000000000000000000e+00,0.000000000000000000e+00,0.000000000000000000e+00,5.356709909676304893e-01,0.000000000000000000e+00,4.546769857406616211e-01,-8.771311856657449368e+01,2.061833620071411022e-01
1.548531000000000102e+00,2.294087401104991791e-02,5.403419074783004372e-02,8.731625676155090332e-01,9.513590906445747175e-03,-7.595616881824307498e-03,1.520935468471147634e-02,2.651054684242588541e-02,4.858417059055532977e-02,-7.171110063791275024e-02,-6.864343785596663250e-02,2.506854838369519320e-02,1.375078586527010878e-02,1.077384963236398263e-02,-1.191638193360511702e-02,4.264102775902461895e-02,0.000000000000000000e+00,0.000000000000000000e+00,0.000000000000000000e+00,5.360175369736785989e-01,-0.000000000000000000e+00,7.779037952423095703e-02,1.087481477761111535e+02,2.061833620071411022e-01
1.570980000000000043e+00,2.300670907711426308e-02,5.592828011646301667e-02,8.729959130287170410e-01,8.714831887934041538e-03,-8.532637235657114516e-03,1.576643823641239034e-02,2.839530882334000139e-02,4.847266567074147436e-02,-6.094305962324142456e-02,-8.858271438426367286e-03,-5.440407700032998117e-02,4.974663847535509137e-02,1.621636477498936482e-02,-1.674975167476265570e-02,4.421958801384645588e-02,0.000000000000000000e+00,0.000000000000000000e+00,0.000000000000000000e+00,5.354298189228099414e-01,-0.000000000000000000e+00,2.270513772964477539e-01,1.171418423792206909e+02,2.061833620071411022e-01
1.600052999999999948e+00,2.307563520973551080e-02,5.797186717709314208e-02,8.729837536811828613e-01,8.405179724974625941e-03,-9.130462006255557483e-03,1.581640949772136762e-02,1.606805131539054340e-02,4.030112015029370387e-02,-4.767991229891777039e-02,9.638986390163910289e-03,1.942427028133116712e-02,-1.835676488397124453e-02,1.387694501838248641e-02,-2.999433890447578480e-02,4.441006952899217985e-02,0.000000000000000000e+00,0.000000000000000000e+00,0.000000000000000000e+00,5.346341274573083169e-01,-0.000000000000000000e+00,-1.016771793365478516e-02,1.098014995499105169e+02,2.061833620071411022e-01
1.625707999999999931e+00,2.314373476664165555e-02,5.927528103639129881e-02,8.730011582374572754e-01,8.211031501131151045e-03,-9.240225745754448994e-03,1.602284612055430296e-02,2.924099011432843356e-02,4.271380895697957786e-02,-5.359549075365066528e-02,-2.990492787464686664e-02,1.679819239622562868e-02,2.881136922941967757e-02,1.890506415298934262e-02,-1.886656157760265018e-02,4.494403229870558292e-02,0.000000000000000000e+00,0.000000000000000000e+00,0.000000000000000000e+00,5.352258725389245075e-01,-0.000000000000000000e+00,1.154595613479614258e-01,3.372800346118363990e+01,2.061833620071411022e-01
1.652555999999999914e+00,2.323503054620208036e-02,6.059978132062728701e-02,8.730523586273193359e-01,8.478676429077366614e-03,-9.198827585949143071e-03,1.581069258473460221e-02,2.523458270607749701e-02,4.653180664235489344e-02,-4.245425388216972351e-02,8.696880046872608808e-03,1.869298947919814657e-02,-5.283507579076916760e-02,2.105321845050951712e-02,-2.310396654656026241e-02,4.437236326661309072e-02,0.000000000000000000e+00,0.000000000000000000e+00,0.000000000000000000e+00,5.345786660109209665e-01,-0.000000000000000000e+00,4.319547414779663086e-01,9.914895210525104119e+01,2.061833620071411022e-01
1.675880000000000036e+00,2.330651988894143559e-02,6.188984682041293039e-02,8.731132745742797852e-01,8.098730343194689846e-03,-9.226240387650408437e-03,1.616015370217064456e-02,2.069336623077323509e-02,5.021147492597048678e-02,-4.221734404563903809e-02,-6.056852072616156733e-03,-2.824383243380782296e-02,5.328790961658901038e-02,2.689223234695720458e-02,-2.592030731242643202e-02,4.536416638526513667e-02,0.000000000000000000e+00,0.000000000000000000e+00,0.000000000000000000e+00,5.347120975881660687e-01,-0.000000000000000000e+00,-4.701840877532958984e-01,1.089751559433656922e+02,2.061833620071411022e-01
1.700352000000000086e+00,2.367100955718551281e-02,6.380085820959364995e-02,8.733733296394348145e-01,7.671913425992584780e-03,-8.772486358626041536e-03,1.635888989022488832e-02,1.365630130987448114e-02,4.634213186826919434e-02,-3.829743713140487671e-02,4.385759534219622890e-02,1.743495773015976344e-02,-1.844529533654610393e-02,2.782178055066689831e-02,-2.732181953464243515e-02,4.592259108717061666e-02,0.000000000000000000e+00,0.000000000000000000e+00,0.000000000000000000e+00,5.345598642763208508e-01,-0.000000000000000000e+00,6.479871273040771484e-02,-1.204773225717140939e+01,2.061833620071411022e-01
1.724550999999999945e+00,2.408153853176922890e-02,6.563024627085484175e-02,8.737335801124572754e-01,7.397097740347623532e-03,-8.880607989141919845e-03,1.638722424841297307e-02,2.602085192402936800e-02,4.609227904425568234e-02,-3.171736001968383789e-02,-1.759434613537641523e-02,-1.612487532358148831e-02,-3.643811361145223721e-02,3.133831258384159324e-02,-1.725658230895007333e-02,4.595902830551068519e-02,0.000000000000000000e+00,0.000000000000000000e+00,0.000000000000000000e+00,5.342098472956492428e-01,-0.000000000000000000e+00,1.940079927444458008e-01,1.165885014338012695e+02,2.061833620071411022e-01
1.749359000000000108e+00,2.433465432189997613e-02,6.682921719134206351e-02,8.740610480308532715e-01,7.612573733390541088e-03,-8.733189121895135187e-03,1.645332239062233595e-02,2.166002568142668186e-02,4.874645575865803326e-02,-2.905885316431522369e-02,4.051686267585578177e-02,1.355819394918185254e-02,1.544850220232731053e-02,3.314600361058004513e-02,-2.093682328778865773e-02,4.616326954996174958e-02,0.000000000000000000e+00,0.000000000000000000e+00,0.000000000000000000e+00,5.341370991921035039e-01,-0.000000000000000000e+00,9.906089305877685547e-02,8.890836752038087809e+01,2.061833620071411022e-01
1.772143999999999942e+00,2.475678249752083851e-02,6.862143021449566838e-02,8.747082352638244629e-01,8.300668536366151776e-03,-8.314592351519101143e-03,1.626256652968232144e-02,2.088225090660985467e-02,4.616176939803059986e-02,-2.473028749227523804e-02,3.447243979131490998e-02,5.066018254824487289e-03,-1.938135332718244827e-02,2.785484321906108937e-02,-1.778800012931104277e-02,4.561752394345081063e-02,0.000000000000000000e+00,0.000000000000000000e+00,0.000000000000000000e+00,5.339159880957933257e-01,0.000000000000000000e+00,9.093487262725830078e-02,9.446833275006801500e+01,2.061833620071411022e-01
1.795882999999999896e+00,2.506675943163562403e-02,6.981803835585213835e-02,8.751019239425659180e-01,8.534365923572317936e-03,-7.604186298547865874e-03,1.631770237347208649e-02,1.712318447789619447e-02,4.885954596732485639e-02,-2.890942245721817017e-02,-8.099092574663943611e-03,7.212842320375317806e-02,2.010830066825921095e-02,2.977390032884612986e-02,-1.556769141626700159e-02,4.576481679886684750e-02,0.000000000000000000e+00,0.000000000000000000e+00,0.000000000000000000e+00,5.343287239430213331e-01,-0.000000000000000000e+00,-1.577948331832885742e-01,1.016913192690590364e+02,2.061833620071411022e-01
1.826813999999999938e+00,2.554024142151849891e-02,7.164535304084648781e-02,8.758018016815185547e-01,9.086721677427444729e-03,-6.751653806994939444e-03,1.626971692453642315e-02,2.537444562660444783e-02,5.095817665251607675e-02,-1.908133551478385925e-02,1.372327657178142903e-02,2.329950040861348409e-02,6.163776981286082056e-03,2.896705580726869136e-02,-2.711962471819951651e-03,4.557105013274509453e-02,0.000000000000000000e+00,0.000000000000000000e+00,0.000000000000000000e+00,5.337078295245260007e-01,-0.000000000000000000e+00,-1.637276411056518555e-01,1.015993644322631582e+02,2.061833620071411022e-01
1.849404000000000048e+00,2.580923595319391597e-02,7.284751897851142466e-02,8.763073682785034180e-01,8.950657763497404940e-03,-6.267279274010162382e-03,1.633598843548532756e-02,2.063896991565884048e-02,5.093879532563954510e-02,-1.742007024586200714e-02,-2.044748296719396327e-02,2.269809003719970575e-02,1.110912229810824894e-02,3.074008334637542625e-02,-3.955808081472051221e-03,4.576290395856313920e-02,0.000000000000000000e+00,0.000000000000000000e+00,0.000000000000000000e+00,5.336797704286521116e-01,-0.000000000000000000e+00,-7.028067111968994141e-02,4.707616702405869091e+01,2.061833620071411022e-01
1.873334999999999972e+00,2.615381433126412469e-02,7.470488506021503994e-02,8.771379590034484863e-01,9.060485571202939181e-03,-6.027909951959342649e-03,1.654745189372405084e-02,1.570674490894733918e-02,4.657611636577423803e-02,-1.372930966317653656e-02,9.844166340610601904e-03,-1.088316668156995466e-02,1.371650071742114979e-02,2.831045905493871639e-02,-5.117776290589856961e-03,4.636053184154537155e-02,0.000000000000000000e+00,0.000000000000000000e+00,0.000000000000000000e+00,5.334773547865662158e-01,-0.000000000000000000e+00,9.417378902435302734e-02,-4.294127636846510399e+01,2.061833620071411022e-01
1.897076999999999902e+00,2.626484324402281537e-02,7.592848199994074732e-02,8.777565360069274902e-01,9.515754841715863208e-03,-5.853794223310782030e-03,1.633274634919905377e-02,1.704724411888418334e-02,4.635899655386053336e-02,-3.489971393719315529e-03,5.080058237837040136e-02,5.424708215477669349e-02,-4.556333845048298609e-02,2.707872473372293157e-02,-1.996468967974433621e-03,4.574462716086574732e-02,0.000000000000000000e+00,0.000000000000000000e+00,0.000000000000000000e+00,5.328136524868717361e-01,-0.000000000000000000e+00,1.032856702804565430e-01,1.039333766754399022e+02,2.061833620071411022e-01
1.922687000000000035e+00,2.637854863441757916e-02,7.716451465789750386e-02,8.784346580505371094e-01,1.018616735769422958e-02,-5.531226198086658385e-03,1.632700082730927094e-02,2.350053801378707355e-02,5.021059558927808142e-02,-5.418241489678621292e-03,3.701145754953488742e-02,1.957486237029004358e-02,1.874104727039818327e-02,2.671503458981021317e-02,5.086180827297066831e-03,4.569191766234631524e-02,0.000000000000000000e+00,0.000000000000000000e+00,0.000000000000000000e+00,5.330234176527832712e-01,-0.000000000000000000e+00,-2.036091089248657227e-01,-2.532698689528384861e+01,2.061833620071411022e-01
1.944784999999999986e+00,2.660911887011190718e-02,7.893777898886834843e-02,8.793456554412841797e-01,1.174732297689468595e-02,-4.522781660341701482e-03,1.607761721673604122e-02,1.325165568882404922e-02,5.250709840388549654e-02,-2.761326963081955910e-03,1.136975365054166826e-01,4.536744822259507898e-02,-1.947985582492761658e-02,1.943899699196522529e-02,3.309638906405683312e-03,4.500229485500967241e-02,0.000000000000000000e+00,0.000000000000000000e+00,0.000000000000000000e+00,5.328790287790772240e-01,-0.000000000000000000e+00,2.892757654190063477e-01,1.143643937645591961e+02,2.061833620071411022e-01
1.973993000000000109e+00,2.685911996750370290e-02,8.069723886163349125e-02,8.802254796028137207e-01,1.231057588290071156e-02,-3.627118707686616261e-03,1.592329761917223030e-02,1.856099706419203285e-02,4.342820576116390718e-02,-2.685434417799115181e-03,-3.091299252253378385e-03,2.560607967367109147e-02,-2.499432598162592417e-02,9.969839826838799990e-03,1.479741048026864299e-02,4.450511952822105988e-02,0.000000000000000000e+00,0.000000000000000000e+00,0.000000000000000000e+00,5.329189658707291777e-01,-0.000000000000000000e+00,1.532922983169555664e-01,7.492835681776628576e+01,2.061833620071411022e-01
1.996917000000000053e+00,2.704123179508747046e-02,8.218438899216221061e-02,8.806535601615905762e-01,1.264685610451103497e-02,-3.192268772324258208e-03,1.591871075766568278e-02,2.068407378511311762e-02,5.365760147504272659e-02,-7.396512199193239212e-03,2.961296419667013360e-02,3.213223643608074942e-02,-7.537070144642885224e-03,1.799789694205027740e-02,1.885298446827194871e-02,4.446244809678340237e-02,0.000000000000000000e+00,0.000000000000000000e+00,0.000000000000000000e+00,5.333500296316987521e-01,-0.000000000000000000e+00,3.160361051559448242e-01,1.071180138476608903e+02,2.061833620071411022e-01
2.020925000000000082e+00,2.722554069205677940e-02,8.360378329923218166e-02,8.810664415359497070e-01,1.278367115149986986e-02,-3.237829163394323473e-03,1.578777999902434420e-02,2.039791320551059828e-02,4.837749098361146527e-02,-2.577570499852299690e-03,-2.008110115528672843e-02,-2.413836977868412392e-02,-6.947831431472266351e-04,1.305411733940532205e-02,1.828449497027453269e-02,4.410088479272511464e-02,0.000000000000000000e+00,0.000000000000000000e+00,0.000000000000000000e+00,5.330814693231979984e-01,-0.000000000000000000e+00,3.365695476531982422e-02,1.079761451546029463e+02,2.061833620071411022e-01
2.050612000000000101e+00,2.762378243669075945e-02,8.636061412534953852e-02,8.819411396980285645e-01,1.363376387020126534e-02,-3.415986874124810058e-03,1.572786601574577281e-02,9.890351287139801870e-03,4.357292879885939912e-02,3.598367096856236458e-03,-1.486367587498146643e-03,-3.716768307848862789e-03,-1.689662662791752146e-02,6.880003981623408413e-03,9.603053417274064543e-03,4.398347170027500086e-02,0.000000000000000000e+00,0.000000000000000000e+00,0.000000000000000000e+00,5.326763491947295037e-01,-0.000000000000000000e+00,1.855577230453491211e-01,1.363932496492785447e+02,2.061833620071411022e-01
2.074783000000000044e+00,2.785807675822419768e-02,8.766276945651467478e-02,8.823924660682678223e-01,1.435833722381746683e-02,-3.494454067258345731e-03,1.571485078483221554e-02,2.852859078568542942e-02,4.851445263540304920e-02,1.926944591104984283e-03,4.764694410600735924e-02,7.473522075508029321e-03,-7.451551041438815755e-03,7.552073157717727192e-03,2.507447603126827448e-02,4.384412041795521242e-02,0.000000000000000000e+00,0.000000000000000000e+00,0.000000000000000000e+00,5.328786157938010248e-01,-0.000000000000000000e+00,-1.311315298080444336e-01,6.330112088797848457e+01,2.061833620071411022e-01
2.098581999999999947e+00,2.803702941009252048e-02,8.899955622394419008e-02,8.828409910202026367e-01,1.505777522994980466e-02,-3.079295613354959826e-03,1.546085186010678902e-02,2.230760073186078066e-02,4.677532841551539089e-02,2.469989005476236343e-03,3.821541918653568494e-03,3.430377715554341900e-02,-2.380103801326424739e-02,2.340340620480586831e-03,2.072634697036029525e-02,4.315854398730473163e-02,0.000000000000000000e+00,0.000000000000000000e+00,0.000000000000000000e+00,5.329086233673748785e-01,-0.000000000000000000e+00,2.240520715713500977e-01,9.978622241519155978e+01,2.061833620071411022e-01
2.122539999999999871e+00,2.825249554643104871e-02,9.027447076424617578e-02,8.832218647003173828e-01,1.542277519802075919e-02,-2.979081345872325315e-03,1.545713529118963002e-02,1.715096433353878458e-02,4.609052658470848274e-02,1.274648122489452362e-02,3.926021339696954271e-02,-2.023497962629856872e-02,2.237063343825395137e-02,1.131795945275509020e-03,1.870167430764175381e-02,4.315948577144596010e-02,0.000000000000000000e+00,0.000000000000000000e+00,0.000000000000000000e+00,5.322373244252093238e-01,-0.000000000000000000e+00,3.197418451309204102e-01,7.329930888939405520e+01,2.061833620071411022e-01
2.146657999999999955e+00,2.854799932206811275e-02,9.221256898994911744e-02,8.837502598762512207e-01,1.534040151530751024e-02,-2.777040020831789136e-03,1.533927387884960296e-02,1.544631302523203319e-02,4.138385638063164784e-02,3.681252477690577507e-03,1.517782625855543070e-02,1.937656690784628211e-02,-3.352958972860756864e-02,-4.194953160160355861e-04,1.964245316825150717e-02,4.282469609904510088e-02,0.000000000000000000e+00,0.000000000000000000e+00,0.000000000000000000e+00,5.329515454905966454e-01,-0.000000000000000000e+00,1.245599985122680664e-01,9.848123964217975868e+01,2.061833620071411022e-01
2.171192000000000011e+00,2.876600549963596182e-02,9.343181014182136424e-02,8.840664625167846680e-01,1.532632473382127686e-02,-3.245081263472560096e-03,1.562817281242899828e-02,1.861920412722207693e-02,4.723241968150098530e-02,4.219631198793649673e-03,4.104940438406156711e-04,-3.003326280922232611e-02,2.170516542893958026e-02,5.876307916714959903e-03,1.962946254537244889e-02,4.363019516907223894e-02,0.000000000000000000e+00,0.000000000000000000e+00,0.000000000000000000e+00,5.329978379754926054e-01,-0.000000000000000000e+00,3.191939592361450195e-01,1.068190837884461075e+02,2.061833620071411022e-01
2.194939000000000195e+00,2.910644994530745683e-02,9.522416657967397446e-02,8.845298886299133301e-01,1.569296232387437304e-02,-3.597058898483940226e-03,1.535511886003174814e-02,1.684305545503753457e-02,4.209961682393463522e-02,9.373281151056289673e-03,6.257245245253065247e-02,1.643825913508334402e-02,-1.190699854121262009e-02,4.188998905473072590e-04,1.588689880873637994e-02,4.289122924186400398e-02,0.000000000000000000e+00,0.000000000000000000e+00,0.000000000000000000e+00,5.326876886754360330e-01,-0.000000000000000000e+00,6.272600889205932617e-01,2.348167468722150275e+01,2.061833620071411022e-01
2.220518999999999910e+00,2.937634225610167779e-02,9.638085246729728717e-02,8.848859667778015137e-01,1.570762109460519321e-02,-3.953116715075033483e-03,1.523056591595242822e-02,1.641357332659068580e-02,4.421855571237675447e-02,2.065639942884445190e-03,-1.648456463138995090e-02,-2.919879720531799033e-02,3.441756692750710944e-02,3.600931675563765876e-03,1.376552055666636562e-02,4.255554211249384933e-02,0.000000000000000000e+00,0.000000000000000000e+00,0.000000000000000000e+00,5.332926919826911361e-01,-0.000000000000000000e+00,-1.458489894866943359e-02,9.574800284201575096e+01,2.061833620071411022e-01
2.248782999999999976e+00,2.977410958281470968e-02,9.804882946506214558e-02,8.853051066398620605e-01,1.595952743811545130e-02,-3.933548180025780994e-03,1.506936907666195195e-02,1.623395647131901931e-02,3.972660231539858894e-02,1.338470843620598316e-03,1.682752853288761383e-02,1.733101727356004679e-02,-3.312713132735109044e-03,-3.260725624040089476e-04,1.415127740430059330e-02,4.210163051810950074e-02,0.000000000000000000e+00,0.000000000000000000e+00,0.000000000000000000e+00,5.334159743386885921e-01,-0.000000000000000000e+00,5.979168415069580078e-02,1.136085377102488962e+02,2.061833620071411022e-01
2.275463999999999931e+00,3.020420392621359085e-02,9.965623661059649918e-02,8.856819272041320801e-01,1.571364770045282147e-02,-4.144976311572845518e-03,1.482327784044916441e-02,2.515700672091977785e-02,3.523178497768477552e-02,8.943710476160049438e-03,-3.260117003522765983e-02,-8.657189555376510869e-04,-3.727303717446460440e-02,-5.269846663269158252e-05,2.001424197909869307e-02,4.137375121324593508e-02,0.000000000000000000e+00,0.000000000000000000e+00,0.000000000000000000e+00,5.329399397323413279e-01,-0.000000000000000000e+00,-1.710351705551147461e-01,1.160737100760574094e+02,2.061833620071411022e-01
2.302089000000000052e+00,3.054801019507788831e-02,1.007424089657185107e-01,8.857663869857788086e-01,1.534426806981115284e-02,-4.687057616241885327e-03,1.498073163926650839e-02,1.750274519658107444e-02,4.262878301502819045e-02,3.452213481068611145e-03,-7.792061225426063532e-03,-2.769433543007863291e-02,3.214044354685982596e-02,9.599510264457856989e-03,9.853949432476003661e-03,4.188266597771650446e-02,0.000000000000000000e+00,0.000000000000000000e+00,0.000000000000000000e+00,5.334328557339639287e-01,-0.000000000000000000e+00,-1.095017194747924805e-01,7.823385418735064434e+01,2.061833620071411022e-01
2.326842000000000077e+00,3.088367057877468638e-02,1.018232360416500976e-01,8.858239054679870605e-01,1.524987322121865857e-02,-5.388556976401837062e-03,1.488247000263244295e-02,8.936930718912121721e-03,3.158851549400808895e-02,1.123372837901115417e-02,-8.221979832683901784e-03,-5.297435954524593732e-02,-2.862984301637772414e-02,2.100977753617648720e-03,1.369598552731008507e-04,4.167438705270926080e-02,0.000000000000000000e+00,0.000000000000000000e+00,0.000000000000000000e+00,5.329550114207832756e-01,-0.000000000000000000e+00,1.820266246795654297e-02,1.119899877826309762e+02,2.061833620071411022e-01
2.352273999999999976e+00,3.140232392965128239e-02,1.033233222914749921e-01,8.857846856117248535e-01,1.506265272673661462e-02,-6.091928952560943245e-03,1.490651407889861599e-02,1.860874426628323849e-02,3.546577338083813785e-02,6.542992312461137772e-03,-1.739390565737330627e-02,1.963219284040032542e-02,-2.050994123027091720e-02,8.871794936664057635e-03,4.566339079800081462e-03,4.171172933369038383e-02,0.000000000000000000e+00,0.000000000000000000e+00,0.000000000000000000e+00,5.334001392410094855e-01,-0.000000000000000000e+00,-1.838425397872924805e-01,1.642681942182060482e+02,2.061833620071411022e-01
2.372689999999999966e+00,3.178625324182775963e-02,1.042712220632948522e-01,8.856496214866638184e-01,1.537812452447104815e-02,-6.468699706807745642e-03,1.473454394666382471e-02,2.252256443535263775e-02,3.720918730296688542e-02,1.043278537690639496e-02,3.746048667851068631e-02,-3.235188720867498979e-02,-5.914265070600462255e-03,8.664588082853117573e-03,4.184092673310406060e-03,4.123232106400365193e-02,0.000000000000000000e+00,0.000000000000000000e+00,0.000000000000000000e+00,5.332273485458532969e-01,-0.000000000000000000e+00,6.761497259140014648e-01,1.061545883444739076e+02,2.061833620071411022e-01
2.407830000000000137e+00,3.223913425070722150e-02,1.055654510112949834e-01,8.855298757553100586e-01,1.561014730201689023e-02,-6.449819691297431490e-03,1.430667203361024424e-02,1.225915684077388129e-02,3.121659943806822865e-02,1.039505936205387115e-02,1.556313764982420432e-02,-8.233022318238055262e-03,-4.000755587549173486e-02,3.669175555814085509e-03,-3.686760326986582639e-03,4.008838398661429547e-02,0.000000000000000000e+00,0.000000000000000000e+00,0.000000000000000000e+00,5.333275262637945380e-01,-0.000000000000000000e+00,-5.506761074066162109e-01,1.539645260061616625e+02,2.061833620071411022e-01
2.429399000000000086e+00,3.243825768796396863e-02,1.066386909959929075e-01,8.852488398551940918e-01,1.514332587557464492e-02,-6.729137593002088025e-03,1.443420837792804175e-02,2.193961251988100353e-02,2.783934716632862835e-02,-2.436400391161441803e-03,-6.685860530277150382e-02,-3.715922352186908952e-03,2.375397334083370962e-02,5.619100558679696392e-03,3.399858184816286800e-03,4.039696580323454134e-02,0.000000000000000000e+00,0.000000000000000000e+00,0.000000000000000000e+00,5.343768752762236840e-01,-0.000000000000000000e+00,1.067505478858947754e+00,7.746847001914818520e+01,2.135010957717895508e-01
2.451699000000000073e+00,3.258979561465925878e-02,1.073555772635976929e-01,8.850641250610351562e-01,1.530277369815685740e-02,-7.183818267150199333e-03,1.421301022726953640e-02,1.740928279235276488e-02,3.311819733556755491e-02,7.132374215871095657e-03,1.015899991848659943e-02,5.943734012996780731e-03,-5.779068698866169501e-02,1.015479834396996323e-02,-3.943016334355770210e-03,3.982832399864799644e-02,0.000000000000000000e+00,0.000000000000000000e+00,0.000000000000000000e+00,5.338049482681747060e-01,-0.000000000000000000e+00,1.188118100166320801e+00,-6.875339452502203130e+01,2.376236200332641491e-01
