timestamp,x,y,z,roll,pitch,yaw,vx,vy,vz,p,q,r,psp,qsp,rsp,pres,qres,rres,thrust_sp, thrust_res,wind_mag,wind_angle,wind_obs
0.000000000000000000e+00,-1.184950614210138371e-02,7.187361404635103819e-03,9.975168704986572266e-01,1.697163228845909033e-02,-6.777457878637482835e-03,-1.202536629852416807e-02,-6.419720400616610485e-03,2.814098306684826092e-02,1.157406531274318695e-02,6.333706228518345971e-02,2.281843982537588508e-02,-2.316071160608711155e-02,-2.837117329511748554e-01,1.614655830890046329e-01,1.816823244755348676e-01,-2.007901847362518200e-01,2.187581419944763239e-01,2.150923669338226374e-01,4.998092568025409577e-01,-6.051065325736999512e-01,6.162083148956298828e-02,9.333751297070236319e+01,2.460975408554077204e-01
2.486899999999999875e-02,-1.201871687558850668e-02,7.733040570917159955e-03,9.976119399070739746e-01,1.694195578568534130e-02,-6.720769211868926618e-03,-1.204443664544264936e-02,-9.268309649021429231e-03,2.468890183840325228e-02,1.107186544686555862e-02,2.425492746655818002e-02,-1.703106546444971975e-02,-3.446193295485137833e-03,1.275510102602911977e-01,1.490539944848469356e-02,-2.432140675770367300e-01,2.167828559875488170e-01,7.330577373504638949e-02,-2.097429513931274303e-01,4.981756108804795691e-01,-6.915917992591857910e-01,-1.053134202957153320e-01,1.071270843388786602e+02,2.460975408554077204e-01
4.574000000000000288e-02,-1.222028315444292045e-02,8.249260339269712597e-03,9.977205395698547363e-01,1.695658421060207421e-02,-6.508410511401274690e-03,-1.198193673659014163e-02,-6.542834003126985626e-03,2.996001760059519708e-02,1.008513942360877991e-02,-2.743595741089197709e-02,1.148078873986576286e-02,3.556627489164345540e-02,-3.045413334896520108e-01,1.624365367108024372e-01,1.847260970380813494e-01,-2.204642057418823298e-01,2.170704603195190430e-01,2.180290818214416504e-01,5.073006550965610817e-01,-2.151167988777160645e-01,5.622745752334594727e-01,-9.257348971769204127e+00,2.460975408554077204e-01
7.335800000000000654e-02,-1.257206981887362685e-02,9.292955537886758016e-03,9.979457855224609375e-01,1.737251900500042315e-02,-6.359812024865130198e-03,-1.208243316186370826e-02,-6.950103747307310662e-04,3.051949850603389441e-02,1.897388324141502380e-02,5.890717866925164470e-02,-4.523536717146655305e-03,-1.377773309140510084e-02,1.070407332745014067e-01,1.589525546979119464e-01,-2.212494552043293428e-01,1.932557344436645341e-01,2.085958957672119085e-01,-1.876478433609008734e-01,4.981178866756167389e-01,-6.608635187149047852e-01,-3.831256628036499023e-01,-5.230201989011631269e+01,2.460975408554077204e-01
1.014260000000000023e-01,-1.287457154880091055e-02,1.030764748471299161e-02,9.982237815856933594e-01,1.708336419506864198e-02,-6.195565989735696277e-03,-1.188999101867641364e-02,-5.000474235182227403e-03,2.393378909110523839e-02,1.010563503950834274e-02,-5.132497769577466090e-02,-8.537860657127183811e-03,1.694213332851676052e-02,-2.816280452961109626e-01,1.134189552977492438e-01,-2.228187872748093046e-01,-1.925500810146331676e-01,1.665211558341979925e-01,-1.897605657577514648e-01,4.982042142103257909e-01,-6.898450851440429688e-01,4.441702365875244141e-02,9.863215267189119118e+01,2.460975408554077204e-01
1.239709999999999979e-01,-1.304854013773547317e-02,1.080116006771304760e-02,9.983682632446289062e-01,1.717928972549988276e-02,-6.186320331590611232e-03,-1.175319111692261012e-02,-2.736259827736961005e-03,2.548996391188822902e-02,1.342605892568826675e-02,-5.506482917670536825e-03,-1.337035864220140029e-02,1.367885213367846719e-03,-1.224758066486138913e-01,-1.125915906733804400e-01,-2.525693812016994722e-01,-3.548794984817504883e-02,-6.182212829589843472e-02,-2.198894262313842718e-01,4.977607518475556381e-01,-6.987218856811523438e-01,3.791357278823852539e-01,3.703502737804748790e+01,2.460975408554077204e-01
1.452019999999999977e-01,-1.320726931477665851e-02,1.128617247301153328e-02,9.985184073448181152e-01,1.749012918325311763e-02,-6.225180442360311872e-03,-1.122785441696693386e-02,-6.375864428551360381e-03,2.995367044127797071e-02,8.023621514439582825e-03,5.346717451046856251e-02,-4.451750039870453596e-05,3.802535320797504476e-02,-2.719743793982857261e-01,1.596825572666447646e-01,-1.947122527703675221e-01,-1.867403984069824219e-01,2.141538619995117243e-01,-1.635303497314453125e-01,5.003468360913927437e-01,-5.840490460395812988e-01,4.272496700286865234e-02,9.578994703370881325e+01,2.460975408554077204e-01
1.757110000000000061e-01,-1.352406199835683859e-02,1.216912512366837874e-02,9.989387392997741699e-01,1.819691923062546554e-02,-6.461081153650960474e-03,-1.064021510539075142e-02,-1.428227042941603193e-03,2.453388455393935505e-02,1.786011829972267151e-02,5.047638244085565773e-02,-4.074166121530259366e-02,-2.349848341795895273e-02,1.213783341821601108e-01,9.035262980524048915e-02,-2.287225147372576595e-01,2.154615640640258623e-01,1.420415282249450628e-01,-1.991735816001891923e-01,4.979065460209429750e-01,-6.701734066009521484e-01,1.919215917587280273e-01,1.113453681891435139e+02,2.460975408554077204e-01
1.969029999999999947e-01,-1.369128888764073980e-02,1.261858912979512033e-02,9.991576671600341797e-01,1.811550643419971435e-02,-6.861658550415095092e-03,-1.099424853393949839e-02,7.309130774457542638e-04,2.290056230721530806e-02,2.581620588898658752e-02,1.932038844858726540e-02,-9.296540878525579032e-02,-5.774536815679340990e-02,1.135484774197770691e-01,1.559815168296837529e-01,-2.183787465033454334e-01,2.071517229080200029e-01,2.094374656677246149e-01,-1.878458261489868164e-01,4.992592793705915577e-01,-5.659854412078857422e-01,4.376045465469360352e-01,8.209213925703163284e+01,2.460975408554077204e-01
2.232750000000000012e-01,-1.432753875184147006e-02,1.492830714114864142e-02,1.000197172164916992e+00,1.541365811242473988e-02,-1.060301846527389458e-02,-1.036917129844916984e-02,-3.894086290489503274e-03,3.871184144627661666e-02,1.579321175813674927e-02,-8.395176685526425930e-02,-1.350888631457058953e-01,9.239599530667028104e-02,1.364818357868218257e-01,-2.453891842943009827e-01,-2.535643898291650156e-01,1.978540778160095270e-01,-1.630491971969604548e-01,-2.249093055725097656e-01,4.973282453515721624e-01,-7.016821503639221191e-01,3.319677114486694336e-01,8.725484019402331626e+01,2.460975408554077204e-01
2.514970000000000261e-01,-1.473411268252311154e-02,1.629026246445135565e-02,1.000831127166748047e+00,1.397158089001153056e-02,-1.343295060265359275e-02,-9.018630676320197465e-03,-2.287286020753680552e-02,1.863909287978272877e-02,3.847555071115493774e-02,-6.219579774746934048e-02,-1.823344044231190730e-01,4.690116476122296874e-02,3.839039972647276255e-02,-3.112174510955810769e-01,-2.489449100780317115e-01,1.079682826995849582e-01,-2.112174510955810436e-01,-2.241226315498351940e-01,4.955531770015995097e-01,-6.999208927154541016e-01,3.801473379135131836e-01,1.422977432810794767e+02,1.886707067489624134e-01
2.743909999999999960e-01,-1.509925607888209544e-02,1.768927265144836641e-02,1.001512885093688965e+00,1.099373109519779200e-02,-1.508173915287236433e-02,-6.768141078695568379e-03,-1.287976623169911385e-02,4.243894771602196858e-02,1.774977520108222961e-02,-2.396094558676664099e-01,-1.807245716233624525e-02,1.366777885378784863e-01,-1.131805041856476235e-01,-2.840315818786621205e-01,-2.316616910821467645e-01,-8.631359338760376254e-02,-1.840315818786621149e-01,-2.131557226181030329e-01,4.967748516738414999e-01,-7.147879600524902344e-01,3.383032083511352539e-01,6.671930271848970051e+01,1.886707067489624134e-01
2.984020000000000006e-01,-1.546621288045889678e-02,1.911035983503903482e-02,1.002252340316772461e+00,7.886867876211570844e-03,-1.634772805331441425e-02,-4.710799713901603521e-03,-1.253126271309081864e-02,3.706282213322431573e-02,3.956731408834457397e-02,-9.181029778736907176e-02,-7.675374839984480668e-02,8.105379604936346905e-02,1.690582577387509944e-01,-3.072369098663330078e-01,-2.392405558158777479e-01,1.823320269584655651e-01,-2.072369098663330023e-01,-2.264213204383850042e-01,4.950972391527256322e-01,-7.107469439506530762e-01,4.177187681198120117e-01,7.881379188939808955e+01,1.886707067489624134e-01
3.272930000000000006e-01,-1.659006893284604989e-02,2.292357241241790508e-02,1.003881454467773438e+00,9.859956267405888247e-04,-1.924453237047196730e-02,-3.165008011122318857e-04,-1.725318232630009690e-02,4.501770996477452019e-02,4.298138245940208435e-02,-2.363503508164989039e-02,-9.523444609623295254e-02,1.319972901539056553e-01,2.578259289450633429e-01,-3.153609991073608176e-01,-2.248010598600303223e-01,2.162753462791442705e-01,-2.153609991073608398e-01,-2.241831064224243109e-01,4.961823800921810745e-01,-6.322900652885437012e-01,5.728971958160400391e-02,-2.456859684079148209e+01,1.886707067489624134e-01
3.507990000000000275e-01,-1.740593045262165892e-02,2.521344604958426772e-02,1.004877090454101562e+00,2.614644563750508034e-04,-2.246154921187359932e-02,1.844893330588355095e-03,-2.992249750647990592e-02,2.844839761105241033e-02,6.003358215093612671e-02,-1.493420830439060043e-02,-2.040392233058585247e-01,1.056141122481771971e-01,2.442484607398751340e-01,-3.112174510955810769e-01,-2.205111737519550308e-01,2.109126091003417913e-01,-2.112174510955810436e-01,-2.258961439132690374e-01,4.935550842929981030e-01,-6.940776109695434570e-01,2.330900430679321289e-01,9.203953114158981919e+01,1.886707067489624134e-01
3.739390000000000214e-01,-1.829605953924028777e-02,2.741115174627661161e-02,1.005997538566589355e+00,1.004521042366582221e-03,-2.505963169085023701e-02,4.511935140649540529e-03,-2.156913764627704788e-02,4.573961213722047003e-02,5.552646517753601074e-02,3.784211565674708289e-02,-8.275039057376175344e-02,1.450098352183279704e-01,2.624150197501327053e-01,-3.129677176475524902e-01,1.557737796294417498e-01,2.156762123107910101e-01,-2.129677176475524847e-01,1.427660822868347112e-01,5.004338887370970435e-01,-3.462585210800170898e-01,1.455627679824829102e-01,9.462823430872718689e+01,1.886707067489624134e-01
3.981680000000000219e-01,-1.911374149856717719e-02,2.963335562066610543e-02,1.007145047187805176e+00,1.870980630088069346e-03,-2.565025415723343194e-02,7.306669889208948672e-03,-2.171727159693407488e-02,3.566787009690938065e-02,5.639803037047386169e-02,3.139280290711706639e-02,1.036540124961845936e-02,1.463589660994801256e-01,-1.736777790600279037e-01,-2.512361764907836692e-01,2.376332806911648776e-01,-2.055941641330718828e-01,-1.512361764907836914e-01,2.168119311332702692e-01,5.171126235619880607e-01,5.497562885284423828e-01,2.101541757583618164e-01,1.012250290846114353e+02,1.886707067489624134e-01
4.274990000000000179e-01,-2.059035393007118547e-02,3.417513919623264146e-02,1.009394645690917969e+00,2.526783408096050336e-03,-1.850723340489524027e-02,1.274323590882452638e-02,-1.860770280017833705e-02,4.291030392033329255e-02,5.686680972576141357e-02,2.341831784851004794e-02,2.343762711460259662e-01,1.634431065352001944e-01,-1.761681750817117309e-01,6.911569237709044855e-02,2.352117146756292354e-01,-2.145184814929962103e-01,1.691156923770904541e-01,1.991847753524780273e-01,4.991151676806524495e-01,-3.900884389877319336e-01,2.861353158950805664e-01,8.656009384221714242e+01,1.886707067489624134e-01
4.488440000000000207e-01,-2.137481462419438261e-02,3.662403593999181278e-02,1.010513186454772949e+00,2.744517594738466945e-03,-1.280219183631126079e-02,1.543271191515107471e-02,-1.435912751471730975e-02,5.446648390417115765e-02,5.780148878693580627e-02,3.681912478805655226e-02,3.170450656957027324e-01,1.171267894316359581e-01,-1.554090058199798507e-01,6.704112887382507324e-02,2.373864702365992840e-01,-2.027542769908904918e-01,1.670411288738250788e-01,1.938801527023315263e-01,4.989740256400176932e-01,-3.861675858497619629e-01,2.354067564010620117e-01,1.002548895054703308e+02,1.886707067489624134e-01
4.814249999999999918e-01,-2.256046607866022888e-02,4.013582274302357478e-02,1.012281656265258789e+00,5.899026420132423565e-03,-4.158893499593974141e-03,1.973533225146460734e-02,-2.656182685537765778e-02,4.357365362618694643e-02,6.744649261236190796e-02,1.699847125560344230e-01,2.739225071725583383e-01,9.689981864897299901e-02,-1.820144862296745325e-01,1.325855468035717910e-01,2.602848802701554498e-01,-2.013104438781738170e-01,1.947029292583465632e-01,2.048276245594024547e-01,4.945030028109691500e-01,-5.698673129081726074e-01,4.413949251174926758e-01,3.844751391350071401e+01,1.886707067489624134e-01
5.451930000000000387e-01,-2.328991623873619132e-02,4.232298380788569042e-02,1.013588666915893555e+00,9.674812443984787819e-03,1.995384871639638291e-03,2.269186529756237261e-02,-1.638131302936244107e-02,5.534847785262666381e-02,4.928817600011825562e-02,1.696052202085396587e-01,3.479901529067612187e-01,1.449756574018756516e-01,-2.044648428267986651e-01,1.856333023619764766e-01,2.678136770067515160e-01,-2.121339082717895452e-01,1.975428521633148249e-01,2.042209982872009166e-01,4.983312339477825592e-01,-4.342456459999084473e-01,1.657879352569580078e-02,1.267513038244033226e+02,1.886707067489624134e-01
5.798269999999999813e-01,-2.504387227670222538e-02,5.262279675637561438e-02,1.017951130867004395e+00,2.149812634048851867e-02,2.347061602521671730e-02,2.058983385651199163e-02,-4.274470910612169702e-03,4.703807117761606149e-02,5.315405875444412231e-02,2.811635405967174983e-02,2.204880515442487476e-01,-9.855171753550596991e-02,-2.909531526926067424e-01,3.241727888584137185e-01,2.785836778188139906e-01,-2.207300662994384766e-01,2.241727888584136852e-01,2.218643188476562556e-01,4.943661434874033755e-01,-6.044321060180664062e-01,7.715094089508056641e-02,9.851452315400523219e+01,1.886707067489624134e-01
5.970809999999999729e-01,-2.545375841068099262e-02,5.745243849297997779e-02,1.019588828086853027e+00,1.919188822641083522e-02,2.849076297352381992e-02,1.756615592058286338e-02,9.399114327516997977e-03,6.441368207416840741e-02,5.086646974086761475e-02,-1.426360440575597244e-01,1.151845553519360715e-01,-1.228960581163368870e-01,-2.355985012835035142e-01,3.237795591354369895e-01,2.279084882369691589e-01,-1.992887020111084040e-01,2.237795591354370117e-01,1.799666047096252497e-01,4.926049547773398984e-01,-6.952830553054809570e-01,1.050335168838500977e-01,9.802591191135003612e+01,1.886707067489624134e-01
6.478169999999999762e-01,-2.567995469308736664e-02,6.066935827123811492e-02,1.020652294158935547e+00,1.626915304254209285e-02,2.872518552246794421e-02,1.559883831659690870e-02,1.211400985150679413e-02,5.912770515339214189e-02,4.755730181932449341e-02,-1.753196099356348070e-01,-2.180302831348616271e-02,-7.314736064548167660e-02,-1.995109778832906411e-01,2.946846187114715576e-01,3.831509873988805243e-02,-1.776205837726592962e-01,1.946846187114715521e-01,-4.247510433197021137e-03,4.932429283403991782e-01,-6.675603389739990234e-01,-2.861799001693725586e-01,7.034999222464753643e+01,1.886707067489624134e-01
6.832399999999999585e-01,-2.586458048103642063e-02,6.948829095708462800e-02,1.023416280746459961e+00,5.923689858074376521e-03,2.223022886671111031e-02,7.636981757259464487e-03,2.408859509422504180e-02,6.003187465277111390e-02,4.823683574795722961e-02,-1.765859343160256500e-01,-1.419253052454263475e-01,-1.727300211103323935e-01,-8.418111034482765598e-02,2.247093796730041393e-01,9.200159152996817413e-02,-1.367398202419281006e-01,1.247093796730041476e-01,7.123580574989318848e-02,4.917609204393141864e-01,-7.272977828979492188e-01,-1.883984804153442383e-01,7.717114505438836147e+01,1.886707067489624134e-01
7.074820000000000553e-01,-2.567529122096036398e-02,7.237521985072584152e-02,1.024079561233520508e+00,1.724666050337171847e-03,1.920588071471751590e-02,5.090939943293243050e-03,3.291668672520819960e-02,7.970398478911942808e-02,4.205734655261039734e-02,-2.071605718049378542e-01,-1.626411067719377435e-01,-1.241963415242422486e-01,2.680206946676185198e-01,9.825084209442139227e-02,-1.780040820228389886e-01,1.699711561203002819e-01,-1.749157905578613281e-03,-1.917408227920532060e-01,4.919170327157234013e-01,-7.384697198867797852e-01,2.227834463119506836e-01,9.164981420792723554e+01,1.886707067489624134e-01
7.303650000000000420e-01,-2.536090010983214904e-02,7.521291996708714955e-02,1.024718880653381348e+00,-2.628892300574104963e-03,1.541722285396507353e-02,2.083214335814305082e-03,3.434806947784979636e-02,7.433730550167530482e-02,4.020454734563827515e-02,-2.161810140397666391e-01,-2.255773416046779889e-01,-1.331019143271599814e-01,2.937377810478210560e-01,-7.251142263412474476e-02,-2.125975155936641603e-01,1.937377810478210505e-01,-1.725114226341247503e-01,-2.181273221969604326e-01,4.920317852958292493e-01,-7.338662743568420410e-01,3.380924463272094727e-01,1.610775533097046264e+02,1.886707067489624134e-01
7.537329999999999863e-01,-2.513424962256484430e-02,7.920069189533389398e-02,1.025498509407043457e+00,-9.458383086389068536e-03,8.299173337241949611e-03,-2.200932176283173017e-03,2.570034244528422024e-02,8.610818239452983081e-02,2.803697437047958374e-02,-2.653394600880726317e-01,-2.194696652390986380e-01,-1.157830545885530638e-01,3.121248960494995006e-01,-1.379612936944033530e-01,-2.280695255554082423e-01,2.121248960494994951e-01,-1.893792629241943248e-01,-2.218113183975219671e-01,4.931696051454956820e-01,-7.179087996482849121e-01,-5.769417285919189453e-01,1.196727006742772090e+02,1.886707067489624134e-01
7.764750000000000263e-01,-2.501361087032404756e-02,8.181618697391591921e-02,1.025952696800231934e+00,-1.390316197249050895e-02,1.984284149847193035e-03,-5.085393477256308810e-03,3.959024109679669390e-02,9.093137522094386915e-02,2.314415015280246735e-02,-2.703947563995872105e-01,-2.812113314475043757e-01,-1.492966479347627995e-01,3.177423000335693470e-01,-1.726113840046227810e-01,-2.370488367473474745e-01,2.177423000335693415e-01,-1.955764174461364635e-01,-2.227854251861572099e-01,4.937696503435603512e-01,-7.021368741989135742e-01,6.027972698211669922e-02,9.226237972363982465e+01,1.886707067489624134e-01
7.983749999999999458e-01,-2.491380044636334889e-02,8.451081160583728824e-02,1.026301860809326172e+00,-1.879863688691971874e-02,-4.856676773294266170e-03,-6.980970372755205579e-03,3.385288178544107462e-02,9.453244387481628264e-02,1.833548583090305328e-02,-2.529299310957551228e-01,-3.615945608393937860e-01,-4.572736470504859541e-02,3.185250759124755859e-01,-2.311854393898138404e-01,-2.448220666802866929e-01,2.185250759124755804e-01,-2.028864026069641113e-01,-2.252792358398437444e-01,4.939212875856801022e-01,-7.098711133003234863e-01,3.090802431106567383e-01,-2.281457864872281860e+01,1.886707067489624134e-01
8.224120000000000319e-01,-2.473424069127904898e-02,8.868590546731253133e-02,1.026680827140808105e+00,-2.565439310406477519e-02,-1.501443207769814769e-02,-9.112790125717310646e-03,3.180430209179483519e-02,1.104351704125750150e-01,1.448625046759843826e-02,-2.283350744329237514e-01,-3.079105089100562243e-01,-6.705820054331246283e-02,3.223628520965576283e-01,-3.006678475771358272e-01,-2.520630344835219638e-01,2.223628520965576227e-01,-2.054858922958373857e-01,-2.264707803726196123e-01,4.939686312848441396e-01,-7.199381589889526367e-01,2.426925897598266602e-01,7.720854375518876322e-01,1.886707067489624134e-01
8.495310000000000361e-01,-2.459322050961556747e-02,9.321991016446533329e-02,1.027017831802368164e+00,-3.035038682601738647e-02,-2.470138932552656819e-02,-1.019585968718009737e-02,1.720397513189820052e-02,1.117228512463139811e-01,2.940251678228378296e-02,-4.902916234442192267e-02,-3.260694640540527933e-01,-9.946221549116597560e-03,3.245119094848633035e-01,-3.122605800628662220e-01,-2.556192048637894176e-01,2.245119094848632701e-01,-2.122605800628662165e-01,-2.267796277999877819e-01,4.933188985238785573e-01,-6.907038092613220215e-01,3.829337358474731445e-01,8.129713938858799338e+01,1.886707067489624134e-01
8.728599999999999692e-01,-2.452034544950581693e-02,9.635398744888809541e-02,1.027312517166137695e+00,-3.140575017785442874e-02,-2.983983164964776336e-02,-9.201581660951004341e-03,2.148954516652412314e-02,1.199725949573418604e-01,2.659035846590995789e-02,-5.599114558205669362e-02,-2.227653754807985553e-01,8.445801202312697153e-02,3.248914957046508678e-01,-3.133169770240783469e-01,-2.538193367401048728e-01,2.248914957046508623e-01,-2.133169770240783691e-01,-2.277324199676513672e-01,4.929883071980116771e-01,-7.156325578689575195e-01,-4.616439342498779297e-01,8.276224911650157878e+01,1.886707067489624134e-01
9.022750000000000492e-01,-2.446722936985506330e-02,1.010708617930164976e-01,1.027884364128112793e+00,-2.818995103624698934e-02,-3.436417060115792843e-02,-6.791776617323681993e-03,1.058547977586924392e-02,1.123874602668996775e-01,2.742733433842658997e-02,1.400233142377512729e-01,-5.779064050045310680e-02,1.297827199728198988e-01,3.155520439147949108e-01,-3.036531209945678711e-01,-1.222202973630857337e-01,2.155520439147949052e-01,-2.036531209945678655e-01,-1.029510140419006292e-01,4.957209699253963819e-01,-5.653265118598937988e-01,1.040939092636108398e-01,9.338509206846067912e+01,1.578242063522338756e-01
9.238429999999999698e-01,-2.440865216669418220e-02,1.042660015889486508e-01,1.028376936912536621e+00,-2.335040299896088550e-02,-3.497034430279244432e-02,-5.188284863824230500e-03,3.002846824760780145e-02,1.347848220606391867e-01,3.578831255435943604e-02,2.988038356938408358e-01,-1.786105773915959427e-02,8.233018441203442117e-02,3.129096746444702259e-01,-1.465532064437866100e-01,-1.203950352040873834e-01,2.129096746444702204e-01,-4.655320644378661832e-02,-1.060292243957519503e-01,4.944170077084235615e-01,-5.963526368141174316e-01,1.637047529220581055e-01,9.117629768333776497e+01,1.578242063522338756e-01
9.515489999999999782e-01,-2.409916920180185662e-02,1.084868726371177733e-01,1.029193162918090820e+00,-1.447667102425699223e-02,-3.194595562549729095e-02,-1.977523538914957493e-03,1.458721131610120347e-02,1.277307780230771406e-01,3.722761198878288269e-02,3.172336797749392701e-01,1.400307942073092948e-01,1.321926886568962345e-01,2.833653926849365456e-01,1.706719398498521278e-03,5.070962068668360967e-02,1.833653926849365123e-01,1.017067193984985268e-01,5.571323633193969727e-02,4.962833293749766561e-01,-4.867707490921020508e-01,-8.541262149810791016e-02,1.057430011450889396e+02,1.578242063522338756e-01
9.736970000000000347e-01,-2.382048939705798049e-02,1.111384933459445973e-01,1.029822826385498047e+00,-7.687589514734396480e-03,-2.806518506267097202e-02,3.365517094381785426e-04,1.669649365954201103e-02,1.345261953562920665e-01,3.629682958126068115e-02,3.406915708205129900e-01,2.300359310943502766e-01,1.232307897545246861e-01,2.488029837608337347e-01,2.390700578689573808e-02,1.216422621459774395e-01,1.488029837608337291e-01,1.239070057868957436e-01,1.199060797691345187e-01,4.966978255840474032e-01,-4.637179374694824219e-01,2.502321004867553711e-01,9.601644293677560427e+01,1.578242063522338756e-01
1.001455999999999902e+00,-2.344273549538216164e-02,1.151143053922296100e-01,1.030798673629760742e+00,3.599657034801622118e-03,-2.016705005814167784e-02,4.119114588703234707e-03,1.008963831691590644e-02,1.327803859940212827e-01,2.657716907560825348e-02,3.451955825478541517e-01,3.002226284247839772e-01,1.372342852925013124e-01,1.798200011253356934e-01,-1.897461414337159313e-02,1.581481092024229762e-01,7.982000112533568781e-02,8.102538585662841242e-02,1.456658363342284990e-01,4.997230999347802571e-01,-3.375687599182128906e-01,3.439844846725463867e-01,9.600210636970774658e+01,1.578242063522338756e-01
1.025112000000000023e+00,-2.316608092538867403e-02,1.177749381757002972e-01,1.031485915184020996e+00,1.166622727897806758e-02,-1.398443072461597048e-02,6.916761022902772130e-03,1.359575147965515554e-02,1.425264256406834074e-01,4.198134690523147583e-02,4.270510436873148907e-01,3.133132453431585196e-01,1.436160010468875703e-01,1.809317946434020885e-01,-2.039706096399424018e-02,1.672607691549773401e-01,8.093179464340209683e-02,7.681739330291748047e-02,1.470333337783813477e-01,5.004293362909930654e-01,-2.342012524604797363e-01,-4.864259958267211914e-01,1.022883256138423320e+02,1.578242063522338756e-01
1.051053999999999933e+00,-2.289436969814098027e-02,1.200699888749321292e-01,1.032158613204956055e+00,1.937459265326888988e-02,-7.057139975788828679e-03,9.290958595423623803e-03,1.796381396089927890e-02,1.244481888047873075e-01,3.678899258375167847e-02,3.613991182455508211e-01,3.292350020541787714e-01,1.033094168782296846e-01,5.825141077684531377e-02,-2.176710851180635800e-02,1.832603685247642666e-01,8.899569511413574219e-03,2.680839300155639718e-02,1.567524790763854814e-01,5.029229673896016273e-01,-1.167028546333312988e-01,1.228383779525756836e-01,1.360279984532229491e+02,1.578242063522338756e-01
1.075919000000000070e+00,-2.234101147782245958e-02,1.229879673815617441e-01,1.033283948898315430e+00,3.122528550818944384e-02,2.730625999711522311e-03,1.242787283125267560e-02,2.272008011765418167e-02,1.249729330545341494e-01,2.378316782414913177e-02,3.475627312384144130e-01,3.282451549616180464e-01,1.454576712384401116e-01,-1.365066883125131136e-01,9.697051417815946706e-02,2.180360596004757290e-01,-1.144040822982788086e-01,7.754917144775390347e-02,1.834709644317626953e-01,5.034199769986782425e-01,-1.350499987602233887e-01,8.775357007980346680e-01,8.038026845478383109e+01,1.755071401596069447e-01
1.101871999999999963e+00,-2.194506202000372566e-02,1.248237506075513120e-01,1.034020781517028809e+00,3.925666729071663336e-02,7.795287290365937594e-03,1.364242340152259196e-02,1.473506220964784265e-02,1.138890610368094441e-01,4.391856864094734192e-02,4.506211687514842246e-01,2.029754542867870382e-01,1.356099055300658343e-02,-2.667896835327130400e-01,2.496196802918857205e-01,2.519163634977172883e-01,-1.863925695419311468e-01,2.040646255016326793e-01,2.143504142761230302e-01,4.953769623044944614e-01,-4.687911868095397949e-01,1.360812067985534668e+00,-7.217584522376451162e+01,2.721624135971069114e-01
1.127418000000000031e+00,-2.125955134291990928e-02,1.272669372915724018e-01,1.034935951232910156e+00,5.053881044901120667e-02,1.261622148810470634e-02,1.394480275452043665e-02,2.747063933051402049e-02,9.909196242211747163e-02,3.816442936658859253e-02,3.612204104367377488e-01,1.193696598832419825e-01,-4.658250150972075010e-02,-3.136550426483154519e-01,2.927548326390910227e-01,2.580462019936419771e-01,-2.136550426483154186e-01,2.035086750984191895e-01,2.204472005367278942e-01,4.936032868405925145e-01,-5.757124423980712891e-01,1.691044569015502930e-01,9.825307034276632123e+01,2.721624135971069114e-01
1.157232000000000038e+00,-2.079699626476125968e-02,1.292040058139393988e-01,1.035757541656494141e+00,5.981658192637041155e-02,1.445066152953145000e-02,1.318675418415279042e-02,2.736511974367775851e-02,9.374639166738604756e-02,2.637111395597457886e-02,2.776500933978715002e-01,3.248372635082457521e-02,-2.500102222784360284e-02,-3.182150661945343240e-01,3.052310440313307227e-01,2.586937594379166150e-01,-2.182150661945342907e-01,2.057447075843810980e-01,2.235820412635803056e-01,4.933134263679297415e-01,-6.309381127357482910e-01,-2.299319505691528320e-01,1.857974285953281424e+02,2.721624135971069114e-01
1.189130000000000020e+00,-2.073193224601207335e-02,1.303763475925582838e-01,1.036516666412353516e+00,6.706751058889669215e-02,1.551635123839401054e-02,1.155651869190008063e-02,3.704255823272629283e-02,7.955225933323105403e-02,1.825772412121295929e-02,2.253207720039651918e-01,4.313446089907944925e-02,-6.729632825562940901e-02,-3.206485629081726185e-01,3.038046479225158802e-01,2.551703071526447708e-01,-2.206485629081726130e-01,2.038046479225158747e-01,2.250374436378478893e-01,4.933040994552665426e-01,-6.571294665336608887e-01,2.379819154739379883e-01,5.504526974760355529e+01,2.721624135971069114e-01
1.218062999999999896e+00,-2.036337512715286763e-02,1.311441080721817420e-01,1.037181854248046875e+00,7.253593042140486780e-02,1.685073767469491557e-02,9.460993214110409097e-03,4.359972644793952412e-02,6.115531144427247684e-02,1.503323949873447418e-02,1.766342560496905745e-01,1.563191399907778306e-02,-7.390882197960083055e-02,-3.214494526386261208e-01,2.993494272232055664e-01,2.498996868278814953e-01,-2.214494526386260875e-01,1.993494272232055609e-01,2.259816706180572399e-01,4.931785172277062257e-01,-6.704262495040893555e-01,-1.182106733322143555e-01,3.869439451614540815e+01,2.721624135971069114e-01
1.241300000000000070e+00,-1.969295983678218120e-02,1.316044260418471612e-01,1.037857055664062500e+00,7.398813461910815070e-02,1.789587604167985901e-02,6.537687016730006628e-03,4.569364046781695943e-02,5.151703400213583639e-02,2.056689932942390442e-03,-4.349420263013614035e-02,4.856925184608087975e-02,-1.275418253911709265e-01,-3.181819319725036621e-01,3.151543617248535045e-01,2.119128637748005362e-01,-2.181819319725036566e-01,2.151543617248534990e-01,1.963559031486511175e-01,5.043190371980149633e-01,-1.348316669464111328e-01,-3.770589828491210938e-04,9.760808191906366460e+01,2.721624135971069114e-01
1.265973000000000015e+00,-1.921683148413951339e-02,1.317909731547020624e-01,1.038217067718505859e+00,7.253710350006419005e-02,1.653354693253494823e-02,4.351215828039039536e-03,5.634504828859090986e-02,4.062351666947089379e-02,9.136773645877838135e-03,-1.289836031126730953e-01,-1.006693923223800358e-01,-1.227591962075027937e-01,-3.027052998542785756e-01,2.765893459320068470e-01,1.417114526373477457e-01,-2.027052998542785700e-01,1.765893459320068415e-01,1.321997523307800182e-01,4.958872738531914237e-01,-5.441452860832214355e-01,-1.591757535934448242e-01,9.403892558713849326e+01,2.721624135971069114e-01
1.289649999999999963e+00,-1.866978752660034685e-02,1.318982758452870996e-01,1.038435697555541992e+00,6.924435817494255241e-02,1.401706347333764313e-02,1.690043122445750385e-03,5.613472994444693859e-02,2.956180579032687689e-02,8.980322163552045822e-04,-2.275546472831488642e-01,-1.729442983407368795e-01,-1.385832837177560228e-01,-3.062354803085327037e-01,2.636101722717285045e-01,1.419112442278952224e-01,-2.062354803085326982e-01,1.636101722717284990e-01,1.393798828124999944e-01,4.959790030246742365e-01,-5.687063932418823242e-01,1.689556837081909180e-01,6.142036682831294314e+01,2.721624135971069114e-01
1.312083000000000110e+00,-1.780992434231604832e-02,1.317661202772828222e-01,1.038648366928100586e+00,6.136126727818438237e-02,7.304282874294631966e-03,-2.304515659331869519e-03,5.409162401995723513e-02,2.160721132811142808e-02,-4.191302228718996048e-03,-2.809756355542568085e-01,-2.812009759968026601e-01,-1.011615533525245941e-01,-3.066138863563537820e-01,1.912345102759425708e-01,4.627639870634962099e-02,-2.066138863563537487e-01,1.212436437606811412e-01,5.393829345703125139e-02,4.963268521904222741e-01,-5.679121017456054688e-01,-8.107388019561767578e-02,6.515699256849767096e+01,2.721624135971069114e-01
1.334198999999999913e+00,-1.719636249535188427e-02,1.315648520746682260e-01,1.038710594177246094e+00,5.483788331645040454e-02,1.805653412973118321e-03,-5.175919817122462754e-03,4.856004442898303325e-02,4.658840290627431872e-03,-6.068618968129158020e-03,-3.230766470807583390e-01,-3.191577129667749202e-01,-1.367128368254316440e-01,-3.090192735195159690e-01,1.884020987544418879e-01,-1.250468512931354192e-01,-2.090192735195159912e-01,1.582809805870055986e-01,-1.100857257843017578e-01,4.968751830998107133e-01,-5.442825555801391602e-01,1.005555033683776855e+00,9.110544813107722462e+01,2.721624135971069114e-01
1.351129000000000024e+00,-1.671471372160855326e-02,1.316687774322514437e-01,1.038647174835205078e+00,4.781429063032146404e-02,-4.310765228404234151e-03,-7.988088341481305865e-03,5.526560279929295522e-02,1.548600958151894261e-02,-2.641092054545879364e-02,-3.318109478386890299e-01,-2.824850147850432314e-01,-1.534196125747436246e-01,-3.077979564666747936e-01,1.725011076472453553e-01,-1.715358179526554061e-01,-2.077979564666747880e-01,1.759273409843444824e-01,-1.492122173309326227e-01,4.997280823712011433e-01,-4.759680032730102539e-01,-2.792907953262329102e-01,9.864353176704842951e+01,2.721624135971069114e-01
1.371884000000000103e+00,-1.634129729498942640e-02,1.321176990139646401e-01,1.038463115692138672e+00,4.074455122673786844e-02,-1.031745655147453533e-02,-1.096703248927388859e-02,5.756498017705431042e-02,-2.684531034744094737e-03,-2.863679453730583191e-02,-4.008880161202362791e-01,-2.818084847343518828e-01,-1.468989882666291713e-01,-3.084040999412536732e-01,1.089187596552041726e-01,-1.799504955890899593e-01,-2.084040999412536677e-01,1.503643512725829912e-01,-1.497452616691589411e-01,4.999310070248034199e-01,-4.736591577529907227e-01,-3.906506299972534180e-01,1.003503960406346209e+02,2.721624135971069114e-01
1.394060999999999995e+00,-1.577797993252603656e-02,1.326034511140285754e-01,1.038038015365600586e+00,2.976736064562657269e-02,-1.944467707695229919e-02,-1.478728378462273660e-02,4.853046691427650300e-02,4.430864418481265769e-03,-3.700867667794227600e-02,-3.724135349153560037e-01,-2.831116836474907306e-01,-1.073321117809193648e-01,-1.439642815534099562e-01,-1.011630415916442982e-01,-2.575682448928390267e-01,-6.517565846443175437e-02,-1.163041591644287023e-03,-2.172634363174438532e-01,4.985668187392042761e-01,-5.800166726112365723e-01,-2.038267850875854492e-01,9.288883101393506081e+01,2.721624135971069114e-01
1.421969000000000038e+00,-1.529918513052875607e-02,1.329543911012403545e-01,1.037529349327087402e+00,1.885075127648377924e-02,-2.882605909721602799e-02,-1.773906706666035851e-02,4.498503309481209633e-02,-9.344440488825057553e-03,-2.577544003725051880e-02,-3.763172296858780519e-01,-2.982321032438468023e-01,-1.022075248508688278e-01,1.565056409241341040e-01,-2.672429561614990123e-01,-2.711710815005897723e-01,1.753297090530395452e-01,-1.672429561614990068e-01,-2.227735519409179688e-01,4.972192273313360555e-01,-6.068435907363891602e-01,-2.337430715560913086e-01,1.112142012363225945e+02,2.721624135971069114e-01
1.443985000000000074e+00,-1.495987817832351852e-02,1.329222168343662802e-01,1.037144899368286133e+00,1.209053797784851239e-02,-3.465395728580111800e-02,-1.943608036422802068e-02,4.878320900724412990e-02,3.042518319527265022e-04,-3.799096867442131042e-02,-3.593893122944566421e-01,-2.638011333648924706e-01,-8.608009810232887526e-02,2.444820375833758885e-01,-2.861559629440307839e-01,-2.780414984700286807e-01,2.090181827545165849e-01,-1.861559629440307506e-01,-2.249205350875854437e-01,4.973826016772235903e-01,-6.486293077468872070e-01,7.331478595733642578e-02,1.017473063296856282e+02,2.721624135971069114e-01
1.472723999999999922e+00,-1.447717982719838939e-02,1.326782838051127067e-01,1.036496639251708984e+00,1.660296342972332083e-03,-4.222290293217612067e-02,-1.985872482456203444e-02,2.415010601189465991e-02,-9.151051314289478447e-03,-4.157014563679695129e-02,-4.103933380183241719e-01,-2.151412780975244798e-01,5.105443456589810886e-02,3.130860609409441553e-01,-2.999003529548645020e-01,-2.814466305177707461e-01,2.188507318496704102e-01,-1.999003529548644964e-01,-2.268899917602539007e-01,4.968633992250872655e-01,-6.921300888061523438e-01,-4.952204227447509766e-01,4.332387282991795274e+01,2.721624135971069114e-01
1.496855000000000047e+00,-1.430327252168583745e-02,1.326206747927867746e-01,1.036050438880920410e+00,-5.183479411402677067e-03,-4.629784204513898160e-02,-1.893939909639371158e-02,2.696413675728456458e-02,9.638249056791930308e-03,-3.416009619832038879e-02,-3.432954612483474777e-01,-1.671158933363268151e-01,6.717619714608642420e-03,3.216101884841918723e-01,-3.003780722618102916e-01,-2.795306132888146777e-01,2.216101884841918945e-01,-2.003780722618102861e-01,-2.273636341094970592e-01,4.964094354120430763e-01,-6.889818906784057617e-01,3.552030324935913086e-01,-6.125726874112221054e+01,2.721624135971069114e-01
1.519773000000000041e+00,-1.425869272823743379e-02,1.326156088518718190e-01,1.035678744316101074e+00,-1.245756023210742650e-02,-5.006918427692896856e-02,-1.724217268877387479e-02,1.980950661517698330e-02,-1.203253903463900285e-04,-3.057849593460559845e-02,-3.717210386476282324e-01,-1.957926397616178704e-01,1.000881133406527623e-01,3.238993287086486816e-01,-3.072578310966491699e-01,-2.757937414391494757e-01,2.238993287086486761e-01,-2.072578310966491644e-01,-2.278521180152892900e-01,4.957354685951843587e-01,-7.106028199195861816e-01,1.125230193138122559e+00,-1.152668188482687839e+02,2.721624135971069114e-01
1.548030999999999935e+00,-1.435990609103013349e-02,1.327563501654576705e-01,1.035278797149658203e+00,-2.226194855345493828e-02,-5.315516027770805785e-02,-1.388581540390840426e-02,1.173819115351211126e-02,2.342897184707219346e-02,-4.540799185633659363e-02,-3.460205339827857052e-01,-4.818971480957839112e-04,1.404849751657769041e-01,3.261818885803222656e-01,-2.916415095329284446e-01,-2.665945699824687209e-01,2.261818885803222601e-01,-1.916415095329284668e-01,-2.275781393051147239e-01,4.971655184245621362e-01,-6.978878974914550781e-01,3.855153322219848633e-01,2.384495025105967780e+00,2.721624135971069114e-01
1.572395999999999905e+00,-1.440820936359546965e-02,1.327946614390816127e-01,1.035012483596801758e+00,-2.675770358449065800e-02,-5.346622005467471794e-02,-1.136577294747672176e-02,4.179859503963334784e-03,1.110667675070003795e-02,-1.831402257084846497e-02,-1.178858077253001346e-01,-6.973956671870847925e-03,1.125215257446112171e-01,3.265193462371825950e-01,-3.052763938903808594e-01,-2.599789185313765016e-01,2.265193462371826172e-01,-2.052763938903808538e-01,-2.275247454643249401e-01,4.951781113057198702e-01,-6.938424110412597656e-01,-5.571615695953369141e-02,9.462639698784045095e+01,2.721624135971069114e-01
1.595857999999999999e+00,-1.462397427902508741e-02,1.329086773558684209e-01,1.034806132316589355e+00,-2.893966974145462112e-02,-5.065602858945394971e-02,-6.972269817725252651e-03,3.617952233687602923e-03,2.146873183411285302e-02,-7.593583315610885620e-03,6.696752751207188381e-02,1.097371607381011083e-01,1.306448226559976666e-01,2.837549924850463756e-01,9.946649670600890558e-02,1.875744919828605528e-01,1.837549924850463701e-01,1.994664967060089111e-01,2.077310442924499567e-01,4.949680746820547261e-01,-6.624308228492736816e-01,-9.603857994079589844e-03,1.213344037370712698e+02,2.721624135971069114e-01
1.618821000000000065e+00,-1.487817637033054217e-02,1.330068764130929448e-01,1.034771323204040527e+00,-2.669047525625548034e-02,-4.663675062179462039e-02,-4.031446626095516739e-03,-7.063317691596567721e-03,1.385600190129799257e-02,-9.756412357091903687e-03,1.267114424110764581e-01,2.537274260086850863e-01,1.488174201287116027e-01,2.616028070449828991e-01,1.101778447628021240e-01,1.949541432675906127e-01,1.616028070449828935e-01,2.101778447628021296e-01,2.067687749862670843e-01,4.948623987406424174e-01,-6.750150322914123535e-01,-3.452364206314086914e-01,1.257784389997833898e+02,2.721624135971069114e-01
1.646309000000000022e+00,-1.538322779867008772e-02,1.332854900144914423e-01,1.034817814826965332e+00,-1.908147337414035916e-02,-3.874320123186847376e-02,4.661858952444249615e-04,-1.451840564587963782e-02,2.734553363504807835e-02,-3.263066057115793228e-03,2.830746274959684561e-01,3.265386674296346659e-01,1.521253734624738174e-01,2.714611768722534069e-01,1.154983818531036266e-01,2.162213884853146639e-01,1.714611768722534013e-01,2.154983818531036321e-01,2.148019731044769343e-01,4.943682428298062925e-01,-6.739902496337890625e-01,8.185938596725463867e-01,-1.346662124119787229e+01,2.721624135971069114e-01
1.673551999999999929e+00,-1.577780674921182638e-02,1.338899660528927171e-01,1.034880518913269043e+00,-1.255339778825044321e-02,-3.269100512255529445e-02,3.952395369217610518e-03,-1.857396438784020970e-02,2.885652270379539253e-02,-5.715175066143274307e-03,3.406886509766324234e-01,2.987863967689893263e-01,2.108445562264158468e-01,2.590903997421264426e-01,1.184494018554687333e-01,2.306499444165795998e-01,1.590903997421264648e-01,2.184494018554687389e-01,2.191518545150756836e-01,4.953593686504506044e-01,-6.305403113365173340e-01,4.291094541549682617e-01,9.538475972157614535e+01,2.721624135971069114e-01
1.698282999999999987e+00,-1.648591350721289803e-02,1.349423698893960910e-01,1.034916043281555176e+00,-1.895091540705199588e-03,-2.269052974061591677e-02,8.812202612711367636e-03,-1.750786993366390890e-02,4.129692086881225910e-02,1.602874690433964133e-04,4.031593675645339103e-01,3.664083649902914464e-01,1.615105733071066363e-01,2.110385894775390625e-01,1.202440857887268066e-01,2.455199778430780244e-01,1.110385894775390569e-01,2.202440857887268122e-01,2.200791478157043402e-01,4.940887376479492499e-01,-6.720573306083679199e-01,-1.285420656204223633e-01,1.129428538133611113e+02,2.721624135971069114e-01
1.725062000000000095e+00,-1.721523635081380343e-02,1.360264459522707858e-01,1.034917116165161133e+00,9.134509490198703535e-03,-1.276552311226608616e-02,1.280322858522457870e-02,-2.869028111534793757e-02,2.698692409725210462e-02,1.456754282116889954e-03,3.918627467263435804e-01,3.045003312534624307e-01,4.710961733478176428e-02,6.366087568478015490e-02,1.215397179126739280e-01,2.569238061004267548e-01,-1.304857134819030658e-02,2.215397179126739335e-01,2.203266799449920543e-01,4.953898297889374192e-01,-5.969669818878173828e-01,-2.192326784133911133e-01,8.905197224768039632e+01,2.721624135971069114e-01
1.750270999999999910e+00,-1.770010698046008829e-02,1.366806694497574026e-01,1.034839987754821777e+00,1.604177599683651034e-02,-8.096137823713878134e-03,1.339950612796949637e-02,-2.065028721412092219e-02,3.521501065099824634e-02,-5.579101387411355972e-03,3.091085572814053495e-01,1.965977599445615509e-01,3.815311181255289646e-02,-1.613207511036950093e-02,1.458824545594992750e-01,2.592911675330908938e-01,-5.764871835708618164e-02,2.220672547817230114e-01,2.211333453655242864e-01,4.963979440686941969e-01,-5.716451406478881836e-01,-1.510828733444213867e-01,1.248715811233024624e+02,2.721624135971069114e-01
1.774618999999999946e+00,-1.840296037730300427e-02,1.369680416888404695e-01,1.034670591354370117e+00,2.284045621466655393e-02,-6.109674138514709085e-03,1.303704094744954564e-02,-3.417145962716097024e-02,1.658809006077348325e-02,3.953882958739995956e-03,3.923596519240932778e-01,1.575520591930659395e-02,-1.782173404389152810e-02,1.889210988806107050e-01,1.477163213846310885e-01,1.521695932000212692e-01,2.068779945373535045e-01,2.240698099136352595e-01,1.149529516696929932e-01,4.950115415251054030e-01,-6.040933728218078613e-01,4.336392879486083984e-02,1.116260206621393394e+02,2.721624135971069114e-01
1.796054999999999957e+00,-1.929995959801879615e-02,1.368227297250058649e-01,1.034359574317932129e+00,2.905541926518706575e-02,-5.984663945885371206e-03,1.183235969480157281e-02,-3.372224288882191140e-02,2.455856906166020009e-02,-1.457307860255241394e-02,2.846701632631231105e-01,-3.365998487865543790e-03,-6.091604118514769989e-02,1.556139424909069313e-01,1.469765656042200663e-01,1.197042497844185427e-01,2.047829389572143610e-01,2.207043528556823786e-01,8.576270341873168390e-02,4.958330340376913004e-01,-6.353237032890319824e-01,4.255684614181518555e-01,-1.093295607990193190e+02,2.721624135971069114e-01
1.821736999999999940e+00,-2.066684311427489928e-02,1.365006394623542174e-01,1.033746957778930664e+00,3.823340250496840009e-02,-8.400593367898778752e-03,9.789452846762318819e-03,-3.198608047865649645e-02,1.092495051352459362e-02,-1.466182433068752289e-02,2.800905711581770374e-01,-1.072869887875052691e-01,-4.988870224012514204e-02,1.101860523223876787e-01,-4.106293717497765117e-02,-1.229592825519114363e-01,2.101860523223876842e-01,4.834206104278564176e-02,-1.514908790588378740e-01,4.943694387459939277e-01,-7.124974727630615234e-01,3.505150079727172852e-01,-4.514982572055154186e+00,2.721624135971069114e-01
1.848138000000000059e+00,-2.203514757333917273e-02,1.360134384264927165e-01,1.033087015151977539e+00,4.640868482089986063e-02,-1.169334874842831162e-02,6.984894927901595142e-03,-3.453733529856942847e-02,1.317872616627664521e-02,-2.758101187646389008e-02,2.803807206811817498e-01,-1.080680854725289547e-01,-1.272693097741131596e-01,-7.278280258178711215e-02,-2.347244620323181152e-01,1.960706612017145412e-01,2.721719741821288993e-02,-1.347244620323181097e-01,1.748659372329711970e-01,4.951989738018672815e-01,-7.230530977249145508e-01,-2.529212236404418945e-01,9.883263921459857215e+01,2.721624135971069114e-01
1.870174000000000003e+00,-2.299451158149564550e-02,1.354631872481730781e-01,1.032523512840270996e+00,5.080187649788052429e-02,-1.410531619441912632e-02,4.869370387277665267e-03,-3.891150916591486209e-02,-3.392012546088789444e-03,-3.086465783417224884e-02,1.839190786880156303e-01,-1.213251575321926262e-01,-1.023696205769501488e-01,-2.678229033946991078e-01,-3.005871772766113281e-01,1.901598399536271744e-01,-1.678229033946991022e-01,-2.005871772766113226e-01,1.745279610157012828e-01,4.955963413804405082e-01,-7.168779373168945312e-01,4.564654827117919922e-02,-4.390990306070504801e+01,2.721624135971069114e-01
1.893262000000000000e+00,-2.448883777270897261e-02,1.342942244556037668e-01,1.031558156013488770e+00,5.527950077935265411e-02,-1.755387983950851272e-02,1.181458002315206868e-03,-2.829012326429090896e-02,-1.431615546200498907e-03,-4.433643072843551636e-02,1.140616906880995568e-01,-1.143028419957782815e-01,-1.445155442658364042e-01,-2.983096063137054554e-01,-3.019958734512329102e-01,1.707973030030940365e-01,-1.983096063137054499e-01,-2.019958734512329046e-01,1.651152670383453369e-01,4.973166882209206774e-01,-6.850388646125793457e-01,1.086427569389343262e+00,-5.723303654159294318e+00,2.721624135971069114e-01
1.921567000000000025e+00,-2.605241545746373941e-02,1.328915079249810283e-01,1.030297040939331055e+00,5.807768493363718587e-02,-2.163824238464129301e-02,-1.557380745052638861e-03,-4.481789840536851838e-02,-2.316925240923759996e-02,-4.829674214124679565e-02,7.923474265138542860e-02,-1.834158039872411383e-01,-8.204442296860868511e-02,-3.131183683872222900e-01,-3.045140385627746471e-01,-8.332529474967624583e-02,-2.131183683872222845e-01,-2.045140385627746415e-01,-8.202077150344848355e-02,4.978444353821056545e-01,-6.784815788269042969e-01,2.459739446640014648e-01,-1.996488712321010084e+01,2.721624135971069114e-01
1.944782000000000011e+00,-2.717644065066025100e-02,1.317610911875094493e-01,1.029376864433288574e+00,6.044747144636239411e-02,-2.469534322870670096e-02,-2.774818289608599765e-03,-4.367489113906537074e-02,-2.978675293578907091e-02,-4.990951344370841980e-02,1.356499064352265638e-01,-1.565107299219956338e-01,-2.186041136539179294e-02,-3.148327827453613059e-01,-3.066858410835265891e-01,1.686895865008848361e-01,-2.148327827453613281e-01,-2.066858410835266113e-01,1.730340600013732799e-01,4.977972329595581336e-01,-6.918185353279113770e-01,-3.775531053543090820e-01,1.008710340403080181e+02,2.721624135971069114e-01
1.973130999999999968e+00,-2.923116064182355520e-02,1.306493813332180176e-01,1.027972936630249023e+00,6.393072797677855357e-02,-2.812315383587526973e-02,-3.190157198461024846e-03,-4.440856439370072239e-02,-3.807360002245526592e-02,-6.093682348728179932e-02,1.082841058640448828e-01,-4.829499843852200214e-02,-3.140069078110836742e-02,-3.202486455440521351e-01,-3.143866777420044056e-01,2.219136666859897189e-01,-2.202486455440521296e-01,-2.143866777420044001e-01,2.268947124481200950e-01,4.977247632578905012e-01,-7.461460828781127930e-01,1.372433900833129883e-01,-3.837683511596942054e+01,2.721624135971069114e-01
1.996062999999999921e+00,-3.057315716429661809e-02,1.300104531293092835e-01,1.026865839958190918e+00,6.475299771049335129e-02,-2.785477711047068539e-02,-4.414853010094899576e-03,-5.024460608334343353e-02,-5.682114326242423269e-02,-7.119456678628921509e-02,3.492321749813441858e-03,6.762439944806176995e-02,-4.732879386094935442e-02,-3.234185338020324485e-01,-4.335777163505555309e-02,2.140203164344459674e-01,-2.234185338020324707e-01,5.664222836494445246e-02,2.224337339401245006e-01,4.996523302680693224e-01,-6.921918988227844238e-01,1.609045267105102539e-01,-1.322471199174057119e+02,2.721624135971069114e-01
2.018283999999999967e+00,-3.183656376879724637e-02,1.292821189187688125e-01,1.025538563728332520e+00,6.359831866618864682e-02,-2.506908117321948737e-02,-6.070725341388539739e-03,-3.255416001842516976e-02,-4.671746301042441207e-02,-7.566780596971511841e-02,-1.190366863535723407e-01,2.229234779305890590e-01,-1.125999929748655037e-01,-3.231038749217987061e-01,6.975834965705871027e-02,1.912478256157233991e-01,-2.231038749217987005e-01,1.697583496570587158e-01,2.048068642616271973e-01,5.014520361833476603e-01,-6.234205961227416992e-01,1.867631673812866211e-01,9.432008349413288784e+01,2.721624135971069114e-01
2.049561000000000188e+00,-3.361016155174591929e-02,1.279703332639757218e-01,1.023332357406616211e+00,5.821247740208822935e-02,-1.742462738578143266e-02,-8.263818752801462691e-03,-4.763270059915055560e-02,-6.279643408276078254e-02,-9.291329979896545410e-02,-2.296889084993306851e-01,2.866036085360453844e-01,-4.329991691094696449e-02,-3.235865116119384655e-01,9.010864496231077436e-02,1.921647685269996242e-01,-2.235865116119384599e-01,1.901086449623107799e-01,2.127137839794158991e-01,5.036542638176897402e-01,-5.878406763076782227e-01,-4.873307943344116211e-01,6.676172502342465975e+01,2.721624135971069114e-01
2.071928000000000214e+00,-3.474504907628701844e-02,1.269607029250770236e-01,1.021765112876892090e+00,5.294847876869978459e-02,-1.095782660998634306e-02,-8.742257483779280330e-03,-4.173139482355208568e-02,-6.380431343282789991e-02,-8.843326568603515625e-02,-3.118431218555743900e-01,3.908259031098545444e-01,-4.337537946888626178e-02,-3.237017929553985818e-01,8.983353972434995893e-02,1.889067495890044135e-01,-2.237017929553985485e-01,1.898335397243499645e-01,2.116513967514037919e-01,5.058281154381033540e-01,-4.649623632431030273e-01,1.918512582778930664e-01,1.325694638650952868e+02,2.721624135971069114e-01
2.098301999999999889e+00,-3.562160245316339791e-02,1.251829383703260967e-01,1.019450068473815918e+00,4.367884768734984352e-02,-7.231243671388387639e-04,-1.014192197538048464e-02,-2.858869850534123680e-02,-7.425605861361177229e-02,-9.255111962556838989e-02,-3.136838451367592318e-01,3.360362554751345487e-01,-7.214407101270058076e-02,-3.242040812969207986e-01,1.499838520408224019e-01,1.857004256428049505e-01,-2.242040812969207653e-01,1.994618833065033014e-01,2.135268509387970026e-01,5.072738940919865325e-01,-4.171416163444519043e-01,-6.662707924842834473e-01,9.656850663682021718e+01,2.721624135971069114e-01
2.126030999999999782e+00,-3.609655313834499168e-02,1.238704223082179867e-01,1.017874598503112793e+00,3.664188738651753818e-02,6.168099296379514485e-03,-1.213381294444186576e-02,-3.648524728015022783e-02,-8.316578138736038794e-02,-8.698979765176773071e-02,-3.623146076228523915e-01,3.171973747491913520e-01,-1.142981567394520670e-01,-3.237958669662475697e-01,1.980914974412470164e-01,1.814427833390767075e-01,-2.237958669662475641e-01,2.116461753845214899e-01,2.152855396270751953e-01,5.055968577265159691e-01,-4.935057759284973145e-01,-7.140517234802246094e-03,6.363306125145193448e+01,2.721624135971069114e-01
2.151362999999999914e+00,-3.651384823245852618e-02,1.224388324296944441e-01,1.016356110572814941e+00,2.970793591615722776e-02,1.247532029686304611e-02,-1.450734869228814672e-02,-1.171822127246021500e-02,-7.675475354621212609e-02,-1.004068404436111450e-01,-3.563481783720818252e-01,3.029220215577378417e-01,-1.390392459381158408e-01,-3.232790052890777699e-01,2.630835080291435979e-01,1.767784504981766980e-01,-2.232790052890777643e-01,2.151523053646087480e-01,2.178113043308257946e-01,5.044176552832907445e-01,-6.186764836311340332e-01,8.499181270599365234e-02,8.882183585378598423e+01,2.721624135971069114e-01
2.175907000000000036e+00,-3.712106862264000218e-02,1.201406651194676239e-01,1.014080762863159180e+00,1.920700241192821109e-02,1.814046615885822611e-02,-1.801267493943062292e-02,-3.621172955361436768e-02,-8.409962681777265192e-02,-9.432517737150192261e-02,-3.720033134508955452e-01,1.394110726780118936e-01,-5.876987690822146199e-02,-2.865241854572768698e-01,2.826946844947245685e-01,1.687197208363981071e-01,-2.176484227180481013e-01,2.216819643974304033e-01,2.195214986801147516e-01,5.026742086858677627e-01,-6.996287703514099121e-01,-1.581243276596069336e-01,-2.234928908698862671e+01,2.721624135971069114e-01
2.196159000000000194e+00,-3.752758863575032799e-02,1.184233317902378124e-01,1.012686491012573242e+00,1.228843184226515763e-02,1.941879170588767245e-02,-2.058253759526325680e-02,-2.392184040112362367e-02,-8.250525735109624781e-02,-9.139687567949295044e-02,-3.561229442719125449e-01,6.061135028587893298e-02,-1.392536263421182974e-01,-2.182250643775976162e-01,3.059682854761130999e-01,1.451387213227599005e-01,-1.957072198390960582e-01,2.237590134143829235e-01,2.031446993350982666e-01,5.024168518139204842e-01,-7.107931375503540039e-01,4.058088064193725586e-01,-1.150059739238659944e+02,2.721624135971069114e-01
2.222987999999999964e+00,-3.797088858108533388e-02,1.158293114908920396e-01,1.010788559913635254e+00,1.337222986293633677e-03,1.859569259191751200e-02,-2.435437746487342098e-02,-2.027314837078651386e-02,-8.525165960019134848e-02,-8.371001482009887695e-02,-4.090336084628666269e-01,-2.477684430626059253e-02,-1.297672181425641169e-01,1.838489833245925409e-01,2.997368018169963566e-01,-1.876655868249385573e-01,1.392598986625671331e-01,2.220697939395904486e-01,-1.193143129348754883e-01,5.019916882509631861e-01,-7.137956619262695312e-01,3.224694728851318359e-02,-7.482362952722247940e+01,2.721624135971069114e-01
2.248720000000000052e+00,-3.825364692582205323e-02,1.133228683993667829e-01,1.008983135223388672e+00,-9.345805488595312210e-03,1.630190389490882019e-02,-2.816694528003254802e-02,-7.983648715879422889e-03,-7.161425507543220381e-02,-9.049401432275772095e-02,-3.373874501435512596e-01,-8.974193389789700270e-02,-9.299136003279111218e-02,3.111391305923462136e-01,2.813795020289379112e-01,-3.009910357275175641e-01,2.111391305923461803e-01,2.095699667930603083e-01,-2.221196293830871582e-01,5.029857408267592866e-01,-6.996782422065734863e-01,2.172495126724243164e-01,6.476734393672677470e+01,2.721624135971069114e-01
2.271336999999999939e+00,-3.832499824240397091e-02,1.118116226070371977e-01,1.007882714271545410e+00,-1.679653948322426885e-02,1.401931107812348642e-02,-3.068300164164399976e-02,-1.740760456032181686e-02,-7.611034409922710908e-02,-7.034002989530563354e-02,-3.487346799049907964e-01,-1.413271032197588595e-01,-1.257086446298512350e-01,3.184361696243286355e-01,1.738144269643675799e-01,-3.099456774375935475e-01,2.184361696243286022e-01,1.261729180812835582e-01,-2.241205573081970215e-01,5.020597299257112400e-01,-6.761840581893920898e-01,4.659096002578735352e-01,5.163092648340587942e+01,2.721624135971069114e-01
2.294236999999999860e+00,-3.867974969445656802e-02,1.106366160160265066e-01,1.006806612014770508e+00,-2.435212132357980966e-02,1.108587384590498104e-02,-3.309648333363443551e-02,2.520474230635090865e-03,-6.111832484424131046e-02,-7.584422826766967773e-02,-4.338538617221434635e-01,-1.330444601699500295e-01,-1.091267972878817438e-01,3.231235980987549050e-01,1.982535531751722924e-01,-3.183725527840181035e-01,2.231235980987548717e-01,1.526780247688293290e-01,-2.258428573608398382e-01,5.027198781043917819e-01,-6.710308194160461426e-01,-4.795086383819580078e-02,9.465799344294093487e+01,2.721624135971069114e-01
2.321601999999999943e+00,-3.922339751027194982e-02,1.087501611140135049e-01,1.004697799682617188e+00,-3.858410137021184988e-02,1.964081657688465654e-03,-3.787074747154856036e-02,-9.833497485046046802e-03,-5.497002541481402216e-02,-6.651477515697479248e-02,-3.621944846072183699e-01,-2.506175130198176060e-01,-1.008285393326514151e-01,3.249207496643066184e-01,-2.141733884498510099e-01,-3.267485857009887473e-01,2.249207496643066406e-01,-1.877223372459411455e-01,-2.267485857009887695e-01,5.026193199651807220e-01,-6.511203646659851074e-01,-2.240192890167236328e-02,9.177154866950436940e+01,2.721624135971069114e-01
2.343287999999999816e+00,-3.947563201843788672e-02,1.080772494625105579e-01,1.003704905509948730e+00,-4.485109562424149238e-02,-3.664971307018927149e-03,-3.978154578212409614e-02,2.266467473595841671e-03,-3.338492458534573354e-02,-6.758130341768264771e-02,-2.971122574042737163e-01,-2.961326861924176157e-01,-7.401022965446790725e-02,3.254259705543517955e-01,-2.526509511339392056e-01,-3.271244525909423606e-01,2.254259705543517900e-01,-2.006602048873901423e-01,-2.271244525909423828e-01,5.021917287027298782e-01,-6.852986812591552734e-01,-2.649866342544555664e-01,9.485714126857099870e+01,2.721624135971069114e-01
2.370373999999999981e+00,-3.996500936869184367e-02,1.076420795925980417e-01,1.002364635467529297e+00,-5.038430138263270963e-02,-1.346403995935041564e-02,-3.904255617537492895e-02,-1.082451176891107217e-02,-2.202499748684786166e-02,-5.060916766524314880e-02,-7.542349693276598210e-02,-3.648974940304733350e-01,9.797058209840077414e-02,3.258904218673706055e-01,-3.136865854263305442e-01,-3.273116350173950195e-01,2.258904218673705999e-01,-2.136865854263305664e-01,-2.273116350173950140e-01,5.003720490941849786e-01,-7.218097448348999023e-01,-4.296854734420776367e-01,9.341311633462524355e+01,2.721624135971069114e-01
2.398108000000000128e+00,-4.064486939009707978e-02,1.079725744729412990e-01,1.001497268676757812e+00,-4.934495899336974883e-02,-2.409367718267452219e-02,-3.585478910394446217e-02,-1.077079377958237334e-02,-8.576038234956172594e-04,-3.698381781578063965e-02,1.366555392030536220e-01,-2.963964502569466641e-01,1.215997188694987047e-01,3.251461982727050781e-01,-3.161940574645996094e-01,-3.249917030334472656e-01,2.251461982727050726e-01,-2.161940574645996038e-01,-2.249917030334472601e-01,5.006550055265464039e-01,-6.590381860733032227e-01,-3.966487646102905273e-01,7.684232608736560621e+01,2.721624135971069114e-01
2.420935000000000059e+00,-4.114280420323809112e-02,1.083604842522317008e-01,1.001173496246337891e+00,-4.546463501794046486e-02,-3.073854823167354589e-02,-3.318433618996689816e-02,-1.539774004737168127e-02,-1.056435684598195333e-02,-9.851820766925811768e-03,2.393055803680314841e-01,-3.548952913796932229e-01,1.483399333303758727e-01,3.246628999710082786e-01,-3.138581037521362416e-01,-3.193467327351523499e-01,2.246628999710083008e-01,-2.138581037521362360e-01,-2.248767971992492731e-01,4.984577632797823066e-01,-6.681308150291442871e-01,-4.590620994567871094e-01,1.167707718619922304e+02,2.449151754379272350e-01
2.447140000000000093e+00,-4.191684547320159021e-02,1.092275199508524058e-01,1.000833153724670410e+00,-3.760164379159771503e-02,-3.743327556154274482e-02,-2.845348944219053614e-02,-1.692306651571032564e-02,2.234983838016074698e-02,-1.373127475380897522e-02,3.024566245443676138e-01,-1.670172309574205760e-01,1.648823856998540838e-01,3.248570561408996582e-01,-3.064948320388793945e-01,-3.012278056794464032e-01,2.248570561408996527e-01,-2.064948320388793890e-01,-2.204762220382690263e-01,4.983832222526155542e-01,-6.907534003257751465e-01,-2.581238746643066406e-03,1.743295648845388346e+00,2.449151754379272350e-01
2.469635999999999942e+00,-4.242542412647715144e-02,1.100439641712134542e-01,1.000695347785949707e+00,-3.205326699539317453e-02,-3.870861937841851841e-02,-2.533502876640734286e-02,-2.276186545550385951e-02,1.638261041776604629e-02,-6.517475005239248276e-03,2.763821337295798708e-01,-4.043878318573224107e-03,1.736663726408247954e-01,3.223033070564270131e-01,-2.708430528640747292e-01,-2.521406605577363180e-01,2.223033070564270075e-01,-1.708430528640746959e-01,-1.803429365158080999e-01,4.976082969340089868e-01,-7.031762599945068359e-01,9.774696826934814453e-02,9.881525638316090010e+01,2.449151754379272350e-01
2.496446000000000165e+00,-4.257116976167001771e-02,1.106181813916004425e-01,1.000597000122070312e+00,-2.310615039531294101e-02,-3.525931277226823646e-02,-2.057066703120698573e-02,-1.594963581311441975e-02,3.734048431898805837e-02,-1.707457751035690308e-02,2.814527939749480456e-01,2.176023829999627623e-01,1.792250404491654292e-01,2.835672020912170521e-01,1.102919101715087724e-01,1.633017107589629091e-01,1.835672020912170466e-01,2.102919101715087780e-01,2.209879517555236872e-01,4.986474035585229947e-01,-6.927506923675537109e-01,-4.688447713851928711e-01,9.223765443884438753e+01,2.449151754379272350e-01
