timestamp,x,y,z,roll,pitch,yaw,vx,vy,vz,p,q,r,psp,qsp,rsp,pres,qres,rres,thrust_sp, thrust_res,wind_mag,wind_angle,wind_obs
0.000000000000000000e+00,-3.987534333341190632e-03,-3.782220022996790870e-03,1.004199743270874023e+00,1.218675802765792175e-02,-7.683062483152092170e-03,4.221881053828887773e-03,-1.598921162505603788e-02,2.560493467319071952e-03,6.600500084459781647e-03,2.608302722450347652e-02,-2.661707394506438503e-03,-3.607076213121924307e-02,-2.825587774943139063e-01,1.500298155403987921e-01,2.297475267349715355e-01,-2.030452430248260443e-01,2.154107987880706787e-01,2.177553892135619951e-01,5.081737835829169825e-01,-1.576648950576782227e-01,3.064650297164916992e-01,-4.620774262203741500e+01,2.489128351211547796e-01
2.581200000000000161e-02,-3.894249722579179885e-03,-3.428286679236974832e-03,1.004179358482360840e+00,1.218308477217448088e-02,-7.640402789321543153e-03,4.698840581985827720e-03,-1.216115633245734096e-03,1.923846843089633760e-02,-7.224660832434892654e-03,8.128083627522333932e-03,2.922019000096980762e-02,3.611118044101176844e-02,-2.924382923908112053e-01,1.650031237578093168e-01,2.324202966125970826e-01,-2.262495875358581376e-01,2.156921625137329102e-01,2.191086530685424638e-01,5.126707155686757167e-01,2.663815021514892578e-02,2.621999979019165039e-01,9.163820288633822031e+01,2.489128351211547796e-01
4.875600000000000073e-02,-3.855322777797414585e-03,-3.044667670775621279e-03,1.004168868064880371e+00,1.213558232507982830e-02,-7.923849946707361980e-03,4.539913528263550546e-03,9.072854480424420720e-03,4.550544285202017501e-03,-1.712267636321485043e-03,-3.289168545406133317e-03,-2.015637591171775059e-02,-5.258444533819014305e-02,-2.749292013300568827e-01,1.777505024510820930e-01,8.786184942206086423e-02,-1.949706852436065563e-01,2.241651535034179521e-01,7.503048777580260953e-02,5.077307737367258156e-01,-2.140766382217407227e-01,-6.646358966827392578e-02,9.255605736738286282e+01,2.489128351211547796e-01
7.555800000000000016e-02,-3.456418705735934700e-03,-2.162677632000272430e-03,1.004110574722290039e+00,1.117691502964609541e-02,-8.322868290940199643e-03,4.188344485822609667e-03,-7.450255714335939604e-03,1.301384003922862256e-02,-6.052113603800535202e-03,-6.439013794167552929e-02,-5.481033066174179590e-03,-1.875189341297982953e-02,-2.635086585210760779e-01,2.689040218023781847e-02,-6.084101304040352709e-02,-1.994176447391509954e-01,9.051674008369445246e-02,-7.273957729339598777e-02,4.990675404803927018e-01,-6.873564124107360840e-01,-1.291930675506591797e-02,9.772104641774650702e+01,2.489128351211547796e-01
9.755500000000000282e-02,-3.138042260414170437e-03,-1.469104053819306806e-03,1.004037618637084961e+00,9.932126007025627798e-03,-9.467176365987706177e-03,2.935140507579961280e-03,5.287648956693547994e-03,1.342131708352166386e-02,-3.072476712986826897e-03,-6.975072568126040873e-02,-8.159564294873872248e-02,-1.015461399089983702e-01,-1.965101389029481060e-01,1.473719697298241094e-01,-2.060029728868640331e-01,-1.400461971759796032e-01,2.055512666702270508e-01,-2.143614292144775391e-01,5.038016444950280670e-01,-4.274914264678955078e-01,3.812849521636962891e-02,7.767140176957843778e+01,2.489128351211547796e-01
1.248469999999999996e-01,-2.701818817492513715e-03,-2.787034279731689934e-04,1.003866434097290039e+00,4.794645154302130258e-03,-1.217847318668852097e-02,1.380595216981370024e-03,-3.480299347045809257e-03,2.439348866348401562e-02,-1.518223551101982594e-03,-2.345736181315673241e-01,-1.171871221716548617e-01,-5.434568950394457615e-02,-6.181933701493065592e-03,-1.324819053559730397e-01,-2.169851920135935086e-01,7.222759723663329384e-03,-4.794312715530395230e-02,-2.209879159927368164e-01,4.980340238651499440e-01,-7.242543697357177734e-01,-3.482812643051147461e-01,1.625866699464405940e+02,2.489128351211547796e-01
1.498780000000000112e-01,-2.532282840154515685e-03,6.321872995476338596e-04,1.003653883934020996e+00,1.014254418080061127e-04,-1.459805700138017137e-02,1.644270325868887406e-03,-4.954842833736821002e-03,3.214655225765238045e-02,-2.394658746197819710e-03,-2.016305903496225238e-01,-1.634384339883193094e-01,3.904816995872281704e-02,1.955870844458719171e-01,-2.795869827270507924e-01,-2.203523031967386248e-01,1.731682777404785212e-01,-1.795869827270507868e-01,-2.250349760055541937e-01,4.981332648311909139e-01,-7.233592867851257324e-01,1.228338479995727539e-01,8.129198942595381538e+01,2.489128351211547796e-01
1.753949999999999954e-01,-2.551797405718863633e-03,1.641584159423676919e-03,1.003480434417724609e+00,-5.683505585548639244e-03,-1.667988858903646232e-02,2.893035789136876035e-03,-2.460961976769305420e-02,2.201780314987217615e-02,1.255268882960081100e-02,-2.833703310776751194e-01,-1.466716616971887321e-01,4.592817723394521101e-02,2.576781046322663138e-01,-2.859337329864501953e-01,-2.175725666191046237e-01,2.062051534652709905e-01,-1.859337329864501898e-01,-2.255768179893493652e-01,4.968187173446479976e-01,-7.327525019645690918e-01,4.294177293777465820e-01,1.160456789797036805e+02,2.489128351211547796e-01
1.996799999999999964e-01,-2.754392009831237859e-03,2.721160886295843819e-03,1.003348231315612793e+00,-1.090051480875541337e-02,-1.899572922357228855e-02,5.084999010688995465e-03,-7.309388210861453294e-03,4.342496547890168507e-02,-3.107756841927766800e-03,-2.735014944105749746e-01,-8.818205650752389269e-02,1.162107175607385440e-01,3.185554027557372936e-01,-1.887250065803527943e-01,-2.120137265875056132e-01,2.185554027557372880e-01,-8.872500658035277488e-02,-2.260955572128295898e-01,4.981829556521853997e-01,-7.241060733795166016e-01,5.855739116668701172e-02,1.095478263241362384e+02,2.489128351211547796e-01
2.267939999999999956e-01,-3.079086829390930910e-03,4.349243458617575372e-03,1.003392934799194336e+00,-1.553056448533987610e-02,-2.109294015422769064e-02,8.504950796488190343e-03,-2.681732323078109270e-02,2.990726017948143120e-02,2.133362740278244019e-02,-8.474509583710179705e-02,-3.691635012357146611e-02,1.477013717048156760e-01,3.213029146194458230e-01,-3.001028776168823131e-01,-2.007926945446030509e-01,2.213029146194457897e-01,-2.001028776168823076e-01,-2.241826772689819169e-01,4.964461260851673607e-01,-7.166324853897094727e-01,2.251511812210083008e-01,9.085331852805536812e+01,2.489128351211547796e-01
2.501149999999999762e-01,-3.271002537568399801e-03,5.403779736776611123e-03,1.003603339195251465e+00,-1.559716426993512130e-02,-1.987231055799298929e-02,1.070199925525758093e-02,-5.968183703489444818e-03,4.533578828813737693e-02,2.324025519192218781e-02,3.433422351840437897e-02,1.350589426348795252e-01,7.268950242058422329e-02,-1.206877768039703314e-01,1.125707864761352484e-01,2.510273549945045701e-01,-2.206877768039703369e-01,2.125707864761352539e-01,2.213475465774536188e-01,4.969597232918954166e-01,-6.802617907524108887e-01,9.695345163345336914e-01,7.446252425599307401e+01,2.489128351211547796e-01
2.843040000000000012e-01,-3.445038636763217768e-03,6.442881313472639468e-03,1.003929257392883301e+00,-1.366406272548932252e-02,-1.712768352850524423e-02,1.355865733960218145e-02,-1.831254576954052804e-02,2.995265124941367055e-02,2.058442495763301849e-02,1.069806215822532575e-01,1.547031892941247988e-01,1.742120711325514104e-01,-1.235741376876831055e-01,1.223976850509643499e-01,2.616977552679771168e-01,-2.235741376876831110e-01,2.223976850509643555e-01,2.240154147148132324e-01,5.011151439968223320e-01,-4.709608554840087891e-01,2.488180398941040039e-01,6.399453535289651995e+01,2.489128351211547796e-01
3.009479999999999933e-01,-3.289854438864830803e-03,6.812704507791931055e-03,1.004127860069274902e+00,-1.160253148344805342e-02,-1.520497668853426632e-02,1.475086628598153322e-02,-1.512202521272946500e-02,2.527805200364659916e-02,3.517398610711097717e-02,1.763157935878922333e-01,1.506384087145399286e-01,1.166530206673371262e-01,-1.163761116740441859e-01,1.241363286972045898e-01,2.653092936277791081e-01,-2.132369399070739580e-01,2.241363286972045954e-01,2.242062091827392578e-01,4.988704175055219681e-01,-5.280270576477050781e-01,2.889152765274047852e-01,-2.829206763663476210e+01,2.489128351211547796e-01
3.232079999999999953e-01,-3.047567269912943282e-03,7.494296032821449668e-03,1.004573106765747070e+00,-6.114579588819146413e-03,-1.084395285775729967e-02,1.752424591272647506e-02,-1.759855048334386680e-03,4.643783596172180311e-02,2.750913426280021667e-02,3.344502160909129107e-01,2.716351197331597356e-01,1.679802655196322159e-01,-1.287681210927949516e-01,1.509476978556031634e-01,2.722065192011329238e-01,-2.083871304988861028e-01,2.227393984794616699e-01,2.231385290622711071e-01,4.986776094733006426e-01,-5.652186870574951172e-01,4.262055158615112305e-01,8.762291908839530663e+01,2.489128351211547796e-01
3.528649999999999842e-01,-2.604381099462707832e-03,8.546699852881445639e-03,1.005250811576843262e+00,2.800511124816557149e-03,-4.421224326278450079e-03,1.950011609887072894e-02,-6.479141196108947551e-03,3.564295726740494136e-02,3.440706059336662292e-02,2.863287403552499666e-01,1.661985953501048663e-01,-1.368434607219453161e-02,-1.886531787982217157e-01,1.862436561886390562e-01,2.758321152138619725e-01,-1.995190858840942272e-01,2.217567265033721924e-01,2.211759209632873369e-01,4.978755104887047089e-01,-5.750321745872497559e-01,6.179772615432739258e-01,1.148080077209623511e+02,2.489128351211547796e-01
3.787479999999999736e-01,-2.326640817326032853e-03,9.325283707784863887e-03,1.005560517311096191e+00,6.687897409714499246e-03,-1.872879354685608178e-03,1.847340753216083695e-02,1.197824605966061294e-03,5.172834127665378728e-02,2.012326568365097046e-02,1.119213828748832490e-01,1.301126216392277102e-01,-6.902159501060707580e-02,-2.184362589763686191e-01,2.101710458642977730e-01,2.729977407419907909e-01,-2.192877531051635742e-01,2.216970205307006725e-01,2.212376117706298662e-01,5.017513863687137476e-01,-4.263737797737121582e-01,3.934880495071411133e-01,8.975396543019596152e+01,2.489128351211547796e-01
4.006819999999999826e-01,-2.108137019053399428e-03,1.017352814887957993e-02,1.005705237388610840e+00,8.391298522101886190e-03,-1.551080285368655609e-03,1.682547814728453314e-02,-4.838160854936044038e-03,4.424875476823708631e-02,2.241493389010429382e-02,6.741716306556175264e-02,-4.718559592209498055e-02,-8.852227700513611020e-02,1.957763744364067193e-01,1.980692287114994010e-01,1.678288184886163603e-01,2.136083364486694169e-01,2.135700523853301946e-01,1.206698298454284557e-01,4.990124851049689836e-01,-5.586528182029724121e-01,2.008270025253295898e-01,8.246892664259539174e+01,2.489128351211547796e-01
4.236770000000000258e-01,-1.906328338964353867e-03,1.133100628784275768e-02,1.005801320075988770e+00,8.143471986643476337e-03,-2.418571706716887704e-03,1.488446839111704292e-02,-1.409086597584136881e-02,5.241528443377658358e-02,9.401634335517883301e-03,-4.886960874259686782e-02,-7.935770362107005815e-02,-7.488907031855530916e-02,-1.557719829423950472e-02,1.628698573115875403e-01,-1.767631962789969480e-01,-7.991230487823486675e-03,1.905114054679870605e-01,-2.185306549072265625e-01,4.997201349413498139e-01,-5.720877051353454590e-01,1.160484671592712402e+00,-5.844998415261880353e+00,2.489128351211547796e-01
4.509949999999999792e-01,-1.743652902308417052e-03,1.349209031040536286e-02,1.005600214004516602e+00,5.564913559424804548e-03,-5.649517735674347563e-03,1.154996192464265332e-02,-1.192811400198436761e-02,5.543462194678531324e-02,5.189158488065004349e-03,-7.891167948753498307e-02,-1.613341749080026144e-01,-1.387198104971145152e-01,1.861065514952552902e-01,1.111730656714179227e-01,-1.879848232171480726e-01,1.742293596267700251e-01,1.568050503730773759e-01,-2.204527616500854548e-01,4.992403971149156350e-01,-6.141102313995361328e-01,4.463905096054077148e-01,9.193703049271543648e+01,2.489128351211547796e-01
4.727899999999999880e-01,-1.645704599089517581e-03,1.496923794514235309e-02,1.005365729331970215e+00,2.618828734292127664e-03,-8.541752026806070930e-03,9.251088443382467219e-03,-1.359819345591852663e-02,5.557975695237214048e-02,-4.120061639696359634e-03,-1.781378352143736521e-01,-1.611497817687010947e-01,-8.467658617125380094e-02,1.468979883096932781e-01,-1.553753103853026396e-01,-1.963908373877392421e-01,1.151418685913085938e-01,-8.916413784027099609e-02,-2.224386692047119196e-01,4.989169717368053814e-01,-6.686720848083496094e-01,1.431764364242553711e-01,4.292978116009197720e+01,2.489128351211547796e-01
4.991599999999999926e-01,-1.577953034685695500e-03,1.729698367189825073e-02,1.004799365997314453e+00,-1.806485045844846184e-03,-1.427207849549416707e-02,5.632251505934899455e-03,-3.192596277546116534e-03,7.044201937559248228e-02,5.956700188107788563e-04,-9.699800297446904696e-02,-1.930456767535177476e-01,-1.300019891670097794e-01,2.876586152173288835e-01,-2.417533252858548587e-01,-2.085530788946600156e-01,2.133859634399414007e-01,-1.468460440635681041e-01,-2.244833707809448242e-01,5.007233471762877475e-01,-5.577939152717590332e-01,2.908562421798706055e-01,8.982064173687362540e+01,2.489128351211547796e-01
5.252419999999999867e-01,-1.719691995773235107e-03,1.925165034860506011e-02,1.004307031631469727e+00,-3.245070352144447789e-03,-2.114948990110243621e-02,4.359583440890505736e-03,-2.354703742929131413e-02,5.574300126277433043e-02,1.108840294182300568e-02,1.804988042756268743e-02,-2.496461317190912521e-01,6.459930824632819507e-03,2.866669067314295827e-01,-2.684556722640991100e-01,-2.100037227620586144e-01,2.154672861099242998e-01,-1.684556722640991044e-01,-2.223623514175414873e-01,4.966243097360706349e-01,-7.314102053642272949e-01,-1.492253541946411133e-01,4.280647233991114575e+01,2.489128351211547796e-01
5.485060000000000491e-01,-1.945291479532997980e-03,2.043939997463755168e-02,1.003948330879211426e+00,-3.325492582590396703e-03,-2.499689808607530317e-02,5.527060734195834643e-03,-2.407912832824703545e-02,6.492771829350237056e-02,9.261419763788580894e-04,-1.033483996572967566e-03,-1.448114192430019487e-01,8.310820891538761579e-02,2.986416097501667921e-01,-2.998028993606567383e-01,-2.097912149148786765e-01,2.164400696754455455e-01,-1.998028993606567327e-01,-2.255000352859496959e-01,4.981847140610798919e-01,-6.916086673736572266e-01,7.753127813339233398e-01,-1.231166459783377150e+02,2.489128351211547796e-01
5.758010000000000073e-01,-2.383979315938843276e-03,2.229450188009511266e-02,1.003540277481079102e+00,-1.142935286916372476e-03,-3.024728944251320328e-02,8.284456992378740753e-03,-2.310127973286348405e-02,6.789256765320826614e-02,4.146079532802104950e-03,1.357315557561296071e-01,-1.587548270212722212e-01,1.219025056618540659e-01,2.901453684967915114e-01,-2.920453071594238392e-01,-1.938165888267037729e-01,2.196738481521606501e-01,-1.920453071594238337e-01,-2.174073457717895508e-01,4.985920257676325074e-01,-6.589149832725524902e-01,3.394488096237182617e-01,7.741529699645963092e+01,2.489128351211547796e-01
5.979560000000000430e-01,-2.703620767364552438e-03,2.353853773442728115e-02,1.003349900245666504e+00,8.315083825805081891e-04,-3.136616795414148839e-02,1.024820223690765635e-02,-3.529650302761827563e-02,6.094386778510024055e-02,1.400026772171258926e-02,8.911099518363424510e-02,-3.889281371983182439e-02,9.013835889550812774e-02,2.662734430751075854e-01,-3.067279338836669811e-01,1.221050564753227846e-01,2.134614944458007868e-01,-2.067279338836669755e-01,9.292219877243042270e-02,4.988393555211463326e-01,-6.069313883781433105e-01,2.973306179046630859e-02,1.829546492212554654e+02,2.489128351211547796e-01
6.234169999999999989e-01,-2.706649801593536981e-03,2.500982997045270162e-02,1.003122448921203613e+00,6.521856050379679949e-03,-2.938009963789145473e-02,1.383294474717958362e-02,-2.133663437876705607e-02,5.793384651948087910e-02,1.590202189981937408e-02,2.403993825281504071e-01,1.027522188611691561e-01,1.263822975271022553e-01,-1.102449037005584914e-01,1.245285212993621771e-01,2.617721496905306422e-01,-1.257391691207885576e-01,2.245285212993621826e-01,2.223571300506591852e-01,5.001121509260023634e-01,-5.326844453811645508e-01,2.445217370986938477e-01,9.302581728792883098e+01,2.489128351211547796e-01
6.508829999999999893e-01,-2.403123777832454327e-03,2.621455646608854273e-02,1.002957940101623535e+00,1.492857074637926433e-02,-2.279252237142648241e-02,1.765540011822579192e-02,-1.680440091925467991e-02,6.609888801599875241e-02,3.257805074099451303e-04,2.635778848311001177e-01,3.178878473502574353e-01,1.541596266254584846e-01,-2.532651871384674624e-01,1.046119749546050859e-01,2.707916080777525991e-01,-2.220753908157348522e-01,2.046119749546050914e-01,2.204895079135894831e-01,4.991912271128202683e-01,-6.430668830871582031e-01,1.921523809432983398e-01,-4.893828405880020327e+00,2.489128351211547796e-01
6.722430000000000350e-01,-2.254129191368370051e-03,2.694389640106915895e-02,1.002911686897277832e+00,2.180791007512647081e-02,-1.722629709628353822e-02,2.026990463222017036e-02,-2.775221446167523004e-02,4.697660012091645770e-02,1.769781112670898438e-02,3.633450448175023495e-01,3.012949169941377403e-01,1.228751661669175294e-01,-3.131915614287464344e-01,1.048384249210357611e-01,2.781939403280284662e-01,-2.218039870262145941e-01,2.048384249210357666e-01,2.205863177776336559e-01,4.986504291309411530e-01,-6.015441417694091797e-01,-2.828384637832641602e-01,1.103567802690542123e+02,2.489128351211547796e-01
6.987799999999999567e-01,-1.916626286200180575e-03,2.790222860588116929e-02,1.002711415290832520e+00,3.200929651380614999e-02,-7.395035026459551020e-03,2.226361162897764687e-02,-8.374371326741297458e-03,5.272170901550215366e-02,6.933147553354501724e-03,3.003429940213799276e-01,3.765652185385321982e-01,-2.978106209651760258e-03,-3.233393907546996959e-01,1.335109817328248571e-01,2.806214501600696742e-01,-2.233393907546996904e-01,1.850018799304962158e-01,2.178239464759826605e-01,5.010879372569317924e-01,-5.169119238853454590e-01,2.246900796890258789e-01,8.812508142636382047e+01,2.489128351211547796e-01
7.290429999999999966e-01,-1.565279582337479819e-03,2.900481964157120701e-02,1.002414941787719727e+00,4.087834028254557633e-02,8.815300236841849824e-04,2.128363983844313786e-02,-2.295733355136520340e-02,3.219343407837363391e-02,4.501580726355314255e-03,2.225227353889342730e-01,1.808034580477518583e-01,-2.642493522514846593e-02,-3.235978484153747559e-01,1.582899984863577469e-01,2.831861632450736188e-01,-2.235978484153747503e-01,1.706171929836273193e-01,2.234636306762695368e-01,4.983649892609773868e-01,-6.695225834846496582e-01,9.745312929153442383e-01,-3.830799961574038459e+00,2.489128351211547796e-01
7.518890000000000295e-01,-1.423193832101790363e-03,2.981457916129011051e-02,1.002128243446350098e+00,4.392923136544645002e-02,4.002229149782099427e-03,1.930008417922250696e-02,-1.727458721272878001e-02,4.158578283185531549e-02,-2.961403690278530121e-03,9.322308858388685116e-02,1.585882378100753887e-01,-1.307150209005756847e-01,-3.241325557231903298e-01,2.160411852754158535e-01,2.766615457649039822e-01,-2.241325557231902965e-01,2.012155294418334905e-01,2.227841734886169267e-01,4.997462953504570038e-01,-6.281660199165344238e-01,6.720268726348876953e-02,1.751921392295359681e+02,2.489128351211547796e-01
7.740639999999999743e-01,-1.362020397032382693e-03,3.061954299684150477e-02,1.001728057861328125e+00,4.348914313013466787e-02,4.721062264888997717e-03,1.757687975397505958e-02,-1.327661424659895215e-02,4.168631382154194126e-02,-6.156472023576498032e-03,-6.056814116272513787e-02,-6.778441184064929598e-03,-9.634246334906607090e-02,-3.230484962463379128e-01,2.392885984212829165e-01,8.379295890446325501e-02,-2.230484962463378795e-01,2.176041662693023737e-01,3.481553792953490795e-02,5.022951931074070009e-01,-5.089526176452636719e-01,5.142223834991455078e-02,-3.937505018769385856e+01,2.489128351211547796e-01
8.003770000000000051e-01,-1.212079634833688893e-03,3.186300004826291693e-02,1.001054406166076660e+00,3.800573186290775313e-02,4.122605367419041045e-03,1.416473362214020273e-02,-1.111286789237713596e-02,4.133620933628537331e-02,-1.293576601892709732e-02,-2.787100570194486204e-01,-3.508127879749498024e-02,-1.546077389167683780e-01,-3.231358468532562478e-01,2.116860371716169920e-01,2.251631523286142522e-01,-2.231358468532562145e-01,1.931203365325927790e-01,1.856841802597045954e-01,5.010752605875689047e-01,-6.030096411705017090e-01,-3.267139196395874023e-01,7.406366852922101884e+01,2.489128351211547796e-01
8.264350000000000307e-01,-1.830043265960335517e-03,3.416617465184203922e-02,1.000211834907531738e+00,2.911807621033993959e-02,1.093540250981295259e-03,1.087794899466087810e-02,-1.089900967193314918e-02,3.694118974190314930e-02,-2.149699814617633820e-02,-3.237629013043660797e-01,-1.273950504492640523e-01,-9.197094356375812296e-02,-3.203802883625030407e-01,1.833651511195704686e-01,3.419962175248038305e-02,-2.203802883625030351e-01,1.855088710784912054e-01,3.722476959228515365e-03,5.013906386615605282e-01,-6.246432662010192871e-01,3.344808816909790039e-01,1.005662163580286830e+02,2.489128351211547796e-01
8.481499999999999595e-01,-2.463990411634803170e-03,3.595714555451894751e-02,9.995654225349426270e-01,2.289809114766721762e-02,-1.843722932205693610e-03,8.310472212468814415e-03,-1.751796861640656303e-02,3.419061093509326993e-02,-1.729292050004005432e-02,-3.129428032082366418e-01,-1.576201099580958609e-01,-1.311751215732579467e-01,-3.119131300877787671e-01,1.557185817736186917e-01,-1.472171364232424395e-01,-2.146213710308075007e-01,1.830686688423156794e-01,-1.706692099571227861e-01,5.013114108856209228e-01,-6.156600713729858398e-01,2.566546201705932617e-01,1.860103255917574359e+02,2.489128351211547796e-01
8.739529999999999799e-01,-3.436936197030501534e-03,3.851798614440229973e-02,9.985868334770202637e-01,1.375990312220791260e-02,-7.081354036840181720e-03,6.057851907040927124e-03,-1.863089521071564780e-02,4.078889758438587754e-02,-3.271441161632537842e-02,-2.943818595488412737e-01,-1.742559580440185552e-01,-4.035329430325265004e-02,-1.991443846912419602e-01,-1.301675381594295522e-01,-2.009754798147931065e-01,-1.685631036758422907e-01,-6.801999807357787808e-02,-2.182436227798461859e-01,5.007628222458534450e-01,-7.110812067985534668e-01,-7.218825817108154297e-02,1.159845624470104042e+02,2.489128351211547796e-01
8.992759999999999643e-01,-4.385931327595239161e-03,4.104086227252468771e-02,9.976809024810791016e-01,4.375384186805286908e-03,-1.316103411739533158e-02,3.643392873190931525e-03,-1.836614949010494449e-02,3.750103846537297669e-02,-2.177080139517784119e-02,-3.105059744791820453e-01,-2.198324948957461611e-01,-8.233341720344937442e-02,1.199635480878754185e-01,-3.039139747619629128e-01,-2.129949078001758256e-01,9.120998382568358542e-02,-2.039139747619628795e-01,-2.234866619110107422e-01,5.000848518603020487e-01,-7.081041336059570312e-01,7.897185087203979492e-01,1.208237924550994649e+02,2.320969343185424749e-01
9.257549999999999946e-01,-5.696600026469215289e-03,4.300131488501070937e-02,9.967082738876342773e-01,-5.489698809148635568e-03,-1.964151144100867441e-02,3.081924068374168948e-03,-1.911863797132898682e-02,4.336131101383750713e-02,-2.365054748952388763e-02,-3.259415315243187061e-01,-2.264227989185060297e-01,-6.270279268640293301e-03,3.081710420283818586e-01,-3.046995401382446289e-01,-2.175567341304517899e-01,2.086474299430847168e-01,-2.046995401382446234e-01,-2.263222932815551758e-01,5.000261885081802582e-01,-7.239702343940734863e-01,-9.995567798614501953e-02,9.637101171696930635e+01,2.320969343185424749e-01
9.479189999999999561e-01,-6.637561282353575572e-03,4.437247814591335771e-02,9.960549473762512207e-01,-1.191641762529497758e-02,-2.338391730999123119e-02,4.419698728407365357e-03,-3.171269603559712796e-02,4.561688520970816341e-02,-2.552232332527637482e-02,-2.936856433269062761e-01,-1.970653912649698858e-01,1.031471761197878673e-01,3.210361242294311745e-01,-3.018664121627807617e-01,-2.148400191914703605e-01,2.210361242294311412e-01,-2.018664121627807562e-01,-2.271456956863403265e-01,5.001943416179348567e-01,-7.267798185348510742e-01,-5.154728889465332031e-03,1.308233806452948897e+02,2.320969343185424749e-01
9.742899999999999894e-01,-8.076589072031292726e-03,4.653181940391906690e-02,9.952198863029479980e-01,-2.020142438277054350e-02,-2.626701229905337165e-02,7.269746372308716516e-03,-2.079453815405706354e-02,5.991318081520730782e-02,-2.049784548580646515e-02,-2.318360541391952523e-01,-2.689733876568787749e-02,1.051290843673469699e-01,3.238176107406616211e-01,-2.468005180358886774e-01,-2.064558782685668448e-01,2.238176107406616155e-01,-1.468005180358886719e-01,-2.264792561531066839e-01,4.998433537988385966e-01,-7.301601767539978027e-01,-3.458944559097290039e-01,1.038431567066932075e+02,2.320969343185424749e-01
9.993490000000000428e-01,-9.431242652766375079e-03,4.874480192668353973e-02,9.945712685585021973e-01,-2.390416245006609167e-02,-2.370490744472886213e-02,1.081032323647964505e-02,-3.543080152918561682e-02,5.052286973135232395e-02,-1.373387128114700317e-02,-3.142887241491535560e-02,1.487411344361139753e-01,8.863476520176168105e-02,-4.592851400375363990e-02,1.033004820346832275e-01,2.525840073543622610e-01,-1.459285140037536455e-01,2.033004820346832331e-01,2.228420734405517634e-01,4.996698470573438522e-01,-7.159541249275207520e-01,1.672807931900024414e-01,8.249663672005813453e+01,2.320969343185424749e-01
1.027130000000000098e+00,-1.039500170791194181e-02,5.079712788593799405e-02,9.941966533660888672e-01,-2.081800776025149666e-02,-1.747763531116208746e-02,1.469687506112140295e-02,-1.647651623848853802e-02,5.486841877129989414e-02,-8.112319745123386383e-03,2.089146771885857512e-01,2.310941963818580469e-01,1.042137218779124602e-01,1.556281566619873158e-01,1.178502678871154730e-01,2.590258785912087358e-01,5.562815666198730330e-02,2.178502678871154785e-01,2.181259810924529863e-01,4.996560835415662094e-01,-6.966707110404968262e-01,8.422175645828247070e-01,-4.853162313335411149e+00,2.320969343185424749e-01
1.054589999999999916e+00,-1.100441243595565513e-02,5.217746834885605284e-02,9.940721988677978516e-01,-1.587428330285245090e-02,-1.199157939764750047e-02,1.767904112729152058e-02,-3.758887035383277897e-02,4.942066171263410912e-02,-9.152609854936599731e-03,2.467402934418206906e-01,3.042924654652314209e-01,1.812142817686319962e-01,-1.275137662887572410e-02,1.180217683315276933e-01,2.694885650220216200e-01,-1.127513766288757296e-01,2.180217683315276989e-01,2.200998365879058838e-01,5.003115635900416969e-01,-6.678327322006225586e-01,-7.514011859893798828e-02,5.824206807164173938e+01,2.320969343185424749e-01
1.073973999999999984e+00,-1.128674886057129401e-02,5.286537286145713554e-02,9.940210580825805664e-01,-1.274469827473320022e-02,-9.067763243438164977e-03,1.859218209217104734e-02,-2.245639516771730584e-02,5.225589032386430965e-02,-8.878260850906372070e-03,2.230421451885937489e-01,3.060820043069539809e-01,7.862749730099338752e-02,2.404570579528919616e-04,1.349916553676582531e-01,2.698339480362453857e-01,-9.975954294204711359e-02,2.157161593437194880e-01,2.177898466587066539e-01,4.998764718092469916e-01,-6.904035210609436035e-01,-1.740525960922241211e-01,4.975935219798483899e+01,2.320969343185424749e-01
1.101723999999999926e+00,-1.211481789859247815e-02,5.493587750247386214e-02,9.939149618148803711e-01,-4.039261059853452643e-03,-2.257150226274928784e-03,1.824556303935799886e-02,-2.250653632457151609e-02,6.116173194180287570e-02,-1.532761100679636002e-02,2.394288302998281159e-01,1.772140707477584121e-01,-1.075890037805040354e-02,6.478996276855469860e-02,1.816800494955495282e-01,2.700199070456376083e-01,-3.521003723144531389e-02,2.206758677959441972e-01,2.188534319400787242e-01,5.020845584218603941e-01,-6.019458770751953125e-01,-5.021340847015380859e-01,9.731034714295364552e+01,2.320969343185424749e-01
1.124546000000000046e+00,-1.263536871407874851e-02,5.625812499087048252e-02,9.937642812728881836e-01,1.763504058543980259e-04,-3.998652168066829660e-04,1.662798892809755694e-02,-3.135401456319800856e-02,6.427630274425220891e-02,-5.692386068403720856e-03,1.483255687482583351e-01,3.381558626055036071e-02,-8.888372533847402335e-02,2.529522632067158772e-01,1.897297246238616175e-01,2.690381940577892816e-01,1.649381518363952637e-01,2.242735862731933538e-01,2.223747968673706055e-01,5.057309933616790376e-01,-3.732733726501464844e-01,-3.097680807113647461e-01,9.968912444595066802e+01,2.320969343185424749e-01
1.148625000000000007e+00,-1.319235887112297535e-02,5.745689209551255172e-02,9.933748245239257812e-01,3.216849548525918621e-03,-2.460493256319917776e-04,1.522949664727472202e-02,-2.115246396756751551e-02,7.479042003779613756e-02,-2.209234796464443207e-02,1.672663749350163098e-01,-4.530179075254250898e-02,-6.801969601442495184e-02,2.940912818526875139e-01,1.960517332105764787e-01,-9.627923997403939338e-02,2.171244621276855469e-01,2.203901767730712946e-01,-1.390203595161438044e-01,5.062453783284087683e-01,-4.141023159027099609e-01,1.522071242332458496e+00,-6.426627442902547216e+01,3.044142484664916770e-01
1.174565000000000081e+00,-1.375931544712817242e-02,5.870979881970607439e-02,9.928747415542602539e-01,4.772189816480146111e-03,-1.286393762710114075e-03,1.339229911635481628e-02,-3.643164542401045036e-02,6.343778644633586705e-02,-2.681021578609943390e-02,5.517161093170298153e-02,-5.097546588503784615e-02,-9.883669551963765454e-02,2.770594150527870281e-01,1.753226200271504887e-01,7.138575440805944305e-02,2.196413040161132868e-01,2.208761036396026667e-01,3.370526432991027832e-02,5.059783104749333571e-01,-4.503353834152221680e-01,-3.993955850601196289e-01,1.860017332137815629e+02,3.044142484664916770e-01
1.198344999999999994e+00,-1.432031947359766258e-02,5.998417617676766317e-02,9.923783540725708008e-01,5.937789939142861309e-03,-3.408754154417215076e-03,1.144857760856191758e-02,-2.666895713188432299e-02,7.469218000946384328e-02,-2.556457929313182831e-02,5.550916882415841275e-02,-1.269436341511018529e-01,-1.169133436399329845e-01,2.802410752676449679e-01,1.695539258873776933e-01,-8.646965786579989544e-02,2.186176657676696666e-01,2.193667709827422929e-01,-1.187572002410888644e-01,5.047336740833674451e-01,-5.150511860847473145e-01,9.432214498519897461e-01,7.887164359166808936e+01,3.044142484664916770e-01
1.224861999999999895e+00,-1.518003454515503420e-02,6.190102176948570484e-02,9.916544556617736816e-01,8.453786738364357095e-03,-7.459257083261006116e-03,8.178593039603755666e-03,-2.383698556728878690e-02,6.760476684712465878e-02,-2.594774588942527771e-02,9.542003390684399011e-02,-1.678237708571098386e-01,-1.445934885724775576e-01,2.575637267304239364e-01,1.412199197089177294e-01,-1.255963602398395829e-01,2.180963516235351618e-01,2.174753487110137884e-01,-1.488755464553832841e-01,5.046896162221359283e-01,-5.232269167900085449e-01,6.647247076034545898e-01,8.948481499576244858e+01,3.044142484664916770e-01
1.251659000000000077e+00,-1.668315063532216716e-02,6.450602194283391877e-02,9.908787608146667480e-01,1.336238990630396473e-02,-1.235420370284701086e-02,7.536435718995772824e-03,-3.642415914394903781e-02,6.977810869107825553e-02,-3.238827362656593323e-02,1.756762640360019778e-01,-1.483367039459728143e-01,7.711851266410149619e-02,2.280599701964544923e-01,8.363384604454038307e-02,-1.921981480040052537e-01,2.157793521881103405e-01,1.836338460445403886e-01,-2.140390276908874512e-01,5.032974818028357333e-01,-6.274765729904174805e-01,1.021675705909729004e+00,9.732742944606785329e+01,3.044142484664916770e-01
1.273541000000000034e+00,-1.774332624973127756e-02,6.618363988267565723e-02,9.904720187187194824e-01,1.835943310847557020e-02,-1.598138877510213440e-02,7.722683654083719630e-03,-3.147070854010528690e-02,6.323963028662403507e-02,-2.703845128417015076e-02,3.043830372488623426e-01,-1.850906434206766593e-01,-2.649486046878923168e-02,1.926430941052591495e-01,8.270308375358581543e-02,-1.844150602826592766e-01,2.168496251106262207e-01,1.827030837535858210e-01,-2.070226907730102484e-01,5.031496724730486481e-01,-6.173123717308044434e-01,-1.603606939315795898e-01,4.492015634084163267e+00,3.044142484664916770e-01
1.300597000000000003e+00,-1.939488048438263446e-02,6.849902184382901382e-02,9.899445772171020508e-01,2.651843480650345475e-02,-2.163230735532239990e-02,8.890017888246757455e-03,-4.452797522786498818e-02,5.695924295170317481e-02,-1.546607632189989090e-02,2.805801178697229226e-01,-1.731723952169355873e-01,4.885853883905972445e-02,1.362501945279177007e-01,-2.066808938980102539e-01,-1.820408058219003256e-01,2.154068827629089244e-01,-1.066808938980102484e-01,-2.085829138755798395e-01,5.011755298684484883e-01,-6.787610650062561035e-01,9.575592279434204102e-01,1.083493193700957562e+02,3.044142484664916770e-01
1.323312000000000044e+00,-2.058433102665848877e-02,6.995668461035503549e-02,9.896658062934875488e-01,3.245781691424182158e-02,-2.525517558215262248e-02,1.044208211953425586e-02,-3.412124247154025430e-02,5.961574826621780787e-02,-3.058325126767158508e-02,3.167413823338474099e-01,-1.539057246807220836e-01,1.100338690597864877e-01,9.657602310180662952e-02,-2.887773752212524636e-01,-1.239119800798853532e-01,1.965760231018066351e-01,-1.887773752212524303e-01,-1.552061319351196178e-01,5.022237125647557310e-01,-6.866190433502197266e-01,-3.654180765151977539e-01,9.974996094088797349e+01,3.044142484664916770e-01
1.353051999999999921e+00,-2.245788552451429346e-02,7.197986952631656166e-02,9.892651438713073730e-01,4.135160602069132274e-02,-2.962211573804474085e-02,1.354481069884846262e-02,-5.905178232244849557e-02,4.134420863406507857e-02,-1.934167742729187012e-02,3.068663751319543054e-01,-1.358600104250171359e-01,1.405796937556440807e-01,-2.785826563835144265e-01,-3.103604674339294212e-01,2.154290786031230198e-01,-1.785826563835143932e-01,-2.103604674339294434e-01,1.745531380176544023e-01,5.018782402790870067e-01,-6.634149551391601562e-01,1.329326510429382324e+00,-7.999027831355444107e+01,3.044142484664916770e-01
1.374392000000000058e+00,-2.377360509741474962e-02,7.320234659201281524e-02,9.890413880348205566e-01,4.684020517471903372e-02,-3.161772108131866155e-02,1.603151712608380519e-02,-4.740247563725158431e-02,5.092198237568201780e-02,-2.396120876073837280e-02,2.108982181517032040e-01,-2.964493727426255679e-02,1.141380338718724352e-01,-3.199764728546142800e-01,-3.055849194526672474e-01,2.703860126981579848e-01,-2.199764728546142467e-01,-2.055849194526672419e-01,2.221465945243835394e-01,5.008827300790067438e-01,-7.366614341735839844e-01,-3.764914274215698242e-01,1.002856253567353946e+02,3.044142484664916770e-01
1.400700999999999974e+00,-2.584573411406072482e-02,7.478182345280283416e-02,9.886292219161987305e-01,5.403968417933917301e-02,-3.348242665940870388e-02,2.067822959029567975e-02,-5.898462879528223318e-02,2.530796051784112502e-02,-2.973782643675804138e-02,2.101802374022995190e-01,-4.168669954997339389e-02,1.879431092188463548e-01,-3.218367993831634521e-01,-3.136432766914367676e-01,2.868897046293515940e-01,-2.218367993831634466e-01,-2.136432766914367620e-01,2.250828981399536077e-01,5.013594557798560780e-01,-7.377222180366516113e-01,-2.310615777969360352e-01,4.024112841973523302e+01,3.044142484664916770e-01
1.422252000000000072e+00,-2.720432040561102105e-02,7.566128100921137856e-02,9.883003830909729004e-01,5.758111209457877216e-02,-3.223909406029834557e-02,2.341486658543209115e-02,-5.510822678193307012e-02,2.854674852553817921e-02,-3.223718330264091492e-02,1.517018834878379185e-01,1.664364440539468637e-01,1.200510711612315234e-01,-3.245472073554992454e-01,-1.346646547317504883e-01,2.882630340509663158e-01,-2.245472073554992676e-01,-3.466465473175048967e-02,2.187019050121307429e-01,5.021275101762355808e-01,-7.109303474426269531e-01,-4.415973424911499023e-01,8.841397793768784652e+01,3.044142484664916770e-01
1.449710000000000054e+00,-2.882060922507507020e-02,7.722533276209499198e-02,9.875864386558532715e-01,6.085539001467026726e-02,-2.698609589985156987e-02,2.597100895098861800e-02,-5.023667214348913335e-02,1.267302176297962352e-02,-4.132667183876037598e-02,3.247235720386560526e-02,2.039033448846072072e-01,4.031070222435891720e-02,-3.234294593334198220e-01,-1.262789964675904708e-02,2.917590126644382109e-01,-2.234294593334197887e-01,8.737210035324095847e-02,2.155235409736633301e-01,5.037396010556194348e-01,-6.671540141105651855e-01,-2.433949708938598633e-01,9.942150397389121963e+01,3.044142484664916770e-01
1.476042000000000076e+00,-3.007605468804631921e-02,7.882439772465824057e-02,9.865146875381469727e-01,5.876980903409270013e-02,-1.816924562357824513e-02,2.556699536529949759e-02,-4.404433599276603994e-02,1.756123312851663731e-02,-5.263101682066917419e-02,-1.527887642237184262e-01,2.974864105562641248e-01,-3.674756557262365969e-02,-3.240402877330780251e-01,8.099882602691649280e-02,2.834791555604933011e-01,-2.240402877330779918e-01,1.809988260269164984e-01,2.093413174152374268e-01,5.081612819180197915e-01,-4.859645366668701172e-01,4.881175756454467773e-01,8.895410929725245808e+01,3.044142484664916770e-01
1.501819999999999933e+00,-3.089646663863900369e-02,7.976640588052227865e-02,9.856101274490356445e-01,5.470306383015506591e-02,-1.121659167101918264e-02,2.456583423640372466e-02,-4.632639288952178358e-02,1.061005398672846753e-02,-7.078549265861511230e-02,-2.421027711336001254e-01,3.421935910961978466e-01,-5.136733379445609926e-02,-3.236488282680511364e-01,9.151510596275327925e-02,2.790619318755178657e-01,-2.236488282680511308e-01,1.915151059627532848e-01,2.084938645362854059e-01,5.109567039267433053e-01,-4.169539213180541992e-01,3.115648031234741211e-01,-7.531577197767857967e+01,3.044142484664916770e-01
1.529298999999999964e+00,-3.174910735074126106e-02,8.054478240625569108e-02,9.845329523086547852e-01,4.907218292162443540e-02,-4.937966624220191392e-03,2.330807638450906050e-02,-5.656123649601648568e-02,-3.586420713855367065e-03,-6.457072496414184570e-02,-3.101787486444181341e-01,3.016454981469658958e-01,-7.470331446039148171e-02,-3.231691241264343373e-01,1.075646756403966092e-01,2.787905140646253499e-01,-2.231691241264343317e-01,2.013407170772552324e-01,2.123373627662658580e-01,5.096148715405115492e-01,-4.719530344009399414e-01,-6.938194632530212402e-01,1.340816540869577693e+02,3.044142484664916770e-01
1.574416000000000038e+00,-3.217940352807665411e-02,8.087945668951242173e-02,9.839335680007934570e-01,4.596192591622035722e-02,-2.173795537716349813e-03,2.276094742446871377e-02,-5.713880511570696569e-02,-2.804207628260639660e-03,-7.175476849079132080e-02,-3.082009034026785277e-01,2.491532277463001099e-01,-7.655427896187874670e-02,-3.226087391376495361e-01,1.245978222152461651e-01,2.786927169881929234e-01,-2.226087391376495306e-01,1.999532461166381725e-01,2.140471637248992920e-01,5.084854985829694307e-01,-5.670897364616394043e-01,-4.183586835861206055e-01,7.084941565675886466e+01,3.044142484664916770e-01
1.608300000000000063e+00,-3.264651355057802962e-02,8.118158286023112458e-02,9.833307862281799316e-01,4.255972609433638504e-02,1.255115056428834919e-04,2.215238457740378170e-02,-4.612685366193593900e-02,-4.358288232549434663e-04,-7.598159462213516235e-02,-3.494397481526926308e-01,2.199038121976793492e-01,-5.671523042633985767e-02,-3.209182143211364857e-01,1.476629113021853401e-01,2.779093340915995691e-01,-2.209182143211364802e-01,1.999267637729644775e-01,2.152810156345367487e-01,5.082282308613661481e-01,-6.042882204055786133e-01,-2.947884798049926758e-01,9.921784822340895005e+01,3.044142484664916770e-01
1.629488999999999965e+00,-3.619885523526140958e-02,8.377369889916996826e-02,9.807704091072082520e-01,2.992250003056762947e-02,4.961111288416475418e-03,1.863852838064287282e-02,-5.639791085009020905e-02,-9.538628068891061643e-03,-7.017801702022552490e-02,-2.807574618759679508e-01,3.985052177961306147e-02,-1.166479039848041660e-01,-3.212376654148101918e-01,1.745921201966054159e-01,2.626329638773625685e-01,-2.212376654148101862e-01,2.084590494632720947e-01,2.101550638675689642e-01,5.068874286000010221e-01,-6.671032905578613281e-01,-3.277651071548461914e-01,8.055760065620486898e+01,3.044142484664916770e-01
1.651113999999999971e+00,-3.885930298831187513e-02,8.542585774012255440e-02,9.788667559623718262e-01,2.022917669357017501e-02,4.671308076460656267e-03,1.585280775524076230e-02,-4.442840973465687210e-02,-1.014138047966191974e-02,-7.956241816282272339e-02,-3.744484465534969053e-01,-1.049354211830689533e-02,-9.181726332005063496e-02,-2.761649914880215939e-01,1.769391473475701027e-01,2.335415742652558468e-01,-2.091189086437225397e-01,2.039716601371765192e-01,1.889770209789276012e-01,5.087155751716676555e-01,-6.197059750556945801e-01,-4.383484125137329102e-01,8.250678638116477259e+01,3.044142484664916770e-01
1.671937000000000006e+00,-4.054656643101518104e-02,8.642047292379358148e-02,9.775236248970031738e-01,1.370958849342180166e-02,3.522993744965452478e-03,1.407423047233359766e-02,-4.889733361418972801e-02,-8.949288297980787302e-03,-7.445760816335678101e-02,-2.625559874678423666e-01,-9.859460862331496933e-02,-1.216255693738675786e-01,-1.853219659404848896e-01,1.699458521670922928e-01,1.486971882846980370e-02,-1.625419199466705267e-01,2.113074839115142711e-01,-2.475146055221557478e-02,5.100827447267737291e-01,-5.373333692550659180e-01,-2.801839113235473633e-01,1.017225468939443260e+02,3.044142484664916770e-01
1.699662999999999924e+00,-4.341047935183896256e-02,8.779248052953975145e-02,9.755871295928955078e-01,2.744360754760384342e-03,1.075614016754711244e-03,1.117378308807718580e-02,-5.450575179078785693e-02,-9.196406182770237164e-03,-7.551309466361999512e-02,-3.789207154806640276e-01,-9.191456631155463242e-02,-7.794327792882220496e-02,2.357171734292086707e-01,7.032859905125767030e-02,-1.882626064991977655e-01,1.866955518722534235e-01,1.337725102901458629e-01,-2.197264194488525446e-01,5.078175299462358572e-01,-6.745257973670959473e-01,-4.432452917098999023e-01,6.481177431727770966e+01,3.044142484664916770e-01
1.725837999999999983e+00,-4.635755630756072110e-02,8.927718998579643739e-02,9.736723899841308594e-01,-7.938608433931767031e-03,-2.375459349911013263e-03,8.456363035743907561e-03,-4.627390691119374899e-02,4.416153995510366768e-03,-8.338318020105361938e-02,-3.080480049575233803e-01,-1.319797394883509833e-01,-8.591964066316218340e-02,3.180344104766845703e-01,-2.108807383081990339e-01,-2.011730010507577215e-01,2.180344104766845648e-01,-1.301203250885009655e-01,-2.249216079711914007e-01,5.096918512848421789e-01,-6.194568276405334473e-01,-3.982082605361938477e-01,8.913016425329870174e+01,3.044142484664916770e-01
1.747662999999999967e+00,-4.826823828066761912e-02,9.029553389221266213e-02,9.724129438400268555e-01,-1.489117245067572703e-02,-4.955512307771581249e-03,6.365706348861378643e-03,-5.571466167463730995e-02,6.316193928699346920e-03,-7.489723712205886841e-02,-3.402066059121249264e-01,-1.383281510315222951e-01,-1.151140651316141378e-01,3.226234555244446023e-01,-2.666668176651000866e-01,-2.079232295198482350e-01,2.226234555244445690e-01,-1.666668176651000810e-01,-2.256818532943725419e-01,5.090954765356340284e-01,-6.280273795127868652e-01,-3.139017820358276367e-01,7.428708401697213048e+01,3.044142484664916770e-01
1.773290000000000033e+00,-5.104694744451883370e-02,9.185261634482640158e-02,9.706070423126220703e-01,-2.459445973579531611e-02,-9.039005137962297098e-03,3.424707375850637864e-03,-4.830034662053571404e-02,1.179404684721473834e-02,-7.313254475593566895e-02,-3.219218519485482766e-01,-1.320873788875224497e-01,-6.837469620898978251e-02,3.247852444648742787e-01,-2.949033975601196289e-01,-2.174895114140650287e-01,2.247852444648742731e-01,-1.949033975601196234e-01,-2.267524480819702037e-01,5.088814894306284975e-01,-6.446943283081054688e-01,1.117161870002746582e+00,-3.708647236287602311e+01,3.044142484664916770e-01
1.799465000000000092e+00,-5.411254838386644200e-02,9.299283189787904691e-02,9.688716530799865723e-01,-3.363963873868114351e-02,-1.376276004137055864e-02,2.053347710090758400e-03,-5.008930385275030261e-02,3.128187027066378634e-02,-6.915874034166336060e-02,-2.725880458917673832e-01,-1.553680625747430599e-01,-3.312086590250089280e-02,3.257387161254882701e-01,-2.983372688293456920e-01,-2.224053245140727442e-01,2.257387161254882646e-01,-1.983372688293456865e-01,-2.275034666061401256e-01,5.079897206346680738e-01,-6.889092326164245605e-01,-3.799709081649780273e-01,8.429957443450972221e+01,3.044142484664916770e-01
1.825393000000000043e+00,-5.731963522189470472e-02,9.441362645061621151e-02,9.672982692718505859e-01,-4.045406794723905436e-02,-1.909279795275731217e-02,3.666685584997957884e-03,-6.391487638152330841e-02,3.265914960433247832e-02,-5.345974490046501160e-02,-1.411301463601187245e-01,-2.156511940704118058e-01,6.880077361844240402e-02,3.253566980361938255e-01,-3.097101926803588756e-01,-2.186418345354474713e-01,2.253566980361938477e-01,-2.097101926803588701e-01,-2.277544856071472001e-01,5.062856785084967060e-01,-7.280354499816894531e-01,1.249526739120483398e-01,8.227526345886884940e+01,3.044142484664916770e-01
1.851664999999999894e+00,-6.059806707728934705e-02,9.599707021518606720e-02,9.661845564842224121e-01,-4.129644881815518892e-02,-2.289858112077269858e-02,7.530802260481467628e-03,-6.834837428604227660e-02,4.209880855160631763e-02,-5.249159410595893860e-02,-3.649557652272809437e-03,-8.180889424844448032e-02,1.323051398140647483e-01,3.254318714141845592e-01,-3.186238527297973744e-01,-2.046910408944949966e-01,2.254318714141845537e-01,-2.186238527297973688e-01,-2.244923830032348466e-01,5.073887925437918778e-01,-6.751226186752319336e-01,-2.046545743942260742e-01,9.434096338242562751e+01,3.044142484664916770e-01
1.872502000000000111e+00,-6.273243382588125638e-02,9.714069648046730343e-02,9.656701087951660156e-01,-3.800733493447588929e-02,-2.268641803897031295e-02,1.054690585140201885e-02,-6.031321852129649386e-02,5.877122322514606589e-02,-4.638037830591201782e-02,2.207779808477769168e-01,8.010987031755451016e-02,1.595624240898594337e-01,3.145730018615722767e-01,9.025334119796751819e-02,2.204625369873721707e-01,2.145730018615722712e-01,1.902533411979675237e-01,1.919126093387603649e-01,5.067623266932372861e-01,-6.906366944313049316e-01,-2.782398462295532227e-01,8.329211470174367093e+01,3.044142484664916770e-01
1.898460999999999954e+00,-6.607674670148228069e-02,9.793067512126875374e-02,9.652555584907531738e-01,-2.984108118987439939e-02,-1.743013140721871856e-02,1.483741524799551612e-02,-6.723078340452914858e-02,5.028016539490516579e-02,-2.381071262061595917e-02,3.392782235577307959e-01,2.462236234226583276e-01,1.480212911594614433e-01,2.749401450157165638e-01,1.207906842231750433e-01,2.631659760335928189e-01,1.749401450157165583e-01,2.207906842231750488e-01,2.221819639205932506e-01,5.058554981787040106e-01,-6.539493799209594727e-01,7.575381994247436523e-01,8.842371778744428923e+01,3.044142484664916770e-01
1.924336999999999964e+00,-6.925339349456306748e-02,9.893433980704188779e-02,9.650688171386718750e-01,-1.942266136254175782e-02,-8.618546002135740736e-03,1.970886432009779851e-02,-5.449684168114430488e-02,6.768677983530803355e-02,-2.429809421300888062e-02,3.816323828920309968e-01,3.150900737945500629e-01,1.680179729383345366e-01,2.404089212417602484e-01,1.247084438800811768e-01,2.798133929179786317e-01,1.404089212417602428e-01,2.247084438800811823e-01,2.246116697788238525e-01,5.067455294150039480e-01,-6.130355000495910645e-01,-1.045550107955932617e-01,6.878117973456564016e+01,3.044142484664916770e-01
1.950360000000000094e+00,-7.233035383210850711e-02,1.002069423401116682e-01,9.651593565940856934e-01,-8.847803800668978605e-03,1.870730558881872341e-03,2.508745827363012548e-02,-7.270155648601325793e-02,6.232739387654866875e-02,-2.222076803445816040e-02,3.111762748193353523e-01,3.964811381966829029e-01,1.555119608055219871e-01,5.006742477416992881e-02,1.307149648949986198e-01,2.947231810493504689e-01,-4.993257522583007674e-02,2.234958708286285400e-01,2.242718517780303844e-01,5.057469740442951389e-01,-6.605744361877441406e-01,-1.614097356796264648e-01,9.383409504411898183e+01,3.044142484664916770e-01
1.976480999999999932e+00,-7.513987788700045301e-02,1.009267421584220947e-01,9.653626680374145508e-01,1.989318653896138961e-03,1.129764519799869582e-02,2.891044402694882900e-02,-4.475238568256686977e-02,6.895599521340631255e-02,-2.597316913306713104e-02,3.207632899324551756e-01,2.531507027459361514e-01,8.769884203303818238e-02,7.192580103874207653e-02,2.165184711177750299e-01,3.057404087293571493e-01,-2.807419896125793249e-02,2.244012057781219482e-01,2.247501969337463434e-01,5.061566993358906918e-01,-6.554417014122009277e-01,-1.222275495529174805e-01,6.646379217182870036e+01,3.044142484664916770e-01
1.998229999999999951e+00,-7.689257623808551378e-02,1.012044224380593133e-01,9.656059741973876953e-01,9.399678478201754089e-03,1.478938076236335775e-02,2.926223170173094384e-02,-6.425570081955835067e-02,6.136871364957642572e-02,-1.301068533211946487e-02,4.042007845585233738e-01,1.346589012329602320e-01,-3.255528822732565303e-02,2.473275969206416014e-01,2.178739332591942690e-01,3.008636207860699852e-01,1.798831343650817705e-01,2.241905808448791393e-01,2.188888013362884355e-01,5.059576380002488438e-01,-6.166908144950866699e-01,1.127804636955261230e+00,-3.747895210805788224e+01,3.044142484664916770e-01
2.023833999999999911e+00,-7.945172793019365798e-02,1.016208486655139631e-01,9.659811258316040039e-01,1.962405253704610497e-02,1.564037104003768164e-02,2.832151454945161864e-02,-5.109417088278291746e-02,6.439528871261074316e-02,-1.940040662884712219e-02,2.980652962580184751e-01,-1.075282246833130298e-02,-3.873950930703015660e-02,2.188096794949783708e-01,2.351866234635080766e-01,1.195568065838461813e-01,2.139848470687866211e-01,2.242112874984741044e-01,4.034378528594970842e-02,5.061251053621429463e-01,-6.340228915214538574e-01,1.531420946121215820e-01,6.803123179388741448e+01,3.044142484664916770e-01
2.051131999999999955e+00,-8.181515277142456521e-02,1.021560523988281621e-01,9.662683010101318359e-01,2.779753946241832543e-02,1.354511276367809103e-02,2.676702213117665083e-02,-5.222568938792824383e-02,6.605100109457510971e-02,-1.827604696154594421e-02,2.512896553381028797e-01,-1.375610759875290079e-01,-5.568766111749185593e-02,1.742796189050927758e-01,1.710043967785085106e-01,-1.246087073655242072e-01,2.208934307098388561e-01,1.782442331314086914e-01,-1.996410369873046764e-01,5.044917050674355696e-01,-7.175284028053283691e-01,3.188897371292114258e-01,-8.633995001507845757e+01,3.044142484664916770e-01
2.072588000000000097e+00,-8.321893528942070350e-02,1.024991054951693153e-01,9.662804603576660156e-01,3.074613485817452585e-02,1.162836056023208720e-02,2.549225977856318590e-02,-5.434756942768699528e-02,6.249486188277401238e-02,-2.839511260390281677e-02,1.242646280376066281e-01,-8.139890467865146251e-02,-4.463624458725849731e-02,1.515690179215860023e-01,1.362630817537004990e-01,-1.165614148820079687e-01,2.200614094734191784e-01,1.587075233459472601e-01,-1.881947278976440485e-01,5.053817764859634964e-01,-7.136016488075256348e-01,-5.787962675094604492e-01,6.711959961517663942e+01,3.044142484664916770e-01
2.099139999999999784e+00,-8.525868845749737246e-02,1.029833315916917347e-01,9.662069082260131836e-01,3.450298581007262694e-02,6.508466933946799315e-03,2.315013661278693402e-02,-4.853929005016216491e-02,5.294019046217037644e-02,-2.588079124689102173e-02,1.499535377507117961e-01,-2.124722303550933000e-01,-6.461706392903245055e-02,1.178167719391268048e-01,-1.481985264199688068e-01,-1.373453693912662366e-01,2.173187255859374833e-01,-9.529355764389037253e-02,-2.027857303619384766e-01,5.051466144462727348e-01,-7.188856601715087891e-01,-1.777697801589965820e-01,9.332937821540087953e+01,3.044142484664916770e-01
2.124528999999999890e+00,-8.723180747370029575e-02,1.031905394620909466e-01,9.661210179328918457e-01,3.992917206467836572e-02,-1.782898815545497229e-04,2.212944313153928158e-02,-5.354321422558491750e-02,3.902297831417356894e-02,-2.255905047059059143e-02,2.133774262895239415e-01,-2.278882408532644510e-01,-3.955979703385513468e-02,1.127273917198181041e-01,-2.491590380668640137e-01,-1.308599070407716058e-01,2.127273917198181097e-01,-1.491590380668640081e-01,-1.941096067428588756e-01,5.047887356933326020e-01,-7.276306152343750000e-01,-4.578864574432373047e-01,7.764673112629634488e+01,3.044142484664916770e-01
2.150453000000000170e+00,-8.921478561369076965e-02,1.031471577295215020e-01,9.661062359809875488e-01,4.657155833340271417e-02,-6.828747900851084296e-03,2.420898050821381278e-02,-5.135759558437186234e-02,3.044749012875032704e-02,-1.925940252840518951e-02,1.799219198420927701e-01,-1.893123330204659338e-01,1.279639011274062155e-01,-1.629126608371734841e-01,-2.972648859024047963e-01,-4.758330293070311967e-02,-6.291266083717346469e-02,-1.972648859024047907e-01,-1.173664212226867565e-01,5.050040760267888729e-01,-7.057213187217712402e-01,5.378977060317993164e-01,-1.854109150203862910e+01,3.044142484664916770e-01
2.177398000000000167e+00,-9.168231940725671270e-02,1.038894328731638089e-01,9.660739898681640625e-01,5.277254708513662296e-02,-1.173920021886520892e-02,2.762482899501374559e-02,-4.497618645850678248e-02,2.860822080782280882e-02,-2.452803403139114380e-02,2.307403973954574583e-01,-1.064754980025239689e-01,1.491455029822321698e-01,-3.206189334392547385e-01,-3.070511579513549583e-01,2.969236642651613134e-01,-2.206189334392547607e-01,-2.070511579513549805e-01,2.169512987136840709e-01,5.048482658579709348e-01,-7.377051115036010742e-01,-4.494031667709350586e-01,8.244834045243696607e+01,2.874374151229858176e-01
2.201564999999999994e+00,-9.321711347529521019e-02,1.042554780993233676e-01,9.659421443939208984e-01,5.533890717132589759e-02,-1.295724559367017470e-02,3.035963699198131541e-02,-5.247324120488403021e-02,1.019386876860368073e-02,-2.717271260917186737e-02,8.823390099806381615e-02,-4.979673184286749488e-02,1.557757509241197436e-01,-3.231055021286010631e-01,-3.155112028121948020e-01,3.122739887718458673e-01,-2.231055021286010576e-01,-2.155112028121948242e-01,2.243886709213256669e-01,5.051457284115598023e-01,-7.358144521713256836e-01,1.881562471389770508e-01,3.489270439392713996e+01,2.874374151229858176e-01
2.229430999999999941e+00,-9.463619728429370492e-02,1.044954731083108934e-01,9.657330513000488281e-01,5.764135375012732765e-02,-1.172618511038403533e-02,3.340097807399002028e-02,-4.537613500273821737e-02,9.338296119470177944e-03,-2.452929690480232239e-02,1.164360594538124266e-01,1.368736177377322671e-01,1.170888152055016979e-01,-3.250255703926085982e-01,-1.091425061225891197e-01,3.141149663287771676e-01,-2.250255703926086204e-01,-9.142506122589110634e-03,2.178198695182800293e-01,5.050664860183504690e-01,-7.331816554069519043e-01,-1.159459352493286133e-01,7.721679803880071802e+01,2.874374151229858176e-01
2.252203999999999873e+00,-9.529782912133169526e-02,1.045515125288509484e-01,9.656355977058410645e-01,5.825936413089401189e-02,-1.041874041152612840e-02,3.490012817565095460e-02,-3.002140706420587668e-02,1.204281153512334543e-02,-3.238712996244430542e-02,6.400955298126065340e-02,1.800291138906258415e-01,1.582749963197231657e-01,-3.245624601840972900e-01,3.548717498779288548e-03,3.219988763332367054e-01,-2.245624601840972845e-01,1.035487174987792941e-01,2.219988763332366999e-01,5.065470232658412231e-01,-6.894355416297912598e-01,-1.525431871414184570e-01,8.815277101325905562e+01,2.874374151229858176e-01
2.276565999999999867e+00,-9.654476488980158477e-02,1.045381101660087519e-01,9.653431177139282227e-01,5.876396467858148454e-02,-6.326966250026266891e-03,3.717797485580778827e-02,-2.377813256354830221e-02,-3.455942940664470837e-03,-3.753976523876190186e-02,-3.331356325024771581e-02,2.294633010101022608e-01,8.155598250135205618e-02,-3.247361242771148460e-01,5.814343690872192383e-02,3.199358284473419189e-01,-2.247361242771148682e-01,1.581434369087219294e-01,2.199358284473419134e-01,5.077317085204413605e-01,-6.513037085533142090e-01,-5.289412736892700195e-01,7.312982457532936564e+01,2.874374151229858176e-01
2.300348000000000059e+00,-9.666336278449265407e-02,1.044441886269017877e-01,9.649591445922851562e-01,5.742511728093372542e-02,-7.721333773267335943e-04,3.779714103908961287e-02,-3.324026777910504132e-02,-8.479493024216048710e-03,-3.757793083786964417e-02,-7.455490722286385596e-02,2.801862067022836134e-01,-1.020402823786670070e-02,-3.237098217010497825e-01,5.259271264076231800e-02,3.170741081237792858e-01,-2.237098217010498047e-01,1.525927126407623236e-01,2.170741081237792802e-01,5.077706025128859713e-01,-6.548535227775573730e-01,1.097905635833740234e-02,9.504146075351296474e+01,2.874374151229858176e-01
2.325451999999999853e+00,-9.665983783797377216e-02,1.042869354629588768e-01,9.644641280174255371e-01,5.401814095137753152e-02,5.741802709607224386e-03,3.729044017515471821e-02,-1.995977317793697775e-02,-8.891697086498168492e-03,-5.026855319738388062e-02,-2.232047818328845856e-01,3.430056612492208279e-01,-5.058941062774143915e-04,-3.239566206932067982e-01,1.484191755681117941e-01,3.148673117160797341e-01,-2.239566206932067927e-01,1.952010333538055364e-01,2.148673117160797008e-01,5.099426626356837744e-01,-5.955446958541870117e-01,-3.247249126434326172e-02,7.441699421498577749e+01,2.874374151229858176e-01
2.352390999999999899e+00,-9.659143799529730512e-02,1.040591670951966224e-01,9.637377858161926270e-01,4.877285489426431281e-02,1.252384468808886986e-02,3.603571207707851470e-02,-7.731620898401208274e-03,-1.432489445604894808e-02,-6.216287985444068909e-02,-3.042154801841158163e-01,3.116667163287601405e-01,-6.198769789156039628e-02,-3.239587843418121338e-01,2.166373359877191151e-01,3.159072041511535867e-01,-2.239587843418121282e-01,2.122902095317840410e-01,2.159072041511535534e-01,5.111719050139768017e-01,-5.845077037811279297e-01,-2.447341680526733398e-01,7.324716722527017509e+01,2.874374151229858176e-01
2.378617999999999899e+00,-9.646495717630909628e-02,1.037318591433996073e-01,9.629587531089782715e-01,4.271150579190256813e-02,1.816888349488610110e-02,3.474137148361883254e-02,-2.228846804168971643e-02,-1.676300799834078842e-02,-5.967543646693229675e-02,-2.827352694130501054e-01,2.068086855138157321e-01,-8.201535980549078120e-02,-3.237410247325896995e-01,2.453493139269428414e-01,3.132095420981060307e-01,-2.237410247325897217e-01,2.182922780513763261e-01,2.162559628486633301e-01,5.095192079539150320e-01,-6.709469556808471680e-01,-2.345377206802368164e-01,8.817339818455248235e+01,2.874374151229858176e-01
2.403166000000000135e+00,-9.635860215527002059e-02,1.032954551533140641e-01,9.620524048805236816e-01,3.568006621116257687e-02,2.209799781306553967e-02,3.339311149160807679e-02,-1.754097984229196008e-02,-2.657285037541015291e-02,-6.496217846870422363e-02,-3.693520053587954766e-01,1.366134896845253854e-01,-2.637145951941662764e-02,-3.202480018138885720e-01,2.765777956777934476e-01,3.140418626242142408e-01,-2.202480018138885387e-01,2.190623402595519853e-01,2.211309850215911754e-01,5.097628217165885989e-01,-6.871436834335327148e-01,-3.364523649215698242e-01,1.140246191741077411e+02,2.874374151229858176e-01
2.426652999999999949e+00,-9.625881604890988708e-02,1.027193469326897618e-01,9.611376523971557617e-01,2.914725662850748203e-02,2.367614623162328513e-02,3.137381604333593088e-02,-1.499591010751219304e-02,-3.501095264652629574e-02,-5.750422179698944092e-02,-3.510743314156810624e-01,5.017088665075266490e-02,-1.027847801475968992e-01,-3.175963342189788707e-01,2.906285022259098016e-01,3.078599278413906015e-01,-2.175963342189788652e-01,2.226047694683074840e-01,2.206052541732788086e-01,5.086740029420169229e-01,-7.237091660499572754e-01,-1.689721345901489258e-01,3.485449973080467601e+01,2.874374151229858176e-01
2.449882999999999811e+00,-9.617614304468907749e-02,1.020022210185545231e-01,9.601815938949584961e-01,2.249326804112117620e-02,2.386313241732040957e-02,2.938703906683724082e-02,9.937393239362267948e-04,-3.303324779948550033e-02,-6.482952088117599487e-02,-3.023455600967144274e-01,-4.608771251825070914e-02,-8.315007911395499995e-02,-2.893255878364611733e-01,2.983238934203389925e-01,2.930330173935378202e-01,-2.181239962577819769e-01,2.174628317356109564e-01,2.113410651683807207e-01,5.107460976776326822e-01,-6.512339711189270020e-01,1.137744188308715820e-01,7.433634334126627152e+01,2.874374151229858176e-01
