timestamp,x,y,z,roll,pitch,yaw,vx,vy,vz,p,q,r,psp,qsp,rsp,pres,qres,rres,thrust_sp, thrust_res,wind_mag,wind_angle,wind_obs
0.000000000000000000e+00,2.198822693380205265e-02,-4.694631260707867078e-03,1.002509832382202148e+00,8.488230267971807325e-03,-1.213603999631041042e-02,-1.546180048704307031e-02,-1.147927912809824751e-02,-1.547303533115933433e-03,1.379447616636753082e-02,3.954642392576441373e-02,-4.959689413049213347e-02,2.264656668140575813e-02,1.400883109085586942e-01,6.633536433355778639e-02,-5.933751318050475843e-03,1.991690397262573242e-01,1.407858073711395208e-01,3.723253011703490933e-02,4.982435617445628573e-01,-6.578925251960754395e-01,2.355281114578247070e-01,9.328146443837324853e+01,0.000000000000000000e+00
2.325599999999999890e-02,2.215307042363566167e-02,-4.687478860311058634e-03,1.002556920051574707e+00,8.207573853152507967e-03,-1.204479927901358494e-02,-1.534289565981631319e-02,-3.580191911677469124e-03,6.159831866500768867e-03,3.044078825041651726e-03,-4.912556900661126796e-02,-9.183443122097617942e-03,3.335901472083948466e-02,1.651111823352088559e-01,1.485380626654438929e-01,-2.211001514627526365e-01,2.157970905303955023e-01,2.142330229282378984e-01,-1.782622218132018932e-01,4.982873167215964294e-01,-6.976338028907775879e-01,-1.388114690780639648e-01,9.110268873465253137e+01,0.000000000000000000e+00
5.352699999999999819e-02,2.243518173140157321e-02,-4.643541654413899100e-03,1.002642512321472168e+00,8.069410734057539530e-03,-1.219503730434334798e-02,-1.511262184091829996e-02,9.792427896456987885e-03,1.989854110477214805e-02,-1.336031360551714897e-03,-3.014104562653924235e-02,4.789820531601125808e-02,-2.506058810227038483e-02,1.368541968299183120e-01,1.631164893695783713e-01,-2.420966559763255421e-01,1.764919638633727916e-01,2.199918866157531683e-01,-1.999045372009277399e-01,5.059427896616823794e-01,-3.126657009124755859e-01,2.778846025466918945e-01,-7.379170405684945422e+01,0.000000000000000000e+00
7.358900000000000163e-02,2.248294572470284358e-02,-4.478589468814825336e-03,1.002648711204528809e+00,7.879298859491195087e-03,-1.255691474342524039e-02,-1.468072358514946329e-02,7.063748517754261241e-03,1.249672318830248423e-02,-5.069677252322435379e-03,1.981032398677229703e-02,-5.242340683617559977e-02,5.807456815393018806e-02,1.352456645121189183e-01,6.099838408396103528e-02,-2.503706469120600686e-01,1.815720319747924638e-01,1.241775870323181125e-01,-2.093823552131652832e-01,4.985611348762608586e-01,-7.151216864585876465e-01,2.653133869171142578e-02,7.011148884901986378e+01,0.000000000000000000e+00
1.036929999999999935e-01,2.252904039718144763e-02,-4.112586079529821637e-03,1.002754569053649902e+00,7.790130310994426537e-03,-1.281152764670467903e-02,-1.457253532516333133e-02,-1.096118368762800943e-02,4.645984114312326670e-03,5.193298216909170151e-03,-2.734826531657675794e-02,-6.384711438752371793e-02,-1.005581739467833937e-03,7.080420316563290628e-02,1.172205296344179526e-01,-2.474088962045572215e-01,1.217202186584472601e-01,1.960514545440673884e-01,-2.067375540733337458e-01,4.976702542924799078e-01,-7.201861739158630371e-01,-4.617094993591308594e-03,3.573103156737074926e+01,0.000000000000000000e+00
1.244760000000000033e-01,2.252887418040005335e-02,-3.959374201360814187e-03,1.002790451049804688e+00,8.113699496004576212e-03,-1.310444657475984265e-02,-1.407727545666436798e-02,-6.325678728825395378e-03,1.007660448852847578e-02,2.345372922718524933e-03,6.748497544245085633e-02,-4.806349388110787990e-02,1.983381772010467739e-02,1.515219495880632261e-01,3.030692486396006913e-02,1.305493327014138338e-01,1.988090515136718694e-01,1.046478152275085449e-01,1.698221862316131592e-01,5.010964471938611497e-01,-5.519160032272338867e-01,2.258580923080444336e-01,7.123107979739000939e+01,0.000000000000000000e+00
1.532890000000000086e-01,2.242820110188792695e-02,-3.654555573357597380e-03,1.002927422523498535e+00,9.356780153946211986e-03,-1.395956049466962057e-02,-1.258183554722766204e-02,-1.390869265339996375e-03,5.919939118567349445e-03,2.037406200543045998e-03,6.231399122381008071e-02,-3.091949069770317388e-02,8.946821940739303758e-02,7.956078466788091275e-02,1.254260600083703381e-01,1.092634516057387761e-01,1.388794898986816240e-01,2.019721448421478160e-01,1.443342804908752386e-01,4.987533484592159283e-01,-6.749727725982666016e-01,1.548796892166137695e-01,8.838686208668289623e+01,0.000000000000000000e+00
1.777519999999999933e-01,2.235596212013907583e-02,-3.531999381539523142e-03,1.003005743026733398e+00,1.060022795628826238e-02,-1.493486144021449746e-02,-1.162376756166738460e-02,-1.338234523871038167e-02,5.801729442067454952e-03,-3.064943011850118637e-04,1.170551134570480822e-01,-7.938717801133345076e-02,9.736412920712683716e-02,1.153719747816216445e-01,6.897345736175226893e-02,6.320233448829599976e-03,1.822773456573486273e-01,1.623056709766387828e-01,3.864734172821044506e-02,4.992213528273886647e-01,-6.592915058135986328e-01,1.442245244979858398e-01,8.671570604207754229e+01,0.000000000000000000e+00
1.963870000000000060e-01,2.227090938115208058e-02,-3.387749200382960454e-03,1.003106951713562012e+00,1.197444691128031653e-02,-1.611641410377862016e-02,-1.053954550725228270e-02,-1.372894441849628090e-02,8.825931928407257723e-03,5.665300413966178894e-03,1.538494735164589733e-01,-1.624518583612948874e-01,1.379751468046940543e-01,1.189710854638661580e-01,4.692221382734679258e-02,-3.809259004767408252e-02,1.922274827957153320e-01,1.464879870414733942e-01,-8.853900432586669228e-03,4.987912380852926875e-01,-6.573472023010253906e-01,9.507882595062255859e-02,9.310379072749370266e+01,0.000000000000000000e+00
2.233009999999999995e-01,2.197453434172121425e-02,-3.209950568730678480e-03,1.003339886665344238e+00,1.648274828383282722e-02,-1.923668907518361060e-02,-6.839682575097885686e-03,-1.650449661485197186e-02,7.359791093960549486e-03,1.720611820928752422e-03,1.698984001832096469e-01,-9.956775403794754231e-02,1.417842526537175796e-01,-5.435566902160645503e-02,-1.796197295188903809e-01,3.479776970288210591e-02,4.564433097839355052e-02,-7.961972951889037531e-02,5.350289940834045133e-02,5.012544910315163138e-01,-5.428248643875122070e-01,-5.535328388214111328e-01,4.811283947590488452e+01,0.000000000000000000e+00
2.482580000000000064e-01,2.182079292382401239e-02,-3.336153702105478045e-03,1.003339409828186035e+00,1.905949794124547902e-02,-2.130333670848316707e-02,-4.586528388845562826e-03,-9.581009584429971138e-03,6.250258522634756508e-03,-9.672042913734912872e-03,1.233845013441575017e-01,-8.337490925738211267e-02,7.995230099865742457e-02,3.133225440979003906e-02,-2.273582935333252064e-01,6.354351587532314216e-02,1.313322544097900446e-01,-1.273582935333252009e-01,7.584401965141296387e-02,5.121733587930387133e-01,-1.079219579696655273e-02,-6.683945655822753906e-03,9.046425729255309989e+01,0.000000000000000000e+00
2.738240000000000118e-01,2.166779885075922202e-02,-3.506293903207093055e-03,1.003177881240844727e+00,2.128992254545252968e-02,-2.332258892749172752e-02,-3.723673976116957489e-03,-2.859860669434607233e-02,-8.299893709085417797e-04,-1.127858739346265793e-02,1.434422670244993314e-01,-1.163585685883529314e-01,3.287647526201410014e-02,8.011713027954101007e-02,-2.625641822814941406e-01,1.988886508749366233e-01,1.801171302795410156e-01,-1.625641822814941351e-01,2.086033523082733154e-01,5.184863457092618866e-01,3.200190067291259766e-01,1.095116138458251953e-02,7.347078761869640573e+01,0.000000000000000000e+00
2.958080000000000154e-01,2.137777509668342679e-02,-3.859986349892277190e-03,1.002723217010498047e+00,2.511398333101209912e-02,-2.603715800999850671e-02,-4.437200200367284048e-03,-1.040829606811215398e-02,3.426518849189656886e-03,-2.662877738475799561e-02,1.642191032628304570e-01,-9.162240924196107805e-02,-3.379330811402103674e-02,-2.139098048210144043e-01,-3.014235258102416770e-01,2.077740149402659553e-01,-1.139098048210143987e-01,-2.014235258102416992e-01,2.193301856517791693e-01,5.241078949805814124e-01,5.602457523345947266e-01,8.931791782379150391e-02,9.273134051205290973e+01,0.000000000000000000e+00
3.261140000000000150e-01,2.094033842266954104e-02,-4.296802559136150314e-03,1.001957058906555176e+00,2.865591232959642867e-02,-2.887025500208739714e-02,-5.285988409679046041e-03,-3.565180291706486482e-02,-1.040291810407054270e-02,-3.323864936828613281e-02,6.578103688520030301e-02,-8.125717969723200707e-02,-3.915879697702009249e-02,-2.051006257534027100e-01,-3.114587068557739258e-01,2.017636253034118810e-01,-1.051006257534027044e-01,-2.114587068557739202e-01,2.153965294361114557e-01,5.075409574595405315e-01,-3.586767911911010742e-01,4.336750507354736328e-02,7.802255545518713120e+01,0.000000000000000000e+00
3.451850000000000196e-01,2.046491660936852405e-02,-3.888872507281557287e-03,1.001633286476135254e+00,2.997229736349490276e-02,-2.955309173663467348e-02,-5.136014892798759779e-03,-2.651972759471376770e-02,-6.420512214369110534e-04,-4.220360517501831055e-02,1.154978865688868622e-01,-1.263271164542991050e-02,-1.787278218765999196e-02,-3.218393206596374401e-01,-3.227559566497802956e-01,8.886690969293749298e-02,-2.218393206596374345e-01,-2.227559566497802623e-01,1.019953250885009682e-01,5.062250176697247195e-01,-4.669342041015625000e-01,5.165696144104003906e-03,6.992157543914765938e+01,0.000000000000000000e+00
3.745510000000000228e-01,1.845847412594107603e-02,-2.430313467011160997e-03,9.999297261238098145e-01,3.290826117111231991e-02,-3.058887083502748183e-02,-5.478584449356736601e-03,-4.149529652271379682e-02,-1.326401426355368167e-02,-5.727802962064743042e-02,1.035640850613388404e-02,4.210671281701262175e-02,-6.317052486309740478e-02,-3.100149095058440940e-01,7.333536148071287397e-02,1.849102315861875789e-01,-2.100149095058441162e-01,1.733353614807128795e-01,1.988004326820373424e-01,5.064063429444541908e-01,-5.265842676162719727e-01,-3.061245679855346680e-01,2.303099490012196426e+01,0.000000000000000000e+00
3.987459999999999893e-01,1.748638614301603264e-02,-1.802594216161067806e-03,9.988257288932800293e-01,3.287762401748390434e-02,-2.862592831716659347e-02,-5.768954167946983326e-03,-2.923110677790735981e-02,-2.913531885434156570e-03,-6.329070031642913818e-02,-3.017951873752513538e-03,1.562731721704322951e-01,-1.890127328184042915e-02,-2.269623637199401911e-01,1.163033127784728893e-01,2.029366737530954035e-01,-1.269623637199401855e-01,2.163033127784728948e-01,2.177353262901306208e-01,5.059627561940041041e-01,-5.812696814537048340e-01,3.215321302413940430e-01,6.602921455569746456e+01,0.000000000000000000e+00
4.224089999999999789e-01,1.650778035264801463e-02,-1.246871070337975769e-03,9.975889921188354492e-01,3.273752944136892190e-02,-2.569815310738388092e-02,-7.233527099565646538e-03,-2.659967110868814710e-02,-2.595362739111794007e-02,-6.144438683986663818e-02,2.160046354632530821e-02,1.608606746355357719e-01,-7.869167487828654384e-02,-2.664512038230896218e-01,1.177091121673583818e-01,2.006540607774466578e-01,-1.664512038230895885e-01,2.177091121673583873e-01,2.198026299476623369e-01,5.073469278409925565e-01,-5.089637041091918945e-01,-3.025305271148681641e-02,6.452733279683982914e+00,0.000000000000000000e+00
4.477260000000000129e-01,1.539678649112074908e-02,-1.278869469314000880e-04,9.956277608871459961e-01,3.184504653671203778e-02,-1.855355324069796197e-02,-1.018152198499783050e-02,-3.185965988201597959e-02,-1.235377013048332903e-02,-8.457276225090026855e-02,-5.906481033446914913e-02,3.006614994521751849e-01,-8.891355180278201487e-02,-2.277347147464752197e-01,1.232827603816986084e-01,1.736649944426663927e-01,-1.277347147464752142e-01,2.232827603816986139e-01,2.012893617153167780e-01,5.158645755946257294e-01,-1.586991548538208008e-01,2.695080041885375977e-01,7.271525941346627064e+01,0.000000000000000000e+00
4.731190000000000118e-01,1.447245750574659325e-02,1.089598951635060466e-03,9.935532212257385254e-01,2.878261796502096931e-02,-9.366050827406491308e-03,-1.369857578001002461e-02,-2.421616492762827116e-02,-1.600046887130763054e-02,-7.298722863197326660e-02,-1.193642381376690403e-01,3.073141128297791624e-01,-1.085261761802348290e-01,-2.908015847206115723e-01,1.557618371719909911e-01,-2.321187656235616237e-01,-1.908015847206115667e-01,2.225116252899169977e-01,-1.941548824310302679e-01,5.179579727050673821e-01,-1.268142461776733398e-02,4.107428789138793945e-01,-2.405582807281558821e+00,0.000000000000000000e+00
4.956780000000000075e-01,1.384411953862961855e-02,1.869764995756850560e-03,9.920859336853027344e-01,2.468453495099913811e-02,-2.028286484518471156e-03,-1.565086785608114581e-02,-2.001700813263406972e-02,-1.347968068191877748e-02,-8.520610630512237549e-02,-2.498271299754869224e-01,3.937137882467470207e-01,-9.277642899439854374e-02,-2.932773888111114280e-01,1.963187691001050117e-01,-2.703674721228424005e-01,-1.932773888111114502e-01,2.135613083839416337e-01,-2.266333222389221025e-01,5.162487526796075699e-01,-1.631928086280822754e-01,1.512397527694702148e-01,4.894625232824066785e+01,0.000000000000000000e+00
5.250249999999999639e-01,1.293916618391371953e-02,2.988480271313958669e-03,9.898562431335449219e-01,1.703299955945059008e-02,6.861733705638473069e-03,-1.879237381181161903e-02,-3.194116919953417233e-02,-1.723765003774133109e-02,-8.805851638317108154e-02,-2.695063383808220525e-01,2.186713055255039284e-01,-7.672494989368060236e-02,-2.100787162780762274e-02,2.519775499475271907e-01,-2.779353906024965570e-01,7.899212837219238281e-02,2.219069659709930475e-01,-2.252177596092224121e-01,5.109765052809721597e-01,-4.699416756629943848e-01,-4.349911212921142578e-02,1.797025639309806309e+02,0.000000000000000000e+00
5.507579999999999698e-01,1.233717576000574467e-02,3.792060914217814174e-03,9.883093833923339844e-01,1.130118698140637930e-02,9.662549850932178330e-03,-2.157173137775339478e-02,-3.803329438955961594e-02,-1.261024292114099055e-02,-8.683563768863677979e-02,-3.135739430690162033e-01,1.404319722920430169e-01,-1.613377353243109769e-01,1.452884525748141531e-01,2.645895201667353702e-01,-2.831982816375973044e-01,2.247909307479858398e-01,2.198055982589721680e-01,-2.226981639862060380e-01,5.073891009562800924e-01,-6.665639281272888184e-01,-7.033886313438415527e-01,7.168439945260375623e+01,0.000000000000000000e+00
5.700020000000000087e-01,1.169510451875749313e-02,4.569835577551277159e-03,9.868088960647583008e-01,5.552596150005641509e-03,9.834886498398143218e-03,-2.389863202684650717e-02,-2.637746928155463091e-02,-6.787637220368218476e-03,-9.405096620321273804e-02,-3.547964023501685715e-01,1.911406525638452078e-02,-9.570055890733041026e-02,1.895385225552873865e-01,2.703866537588475172e-01,-2.912478916865915424e-01,2.271740555763244462e-01,2.147689104080200140e-01,-2.242685437202453502e-01,5.074887141861609274e-01,-7.010208964347839355e-01,-8.027279376983642578e-02,9.747388919244042427e+01,0.000000000000000000e+00
6.004080000000000528e-01,1.038573435923696893e-02,6.156862769010799409e-03,9.837458729743957520e-01,-5.000325234113959898e-03,6.067546684054070383e-03,-2.771056719535636495e-02,-3.477904639898516531e-02,6.155985096955145404e-03,-9.332952648401260376e-02,-2.486832151032868365e-01,-8.590045248382199850e-02,2.807298235052197604e-04,2.684864408194538310e-01,2.379084255673910575e-01,-3.030842123045814906e-01,2.273163199424743652e-01,2.157722532749175859e-01,-2.255129814147949219e-01,5.071653593799764215e-01,-7.329317927360534668e-01,2.701890468597412109e-02,-1.081366887510440904e+02,0.000000000000000000e+00
6.247639999999999860e-01,9.734552136037353740e-03,7.032400316301877334e-03,9.822691679000854492e-01,-1.061716959117747251e-02,3.636959937914019392e-03,-2.739134307603467711e-02,-4.182142227143819530e-02,-5.200233452145828876e-03,-6.659192591905593872e-02,-2.291885563908286072e-01,-1.566787863292361804e-01,5.304140433405663685e-02,2.934456272771650553e-01,2.175403976214649593e-01,-2.956554845803506248e-01,2.260157346725463756e-01,2.157247960567474365e-01,-2.189649581909179632e-01,5.055017452743860717e-01,-7.253080010414123535e-01,-1.390653848648071289e-01,9.190060509387176069e+01,0.000000000000000000e+00
6.480650000000000022e-01,8.922706660210706284e-03,7.683352816797299999e-03,9.809634089469909668e-01,-1.638592234085688507e-02,1.158989937614984811e-03,-2.620922463197328939e-02,-2.913423602683012578e-02,1.290010634274768413e-02,-7.835840433835983276e-02,-3.127758248649398221e-01,-7.576046599828896444e-02,3.229971372645144834e-02,3.271762371063232644e-01,2.064481202072136479e-01,-2.992852991836241205e-01,2.271762371063232311e-01,2.103839814662933350e-01,-2.258889913558959905e-01,5.065590191658062569e-01,-7.259393334388732910e-01,4.008351564407348633e-01,-1.041763743155414517e+02,0.000000000000000000e+00
6.717509999999999870e-01,7.930461368822024765e-03,8.056916721379118670e-03,9.797475934028625488e-01,-2.175890549571558863e-02,-2.353860268792695720e-03,-2.391571375898881441e-02,-3.900272486868161526e-02,9.724711310132683889e-03,-7.312239706516265869e-02,-2.373023449465354873e-01,-1.741297678940715576e-01,1.533150326280425246e-01,3.250584721565246138e-01,1.736929479666892151e-01,-2.887946606559822493e-01,2.250584721565246360e-01,2.105438590049743541e-01,-2.216722726821899470e-01,5.063535177252300734e-01,-7.256385087966918945e-01,1.772021055221557617e-01,1.184516250676717242e+01,0.000000000000000000e+00
6.954010000000000469e-01,6.353765144567946957e-03,8.741163386838946003e-03,9.782871007919311523e-01,-2.640577898525389711e-02,-9.949385756200967990e-03,-2.071735644223676731e-02,-4.276656451554187999e-02,2.458853181230758259e-02,-6.292524188756942749e-02,-1.399628184766865679e-01,-2.355817385673643072e-01,1.199650107170786156e-01,3.115430355072021373e-01,1.024611081233886001e-01,-2.767172079036393506e-01,2.115430355072021318e-01,1.915113687515258845e-01,-2.182733416557312012e-01,5.061935216806834337e-01,-7.039340734481811523e-01,-7.540953159332275391e-02,1.101732530860559649e+02,0.000000000000000000e+00
7.235340000000000105e-01,4.653466390156777745e-03,9.462617379278117150e-03,9.771803617477416992e-01,-2.604918853318078514e-02,-1.970800636441127907e-02,-1.667807776691203683e-02,-4.662674972105457921e-02,1.001951166112108153e-02,-4.870466887950897217e-02,2.631494771231882371e-02,-3.398625233341023288e-01,1.674450387086109659e-01,3.078834652900696023e-01,-1.934239506721496804e-01,-2.625028872413884828e-01,2.078834652900695690e-01,-9.342395067214966098e-02,-2.149835228919982910e-01,5.050507110075562744e-01,-7.159880995750427246e-01,1.416245698928833008e-01,9.755034633000954614e+01,0.000000000000000000e+00
7.489719999999999711e-01,3.677365692823609828e-03,9.236953063479951334e-03,9.765580296516418457e-01,-2.326478832568384600e-02,-2.604376445949507790e-02,-1.383146871528504775e-02,-4.906214757699931678e-02,2.733563410855519363e-02,-3.523457795381546021e-02,1.911927752164214178e-01,-2.810244989042441910e-01,1.469983822381270566e-01,3.134105682373046764e-01,-2.250246286392211803e-01,-2.193862119752825190e-01,2.134105682373046708e-01,-1.250246286392211748e-01,-1.798328161239624023e-01,5.043047009247588752e-01,-7.076481580734252930e-01,-1.467264890670776367e-01,-2.368013266374539327e+01,0.000000000000000000e+00
7.720700000000000340e-01,2.876930978671058889e-03,8.343963355820242442e-03,9.760252833366394043e-01,-1.920889311636822180e-02,-3.200837232960984657e-02,-1.116166342156871966e-02,-4.883809446010367594e-02,1.773960547035660640e-02,-2.986399829387664795e-02,1.926827839688269595e-01,-2.904792088723971433e-01,1.322866629900995294e-01,3.147386908531188965e-01,-2.319182991981506292e-01,-2.264580956882605856e-01,2.147386908531188909e-01,-1.319182991981506237e-01,-1.943438529968261608e-01,5.040491467120514768e-01,-7.046000361442565918e-01,-1.344603300094604492e-01,9.254004740396835871e+01,0.000000000000000000e+00
7.957710000000000061e-01,1.543513116817325391e-03,7.167747128780994036e-03,9.752451777458190918e-01,-1.156004026026970048e-02,-3.974817087506288260e-02,-6.586827298535400353e-03,-5.625757777928648562e-02,2.637627170806550528e-02,-3.143182396888732910e-02,2.570275905307925490e-01,-2.421658601472358452e-01,1.577326849420096766e-01,2.820057290362757429e-01,-2.943830847740173118e-01,-1.288019576185875370e-01,1.835732460021972656e-01,-1.943830847740173340e-01,-1.098515510559082003e-01,5.053152388901783754e-01,-6.501064300537109375e-01,1.754323244094848633e-01,1.342101572660023976e+02,0.000000000000000000e+00
8.241500000000000492e-01,-8.083312754832092117e-05,6.161782201772643928e-03,9.743097424507141113e-01,-2.470636335576772112e-03,-4.683007250843052027e-02,-2.059723080703368316e-03,-6.898193137239153061e-02,2.434260447598724300e-02,-3.609852120280265808e-02,2.772877504897061085e-01,-1.923475865255520056e-01,1.443861081021121096e-01,2.150751810846280102e-02,-3.148177981376648060e-01,6.156814986586725547e-02,-1.435672044754028251e-02,-2.148177981376648005e-01,6.729104518890380304e-02,5.082875481168449561e-01,-5.182898640632629395e-01,-2.335059642791748047e-02,1.051774341610552028e+02,0.000000000000000000e+00
8.485260000000000025e-01,-9.254399867234925324e-04,5.806160829646875819e-03,9.736731052398681641e-01,3.974419470304770691e-03,-5.082021730404950866e-02,1.156209454859063665e-03,-7.354384389391403765e-02,3.326512683519892988e-02,-3.943895176053047180e-02,3.374512425973323348e-01,-1.865280464665738380e-01,1.991280850506424449e-01,-1.446326948148579650e-01,-3.198381423950195090e-01,8.704379084123864407e-02,-1.458050072193145807e-01,-2.198381423950195312e-01,8.314025402069091797e-02,5.088585832103101891e-01,-5.071324706077575684e-01,-3.091458082199096680e-01,-1.022617083666468005e+02,0.000000000000000000e+00
8.716599999999999904e-01,-1.502582904023189343e-03,5.729801917123076779e-03,9.730092883110046387e-01,1.034839491598685615e-02,-5.310020684482852360e-02,3.826189369843161544e-03,-7.668437052215851257e-02,2.097451369209520772e-02,-3.713065013289451599e-02,3.301289408590342145e-01,-7.797844798953745826e-02,1.232719831727851767e-01,-2.484407418055294969e-01,-3.248553037643432395e-01,-1.241880140980781699e-01,-1.971688807010650579e-01,-2.248553037643432617e-01,-1.359974741935729980e-01,5.067609548977506373e-01,-6.148998737335205078e-01,3.200219869613647461e-01,5.629457964869058628e+01,0.000000000000000000e+00
8.948380000000000223e-01,-2.512217653507744196e-03,5.619372258955678164e-03,9.718315005302429199e-01,1.952274478375099626e-02,-5.188039891146556393e-02,7.753903180321836813e-03,-7.188548721903319227e-02,2.465202936428510100e-02,-4.745471477508544922e-02,2.746401581032638650e-01,1.275325315914622448e-01,1.269135280515819308e-01,-3.106951177120208518e-01,-3.056568384170532116e-01,-1.229695353840905558e-01,-2.106951177120208740e-01,-2.056568384170532060e-01,-1.465651988983154297e-01,5.067936302569895357e-01,-6.623472571372985840e-01,-1.040256023406982422e-02,8.011500439798804507e+01,0.000000000000000000e+00
9.238480000000000025e-01,-3.688762709188677345e-03,5.416480575634827557e-03,9.707044363021850586e-01,2.904933165270852727e-02,-4.647461126010643540e-02,1.145516786687502016e-02,-8.413342167766257873e-02,1.737531915058130108e-02,-5.236418545246124268e-02,2.925833287565378638e-01,2.309975845733509003e-01,1.626798017886494641e-01,-3.136697947978973611e-01,-2.510088324546814187e-01,-7.402587671172498884e-02,-2.136697947978973278e-01,-1.510088324546813854e-01,-1.085340499877929660e-01,5.070851752255851608e-01,-6.750729680061340332e-01,-4.130011796951293945e-01,7.768273988360064664e+01,0.000000000000000000e+00
9.469910000000000272e-01,-4.623635666634018891e-03,5.216210673660104033e-03,9.698805809020996094e-01,3.536353781992832013e-02,-4.151430121561872078e-02,1.344196858251067370e-02,-7.757126830319464872e-02,1.142432820084660072e-02,-4.996821656823158264e-02,3.310955592276038639e-01,2.334150496747246784e-01,7.979123171712344809e-02,-3.187200903892516979e-01,-2.618874788284301647e-01,-7.338590936830030609e-02,-2.187200903892516923e-01,-1.618874788284301591e-01,-1.135986328124999889e-01,5.068913266145855800e-01,-6.829524040222167969e-01,6.883442401885986328e-02,9.483008688926857133e+01,0.000000000000000000e+00
9.713420000000000387e-01,-5.548399893322491366e-03,5.725558018542137827e-03,9.689608812332153320e-01,4.051101035758864627e-02,-3.537864743859753247e-02,1.432684593536931103e-02,-8.792858790492616428e-02,8.275982742092041766e-03,-6.022083386778831482e-02,2.141729593745205218e-01,3.292863635240625975e-01,2.998236821671095356e-02,-3.023147702217102162e-01,9.350408911705015980e-02,2.519162954534681087e-01,-2.023147702217102106e-01,1.935040891170501653e-01,2.091518819332122692e-01,5.079873561196611709e-01,-6.738741993904113770e-01,-1.045981645584106445e-01,6.729172038226096220e+01,0.000000000000000000e+00
9.946970000000000534e-01,-7.045855464213899265e-03,6.361804333374534992e-03,9.674105048179626465e-01,4.484859739141364848e-02,-2.556214784203114654e-02,1.465168536927453566e-02,-8.305713970444500438e-02,1.413210247383610979e-02,-6.883201748132705688e-02,1.040278463451830560e-01,3.030201302425690746e-01,3.697441614644010610e-02,-3.101973533630371094e-01,1.115849673748016135e-01,2.550157462713691370e-01,-2.101973533630371038e-01,2.115849673748016191e-01,2.117044329643249512e-01,5.089750157229883110e-01,-6.666347980499267578e-01,2.804545164108276367e-01,6.627627615835517361e+01,0.000000000000000000e+00
1.023527000000000076e+00,-8.684643742274089986e-03,6.999779921935589747e-03,9.656822085380554199e-01,4.347838072688621491e-02,-1.408282340531386012e-02,1.599081439126926601e-02,-9.165577174668980420e-02,1.271667438544634918e-02,-8.079231530427932739e-02,-1.011544036357012732e-01,4.004062108417485444e-01,4.993541327415976921e-02,-2.884717285633087158e-01,1.211602210998534990e-01,2.614975851442944421e-01,-1.884717285633087103e-01,2.211602210998535045e-01,2.151615321636199951e-01,5.125449059736151280e-01,-5.367612838745117188e-01,2.617779970169067383e-01,9.238319893986817988e+01,0.000000000000000000e+00
1.048578999999999928e+00,-9.866756318697877948e-03,7.366456686503715379e-03,9.644864797592163086e-01,4.009972585913148396e-02,-6.093482989172116504e-03,1.739561213865967876e-02,-7.478953440051708257e-02,7.470802976470798662e-03,-8.906150609254837036e-02,-1.985864800790589635e-01,3.828879768863489019e-01,9.643315438310891274e-02,-2.569273769855499046e-01,1.188880296375196266e-01,1.292197216686430117e-01,-1.569273769855499268e-01,2.127955198287963812e-01,7.967158555984496515e-02,5.172447646806251909e-01,-3.283830285072326660e-01,1.065827608108520508e-01,8.874888260326108025e+01,0.000000000000000000e+00
1.072338999999999931e+00,-1.150178430290008796e-02,8.474525061823027713e-03,9.632095098495483398e-01,3.531763546438729251e-02,1.368705416490589855e-03,1.872406923837351828e-02,-9.383976674103809701e-02,4.110804229519949941e-03,-7.469268888235092163e-02,-2.141011179531525088e-01,3.019316178877234358e-01,5.501435567637021767e-02,-2.338123679161071833e-01,1.184308117262311277e-01,-1.669947600075863403e-01,-1.338123679161071777e-01,1.826992750167846513e-01,-2.199275493621826172e-01,5.173013316925093585e-01,-2.797243595123291016e-01,-4.685842990875244141e-02,1.044832478847609565e+02,0.000000000000000000e+00
1.098548999999999998e+00,-1.393737912305173521e-02,9.953651976869254750e-03,9.611949920654296875e-01,2.577573819656276202e-02,1.162786353251821225e-02,2.018943734346373073e-02,-8.116633481820549612e-02,1.436240580977994044e-04,-8.865757286548614502e-02,-3.506016354704787896e-01,3.490318537375156072e-01,-3.060091940332169622e-02,-1.465719282627105657e-01,2.313833505053650708e-01,-1.703639438003335116e-01,-4.657192826271056713e-02,2.181276798248290849e-01,-2.268141746520996038e-01,5.168377502239105414e-01,-3.737862706184387207e-01,2.513703107833862305e-01,1.048725345165058371e+02,0.000000000000000000e+00
1.126255000000000006e+00,-1.552730238019647650e-02,1.084594052776373385e-02,9.598252773284912109e-01,1.874876683369909591e-02,1.630036303007287302e-02,1.923395144018029065e-02,-7.875197731167100923e-02,7.724090655421076215e-03,-1.007630899548530579e-01,-3.754380239482685844e-01,2.070935660781677012e-01,-3.833303794239816681e-02,1.182583570480346680e-01,2.639176850030732213e-01,-1.719123290819859484e-01,2.182583570480346735e-01,2.214196264743804876e-01,-2.255718111991882324e-01,5.124293276401600261e-01,-6.700417399406433105e-01,2.956429719924926758e-01,7.104235484043339000e+01,0.000000000000000000e+00
1.147752000000000105e+00,-1.707177232669432332e-02,1.162811116495865264e-02,9.585621356964111328e-01,1.212270703257075158e-02,1.828881940787230320e-02,1.735939413418329316e-02,-8.749654781960104766e-02,-1.589239459787433056e-03,-8.978655934333801270e-02,-3.391356505294031987e-01,5.489962163974433651e-02,-8.651790376550375083e-02,1.553651072277302259e-01,2.611971342836944543e-01,-1.746420427401212949e-01,2.266596078872680498e-01,2.146668255329131914e-01,-2.231121540069579967e-01,5.114008588239977726e-01,-6.932675242424011230e-01,-7.057678699493408203e-02,9.723611664705394730e+01,0.000000000000000000e+00
1.178215000000000012e+00,-2.034798191669271242e-02,1.320422371342895758e-02,9.565798044204711914e-01,2.280922652083768390e-03,1.755510194143727887e-02,1.353007341546145527e-02,-7.421723617524923766e-02,3.372621542265264935e-03,-9.807157516479492188e-02,-3.396501561125724877e-01,-5.112081625691389936e-02,-1.422092149263015359e-01,2.252294407862417691e-01,2.638121117589746767e-01,-1.872029734494200515e-01,2.268261551856994573e-01,2.128349483013153021e-01,-2.250379800796508678e-01,5.116962683061212491e-01,-7.249115705490112305e-01,1.240419149398803711e-01,7.581242747562876971e+00,0.000000000000000000e+00
1.203119000000000050e+00,-2.395940734561657556e-02,1.496253197710345137e-02,9.546630978584289551e-01,-7.262654190215564985e-03,1.494380583248511307e-02,1.064871046139035347e-02,-7.971722447615256502e-02,7.755438762274385021e-03,-9.200922399759292603e-02,-3.455763230198954927e-01,-6.440457993209203202e-02,-2.559895494107034680e-02,2.916176967491445060e-01,2.363225579125326492e-01,-1.963887216009689574e-01,2.275202035903930442e-01,2.111890554428100530e-01,-2.262283802032470648e-01,5.114201254717823941e-01,-7.303925156593322754e-01,-1.611143350601196289e-01,9.555472214888273186e+01,0.000000000000000000e+00
1.225900999999999907e+00,-2.633547112488711719e-02,1.621731784917464225e-02,9.534136056900024414e-01,-1.307093352024419133e-02,1.259977550003066327e-02,1.022743312592553841e-02,-6.671518028080151985e-02,2.033398542708029361e-02,-8.954774588346481323e-02,-2.927753953098607420e-01,-8.042519323329024028e-02,8.633919342756075574e-03,3.274904489517211914e-01,2.310472336554148520e-01,-1.975714206271860784e-01,2.274904489517211859e-01,2.120340764522552490e-01,-2.262431859970092662e-01,5.113819114538307176e-01,-7.342716455459594727e-01,-1.002584695816040039e-01,9.232463006773532754e+01,0.000000000000000000e+00
1.246526000000000023e+00,-2.865480601626184745e-02,1.754064254277030999e-02,9.523885846138000488e-01,-1.869182934997134365e-02,9.943387684082205524e-03,1.099557442938468160e-02,-7.765489038942099964e-02,1.739438445818285509e-02,-6.942421197891235352e-02,-2.483297424002033904e-01,-1.690966219437453344e-01,5.302209257776202556e-02,3.255258560180663840e-01,2.019390725189489366e-01,-1.921929838520809175e-01,2.255258560180664062e-01,2.126895546913147028e-01,-2.229431033134460505e-01,5.100626376126990991e-01,-7.352043986320495605e-01,1.932036876678466797e-02,9.716168124547914431e+01,0.000000000000000000e+00
1.279231999999999925e+00,-3.309792943029649798e-02,1.965731703904494143e-02,9.507781863212585449e-01,-2.578252414332069323e-02,1.783717410214435972e-03,1.359649183500789664e-02,-6.672531936871425873e-02,3.275156178386100930e-02,-6.095263734459877014e-02,-7.050833535779388317e-02,-2.296945476551324472e-01,4.684685629049101935e-02,3.125035524368285911e-01,1.200772278494832701e-01,-1.740115906905504994e-01,2.125035524368286133e-01,1.769217252731323242e-01,-2.118333578109741211e-01,5.100329510583453407e-01,-7.151517271995544434e-01,2.160748243331909180e-01,1.269642008208326303e+02,0.000000000000000000e+00
1.298507000000000078e+00,-3.419326985068770614e-02,2.004058111176298257e-02,9.504761099815368652e-01,-2.624946406500991425e-02,-1.132453062796745513e-03,1.462658845879748377e-02,-8.012318056352786544e-02,2.892934544537794847e-02,-5.618748441338539124e-02,2.598877099885239100e-02,-3.109868016558024473e-01,1.165700880602395656e-01,3.126519680023193137e-01,-1.301212935817857852e-01,-1.663499113101477023e-01,2.126519680023193359e-01,-4.112724065780639510e-02,-2.068938016891479492e-01,5.096496425914088801e-01,-7.235260009765625000e-01,-1.195605993270874023e-01,9.952132718861096805e+01,0.000000000000000000e+00
1.322314999999999907e+00,-3.742528943120510682e-02,2.125813344623418699e-02,9.497766494750976562e-01,-2.479380985907732315e-02,-1.005722358627503255e-02,1.694764174873408802e-02,-7.384787806133132071e-02,4.405335426522877240e-02,-4.713871702551841736e-02,1.066896495763989400e-01,-2.851031731045730044e-01,8.760260812942277653e-02,3.194721460342407338e-01,-1.246908426284790150e-01,-1.193709837611235669e-01,2.194721460342407282e-01,-2.469084262847900252e-02,-1.662765383720397894e-01,5.093127370930118358e-01,-7.133775949478149414e-01,1.643146276473999023e-01,9.149694091392400708e+01,0.000000000000000000e+00
1.346362000000000059e+00,-4.067621042454590274e-02,2.258033423864253680e-02,9.493501782417297363e-01,-1.997465122291860670e-02,-1.909534572226934124e-02,1.949248667800372939e-02,-9.160362243799820281e-02,3.291576214886258317e-02,-3.085842728614807129e-02,2.100477862631377202e-01,-3.476473092194087844e-01,9.329417798276076756e-02,3.212594985961914062e-01,-1.821519136428833008e-01,-7.444919598824692453e-02,2.212594985961914007e-01,-8.215191364288329523e-02,-1.283448457717895341e-01,5.084760974766517894e-01,-6.996873617172241211e-01,3.871375322341918945e-01,-1.002756601107363394e+02,0.000000000000000000e+00
1.370301999999999909e+00,-4.284821548949448167e-02,2.393831974512140165e-02,9.491205215454101562e-01,-1.517975699597702739e-02,-2.440137957574717298e-02,2.129255522053123337e-02,-7.640064519585972047e-02,4.782856756516883773e-02,-2.296428009867668152e-02,2.405792770135831982e-01,-2.616575315502304155e-01,5.394201060192914399e-02,3.169686079025268444e-01,-1.839276075363159291e-01,8.391915216346451656e-02,2.169686079025268388e-01,-8.392760753631590964e-02,2.468776702880859375e-02,5.087956054701376907e-01,-6.559461951255798340e-01,9.594094753265380859e-02,1.392782532528002264e+02,0.000000000000000000e+00
1.400106000000000073e+00,-4.733101862817302996e-02,2.758931666451550080e-02,9.489433169364929199e-01,-4.260774190695639126e-03,-3.464534314763323408e-02,2.517590834035433878e-02,-9.163753012962418121e-02,5.270758666284443283e-02,-2.121592871844768524e-02,3.096957118525281438e-01,-2.503347405552487914e-01,8.870615798426255416e-02,2.635245158162021761e-01,-2.904572963714599498e-01,2.299630788412807270e-01,1.806622266769409013e-01,-1.904572963714599443e-01,1.591865479946136530e-01,5.104999197586013171e-01,-5.636014938354492188e-01,5.217790603637695312e-04,9.689238054688388502e+01,0.000000000000000000e+00
1.425985999999999976e+00,-4.966173511495766690e-02,2.942245373962181290e-02,9.488868117332458496e-01,1.503958187108643584e-03,-3.884381025013960986e-02,2.700451960062887069e-02,-9.369269137050986740e-02,5.185517456702096878e-02,-2.837860025465488434e-02,2.846180401004425042e-01,-1.450059919167977218e-01,9.870702847979194450e-02,5.293620720064444451e-02,-3.173285245895385853e-01,2.642632855247607493e-01,7.661497592926024870e-03,-2.173285245895385798e-01,1.879065334796905518e-01,5.130886734297180896e-01,-4.581990242004394531e-01,2.944790124893188477e-01,1.076442799232103624e+02,0.000000000000000000e+00
1.451449999999999907e+00,-5.198091166304901617e-02,3.125958056736406060e-02,9.487732648849487305e-01,7.238571810064632628e-03,-4.167939082946792162e-02,2.869135324489064873e-02,-1.004023645630568728e-01,5.222526425446249315e-02,-2.682685665786266327e-02,2.745155414526961879e-01,-1.073150856664096958e-01,1.071886570843154918e-01,-1.098040674205628259e-01,-3.223539829254150613e-01,2.186648690757433400e-01,-1.197493672370910645e-01,-2.223539829254150280e-01,1.370437145233154297e-01,5.126299786546205661e-01,-4.812554121017456055e-01,2.055159807205200195e-01,1.377821003151089485e+02,0.000000000000000000e+00
1.474175999999999931e+00,-5.492358462099802829e-02,3.346718170499653200e-02,9.485415220260620117e-01,1.597253708971382510e-02,-4.166957934085013804e-02,3.046685176112581134e-02,-9.676173749612054786e-02,5.428385809544984675e-02,-2.407093346118927002e-02,3.463369113958794654e-01,5.591967395179890665e-02,7.684372636821182323e-02,-2.555646218308387785e-01,-3.193127512931823730e-01,-8.123593481180432785e-02,-2.120332539081573320e-01,-2.193127512931823675e-01,-1.685677528381347712e-01,5.092330617642888413e-01,-6.558492183685302734e-01,2.995848655700683594e-03,1.019530043067297385e+02,0.000000000000000000e+00
1.498054999999999914e+00,-5.671243830792560559e-02,3.474003057006781053e-02,9.483665227890014648e-01,2.168653660494611682e-02,-3.958729116366366263e-02,3.092605708343607387e-02,-9.643760583264453234e-02,4.619304324441286108e-02,-3.590815141797065735e-02,2.456567243208286899e-01,1.588911655816052093e-01,1.684114183384740476e-02,-2.898966840484579199e-01,-2.836302518844604492e-01,2.073544523791213123e-01,-2.036569654941558782e-01,-1.836302518844604437e-01,1.184236407279968262e-01,5.098130691139365345e-01,-6.768161654472351074e-01,5.985140800476074219e-03,6.473162204736760827e+01,0.000000000000000000e+00
1.521371000000000029e+00,-5.853399131650600246e-02,3.592118413168250007e-02,9.481202960014343262e-01,2.800814966499499611e-02,-3.654449913574131514e-02,3.072855560563324956e-02,-9.848829230461052242e-02,5.163118843438804784e-02,-3.762252256274223328e-02,3.220374908333464847e-01,1.590638982331199214e-01,4.864208727555138496e-04,-3.137665867805480846e-01,-2.975694060325622670e-01,5.287446569621313819e-02,-2.137665867805480790e-01,-1.975694060325622614e-01,-3.594113588333129605e-02,5.102223068132420991e-01,-6.675983071327209473e-01,6.842771768569946289e-01,-9.499331475005353909e+00,0.000000000000000000e+00
1.550510999999999973e+00,-6.226098789670472117e-02,3.801947823416752109e-02,9.473943114280700684e-01,3.948360569385687274e-02,-2.807405173296939616e-02,2.741680151054833037e-02,-9.872100464033416178e-02,4.378846946869927037e-02,-4.674143344163894653e-02,2.445861898542452950e-01,2.375396200805440505e-01,-9.626276056982947804e-02,-3.155950665473937766e-01,5.085739493370056152e-02,2.877135081693427132e-01,-2.155950665473937988e-01,1.508573949337005671e-01,2.079195499420165849e-01,5.106105325317981114e-01,-6.907994151115417480e-01,3.341373205184936523e-01,1.293049066493960026e+02,0.000000000000000000e+00
1.574372000000000105e+00,-6.421490219296084601e-02,3.943025429491726908e-02,9.468281269073486328e-01,4.305073162552096322e-02,-2.253244950346044995e-02,2.494354450469850673e-02,-9.949784358735178080e-02,4.010247692509758682e-02,-5.279472470283508301e-02,1.122439805551918440e-01,3.159036201717225767e-01,-1.314096334974136637e-01,-2.960031926631927490e-01,1.026495814323425126e-01,2.842751622096938435e-01,-1.960031926631927435e-01,2.026495814323425182e-01,2.115608811378479059e-01,5.114928538020696580e-01,-6.753755807876586914e-01,-8.201515674591064453e-02,5.229911705971905889e+01,0.000000000000000000e+00
1.597976999999999981e+00,-6.623201191280296551e-02,4.118874958162919292e-02,9.460627436637878418e-01,4.468091298573703685e-02,-1.648900935103392307e-02,2.294333011973322470e-02,-1.027154408388822743e-01,4.288305017950892056e-02,-5.149656906723976135e-02,4.765239829842717045e-02,2.643047090069317040e-01,-6.070510911390795961e-02,-2.936905562877655251e-01,1.145312130451202337e-01,2.816684564237230681e-01,-1.936905562877654918e-01,2.145312130451202393e-01,2.148327648639678789e-01,5.116673867380467922e-01,-6.695564985275268555e-01,6.015419960021972656e-03,9.959699202423635711e+01,0.000000000000000000e+00
1.621008999999999922e+00,-6.831000405273064680e-02,4.296309288925740516e-02,9.451697468757629395e-01,4.377977475904007432e-02,-9.298605403748494425e-03,2.189846775221891001e-02,-1.026801627952087514e-01,4.093734175878526588e-02,-6.502109020948410034e-02,-1.173208547354833708e-01,3.676758387335402056e-01,-5.912200160727215659e-02,-7.891275882720948098e-02,1.200573325157165416e-01,2.575718967372174206e-01,2.108724117279052804e-02,2.200573325157165472e-01,1.942285180091857799e-01,5.140712975560387532e-01,-6.042373180389404297e-01,4.248777627944946289e-01,-6.709185538676804583e+01,0.000000000000000000e+00
1.651181000000000010e+00,-7.233715040764926441e-02,4.631795017070679255e-02,9.430916309356689453e-01,3.643510402128038311e-02,5.118263789064769753e-03,1.882521946242146291e-02,-8.729227559796513825e-02,4.442986556651019880e-02,-7.702520489692687988e-02,-3.000231378482100530e-01,3.642011098063294705e-01,-7.127186488084458205e-02,9.849541187286375843e-02,1.307603986908251748e-01,-7.526029492600791460e-02,1.984954118728637640e-01,2.068495452404022217e-01,-1.287265062332153265e-01,5.182295906958508391e-01,-4.431922435760498047e-01,-6.258054971694946289e-01,1.307994613228215144e+02,0.000000000000000000e+00
1.674314000000000080e+00,-7.446110159456716115e-02,4.787167303527822132e-02,9.419482946395874023e-01,3.123149419944842506e-02,1.186232471544679257e-02,1.758480625398404357e-02,-9.813796412908737388e-02,3.936917569099745995e-02,-6.796321272850036621e-02,-2.366440057139043429e-01,2.846970830753101089e-01,-7.748381477309741749e-02,4.395380020141601007e-02,1.745005234971064578e-01,-1.639064009571829239e-01,1.439538002014160156e-01,2.196431457996368408e-01,-2.135339498519897294e-01,5.186386612987800016e-01,-3.967552781105041504e-01,8.006691932678222656e-03,-7.932639758660754126e+01,0.000000000000000000e+00
1.697602000000000055e+00,-7.668905326692931901e-02,4.937764894041220265e-02,9.407784342765808105e-01,2.488945929565305332e-02,1.753876711700463886e-02,1.498578439309733966e-02,-1.044625035647653299e-01,3.100709011888813302e-02,-7.882162928581237793e-02,-3.736120633950368308e-01,2.454823685467659722e-01,-1.403418831591980165e-01,1.217895030975341686e-01,2.075074183262283767e-01,-1.590310809155721095e-01,2.217895030975341741e-01,2.211268723011016735e-01,-2.010840654373168834e-01,5.154077672135037869e-01,-6.248612999916076660e-01,1.329492330551147461e-01,9.896750812994964974e+01,0.000000000000000000e+00
1.720936999999999939e+00,-7.891008524421649906e-02,5.077785384213417963e-02,9.395590424537658691e-01,1.869109672025290672e-02,2.058662097557495407e-02,1.212990008986254004e-02,-8.746038479011215838e-02,3.932435529290333187e-02,-8.001332730054855347e-02,-3.092259915723065133e-01,1.021603146954015995e-01,-1.417370088920353322e-01,1.684165603054614546e-01,2.360746737004421336e-01,-1.758134447685892610e-01,2.252922534942626842e-01,2.179230272769927812e-01,-2.096619844436645452e-01,5.144149189814197776e-01,-6.941352486610412598e-01,8.473285436630249023e-01,-5.407923511215363277e+01,0.000000000000000000e+00
1.744280000000000053e+00,-8.216362753469758085e-02,5.287587937333926985e-02,9.376620054244995117e-01,8.086236114149100013e-03,2.070559455941944904e-02,7.013714361235380036e-03,-9.934361552417393659e-02,4.026778823739812080e-02,-7.681483775377273560e-02,-3.457401049397800241e-01,-6.284573774564430892e-02,-1.848898593251595279e-01,2.380764999676113491e-01,2.175769801091640698e-01,-1.964957538264573700e-01,2.254345178604125755e-01,2.132508695125579778e-01,-2.161141991615295466e-01,5.139051049634217883e-01,-7.240100502967834473e-01,-4.019130468368530273e-01,9.930297287103482518e+01,0.000000000000000000e+00
1.773525000000000018e+00,-8.532041719216712505e-02,5.486373474267002004e-02,9.356942772865295410e-01,-1.304337905822114396e-03,1.705394288811201697e-02,2.317275650914034629e-03,-9.636273414889963418e-02,3.118846756921222346e-02,-6.863211095333099365e-02,-2.791826478636150743e-01,-1.862221744178869931e-01,-1.264337688301519769e-01,2.922652033053035892e-01,1.978434021276813115e-01,-2.075348138176163759e-01,2.248066306114196722e-01,2.162535309791564775e-01,-2.140528321266174372e-01,5.136789973564986900e-01,-7.179624438285827637e-01,7.477997541427612305e-01,-7.064630717518384451e+00,0.000000000000000000e+00
1.795938000000000034e+00,-8.823479256148528127e-02,5.564639883663417136e-02,9.344021677970886230e-01,-5.622456095070150171e-03,1.394185449046791980e-02,1.076924871265144603e-03,-9.773051861676236574e-02,3.300310061644426418e-02,-6.829284876585006714e-02,-1.784276531611194150e-01,-1.582310897619666479e-01,-1.817554719463959287e-02,3.178552682948359021e-01,1.708830006580844552e-01,-2.091849854056619662e-01,2.190720319747924694e-01,2.133649885654449463e-01,-2.122359395027160478e-01,5.139527975698627849e-01,-7.140958905220031738e-01,8.641374111175537109e-02,1.057911403183591830e+02,0.000000000000000000e+00
1.820173999999999959e+00,-9.114153475932072757e-02,5.639922935679805849e-02,9.331980943679809570e-01,-7.330760308929842178e-03,9.855279990991450134e-03,8.465817096618943579e-04,-8.194056315205439089e-02,4.544798816458989893e-02,-5.969068035483360291e-02,-2.303752835734296928e-02,-1.970142666535749654e-01,2.017902941307624966e-03,2.986387491226196178e-01,1.108128520007946871e-01,-1.951109899791158009e-01,1.986387491226196123e-01,1.699817240238189753e-01,-1.975296020507812389e-01,5.133723720073947172e-01,-7.219558954238891602e-01,3.789213895797729492e-01,8.293634380825604069e+01,0.000000000000000000e+00
1.850475000000000092e+00,-9.534409432310957111e-02,5.752679762103998090e-02,9.316744208335876465e-01,-6.939242822627202448e-03,3.328520878336460598e-03,1.423816404384765965e-03,-1.007410648129312830e-01,3.004545636301712841e-02,-4.260990023612976074e-02,1.023874985611993582e-01,-2.512467824835153407e-01,-3.311786062028681285e-04,3.191630840301513672e-01,8.728528022766107730e-03,-3.294572937707866689e-02,2.191630840301513616e-01,1.087285280227661133e-01,-3.699166774749755582e-02,5.128131166399906293e-01,-6.967215538024902344e-01,2.799264192581176758e-01,1.054506690486123972e+02,0.000000000000000000e+00
1.876108000000000109e+00,-9.809396149221824568e-02,5.825508697095908850e-02,9.308324456214904785e-01,-5.140286743453530496e-03,-1.217918033965315061e-03,2.157541054046555658e-03,-8.132382234850069058e-02,4.177280164776898258e-02,-4.474105685949325562e-02,8.500255532961899230e-02,-2.037138287189874108e-01,3.477526413338948713e-02,3.206727743148803933e-01,7.067024707794050675e-04,-7.940584275002186831e-02,2.206727743148803600e-01,1.007067024707794106e-01,-8.561975955963134488e-02,5.130677283471077876e-01,-6.999983787536621094e-01,8.734166622161865234e-02,9.593961696899130231e+01,0.000000000000000000e+00
1.898701999999999890e+00,-1.020861912124239740e-01,5.883426458365385858e-02,9.297423958778381348e-01,-2.951467763562817077e-04,-8.732503390258328224e-03,3.651619906536638770e-03,-1.050274001565199844e-01,3.144676184012226705e-02,-3.117251768708229065e-02,1.430430533069695642e-01,-2.577170896046372950e-01,2.746793345421607094e-02,2.839513860792701183e-01,-2.023464441299439864e-02,-1.354293722798909430e-02,2.186646938323974498e-01,7.976535558700560691e-02,-2.419073581695556710e-02,5.128801660540508456e-01,-6.670198440551757812e-01,-3.244042396545410156e-03,9.281086440455936781e+01,0.000000000000000000e+00
1.920833000000000013e+00,-1.046915007280077581e-01,5.901643349228224283e-02,9.291467070579528809e-01,4.035230142632406647e-03,-1.349386726308243745e-02,5.188771929064806866e-03,-8.835001625506334888e-02,4.698106822610095823e-02,-4.058390483260154724e-02,2.281811990074884833e-01,-2.002508767636399234e-01,1.126106474582649619e-01,2.358274611448941682e-01,-1.695341944694518932e-01,1.009107181467504416e-01,1.848090648651123102e-01,-6.953419446945190152e-02,8.561153411865234097e-02,5.144827165496610455e-01,-6.260036230087280273e-01,4.843782186508178711e-01,-6.061949982737226961e+00,0.000000000000000000e+00
1.948414000000000090e+00,-1.086272042684870709e-01,5.936662335804404611e-02,9.283317923545837402e-01,1.131919853375214918e-02,-2.060667793964765515e-02,7.406690740171690060e-03,-1.079942206529718313e-01,3.543049798146791912e-02,-2.498045377433300018e-02,2.518363768016418369e-01,-2.212553139556848736e-01,9.115324933665557017e-02,1.009908822577408050e-01,-2.841406583786010853e-01,1.815015221570994985e-01,1.074453234672546331e-01,-1.841406583786010798e-01,1.594040215015411210e-01,5.161456042768175489e-01,-4.843658208847045898e-01,-1.206587553024291992e-01,9.906759089185784717e+01,0.000000000000000000e+00
1.972874000000000017e+00,-1.112728011919329740e-01,5.953464635498290775e-02,9.277754426002502441e-01,1.688140363099585248e-02,-2.488587242853301795e-02,8.980615445190034962e-03,-9.036439119940110898e-02,4.228480797064372576e-02,-2.349206618964672089e-02,3.084503795490171063e-01,-1.852519965486084386e-01,8.971889766555496415e-02,-5.114143554080134713e-02,-3.132911920547485352e-01,2.191811715359607837e-01,-1.596014499664306571e-02,-2.132911920547485296e-01,1.921717822551727295e-01,5.184613577147385577e-01,-3.603311777114868164e-01,-3.511472940444946289e-01,1.519792632220057556e+02,0.000000000000000000e+00
1.995816000000000034e+00,-1.142260248140851142e-01,5.854905668097677707e-02,9.269270896911621094e-01,2.490851880359118767e-02,-2.962015433102394013e-02,1.019084232757317375e-02,-1.042784693537047308e-01,3.347206112281526924e-02,-1.999888196587562561e-02,2.501802001466837955e-01,-1.036051867409121113e-01,-3.941269991771268258e-03,-2.670030248036835419e-01,-3.232939004898071067e-01,2.452250120831842295e-01,-1.717955410480499212e-01,-2.232939004898071289e-01,2.140287280082702470e-01,5.169985373349419433e-01,-4.339954257011413574e-01,-4.391572475433349609e-01,1.604729381341859451e+01,0.000000000000000000e+00
2.022548000000000012e+00,-1.168293069778236909e-01,5.680214616002196570e-02,9.259639382362365723e-01,3.393610441165983288e-02,-3.264337806518979868e-02,1.081273712287717133e-02,-1.142122031498201684e-01,-4.950889348320068085e-04,-2.225128933787345886e-02,3.339000443696190645e-01,-1.005690100765533335e-01,-1.924337689775510937e-02,-3.205233216285705566e-01,-3.252432942390441895e-01,2.371326061430024945e-01,-2.205233216285705511e-01,-2.252432942390441839e-01,2.035763025283813532e-01,5.141674962604052546e-01,-6.032125949859619141e-01,-5.619800090789794922e-02,6.434110598157214156e+01,0.000000000000000000e+00
2.048038000000000025e+00,-1.194775273173367264e-01,5.489872512978806463e-02,9.249207973480224609e-01,4.291959652217156723e-02,-3.323372674774893731e-02,1.042755199303972875e-02,-9.221133880521865944e-02,1.284306035025975512e-02,-3.358885273337364197e-02,2.496762427699930342e-01,3.473837144428378043e-02,-2.243083297306970592e-02,-3.244131505489349365e-01,-3.230515360832214578e-01,-1.704011681969008485e-01,-2.244131505489349310e-01,-2.230515360832214244e-01,-2.036497950553894098e-01,5.131895643085154779e-01,-7.089530825614929199e-01,3.843533992767333984e-02,1.745766572230477891e+02,0.000000000000000000e+00
2.068538999999999906e+00,-1.212625542181285793e-01,5.356211389562633152e-02,9.241567850112915039e-01,4.876202112750627204e-02,-3.239073784067469930e-02,9.140901716560399445e-03,-1.121917991353030830e-01,-1.078892119668913366e-02,-3.829557821154594421e-02,3.182124132620399726e-01,2.010850498278098780e-02,-6.812837804563981470e-02,-3.265296995639800914e-01,-3.248725771903991921e-01,-1.676959210317098548e-01,-2.265296995639800859e-01,-2.248725771903991588e-01,-1.977214336395263505e-01,5.136033051466472044e-01,-7.152134180068969727e-01,-1.956697702407836914e-01,1.153230722862730175e+02,0.000000000000000000e+00
2.094072000000000155e+00,-1.236833688248808877e-01,5.213592513993210026e-02,9.228321909904479980e-01,5.504313249195585955e-02,-2.682593431942748019e-02,6.053887834940785764e-03,-9.070026193872784970e-02,-2.145377677248194986e-03,-4.652111232280731201e-02,1.158001791290733662e-01,2.961268064233155695e-01,-1.224067847099187395e-01,-3.135904371738433838e-01,6.600196957588194691e-02,2.175997348285969857e-01,-2.135904371738433782e-01,1.660019695758819525e-01,1.962934792041778620e-01,5.147613234908358093e-01,-6.960977911949157715e-01,8.587002754211425781e-03,-1.707961201966890386e+01,0.000000000000000000e+00
2.118774000000000157e+00,-1.259754561093524849e-01,5.100926082208101509e-02,9.212146401405334473e-01,5.635112214126691832e-02,-1.787174495370180693e-02,2.304705118137084958e-03,-1.074481901969512043e-01,-1.370668131407106610e-02,-5.316556990146636963e-02,-5.722274011761153967e-02,3.053304079645332014e-01,-1.409579834316327662e-01,-3.093058943748474010e-01,1.018243730068206787e-01,1.147230628857388579e-01,-2.093058943748473955e-01,2.018243730068206843e-01,1.044672131538391113e-01,5.160973730841724727e-01,-6.648572683334350586e-01,-6.753766536712646484e-02,1.079919775330990319e+02,0.000000000000000000e+00
2.144222000000000072e+00,-1.282823080579202912e-01,4.981531950996154201e-02,9.192847013473510742e-01,5.166711636920826717e-02,-7.010374787152162668e-03,-1.457473685334475947e-03,-9.161566251138261729e-02,-1.258756816349508242e-02,-6.289676576852798462e-02,-2.255431381094811505e-01,3.847111944751855361e-01,-8.290874952154039801e-02,-7.261750698089600164e-02,1.114160239696502519e-01,1.916164156947429975e-01,2.738249301910400391e-02,2.114160239696502575e-01,1.931839048862457331e-01,5.184064785472417558e-01,-5.931447744369506836e-01,2.371684312820434570e-01,8.811209040656245861e+01,0.000000000000000000e+00
2.169290999999999858e+00,-1.307329784808335948e-01,4.871941001029912038e-02,9.170934557914733887e-01,4.309762401090058703e-02,3.683509827205222464e-03,-1.856458448113550239e-03,-1.040597276970919721e-01,-2.068405038770314286e-02,-6.966505199670791626e-02,-2.886277668291932219e-01,3.122651285796210208e-01,6.917608477511968945e-02,1.041929960250854437e-01,5.775036811828612726e-02,-1.587706576084217114e-01,2.041929960250854492e-01,1.577503681182861328e-01,-1.550922632217407171e-01,5.224412952915219455e-01,-4.192782640457153320e-01,9.669667482376098633e-01,-1.884284584447520672e+01,0.000000000000000000e+00
2.193963999999999803e+00,-1.332299959669339118e-01,4.768273932578042523e-02,9.148510694503784180e-01,3.282189752850341730e-02,1.443826674249026887e-02,-1.701539582590626742e-03,-9.077303024625420214e-02,-2.471308440408098023e-02,-5.198012292385101318e-02,-3.018047698931385914e-01,3.162430465480941533e-01,-6.374678964813602910e-02,8.196578025817868873e-02,1.486177009448192143e-01,-2.294154208441932519e-01,1.819657802581786943e-01,2.191767275333404430e-01,-2.252063512802123801e-01,5.275795432209493541e-01,-8.513975143432617188e-02,1.662575006484985352e-01,1.037491118320113088e+02,0.000000000000000000e+00
2.219780999999999782e+00,-1.356211677369577040e-01,4.642787360255708207e-02,9.128537774085998535e-01,2.314994252529081753e-02,2.084412472507879421e-02,-4.256698701484650481e-03,-9.187835070575731122e-02,-3.448581878649363552e-02,-5.275866016745567322e-02,-3.140658013179568608e-01,1.090936209215006419e-01,-8.897451699980758744e-02,1.244035840034484752e-01,1.829568512493361387e-01,-2.308094849442545449e-01,2.244035840034484808e-01,2.166988849639892578e-01,-2.190801858901977595e-01,5.172590449770824161e-01,-6.621632575988769531e-01,-9.843957424163818359e-02,9.769977720867109383e+01,0.000000000000000000e+00
2.244527999999999857e+00,-1.380025997386338243e-01,4.505874292287689181e-02,9.111379384994506836e-01,1.433539879777419659e-02,2.197539038386442378e-02,-7.271619452952780317e-03,-1.018705531237434486e-01,-3.937619080130886490e-02,-4.326082020998001099e-02,-2.291115056351520352e-01,-3.748160428767315783e-02,-1.087130901914975939e-01,1.389821542815376232e-01,1.776419112773856557e-01,-2.277237516382308868e-01,2.204513311386108454e-01,2.140150308609008734e-01,-2.074972987174987793e-01,5.161660334910184167e-01,-6.974396705627441406e-01,-8.684742450714111328e-02,8.948247224087712937e+01,0.000000000000000000e+00
2.270112000000000130e+00,-1.412863193293328601e-01,4.341900736214960449e-02,9.096548557281494141e-01,8.999166447961524928e-03,1.975611746974248462e-02,-7.874214648838855080e-03,-8.644989190069621299e-02,-3.816482344092880785e-02,-3.301248326897621155e-02,-1.188716520613772171e-01,-7.128322831513120295e-02,-1.173818556842892193e-02,1.519971905270210699e-01,1.694191446049979066e-01,-2.137896297364464127e-01,1.981272339820861761e-01,2.099459230899810847e-01,-1.918443560600280595e-01,5.156001273974005761e-01,-6.985387206077575684e-01,8.931791782379150391e-02,9.463580898851672885e+01,0.000000000000000000e+00
2.298328999999999844e+00,-1.444784578366371530e-01,4.169063431181605633e-02,9.086150527000427246e-01,7.327527876627040401e-03,1.567444811120055626e-02,-5.993810756907267355e-03,-1.003413984200003106e-01,-5.448924727078715419e-02,-9.680535644292831421e-03,1.697971669610987694e-02,-1.891230178375778170e-01,5.596947123292311116e-02,1.564832857170221914e-01,6.626411418442119949e-02,-2.132472059282388421e-01,2.052797913551330511e-01,1.495927512645721380e-01,-1.965996980667114313e-01,5.136889256715735375e-01,-7.190172076225280762e-01,1.588233709335327148e-01,-1.397097846045616336e+02,0.000000000000000000e+00
2.321181000000000161e+00,-1.465144544474440147e-01,4.052663313448447852e-02,9.080681204795837402e-01,7.665759192064310057e-03,1.268475959479786752e-02,-4.216876147109024225e-03,-8.013972054204848705e-02,-4.216133794556779085e-02,-1.806636899709701538e-02,-7.814119481932490022e-03,-1.184102658640444755e-01,8.256662803288043750e-02,5.110016730993786893e-02,9.467661593422337096e-02,-2.033767245924428813e-01,9.065026044845581055e-02,1.815405428409576361e-01,-1.917464733123779297e-01,5.146815436739280436e-01,-7.055245637893676758e-01,-4.331556558609008789e-01,8.110610582769191979e+01,0.000000000000000000e+00
2.343837999999999866e+00,-1.485284145846966775e-01,3.931477379005796774e-02,9.075839519500732422e-01,9.112266570902392143e-03,8.913955062924250328e-03,-2.006810229439950476e-03,-8.141464979687462744e-02,-4.908056986093011637e-02,-1.182156149297952652e-02,1.395663943297458520e-01,-1.901966884478095976e-01,1.474076204291723258e-01,7.853291929727837517e-02,1.291735172271726850e-02,3.908080336454133191e-03,1.349712610244750977e-01,1.129173517227172741e-01,9.284037351608275673e-03,5.149946241471495822e-01,-6.716420054435729980e-01,1.251708269119262695e-01,-2.109473872326089960e+01,0.000000000000000000e+00
2.369540999999999897e+00,-1.512022716848623327e-01,3.727821117432916082e-02,9.070753455162048340e-01,1.243852097198018015e-02,3.454928295888448631e-03,8.283368622273819867e-04,-8.254658040412805875e-02,-4.008114557205045420e-02,-1.029423903673887253e-02,1.178714110621273264e-01,-1.583512136733126741e-01,8.540900952179905636e-02,8.167960489528600099e-02,-6.471418142318727251e-02,1.392067192711324806e-02,1.526377916336059404e-01,3.528581857681273998e-02,1.113381385803222622e-02,5.156288760840720409e-01,-6.390590071678161621e-01,-1.078900098800659180e-01,1.005836538309797277e+02,0.000000000000000000e+00
2.394051000000000151e+00,-1.536697296221105347e-01,3.507912351170383580e-02,9.067437648773193359e-01,1.664908428060941567e-02,-1.378398003150094198e-03,3.893141481445357242e-03,-8.147120439561507388e-02,-6.163978236140613132e-02,5.234568379819393158e-03,1.274709753731813056e-01,-1.801826079181199081e-01,1.230745090497301908e-01,-1.378924965858459584e-01,-2.114831924438476674e-01,-1.209116631133360376e-01,-3.789249658584594588e-02,-1.114831924438476479e-01,-1.324292778968811091e-01,5.151307955637142166e-01,-6.102372407913208008e-01,2.023319005966186523e-01,1.095312972663448079e+02,0.000000000000000000e+00
2.419769000000000059e+00,-1.559548712251066782e-01,3.286237645444745059e-02,9.064822793006896973e-01,2.073839620237059519e-02,-4.416237357173002920e-03,6.525782378209736036e-03,-6.549694911635177419e-02,-5.059925750491186397e-02,3.291328204795718193e-03,1.530165092367442303e-01,-9.324594349725566500e-02,9.982165985303588507e-02,-2.606783926486969105e-01,-2.925493478775024192e-01,-7.472984002589490304e-02,-1.606783926486969050e-01,-1.925493478775024414e-01,-9.389119148254394809e-02,5.154988215673894647e-01,-6.029491424560546875e-01,2.463213205337524414e-01,7.735217238815037888e+01,0.000000000000000000e+00
