timestamp,x,y,z,roll,pitch,yaw,vx,vy,vz,p,q,r,psp,qsp,rsp,pres,qres,rres,thrust_sp, thrust_res,wind_mag,wind_angle,wind_obs
0.000000000000000000e+00,-2.034566675242890227e-02,3.065562944195837983e-02,9.940657019615173340e-01,1.210782589660987750e-02,-4.464207961759392163e-03,1.429765080693302676e-03,2.920917365840500907e-02,-7.875944848312759622e-03,2.685448853299021721e-03,4.462847652622823659e-03,1.896593689826705370e-02,-1.981816479078340673e-02,-2.902057702026415997e-01,2.058114547119368198e-01,2.259112345229861152e-01,-2.244061589241027888e-01,2.239392042160034124e-01,2.218528568744659313e-01,5.056792932877186564e-01,-3.458166122436523438e-01,7.069647312164306641e-02,-8.807028623374739240e+00,2.477922677993774359e-01
2.538299999999999931e-02,-2.022819709576132927e-02,3.086884500380030968e-02,9.941548109054565430e-01,1.214513253720973449e-02,-4.873647403160319413e-03,1.395134900904254323e-03,3.302793520692721974e-02,-1.252392006557511220e-02,2.311822492629289627e-03,4.416031733561712191e-03,-4.820779310123345096e-02,3.706285604158305116e-03,1.393579140708048614e-01,2.416953127099272930e-02,-2.097629489164431205e-01,2.077924132347106767e-01,4.606111049652099332e-02,-2.137342214584350419e-01,4.992253987683018535e-01,-6.861540675163269043e-01,7.404872179031372070e-01,-3.476911895108492701e+01,2.477922677993774359e-01
5.035200000000000092e-02,-1.995005941406335567e-02,3.119972623759316790e-02,9.943656325340270996e-01,1.256300531350545806e-02,-4.955152653475014546e-03,1.157420751442860994e-03,1.686761566368516832e-02,-1.356059474233797454e-02,7.843551225960254669e-03,3.266533679005967361e-02,7.396369316320825296e-03,-2.253836209038242999e-02,-2.784483219657156727e-01,1.864361783052890242e-01,2.246060513541626447e-01,-2.074423849582671953e-01,2.222937226295471080e-01,2.212555825710296464e-01,5.075557135974250178e-01,-2.250841259956359863e-01,2.278143167495727539e-01,9.309201548136459792e+01,2.477922677993774359e-01
7.810200000000000475e-02,-1.967300695038988814e-02,3.153062714996039684e-02,9.944942593574523926e-01,1.282570066744712772e-02,-5.207608971413035803e-03,8.815914228129346575e-04,2.064462856752337372e-02,-1.107024918312503499e-02,2.391062909737229347e-03,2.014892218721075351e-02,-8.961103581532308196e-03,1.551358237824683808e-02,1.309070807064865727e-01,-4.976848913321751250e-02,-2.109052001504194696e-01,2.011989355087280273e-01,-1.787588596343994002e-02,-2.134755849838256836e-01,4.999095068972949640e-01,-6.487585306167602539e-01,-5.657292604446411133e-01,1.169009142864376543e+02,2.477922677993774359e-01
9.775799999999999768e-02,-1.954686302063312134e-02,3.166920438189484155e-02,9.945687651634216309e-01,1.288775573970436274e-02,-5.068711734408815062e-03,7.947783043468390710e-04,2.653428865851665056e-02,-1.704263020981611892e-02,-1.513671362772583961e-03,-2.139567013868348341e-02,1.858439153383955114e-02,2.009935823695370785e-02,-2.971012752066445883e-01,1.930290120386777830e-01,2.227064908976639779e-01,-2.213491201400756836e-01,2.197285115718841386e-01,2.203999042510986217e-01,5.014044412296939646e-01,-5.859004259109497070e-01,2.629816532135009766e-02,-1.772001738643847091e+01,2.477922677993774359e-01
1.268229999999999913e-01,-1.901377281187627971e-02,3.182121150036843621e-02,9.947236180305480957e-01,1.366554877352342372e-02,-5.199964225714337474e-03,2.082630337929942520e-03,2.133317119776255780e-02,-1.073010471064347014e-02,4.540930502116680145e-03,2.846941937781488630e-02,-2.159473228269021688e-02,3.761061803582403662e-02,1.126737978547900781e-01,-1.307435864853714325e-01,-2.022247570693739560e-01,1.873382806777953991e-01,-9.852522611618041992e-02,-2.081660985946655329e-01,5.015548295739333806e-01,-5.535418987274169922e-01,2.403628826141357422e-02,1.045662620039332893e+02,2.477922677993774359e-01
1.526109999999999967e-01,-1.843612976744679610e-02,3.147454772448422811e-02,9.946928620338439941e-01,1.349224864048051073e-02,-5.994041569678865145e-03,1.389914011072345638e-03,2.309424478141723289e-02,-1.142994987469374453e-02,-2.940099220722913742e-03,-3.399336856298479370e-02,-6.780728013283301991e-02,-6.264483242086094084e-02,-2.293784707906091347e-01,1.744965075753730777e-01,-2.025668504373314971e-01,-1.541767537593841386e-01,2.093367397785186601e-01,-2.065742969512939509e-01,5.038200590687405001e-01,-4.645735621452331543e-01,7.907701730728149414e-01,4.286667704235022569e+01,2.477922677993774359e-01
1.725069999999999937e-01,-1.815589741510130820e-02,3.135158270554444515e-02,9.946034550666809082e-01,1.279452937581108778e-02,-6.950590394237510239e-03,1.257899319943433548e-03,1.458842177187259434e-02,-1.505383208891872618e-02,-7.204909808933734894e-03,-2.304508952153847684e-02,-1.237897117815660170e-01,-1.712097651717146840e-02,-8.366180995258568065e-02,6.391720820282288662e-02,-2.111326788601896320e-01,-1.015418171882629360e-02,1.119243621826171847e-01,-2.148024559020995927e-01,5.001408404139570107e-01,-6.755346655845642090e-01,1.094855904579162598e+00,-8.503147530785348351e+00,2.477922677993774359e-01
1.981340000000000046e-01,-1.764839281080430103e-02,3.107195638598685486e-02,9.943051338195800781e-01,1.072365419921778203e-02,-8.192464678162814096e-03,1.313634078471284097e-03,1.617913642817691774e-02,-1.194020075107202726e-02,-2.435804717242717743e-02,-1.421454084760472580e-01,-6.071958082958551356e-02,-2.229218834838118252e-02,-2.122860163490226104e-01,-3.369500410034858423e-02,-2.135081114485651854e-01,-1.551110744476318359e-01,1.953867673873901228e-02,-2.173313498497009277e-01,5.010373932781949646e-01,-6.990167498588562012e-01,-6.846082210540771484e-02,1.081688794326023668e+02,2.477922677993774359e-01
2.243400000000000116e-01,-1.713324934449187223e-02,3.082167194282606215e-02,9.939343929290771484e-01,8.346587408787619136e-03,-1.058812345200998983e-02,2.673392976970211986e-05,2.585295734383368307e-02,-6.442633895375582398e-03,-2.452070079743862152e-02,-1.645198815219138244e-01,-8.420790971456690310e-02,-1.104569083999869528e-01,-5.575350050641368627e-02,-1.294835355349414907e-01,-2.145084892293075141e-01,-1.791846156120300085e-02,-6.852031946182250699e-02,-2.147261023521423173e-01,5.051019922982422639e-01,-4.889550209045410156e-01,-3.654396533966064453e-02,9.691504311454998799e+01,2.477922677993774359e-01
2.490910000000000069e-01,-1.668777101591797582e-02,3.063891906725875816e-02,9.933665394783020020e-01,5.047976279019336307e-03,-1.320106941922882804e-02,-2.961916453164389678e-04,1.356784123850493691e-02,-7.668082086782506204e-03,-3.143441677093505859e-02,-1.643543670977049842e-01,-1.249935359291502734e-01,3.883588447230967855e-02,9.684764244609546380e-02,-2.700729029254627656e-01,-2.249568718423317071e-01,1.150835752487182617e-01,-1.811347961425781306e-01,-2.242671847343444824e-01,5.017779110173766766e-01,-6.952816843986511230e-01,-2.064241170883178711e-01,8.068235406139515931e+01,2.477922677993774359e-01
2.748760000000000092e-01,-1.614128157160218263e-02,3.064612964613091378e-02,9.926679134368896484e-01,2.382810908365918471e-03,-1.476251123360294848e-02,6.445554296172494339e-04,6.830928832181170328e-03,-1.789632778448572569e-04,-3.090611658990383148e-02,-1.119251274951939268e-01,-5.789766147482759001e-02,4.070800369815155001e-02,1.975746225104469955e-01,-2.717238903045654519e-01,-2.234474866303985674e-01,1.922261238098144365e-01,-1.717238903045654186e-01,-2.253754377365112249e-01,5.014878215810681938e-01,-7.131404280662536621e-01,3.260219097137451172e-02,9.831984910228152330e+01,2.477922677993774359e-01
2.999470000000000192e-01,-1.567114351363090366e-02,3.065518881368930332e-02,9.918811917304992676e-01,-4.909649192739418914e-04,-1.610390939962091927e-02,2.569586352013900239e-03,1.416237883366386341e-02,-5.825763485112928422e-03,-4.738616943359375000e-02,-1.829137037601883398e-01,-2.359149175475903221e-02,1.360337099854222465e-01,2.239803250476444241e-01,-1.047750473022460993e-01,-2.142851601442737064e-01,2.055828809738159124e-01,-4.775047302246093750e-03,-2.215213537216186579e-01,5.033785583258476581e-01,-6.847422719001770020e-01,-3.745266199111938477e-01,1.851797745886838982e+02,2.477922677993774359e-01
3.244070000000000009e-01,-1.527714151792142205e-02,3.070604725841953944e-02,9.909830093383789062e-01,-2.814149731736653639e-03,-1.747882830931857256e-02,4.526067715183663097e-03,7.694514783774051257e-03,3.185102435381371999e-03,-5.008210986852645874e-02,-1.366516879764642090e-01,-4.006103406893168212e-02,7.734515070533179437e-02,2.541354729121879097e-01,-1.780280709266662820e-01,-2.124983013008180932e-01,2.125456809997558483e-01,-7.802807092666626254e-02,-2.251909375190734863e-01,5.035015154528031944e-01,-6.954970359802246094e-01,-7.217013835906982422e-02,1.439073729816413483e+01,2.477922677993774359e-01
3.499470000000000081e-01,-1.494497091049307690e-02,3.076907820311489128e-02,9.898496866226196289e-01,-5.847946918896971234e-03,-1.866926303182236957e-02,7.029569252428064831e-03,-1.840683022098789671e-03,1.127018888661505741e-03,-6.037580594420433044e-02,-1.891183210612389642e-01,-5.213252475815023657e-02,1.489625472997470335e-01,2.746876819370754896e-01,-2.481014966964721624e-01,-2.052324501346896313e-01,2.162622213363647461e-01,-1.481014966964721569e-01,-2.248374581336975153e-01,5.045788439301087669e-01,-6.874222755432128906e-01,5.820405483245849609e-02,7.535844699961282345e+01,2.477922677993774359e-01
3.754299999999999859e-01,-1.437601820101736851e-02,3.066388353201743300e-02,9.879495501518249512e-01,-1.013396591473269236e-02,-1.873747746080378640e-02,1.062752670133784716e-02,7.023571693451479553e-03,1.679107421232966732e-02,-6.658419221639633179e-02,-1.094807296192826379e-01,3.960384508869032455e-02,1.197069668508566748e-01,3.150611701431194622e-01,9.538823366165161133e-02,-1.399795698415541023e-01,2.161508560180664118e-01,1.953882336616516169e-01,-1.696006178855895830e-01,5.065803888138880051e-01,-6.178470849990844727e-01,-4.683017730712890625e-01,1.015530489195012933e+02,2.477922677993774359e-01
3.992890000000000050e-01,-1.386879434477625642e-02,3.017731316282235010e-02,9.866750836372375488e-01,-1.158068608667947585e-02,-1.738492848311445904e-02,1.303738683419532023e-02,-7.036891862592677387e-04,1.805944876942171956e-03,-5.565650388598442078e-02,-2.995120556744360757e-02,7.183486523431734105e-02,1.200045464839258752e-01,-1.263087055797477432e-01,1.202367186546325628e-01,2.600761969614603930e-01,-2.203753352165222223e-01,2.202367186546325684e-01,2.238026261329650879e-01,5.103086110758506821e-01,-3.853668570518493652e-01,1.447021961212158203e-02,-6.555563485185817107e+00,2.477922677993774359e-01
4.251570000000000071e-01,-1.308719429386885624e-02,2.952743160906367084e-02,9.846296906471252441e-01,-1.108267745167591280e-02,-1.241104183466323896e-02,1.684946175574644767e-02,1.273991071065766825e-02,1.527963406512476349e-02,-7.097236812114715576e-02,4.791329611041841158e-02,2.268586711811903522e-01,1.271180527332050614e-01,-1.223916053771972601e-01,9.936084695614888496e-02,2.642139723167353793e-01,-2.223916053771972656e-01,1.777667462825775202e-01,2.171422719955444225e-01,5.071636935354815190e-01,-6.251834630966186523e-01,1.070334792137145996e+00,-3.435806109136063924e+01,2.477922677993774359e-01
4.503960000000000186e-01,-1.262014724402695312e-02,2.907591863689210770e-02,9.831803441047668457e-01,-8.437268975235416232e-03,-8.906720294890035916e-03,1.950098369653080477e-02,-9.171730704629428490e-04,-2.947878551285153075e-03,-6.355249881744384766e-02,1.910378438342301144e-01,1.176009524552987101e-01,1.463366554346317294e-01,-1.524902523526352749e-01,1.550419052586750612e-01,2.776389959269851548e-01,-2.222288489341735784e-01,2.233302891254425049e-01,2.231272101402282659e-01,5.092010995004511154e-01,-4.975022077560424805e-01,-1.442149877548217773e-01,1.109404831128816227e+01,2.477922677993774359e-01
4.767009999999999859e-01,-1.198340289066214016e-02,2.837342475992837149e-02,9.809480309486389160e-01,-2.658377639972223615e-03,-3.619676983386277414e-03,2.346045951612479863e-02,9.896749558173946124e-03,1.421722477669947610e-02,-8.391917496919631958e-02,2.137213447391250742e-01,2.210864955408798627e-01,1.062265860861504596e-01,-1.744224226715778703e-01,1.744539694791186202e-01,2.850505506849345116e-01,-2.223236739635467418e-01,1.969851315021514948e-01,2.193514108657836914e-01,5.094375380955159516e-01,-5.794965028762817383e-01,1.225219607353210449e+00,9.857872693220335236e+01,2.477922677993774359e-01
5.016399999999999748e-01,-1.146917354176327924e-02,2.775548534716244797e-02,9.793394804000854492e-01,2.107816987473596151e-03,-1.345289807850313935e-04,2.631501045302869768e-02,-5.629995453437221416e-03,-9.240541245360930911e-03,-8.335128426551818848e-02,2.328538213682405100e-01,1.623389678550966331e-01,1.724843027031665033e-01,-2.286075984574728048e-01,2.011711195438125044e-01,2.944514190542937282e-01,-2.246722161769866832e-01,2.147652626037597490e-01,2.207592666149139349e-01,5.104394038215794849e-01,-5.354240536689758301e-01,-8.825671672821044922e-02,9.693524681411489041e+01,2.477922677993774359e-01
5.267079999999999540e-01,-1.066429479543830848e-02,2.682494324890895634e-02,9.768703579902648926e-01,1.117123673880280471e-02,3.969061556603259433e-03,2.903188978199342310e-02,1.361024446917951866e-02,1.360519411711621184e-02,-8.611349761486053467e-02,3.264872249724620201e-01,1.245241924930397120e-01,2.622612103289557670e-02,-2.612181195453401328e-01,2.534954620926782032e-01,2.857027564776472017e-01,-2.190244674682617076e-01,2.216851651668548528e-01,2.045212984085083008e-01,5.104152387372115074e-01,-5.629824399948120117e-01,-4.456337690353393555e-01,1.160303247144494918e+02,2.477922677993774359e-01
5.512010000000000520e-01,-1.010634985690088417e-02,2.617418013073294358e-02,9.750714898109436035e-01,1.595514323421731717e-02,4.775437251316017040e-03,2.847630743612225568e-02,2.645600989859875178e-03,-9.279992968551227864e-03,-8.550295233726501465e-02,2.102209705496696224e-01,-3.098465448396896769e-03,-3.944229782089547776e-02,-2.100192567060030213e-01,2.447153393235362850e-01,-3.012806795797629000e-02,-1.154140591621398843e-01,2.190292418003082220e-01,-1.097652912139892578e-01,5.138361683579059092e-01,-3.906375169754028320e-01,-5.189311504364013672e-02,8.804159602413875518e+01,2.477922677993774359e-01
5.773350000000000426e-01,-9.251098449373143864e-03,2.545839767292349190e-02,9.720247387886047363e-01,1.812017078500396255e-02,4.279243992008963104e-03,2.610148540795515990e-02,1.062339587806639118e-02,1.675288462735023687e-02,-1.098123863339424133e-01,8.035539670281980490e-03,-3.047880646377086264e-02,-7.827256276621213926e-02,-2.777815279792902325e-01,2.564675822028097407e-01,2.564449733761428596e-01,-1.921103239059448187e-01,2.251738429069518876e-01,1.835149705410003551e-01,5.175730567092261536e-01,-3.054772615432739258e-01,-2.140728235244750977e-01,9.413338710335976600e+01,2.477922677993774359e-01
6.011649999999999494e-01,-8.926561996336089544e-03,2.486400400219557910e-02,9.697534441947937012e-01,1.663204472970258516e-02,2.599722180206764932e-03,2.383210195951079510e-02,2.609455542746783388e-03,1.653537246436656083e-03,-1.186176165938377380e-01,-9.120869944061034407e-02,-1.020206648025013818e-01,-1.206874437872661465e-01,-3.096809785845535679e-01,2.286675207692275558e-01,1.019620872833089387e-01,-2.179495453834533747e-01,2.159473836421966497e-01,3.528449535369872908e-02,5.195047263343776089e-01,-2.525310516357421875e-01,-5.036529302597045898e-01,6.806144172058638731e+01,2.477922677993774359e-01
6.259959999999999969e-01,-8.429979622893293140e-03,2.403652507434623359e-02,9.661551117897033691e-01,1.277982740420124594e-02,-1.491949867067798863e-03,2.020156115717736470e-02,1.283492919721111909e-02,1.685102964263360259e-02,-1.257417947053909302e-01,-1.698953512018255563e-01,-1.583946590512740338e-01,-1.071749494743866188e-01,-2.547330617087199545e-01,1.915441291915551125e-01,-7.282095260553939076e-02,-2.012746810913085826e-01,1.960468590259552002e-01,-1.294029235839843639e-01,5.168184459083794424e-01,-4.475189447402954102e-01,-5.634891986846923828e-02,9.534662677543995812e+01,2.477922677993774359e-01
6.502329999999999499e-01,-8.111052010867930359e-03,2.358944414778934087e-02,9.636318683624267578e-01,9.509048586878196194e-03,-5.242041400252084316e-03,1.715572851453693939e-02,1.272319791795957326e-02,9.409087687071960096e-03,-1.308994293212890625e-01,-2.085841253722730548e-01,-1.867996277232470415e-01,-1.875524059739325233e-01,-2.226230717583186081e-01,1.326961456272487128e-01,-3.752596936435576014e-02,-1.822416365146636852e-01,1.632195353507995550e-01,-8.564651012420654297e-02,5.202690413896742250e-01,-3.003822565078735352e-01,-1.290436983108520508e-01,1.174112113797076518e+02,2.477922677993774359e-01
6.725370000000000514e-01,-7.697421583935853961e-03,2.297186220921276431e-02,9.595859646797180176e-01,2.860051251284054068e-03,-1.104305024291063475e-02,1.280924764355420749e-02,1.807432369846850232e-04,1.659989656284711554e-02,-1.324972212314605713e-01,-2.396051186526110266e-01,-2.170641856164759187e-01,-9.685059901039146102e-02,-2.347518244069962678e-02,-1.379366851785326364e-01,-1.842915782551255988e-01,-3.268311023712158064e-02,-6.006059646606445174e-02,-2.202773094177246094e-01,5.140276949207640556e-01,-6.666690707206726074e-01,-7.517707347869873047e-02,9.960798179861090773e+01,2.477922677993774359e-01
6.975489999999999746e-01,-8.037002650545875537e-03,2.233553700394461453e-02,9.567789435386657715e-01,-1.968966773783279584e-03,-1.543986161938404322e-02,1.107424999708132851e-02,4.880577732421099123e-03,1.539837280713227639e-02,-1.362715661525726318e-01,-2.415235947648856907e-01,-2.120439194565657548e-01,-7.363282150768385437e-02,1.695299768150263231e-01,-2.479862332344055231e-01,-1.924840251943062686e-01,1.312750697135925126e-01,-1.479862332344055176e-01,-2.235343694686889593e-01,5.143426578937904114e-01,-6.847614049911499023e-01,-4.018417596817016602e-01,1.079740687770952690e+02,2.477922677993774359e-01
7.276559999999999695e-01,-8.592413066517054152e-03,2.158847810849999493e-02,9.524895548820495605e-01,-1.005185599378714476e-02,-2.264448263913876325e-02,7.789642746291172357e-03,-1.676693538392773006e-02,1.713462774212669640e-02,-1.463239043951034546e-01,-2.671069212028953643e-01,-2.288869258125591499e-01,-9.466802889276855482e-02,3.007388496293672553e-01,-3.004781723022461049e-01,-2.040034690835967335e-01,2.087609052658080944e-01,-2.004781723022460993e-01,-2.256010651588439830e-01,5.154167004232971250e-01,-6.936951875686645508e-01,-1.540497541427612305e-01,8.939645283846999746e+01,2.477922677993774359e-01
7.521919999999999717e-01,-9.050472582748400260e-03,2.124794760516928935e-02,9.496045708656311035e-01,-1.592306624061094050e-02,-2.781220623734648179e-02,5.842759114058761021e-03,-1.052334755596232019e-02,2.840953394096490739e-02,-1.458738893270492554e-01,-3.267805427607352042e-01,-2.373036182993430721e-01,-1.049186763807390260e-01,3.201122999191284291e-01,-3.062829375267028809e-01,-2.107137736448575493e-01,2.201122999191284235e-01,-2.062829375267028753e-01,-2.266364693641662598e-01,5.157575329712783541e-01,-6.949244141578674316e-01,-7.100260257720947266e-02,9.683062197640862223e+01,2.477922677993774359e-01
7.761609999999999898e-01,-1.001628212576640732e-02,2.110335477663809883e-02,9.455107450485229492e-01,-2.499083019819750909e-02,-3.549284645572270414e-02,4.663913616922379934e-03,-2.386516454068135507e-02,3.691387847628453678e-02,-1.376693695783615112e-01,-3.037397287676005253e-01,-2.359883120794963041e-01,-4.825929175536764620e-02,3.232595682144164817e-01,-3.111974239349365456e-01,-2.155351990537643092e-01,2.232595682144165039e-01,-2.111974239349365123e-01,-2.275634050369262640e-01,5.151770076042162527e-01,-7.195749878883361816e-01,-2.296751737594604492e-01,9.654029795554806981e+01,2.477922677993774359e-01
8.011589999999999545e-01,-1.052506405937606200e-02,2.090094472477114010e-02,9.428462386131286621e-01,-3.066117588433439969e-02,-3.991480622707710424e-02,4.534077806415240212e-03,-3.565973462834366725e-02,4.522864663197796731e-02,-1.299897581338882446e-01,-2.637522893619207998e-01,-2.366139044973554206e-01,1.139437308754261309e-02,3.248453617095947155e-01,-3.136284351348876953e-01,-2.167723834053285614e-01,2.248453617095947099e-01,-2.136284351348876898e-01,-2.279856562614440696e-01,5.146776607718511753e-01,-7.360481023788452148e-01,2.392288446426391602e-01,5.987995426479997008e+01,2.477922677993774359e-01
8.255540000000000100e-01,-1.113992980857203899e-02,2.045772956269549178e-02,9.389937520027160645e-01,-3.707349231401571577e-02,-4.352685874957984424e-02,5.135970489845540117e-03,-3.284579720667299418e-02,5.559928526393179832e-02,-1.239676102995872498e-01,-1.356565069202897988e-01,-6.802707883744338324e-02,-2.100918632215199693e-03,3.261522769927978072e-01,-3.108384370803832786e-01,-2.157165035358847571e-01,2.261522769927978294e-01,-2.108384370803833008e-01,-2.281519889831542802e-01,5.146559724570536343e-01,-7.379909157752990723e-01,8.749568462371826172e-02,1.043819288586129801e+02,2.477922677993774359e-01
8.502769999999999495e-01,-1.162026632930748815e-02,2.033439677769765391e-02,9.365727901458740234e-01,-3.936323975567537076e-02,-4.348447227480001231e-02,5.975525195341438965e-03,-3.946854697013671420e-02,5.204243013429511733e-02,-1.192281544208526611e-01,-1.015882636907494974e-01,4.331485292215812161e-02,5.324460971434733653e-02,3.256912231445312500e-01,-2.785291194915771595e-01,-2.123447674751873238e-01,2.256912231445312444e-01,-1.785291194915771540e-01,-2.268966794013976829e-01,5.145980112462331668e-01,-7.410587072372436523e-01,-1.807510852813720703e-02,8.921210603277134510e+01,2.477922677993774359e-01
8.744769999999999488e-01,-1.220372729722682056e-02,2.031720017326501398e-02,9.342741966247558594e-01,-3.919509216300286897e-02,-4.130729592571258380e-02,6.922239632992547437e-03,-4.097959639324953024e-02,6.011837311321783367e-02,-1.188996061682701111e-01,7.811468521595596459e-02,1.549434734804275016e-01,6.132971702516870627e-02,9.674935936927796243e-02,5.027603507041930597e-02,2.229913278277421695e-01,-3.250640630722045725e-03,1.502760350704193115e-01,2.056161761283874512e-01,5.153727857404574175e-01,-7.167561650276184082e-01,1.461006402969360352e-01,9.530832307457453112e+01,2.477922677993774359e-01
8.993780000000000108e-01,-1.297956758839913238e-02,2.000854325776035142e-02,9.311234951019287109e-01,-3.464258173033665095e-02,-3.576915665862379079e-02,8.493788967249303601e-03,-5.129289492005811857e-02,5.532911375596288178e-02,-1.084621921181678772e-01,2.442814930938210227e-01,2.000325473713744917e-01,6.564212186982083808e-02,2.422843933105468806e-01,8.048035502433775745e-02,2.416295781825217592e-01,1.422843933105468750e-01,1.804803550243377630e-01,2.194440186023711992e-01,5.145730076501305872e-01,-7.396960258483886719e-01,2.029925584793090820e-01,1.144438835061198034e+02,2.477922677993774359e-01
9.241519999999999735e-01,-1.344537287952111276e-02,1.896538904420843122e-02,9.283141493797302246e-01,-2.556557691334794200e-02,-2.780734042925692151e-02,1.032131251749997432e-02,-4.152221869035891549e-02,6.827215859146684718e-02,-8.942709863185882568e-02,3.674836732746529777e-01,2.626197334395886096e-01,8.674352331735409039e-02,1.887801527976989968e-01,1.154758334159851074e-01,2.510922035563851740e-01,8.878015279769897738e-02,2.154758334159851130e-01,2.229445695877075029e-01,5.137279116382656996e-01,-7.289644479751586914e-01,-7.502639293670654297e-02,-6.365480174358008336e-02,2.477922677993774359e-01
9.497050000000000214e-01,-1.387703457024725903e-02,1.845268300298743766e-02,9.265430569648742676e-01,-1.858192607264836857e-02,-2.138599684786934851e-02,1.136246436526000374e-02,-5.988623258169720881e-02,5.154887332238960312e-02,-9.427229315042495728e-02,3.373987722896265584e-01,3.300987065352122274e-01,4.611313951717899845e-02,-6.696575880050659180e-02,1.140523493289947454e-01,2.536067037564068150e-01,-1.669657588005065973e-01,2.140523493289947510e-01,2.222610354423522894e-01,5.145021188285309188e-01,-7.220342159271240234e-01,1.942502260208129883e-01,1.018465148273800622e+02,2.450439214706420787e-01
9.755709999999999660e-01,-1.430705170060668670e-02,1.807344303960874490e-02,9.248588085174560547e-01,-1.097195593285541122e-02,-1.436888257257806778e-02,1.291694277441794020e-02,-5.541450560688959692e-02,7.351576221332617456e-02,-9.306896477937698364e-02,3.618150406475671987e-01,3.912204524703947195e-01,9.099950743976867318e-02,-8.910058140754698042e-02,1.094071030616760032e-01,2.559515287274405360e-01,-1.891005814075469860e-01,2.094071030616760087e-01,2.198110163211822454e-01,5.148602532979048574e-01,-7.135346531867980957e-01,-4.218399524688720703e-02,-6.698850096424742162e+01,2.450439214706420787e-01
9.994950000000000223e-01,-1.527532999371952575e-02,1.787794177625717101e-02,9.224600195884704590e-01,1.322798629109869046e-03,-3.392774206508297752e-03,1.484981436691936232e-02,-6.114539268790854243e-02,6.049553789610254834e-02,-8.303743600845336914e-02,4.555732511735097745e-01,3.480996965367012530e-01,3.178956003815236464e-02,-1.657728876566890719e-01,1.458886189743388573e-01,2.646502915242413545e-01,-2.103128671646118109e-01,2.180116295814513994e-01,2.229238271713256669e-01,5.153504980041582195e-01,-6.649494171142578125e-01,1.594575643539428711e-01,8.667469758630078047e+01,2.450439214706420787e-01
1.025676999999999950e+00,-1.607252631288176928e-02,1.810769974087669820e-02,9.209533929824829102e-01,8.207468430406390097e-03,2.963752809108655129e-03,1.419891015730877400e-02,-4.886476101196182698e-02,6.727946529097601769e-02,-9.181269258260726929e-02,2.540497478664874298e-01,3.162175315383150553e-01,-6.952385307922651081e-02,-2.125157084930869023e-01,1.867056169086802053e-01,2.595592637184082618e-01,-2.196313440799713135e-01,2.076533675193786566e-01,2.197225391864776611e-01,5.166393412063229329e-01,-6.449808478355407715e-01,-4.462249279022216797e-01,9.919055478748558130e+01,2.450439214706420787e-01
1.056640999999999941e+00,-1.739056915576566928e-02,1.861904466440690922e-02,9.187670350074768066e-01,1.693748451686138620e-02,8.014863589369758401e-03,1.097806566226081949e-02,-5.898757443217694102e-02,6.224231181147054509e-02,-9.412701427936553955e-02,2.226593927197579315e-01,8.796233892066324112e-02,-1.081683049338379721e-01,-2.699714424420440739e-01,2.197938458885407842e-01,2.547672707362327871e-01,-2.160794913768768200e-01,2.184763133525848278e-01,2.240353524684906006e-01,5.187745240577743555e-01,-5.568376779556274414e-01,2.480438947677612305e-01,1.034536241881382068e+02,2.450439214706420787e-01
1.078812000000000104e+00,-1.833403584848352155e-02,1.895269671224160749e-02,9.173279404640197754e-01,2.183967508768669061e-02,8.511441815537645894e-03,8.089758078698690638e-03,-5.813759628184773237e-02,6.663150573812011424e-02,-9.121460467576980591e-02,2.307551610383234697e-01,3.387320022073215392e-02,-1.585335713293409554e-01,-2.903690552787580037e-01,2.174736417081380990e-01,2.469022869680982113e-01,-2.090196847915649359e-01,2.117884755134582520e-01,2.242883205413818415e-01,5.201125334054352845e-01,-4.876780509948730469e-01,4.608761072158813477e-01,9.574979918176747162e+01,2.450439214706420787e-01
1.103568000000000104e+00,-1.930480257537998609e-02,1.932979789575473353e-02,9.158782362937927246e-01,2.592082357756127567e-02,7.529720413364193732e-03,5.240925622391299533e-03,-5.138721838211205567e-02,6.067517698481099397e-02,-9.288536012172698975e-02,1.786437406103276726e-01,-8.155150402378563701e-02,-1.133386981749758132e-01,1.115039110183715654e-01,1.844204726774883729e-01,-1.637737146812750511e-01,2.115039110183715709e-01,1.810408473014831487e-01,-1.784237623214721680e-01,5.177542869127659264e-01,-6.356637477874755859e-01,-2.124321460723876953e-02,6.793722107015135236e+01,2.450439214706420787e-01
1.128937000000000079e+00,-2.065322187391715331e-02,1.992432414627938464e-02,9.136038422584533691e-01,2.937048816843836757e-02,5.330597061409036996e-03,-9.865185166852881991e-05,-5.713340734938058413e-02,6.294461972112912196e-02,-9.890136122703552246e-02,8.699894937811586404e-02,-7.235935430207092456e-02,-2.024055951708796097e-01,3.328926563262937788e-02,2.036513801137110058e-01,2.018570140721963890e-01,1.332892656326293834e-01,2.212891280651092529e-01,2.019874691963195745e-01,5.195966407908502172e-01,-5.786978006362915039e-01,3.810542821884155273e-01,1.351693617122822957e+02,2.450439214706420787e-01
1.150493999999999906e+00,-2.190060475567510295e-02,2.045748850854151035e-02,9.113410115242004395e-01,2.894703322338779486e-02,2.945933878381046256e-03,-5.721200800309562615e-03,-4.582754361054815900e-02,5.095208721186861994e-02,-1.025955602526664734e-01,-8.299047819409537119e-02,-8.196450874899639805e-02,-1.984541382461479653e-01,-3.211431264877319114e-01,1.994167036101301693e-01,-1.576035261001318133e-01,-2.211431264877319336e-01,2.244531869888305720e-01,-1.417806386947631780e-01,5.238158726368834506e-01,-3.831995725631713867e-01,-1.390227079391479492e-01,6.722178607534920047e+01,2.450439214706420787e-01
1.182846000000000064e+00,-2.309342775017819704e-02,2.111399321756608771e-02,9.090985655784606934e-01,2.584395849749344595e-02,1.524222491555704551e-06,-1.150839824062772562e-02,-4.374314114580361845e-02,6.286087704842550916e-02,-1.043563634157180786e-01,-1.583536395163720190e-01,-1.013837154662776685e-01,-1.724870377856385639e-01,-3.211213648319244385e-01,1.717969282933193564e-01,-1.337864381528184599e-01,-2.211213648319244329e-01,2.173400223255157471e-01,-1.019062042236328069e-01,5.227739493232583801e-01,-4.655562639236450195e-01,6.274212598800659180e-01,1.107252689747763981e+02,2.450439214706420787e-01
1.202938999999999981e+00,-2.395923922469998107e-02,2.154700153748432406e-02,9.075283408164978027e-01,2.235819809790543303e-02,-2.770619574227861648e-03,-1.547617504227024807e-02,-4.607440547711701834e-02,5.121223096038225731e-02,-1.016215905547142029e-01,-2.004325297775049197e-01,-1.630246451135679009e-01,-1.991801254005741706e-01,-3.095480836162764482e-01,1.340378517994424978e-01,-2.362935379896323740e-01,-2.145389020442962646e-01,2.005379498004913330e-01,-1.933904886245727539e-01,5.220772335946435305e-01,-5.081925988197326660e-01,-6.249320507049560547e-02,9.216212620700238745e+01,2.450439214706420787e-01
1.222093000000000096e+00,-2.519190192153256125e-02,2.254986993364445358e-02,9.060265421867370605e-01,1.780271293282490244e-02,-6.263204657514842566e-03,-1.930499300779753638e-02,-5.836692250308965491e-02,6.171580102534874462e-02,-1.054053753614425659e-01,-2.217046287275927507e-01,-2.274825796517437604e-01,-1.902035437680798247e-01,-2.467011898854048757e-01,-5.193675325363222850e-02,-2.717571595724871392e-01,-1.915175020694732666e-01,4.752311110496520996e-02,-2.182833552360534668e-01,5.206920796969766174e-01,-6.144109964370727539e-01,-5.958473682403564453e-02,-2.084449425244997300e+01,2.450439214706420787e-01
1.246817999999999982e+00,-2.721943765301225449e-02,2.413165014202638126e-02,9.039640426635742188e-01,1.061429088035525763e-02,-1.253295380820418359e-02,-2.274101030675532154e-02,-5.811752393675436584e-02,5.348715123460903026e-02,-8.911032229661941528e-02,-1.618783780560838215e-01,-2.443521412218034594e-01,-6.050994794666959831e-02,-5.697908139791260651e-02,-2.914926290512084850e-01,-2.855003366106573792e-01,-4.222168922424316545e-02,-1.914926290512084794e-01,-2.223973274230957031e-01,5.186545596436440420e-01,-6.771413683891296387e-01,3.670796155929565430e-01,-4.852687529810729927e+01,2.450439214706420787e-01
1.277509000000000006e+00,-2.934919065762478518e-02,2.557358828402352818e-02,9.024096131324768066e-01,7.551284665563686750e-03,-1.941018156616980406e-02,-2.606168565485052213e-02,-5.742222355129634331e-02,5.387997855750857601e-02,-8.760529756546020508e-02,-5.839353267435934414e-02,-2.049467521470133835e-01,-1.300273991233357740e-01,2.229881155476556298e-01,-2.609579324722289817e-01,-2.959650228781027792e-01,2.151562213897705023e-01,-1.609579324722290039e-01,-2.236463069915771429e-01,5.202638387361344652e-01,-5.999395847320556641e-01,1.831275224685668945e-01,9.690201111361359665e+01,2.450439214706420787e-01
1.302467999999999959e+00,-3.084720340897099608e-02,2.649929496679763463e-02,9.015241861343383789e-01,5.624281435279513894e-03,-2.338991333359730085e-02,-2.713148977810007911e-02,-6.650054864993767967e-02,4.914746283557988593e-02,-8.362073451280593872e-02,-1.377210059018849353e-01,-1.970141513958761914e-01,-1.606944150810505831e-02,1.263087115617370915e-01,-3.090332031249999889e-01,-3.009370795856572967e-01,1.088403582572936984e-01,-2.090332031249999833e-01,-2.256321430206298662e-01,5.185202810083989755e-01,-6.909345984458923340e-01,3.105727434158325195e-01,-4.368955774298585482e+01,2.450439214706420787e-01
1.324156000000000111e+00,-3.235847441350966913e-02,2.716774712251248183e-02,9.006742835044860840e-01,2.409272968225631677e-03,-2.648936386532385612e-02,-2.783368688879036407e-02,-7.547803258324234377e-02,5.232691819903656505e-02,-7.116575539112091064e-02,-1.650657781208876851e-01,-1.402923058854617100e-01,-5.525734105760647663e-02,2.148387574964755742e-01,-3.055560588836669922e-01,-3.030856794863279191e-01,1.726606607437133623e-01,-2.055560588836669866e-01,-2.257579565048217773e-01,5.176186068151008568e-01,-7.024306654930114746e-01,-2.046753168106079102e-01,2.037628136975101611e+01,2.450439214706420787e-01
1.352508999999999961e+00,-3.477350745971961865e-02,2.839610826300558930e-02,8.997573852539062500e-01,-4.551105651571756353e-03,-3.048934007223169651e-02,-2.760084670265041881e-02,-7.401039886690885528e-02,6.754100197906909298e-02,-7.073419541120529175e-02,-2.049828436686871036e-01,-1.390816306113611123e-01,9.174109989136081805e-03,3.156359734417479856e-01,-3.085179328918457031e-01,-3.038426855325839226e-01,2.158773422241210826e-01,-2.085179328918456976e-01,-2.269329786300658958e-01,5.172465397910044338e-01,-7.332205176353454590e-01,4.023313522338867188e-04,-6.104204265018593389e+01,2.450439214706420787e-01
1.378131999999999913e+00,-3.736380905173039557e-02,3.002623559161056790e-02,8.990813493728637695e-01,-1.309360681585961493e-02,-3.255823832975779375e-02,-2.588269779303712173e-02,-7.988113626190504468e-02,7.518782203746951498e-02,-5.821251496672630310e-02,-2.932078629746546206e-01,-1.894206686217855123e-02,2.601022090819071764e-02,3.223572731018066184e-01,-2.785791158676147461e-01,-2.988512463257776974e-01,2.223572731018066406e-01,-1.785791158676147405e-01,-2.262940406799316406e-01,5.162697461449040626e-01,-7.472181916236877441e-01,8.514264822006225586e-01,-6.037674209766532130e+00,2.450439214706420787e-01
1.397807999999999939e+00,-3.826774344867690109e-02,3.064035552889376665e-02,8.989775180816650391e-01,-1.566625783603898397e-02,-3.255804474292300910e-02,-2.513277167042628560e-02,-8.350726626606097547e-02,8.754004900084155771e-02,-6.085511296987533569e-02,-2.379572119047143608e-01,3.934879092906772013e-02,4.758850794130815159e-02,3.223975419998169056e-01,-2.203325152397155873e-01,-2.961158112867642855e-01,2.223975419998169001e-01,-1.203325152397155678e-01,-2.255826473236083873e-01,5.166016581522782092e-01,-7.487744688987731934e-01,1.162964105606079102e-01,1.011330742478155571e+02,2.450439214706420787e-01
1.422965000000000035e+00,-4.067514000515571465e-02,3.239009190699144308e-02,8.989042043685913086e-01,-2.156936094867854120e-02,-2.999527886343988925e-02,-2.307338722748381379e-02,-8.676785081992705040e-02,7.526235049677898470e-02,-4.670008271932601929e-02,-1.119462311761855178e-01,1.210868482090945025e-01,4.471059791541915490e-02,3.172255277633667103e-01,-9.400565624237061657e-02,-2.493556281383781936e-01,2.172255277633667048e-01,5.994343757629394184e-03,-1.841489553451537975e-01,5.156336162517898281e-01,-7.522709369659423828e-01,-4.833972454071044922e-02,1.541081648844070173e+02,2.450439214706420787e-01
1.451673999999999909e+00,-4.257852618550496404e-02,3.380877260750980023e-02,8.994266390800476074e-01,-2.244139419857640178e-02,-2.418711965416275866e-02,-2.049538404674489805e-02,-8.252648028614534281e-02,7.478661018382837256e-02,-3.004586510360240936e-02,3.944839934905608470e-02,2.551576778498566567e-01,1.246495251909935237e-01,-7.282481193542478248e-02,9.990798830986022394e-02,1.650904662565810532e-01,-1.728248119354247880e-01,1.999079883098602295e-01,2.230178475379943903e-01,5.147963408468591018e-01,-7.358164191246032715e-01,9.832251071929931641e-02,1.029154599230545699e+02,2.450439214706420787e-01
1.479614999999999903e+00,-4.455162004735210152e-02,3.526585750213175746e-02,9.003233313560485840e-01,-1.925728924867041447e-02,-1.571484105114095975e-02,-1.796992478341131322e-02,-9.090932369584242556e-02,8.404758030274364633e-02,-1.268149912357330322e-02,1.713206819615965548e-01,3.077719396765674076e-01,9.796712503479415579e-02,1.324891328811645397e-01,1.135905981063842773e-01,1.712635121450086229e-01,3.248913288116454801e-02,2.135905981063842829e-01,2.218267321586608887e-01,5.134384426411399138e-01,-7.425724864006042480e-01,1.428238153457641602e-01,1.017944892764720777e+02,2.450439214706420787e-01
1.497986999999999957e+00,-4.524037250532301352e-02,3.576614120008949488e-02,9.007332324981689453e-01,-1.742503516664519608e-02,-1.264581096726447029e-02,-1.694844533493550243e-02,-8.572618999416140029e-02,7.051216246063932158e-02,-1.261894125491380692e-02,1.716549494632365058e-01,3.126925724060070633e-01,1.616900602944677523e-01,-6.230890750884995888e-03,1.178926646709441972e-01,1.754136455823509244e-01,-1.062308907508850014e-01,2.178926646709442028e-01,2.230813622474670244e-01,5.137258328510595495e-01,-7.303782105445861816e-01,-4.379284381866455078e-02,9.556642909312013501e+01,2.450439214706420787e-01
1.525042000000000009e+00,-4.710158243523759197e-02,3.740511379352377819e-02,9.020413160324096680e-01,-9.485429697121482151e-03,-2.895169812159537059e-03,-1.373713137354648506e-02,-9.771041938905609958e-02,8.136006043916187147e-02,-9.071836248040199280e-03,2.624843691993888339e-01,3.659176406294127326e-01,1.298943685187172459e-01,8.464106321334839700e-02,1.200835645198821966e-01,1.844688514729518336e-01,-1.535893678665161029e-02,2.200835645198822021e-01,2.228289842605590820e-01,5.134664241269576435e-01,-7.313129305839538574e-01,-1.172903776168823242e-01,9.972289290120720295e+01,2.450439214706420787e-01
1.551814000000000027e+00,-4.862708467432523551e-02,3.920394998525446317e-02,9.035770893096923828e-01,9.388424895141758925e-04,6.491718860700990135e-03,-1.042691747384796516e-02,-9.595915564552073840e-02,7.195789188377599288e-02,6.426471285521984100e-03,3.258808505993458504e-01,3.051507172575164129e-01,1.058529399016713973e-01,-2.525022116465683308e-02,1.655416964675556213e-01,1.949285639905323497e-01,-9.879266023635864535e-02,2.236355781555175726e-01,2.239566206932067927e-01,5.133470861236261173e-01,-6.745755672454833984e-01,3.247846364974975586e-01,9.186415920446057726e+01,2.450439214706420787e-01
1.578028999999999904e+00,-5.008116002590700527e-02,4.100995408286016441e-02,9.053443670272827148e-01,1.195814186100314404e-02,1.469623038010081650e-02,-7.741769885741729869e-03,-7.672112325810613587e-02,7.548914164482883882e-02,1.252795010805130005e-02,3.157530572332590268e-01,2.782914434894300237e-01,3.912641920671484919e-02,-1.861200686573415697e-01,2.313835871110297981e-01,2.021298487416535727e-01,-1.939455449581146129e-01,2.229296922683715876e-01,2.238524258136749268e-01,5.128181664867139666e-01,-6.755065917968750000e-01,4.972577095031738281e-03,8.677516283880250114e+01,2.450439214706420787e-01
1.602429000000000103e+00,-5.099416593923895846e-02,4.217345402386532549e-02,9.065728187561035156e-01,1.816170848802736715e-02,1.786742045225309106e-02,-8.210234191528895456e-03,-7.773232893176626468e-02,7.733603429116327199e-02,1.868267916142940521e-02,2.844817960530304779e-01,1.200919327943744397e-01,-7.098872910906191269e-02,-1.680503426884898954e-01,2.487478963558402978e-01,1.985023827915245731e-01,-1.376144170761108287e-01,2.244380235671996904e-01,2.216568410396575761e-01,5.157665595328794206e-01,-4.926323890686035156e-01,2.490469217300415039e-01,-4.787667544006794174e+01,2.450439214706420787e-01
1.628710000000000102e+00,-5.242143558894798300e-02,4.356252565629877699e-02,9.082707166671752930e-01,2.283663570971138784e-02,1.981092864368805273e-02,-1.081117539561240321e-02,-7.482243158213561229e-02,7.062256476838160713e-02,2.026859298348426819e-02,9.153511858861712591e-02,2.930234171487066178e-03,-1.239117326020262311e-01,-2.648512953889084476e-01,2.593488747786941162e-01,1.919559986458798106e-01,-1.995616257190704346e-01,2.216341674327850231e-01,2.225170433521270752e-01,5.207858801368218105e-01,-2.129500508308410645e-01,2.739592790603637695e-01,7.856118417313433611e+01,2.450439214706420787e-01
1.647146999999999917e+00,-5.292822831024197178e-02,4.394982402677793248e-02,9.087844491004943848e-01,2.399265503705708472e-02,1.976588054744410350e-02,-1.176657919413088421e-02,-7.344020813348851873e-02,7.687300867749762012e-02,9.530798532068729401e-03,1.193327304348059670e-01,4.214062262121795813e-03,-1.383601015654579713e-01,-2.693117918474531303e-01,2.586481100291880830e-01,1.897832400608844838e-01,-2.026568949222564697e-01,2.212621808052062933e-01,2.230343520641326904e-01,5.197193504830425193e-01,-3.152176141738891602e-01,-4.041755199432373047e-02,9.815446973190800861e+01,2.450439214706420787e-01
1.672706000000000026e+00,-5.432347679392601075e-02,4.518564750594247087e-02,9.102423191070556641e-01,2.555956039432525154e-02,1.779640217575573224e-02,-1.483716799801696601e-02,-7.045278480926610298e-02,7.189840994897363224e-02,1.759909279644489288e-02,2.685286276333955120e-03,-7.804657376794074675e-02,-1.115932388055238533e-01,1.068434004300400642e-01,2.485300251698426277e-01,-1.446728940430039856e-01,1.873656749725341741e-01,2.235730111598968339e-01,-1.029196500778198214e-01,5.156813980824825894e-01,-4.981225728988647461e-01,1.090511083602905273e-01,9.787585265528484513e+01,2.450439214706420787e-01
1.702169999999999961e+00,-5.566258165381011980e-02,4.639996542435396998e-02,9.114513993263244629e-01,2.639026302893838008e-02,1.454363646430345547e-02,-1.836224882198451286e-02,-5.742047591332845313e-02,7.520307866733662305e-02,1.476635225117206573e-04,-1.654933920260105024e-03,-1.083514488113691693e-01,-1.017423165636191507e-01,1.234773297148827609e-01,2.339055580641197507e-01,-2.238697964640644356e-01,2.054409742355346735e-01,2.217392921447753906e-01,-1.723476290702819769e-01,5.153920572055313842e-01,-5.820514559745788574e-01,-5.531543493270874023e-01,1.068606249989781247e+02,2.450439214706420787e-01
1.722399999999999931e+00,-5.645197765672415463e-02,4.716496027489684717e-02,9.121443033218383789e-01,2.615137643561824335e-02,1.157356356530092611e-02,-2.112158687828178880e-02,-6.988646638061060679e-02,6.088103227401461814e-02,1.253232266753911972e-02,-3.811551412691726454e-02,-1.351596983780982142e-01,-1.471836551461450648e-01,-2.067857654137049139e-01,2.005154735494737439e-01,-2.593561733785998413e-01,-1.155201315879821750e-01,2.203988850116729570e-01,-2.003795742988586370e-01,5.137051967698553767e-01,-6.244987845420837402e-01,5.243791341781616211e-01,8.680830974684457146e+01,2.450439214706420787e-01
1.748237000000000041e+00,-5.788576090712666683e-02,4.862304586462763006e-02,9.128463268280029297e-01,2.331762244973398582e-02,6.789733184983548497e-03,-2.559528405206673921e-02,-4.504253286790210753e-02,5.905463947322030921e-02,1.737265847623348236e-03,-1.580052977803913239e-01,-1.562483786081514392e-01,-1.741495825823128618e-01,-2.804139399417340250e-01,1.853313423590877140e-01,-2.847672368372601293e-01,-2.094046890735626054e-01,2.166969895362853837e-01,-2.133391857147216852e-01,5.143018810590505030e-01,-6.360797286033630371e-01,-1.103261709213256836e-01,5.007746996612547186e+00,2.450439214706420787e-01
1.773201999999999945e+00,-5.881404824947316506e-02,4.964252847407467362e-02,9.132124781608581543e-01,2.040200476031901744e-02,2.848934691666693553e-03,-2.841932613585287579e-02,-5.402183586630054934e-02,6.132424077716316924e-02,6.184713914990425110e-03,-1.503808063797978933e-01,-1.937456282648231387e-01,-1.505571025713687561e-01,-2.498964377246908897e-01,1.248402571504460545e-01,-3.001590924376877911e-01,-2.006263196468353327e-01,1.935084521770477350e-01,-2.210756778717040960e-01,5.138636595406673724e-01,-6.450316905975341797e-01,-1.983892917633056641e-02,1.185758679162215401e+02,2.450439214706420787e-01
1.800901000000000085e+00,-6.022634387206998036e-02,5.123810143261157968e-02,9.136551618576049805e-01,1.395251822411386691e-02,-3.687921758555923191e-03,-3.239575930639572443e-02,-4.507223403029950864e-02,6.766364753531910192e-02,8.205424062907695770e-03,-2.300501541218721024e-01,-2.222894430341374739e-01,-1.004066656085924880e-01,-1.069008168077292681e-01,-1.462260484695434570e-01,-3.132240004320084314e-01,-1.057272076606750461e-01,-4.622604846954345842e-02,-2.231385111808776855e-01,5.130041301588352809e-01,-6.851071119308471680e-01,4.035941362380981445e-01,-1.099403094844126798e+02,2.450439214706420787e-01
1.825221999999999900e+00,-6.127267058708480568e-02,5.235743416329055600e-02,9.139472246170043945e-01,1.006013163984854214e-02,-8.483606160245127370e-03,-3.305933651419653424e-02,-7.011708529043779448e-02,6.109252900291469585e-02,1.353566884063184261e-03,-1.718874561703141179e-01,-2.251402833967388883e-01,1.385440413357654464e-02,1.663411999138077746e-01,-2.989726662635803223e-01,-3.171881915572835053e-01,1.476502418518066406e-01,-1.989726662635803167e-01,-2.254048705101013017e-01,5.131827789749092705e-01,-7.063547372817993164e-01,-3.820816278457641602e-01,1.715723438751043091e+02,2.450439214706420787e-01
1.850330999999999948e+00,-6.278348539718420218e-02,5.371389334758050471e-02,9.146571159362792969e-01,7.586211294951477994e-03,-1.688777987414114001e-02,-3.231021801880398781e-02,-5.420493029054959666e-02,6.379448586668080845e-02,1.017129421234130859e-02,-1.005120581339216251e-01,-2.375510544104547095e-01,6.803414509508168284e-02,2.432561159045752985e-01,-3.095191836357116810e-01,-3.167175123108141310e-01,2.032831192016601451e-01,-2.095191836357116755e-01,-2.271572828292846569e-01,5.125064825774363619e-01,-7.081620097160339355e-01,2.928034067153930664e-01,9.416867186061205075e+01,2.138160943984985241e-01
1.874622999999999928e+00,-6.389586065484062494e-02,5.454631507747495500e-02,9.152656197547912598e-01,7.111284252076256404e-03,-2.230970094445772212e-02,-3.103266513605002982e-02,-7.006675835371134475e-02,5.443633302768194349e-02,3.211746364831924438e-02,1.137636464239552428e-03,-3.012210797861870626e-01,5.101077316775012166e-02,2.512825533575301362e-01,-3.074334979057312123e-01,-3.101615206061337782e-01,2.146749258041381891e-01,-2.074334979057312067e-01,-2.243391752243041881e-01,5.109950315463104298e-01,-7.026292085647583008e-01,2.188578844070434570e-01,9.001557533578579751e+01,2.138160943984985241e-01
1.900177999999999923e+00,-6.564935952779690775e-02,5.585932838632745590e-02,9.162281751632690430e-01,3.131306849088711600e-03,-2.781058891355958629e-02,-2.828736552292414330e-02,-7.211288228667352140e-02,6.616683273847014102e-02,2.392838150262832642e-02,-1.709075097704626789e-01,-1.070516468759842854e-01,6.536588450280116092e-02,2.899133062898654467e-01,-3.091322660446166881e-01,-3.051987362858556985e-01,2.155985713005065807e-01,-2.091322660446166826e-01,-2.270861506462097112e-01,5.110962898839838120e-01,-7.292633652687072754e-01,-1.623257398605346680e-01,-5.877884068568199005e+00,2.138160943984985241e-01
1.925694999999999935e+00,-6.690312748074496441e-02,5.688106994146262252e-02,9.169501662254333496e-01,-9.251241346607697730e-04,-3.071169700600751007e-02,-2.580724232841175025e-02,-7.125805310188436381e-02,6.704222593518276152e-02,3.455720096826553345e-02,-2.362345988124018858e-01,-1.465059231236499060e-01,1.518845925352297344e-01,3.210064768791198730e-01,-3.098789215087890403e-01,-2.987571546226185371e-01,2.210064768791198675e-01,-2.098789215087890625e-01,-2.274017572402954046e-01,5.103120413148000134e-01,-7.285984158515930176e-01,-3.984534740447998047e-02,9.466756253796812359e+01,2.138160943984985241e-01
1.951745000000000063e+00,-6.892798063452131030e-02,5.879731901458823407e-02,9.180874824523925781e-01,-7.115484099132540763e-03,-3.303777669371532610e-02,-2.174270209088075348e-02,-9.080694157573308833e-02,7.330023741658307779e-02,2.129877917468547821e-02,-2.600748218156658798e-01,-1.350192872365722253e-02,1.480083856847674850e-01,3.220871925354004128e-01,-3.017410993576049583e-01,-2.854309047004625621e-01,2.220871925354003795e-01,-2.017410993576049805e-01,-2.251721620559692383e-01,5.111314046936326072e-01,-7.369953393936157227e-01,4.399565458297729492e-01,1.044982674707458159e+02,2.138160943984985241e-01
1.978604999999999947e+00,-7.035788664624115230e-02,6.020042123006505430e-02,9.188837409019470215e-01,-1.032883373136082514e-02,-3.296850027877495926e-02,-1.882477657667630880e-02,-6.609157445633845329e-02,8.541616324982329034e-02,4.014403000473976135e-02,-6.925080928924390311e-02,1.796762433665315822e-02,1.340941710513032514e-01,3.224522948265075573e-01,-3.093945503234863392e-01,1.319177856379009917e-01,2.224522948265075517e-01,-2.093945503234863337e-01,1.841539084911346380e-01,5.109320089037235890e-01,-6.715799570083618164e-01,3.830717802047729492e-01,1.728394395887900714e+01,2.138160943984985241e-01
1.997824000000000044e+00,-7.178979305363056285e-02,6.160960011410197834e-02,9.198648929595947266e-01,-1.205815730492485090e-02,-3.105063675865715744e-02,-1.583720105988874541e-02,-9.424990077337273842e-02,6.471109982692324625e-02,4.489156976342201233e-02,-5.558911340106922894e-02,1.165619112152300740e-01,1.368656929583348114e-01,2.527092456817626731e-01,-1.713001251220703236e-01,1.744125087469606539e-01,1.527092456817626953e-01,-7.130012512207030417e-02,2.185638964176177812e-01,5.099476842950875222e-01,-7.036217451095581055e-01,3.337796926498413086e-01,9.729058057549562477e+01,2.138160943984985241e-01
2.026422999999999863e+00,-7.407389015071266791e-02,6.356292651780665048e-02,9.213736057281494141e-01,-9.966167247717821684e-03,-2.520405895141064612e-02,-1.143821781943489026e-02,-7.940804700899403712e-02,6.669191592423395765e-02,4.498161002993583679e-02,1.201301320525797467e-01,2.530805360020482730e-01,1.203220883734822527e-01,9.080170392990112582e-02,1.080367445945739635e-01,1.880088103835528546e-01,-9.198296070098876259e-03,2.080367445945739691e-01,2.196931064128875566e-01,5.094474007269242932e-01,-7.251247763633728027e-01,-4.555070400238037109e-02,5.799601050679203240e+01,2.138160943984985241e-01
2.051790000000000003e+00,-7.609471410574436545e-02,6.486589307986638520e-02,9.230420589447021484e-01,-3.805214053594516751e-03,-1.684392904833864613e-02,-6.893623791206432601e-03,-7.328162106128982556e-02,6.505246277312395908e-02,5.467212200164794922e-02,2.119572397656945828e-01,3.174813300059073917e-01,1.657405076790020304e-01,-7.258534431457408509e-04,1.135068237781524658e-01,2.002909992779630111e-01,-1.007258534431457464e-01,2.135068237781524714e-01,2.190261483192443848e-01,5.089735848230056980e-01,-7.064740061759948730e-01,7.479125261306762695e-01,9.715773339613888027e+01,2.138160943984985241e-01
2.072766999999999804e+00,-7.740998481450718505e-02,6.556982452288065422e-02,9.242105484008789062e-01,2.108141461189874059e-03,-1.058571340264968796e-02,-3.650999332462180440e-03,-8.723872702882798369e-02,5.885024461297326537e-02,5.475480854511260986e-02,3.436983941085204886e-01,3.122010507232350629e-01,1.776150672306401057e-01,1.168964397872544747e-02,1.227376997470855657e-01,2.132625088642224054e-01,-7.271438241004943293e-02,2.227376997470855713e-01,2.227662920951843095e-01,5.105942484118004554e-01,-6.169937849044799805e-01,5.476391315460205078e-02,8.581079476951005347e+01,2.138160943984985241e-01
2.096623999999999821e+00,-7.940639622681056053e-02,6.668984834730601330e-02,9.259077906608581543e-01,1.271791836846471527e-02,-6.351657450958114737e-04,1.186305209668767286e-03,-7.392307673530022771e-02,7.537433496092804663e-02,5.268465355038642883e-02,4.114090826302029824e-01,3.240201384943635632e-01,1.363293715995600175e-01,-8.203746470739450847e-02,1.221951425075530895e-01,2.259589937282759642e-01,-1.128737211227416881e-01,2.221951425075530950e-01,2.218708455562591608e-01,5.108261440606617354e-01,-6.073354482650756836e-01,3.473745584487915039e-01,9.422269182675768207e+01,2.138160943984985241e-01
2.123714000000000102e+00,-8.065324598243678311e-02,6.741035067974779360e-02,9.270903468132019043e-01,1.994472740956136983e-02,5.875163256195303774e-03,2.319020371178732044e-03,-8.845555297171642239e-02,4.397706108325626778e-02,6.128515675663948059e-02,3.530083019623598273e-01,3.373994810780526765e-01,1.438856067155669209e-02,-2.306452799892704797e-01,1.234433863398796682e-01,2.278022797362449781e-01,-1.887239634990691972e-01,2.138535618782043402e-01,2.206584155559539739e-01,5.089981138737472710e-01,-6.660530567169189453e-01,4.915465116500854492e-01,9.952726945318887886e+01,2.138160943984985241e-01
2.149818999999999924e+00,-8.243638007582708427e-02,6.862464057109325666e-02,9.287461042404174805e-01,3.114518490477826557e-02,1.449816295201489247e-02,1.396724658612088924e-03,-6.307934172461150679e-02,5.950350159151680113e-02,4.551876336336135864e-02,3.165798306405578910e-01,2.921792809364042176e-01,-5.290756732030379300e-02,-3.120796058745950452e-01,1.866701190226453255e-01,2.249960171762994676e-01,-2.147787988185882457e-01,2.003550767898559515e-01,2.209455370903015137e-01,5.096514812189748556e-01,-6.880759000778198242e-01,2.645066976547241211e-01,-1.739982358229960937e+02,2.138160943984985241e-01
2.174558000000000213e+00,-8.360125843025241477e-02,6.940875545884853115e-02,9.297936558723449707e-01,3.744088320377202822e-02,1.849493368062637977e-02,-6.372388701729555149e-05,-7.668330726801367292e-02,3.884270891204982118e-02,5.885486304759979248e-02,3.027913445598465758e-01,1.796993975894272955e-01,-9.387331495068494680e-02,-3.187303543090820312e-01,1.827298434368467284e-01,2.229461127367281248e-01,-2.187303543090820257e-01,1.865293622016906683e-01,2.230828464031219538e-01,5.084452155449985522e-01,-6.959033012390136719e-01,3.093403577804565430e-01,9.799451353173547830e+01,2.138160943984985241e-01
2.200417999999999985e+00,-8.533006489749273005e-02,7.051966143489765693e-02,9.311194419860839844e-01,4.384230230003186013e-02,2.120895493607544147e-02,-2.786359784613467484e-03,-6.355385564577102631e-02,4.471355261773361095e-02,4.794032499194145203e-02,1.454681800376310119e-01,3.108080877151491242e-02,-9.359919632015403779e-02,-3.200732469558715820e-01,2.217294009651111231e-01,2.163966834387365257e-01,-2.200732469558715765e-01,1.973485887050628607e-01,2.245064377784729004e-01,5.102324962070794445e-01,-6.397279500961303711e-01,8.896601200103759766e-02,1.011659479482908210e+02,2.138160943984985241e-01
2.231482999999999883e+00,-8.646623107554460286e-02,7.121465056767552204e-02,9.318519234657287598e-01,4.632010891062175728e-02,2.064783424293037406e-02,-4.958246526351388177e-03,-7.440693187460416247e-02,2.982005605661397843e-02,4.816110059618949890e-02,1.331945498051860521e-01,-6.825085460114549418e-02,-1.327881885546535745e-01,-3.165935456752776989e-01,1.918402170506658677e-01,2.070171245833233031e-01,-2.165935456752776933e-01,1.830107510089874212e-01,2.210124492645263727e-01,5.093500200967516767e-01,-6.839836835861206055e-01,1.845108270645141602e-01,3.802159014704788831e+01,2.138160943984985241e-01
2.255360000000000031e+00,-8.827179637896238884e-02,7.220551428316011877e-02,9.327881932258605957e-01,4.707462072256700381e-02,1.805906342172791668e-02,-8.482086830299948380e-03,-5.781281238670755995e-02,3.720558046250813100e-02,3.376064077019691467e-02,-4.438308800092306133e-02,-7.960265238035819924e-02,-1.310678747623957863e-01,-3.213045060634612815e-01,2.279374173015365768e-01,-2.052280192958194083e-01,-2.213045060634613037e-01,2.231888115406036321e-01,-1.814147114753723034e-01,5.116998289988233806e-01,-6.135339140892028809e-01,3.850008249282836914e-01,1.102447241855309841e+02,2.138160943984985241e-01
2.280006000000000199e+00,-8.969068956450773622e-02,7.293269753650004350e-02,9.331314563751220703e-01,4.570643977897231869e-02,1.521191801664811827e-02,-1.106260125796821280e-02,-5.894333007162648463e-02,2.577757490617994807e-02,2.886016294360160828e-02,-6.990552934829565024e-02,-1.701160566077253022e-01,-1.304997503334246745e-01,-3.130639910697937123e-01,1.991859923505253926e-01,-2.427714530929433734e-01,-2.130639910697937067e-01,2.176894247531890869e-01,-2.120291948318481501e-01,5.112235742370402347e-01,-6.586717367172241211e-01,7.699120044708251953e-02,1.141734080149873023e+02,2.138160943984985241e-01
2.303075999999999901e+00,-9.168257993430087294e-02,7.383470116572307673e-02,9.334068894386291504e-01,4.046991942190864694e-02,1.094993007345346214e-02,-1.540520612935664287e-02,-5.512348098549579856e-02,2.588131694177136025e-02,1.900500990450382233e-02,-2.069820514608890771e-01,-1.208154405482487204e-01,-1.595225914278863288e-01,-3.198366582393646351e-01,1.608895295005564607e-01,-1.954773809187937139e-01,-2.198366582393646296e-01,2.058891355991363525e-01,-1.528615593910217230e-01,5.111601169817694412e-01,-7.022840380668640137e-01,-2.420842647552490234e-02,1.104201371037952555e+02,2.138160943984985241e-01
2.328533999999999882e+00,-9.295495333521444636e-02,7.441412562516321050e-02,9.332930445671081543e-01,3.538589035388758908e-02,7.379767476381360325e-03,-1.838670695687938395e-02,-5.520850528557798981e-02,1.556728351962842309e-02,1.764639280736446381e-02,-2.376586411798867760e-01,-2.091444932614706931e-01,-1.142795984015656380e-01,-3.150507926940918080e-01,8.797089335289107193e-02,-2.634452718008575278e-01,-2.150507926940918024e-01,1.581379473209381104e-01,-2.126783967018127386e-01,5.114968548413941773e-01,-6.924506425857543945e-01,2.348335981369018555e-01,9.291481305353778453e+01,2.138160943984985241e-01
2.351071000000000133e+00,-9.417316460827800106e-02,7.490480119514152102e-02,9.330998659133911133e-01,2.907645551710534570e-02,3.792356042418898454e-03,-2.153477197544562474e-02,-4.832108060019994072e-02,2.665174920840300207e-02,-2.749270061030983925e-04,-3.590110125461034585e-01,-1.312194063775859454e-01,-1.721605480837229696e-01,-3.168147563934325950e-01,-3.641517565178278848e-02,-1.605014665290999121e-01,-2.168147563934326172e-01,5.279944539070129117e-02,-1.010218977928161593e-01,5.121942028629831167e-01,-7.303675413131713867e-01,2.412339448928833008e-01,8.938697936609118244e+01,2.138160943984985241e-01
2.375983000000000178e+00,-9.540957832738600208e-02,7.513560023166158952e-02,9.328116774559020996e-01,2.245082343888991222e-02,-6.519890003295891745e-04,-2.436246396196831837e-02,-4.986394463109160291e-02,2.040539886993153473e-02,-2.349919406697154045e-03,-3.474665865061137837e-01,-2.253585738327317789e-01,-1.430561213245050978e-01,-2.729408589529727092e-01,-1.558184862136840765e-01,-2.847911919292204219e-01,-2.079844951629638561e-01,-5.581848621368407787e-02,-2.174934625625610241e-01,5.130263457479428135e-01,-6.987240910530090332e-01,-4.694964885711669922e-01,9.944600386244405854e+01,2.138160943984985241e-01
2.399248000000000047e+00,-9.803472505520016700e-02,7.558155486709433601e-02,9.318761825561523438e-01,8.198611856031198797e-03,-1.016906335155165486e-02,-2.730145103985295862e-02,-5.645490687383675904e-02,2.732457905996409434e-02,-9.569417685270309448e-03,-3.249435283596450175e-01,-2.284040262078080030e-01,-8.563232727640158679e-03,1.314334412064513402e-01,-3.002216815948486328e-01,-3.008150260892076266e-01,9.712418317794799250e-02,-2.002216815948486273e-01,-2.252667188644409124e-01,5.136451870634511918e-01,-7.023766040802001953e-01,8.568489551544189453e-02,-6.892378042405717053e+00,2.138160943984985241e-01
2.423554000000000208e+00,-9.941196865037862929e-02,7.587547082276475952e-02,9.313026070594787598e-01,7.441588057647269402e-04,-1.491269647311210811e-02,-2.664146698868585794e-02,-6.278117174429463654e-02,1.638791642305082591e-02,1.601543743163347244e-03,-4.079126358576360412e-01,-1.992013143792546459e-01,3.507474374016206209e-02,2.725729616061101090e-01,-3.060171127319336049e-01,-3.001112689315506010e-01,1.984700202941894476e-01,-2.060171127319335993e-01,-2.261552453041076605e-01,5.127185182672729935e-01,-7.133215069770812988e-01,-1.192127466201782227e-01,2.183533955005996674e+01,2.122541189193725697e-01
