timestamp,x,y,z,roll,pitch,yaw,vx,vy,vz,p,q,r,psp,qsp,rsp,pres,qres,rres,thrust_sp, thrust_res,wind_mag,wind_angle,wind_obs
0.000000000000000000e+00,-2.190861435258103368e-02,-2.329181981128638449e-03,9.865689277648925781e-01,1.118452690217563300e-02,-2.715095035823456016e-03,-3.267133922653888811e-03,5.573031384861912296e-03,-6.355077369504035867e-04,1.168498583137989044e-02,2.537165308884406154e-02,-2.799827878953707258e-02,1.243974563149370487e-02,1.281350573816090466e-01,1.516203303396968238e-01,1.507264334239354076e-01,2.028271079063415361e-01,1.785977125167846624e-01,1.598111629486083929e-01,5.002156957537867710e-01,-6.270111799240112305e-01,-2.257555723190307617e-01,1.029675674362325992e+02,0.000000000000000000e+00
3.072099999999999831e-02,-2.186024980807636797e-02,-2.681296251591626118e-03,9.866382479667663574e-01,1.075542857935781436e-02,-2.950112421159944986e-03,-3.253515008588314748e-03,5.636702851495903679e-03,-5.135867633259572941e-03,5.032436922192573547e-03,-3.831958140426079684e-02,-1.262640400385276092e-02,1.031413979369038897e-03,1.351066192816300360e-01,1.817244668203857327e-01,-2.016870447719703030e-01,2.107871532440185602e-01,2.109978139400482122e-01,-1.926394701004028320e-01,4.991454599879813214e-01,-7.094263434410095215e-01,-2.227116823196411133e-01,8.454430011247127652e+01,0.000000000000000000e+00
5.517099999999999782e-02,-2.127161366359191230e-02,-3.376047309530594374e-03,9.866967201232910156e-01,1.077199710523120586e-02,-3.161246204560708151e-03,-3.107878686605256707e-03,1.259936133791165688e-02,-4.778811735094385532e-03,7.197248283773660660e-03,1.314743132078893297e-02,-4.005476868207457318e-03,9.505195901101113135e-04,6.502183550313923865e-02,1.492463027300885148e-01,1.787595077545003075e-01,1.403110027313232422e-01,1.739548802375793513e-01,1.874085187911987138e-01,5.033187908839842351e-01,-4.820963144302368164e-01,-1.894475221633911133e-01,1.059403662913456259e+02,0.000000000000000000e+00
7.578500000000000514e-02,-2.094591121479634499e-02,-3.737590756715626194e-03,9.867134690284729004e-01,1.071928219829699526e-02,-3.311324837073970073e-03,-3.235834241703261505e-03,8.618697715939607762e-03,-4.545649918428127517e-03,1.123595284298062325e-03,-2.545403470264441179e-02,-3.555446377990378014e-03,1.798787054268322083e-03,1.468925646962768172e-01,1.848292141768064778e-01,-2.186558071080962617e-01,2.219616293907165361e-01,2.145730555057525635e-01,-2.096588730812072587e-01,4.994486485358645700e-01,-7.096236944198608398e-01,-1.563330888748168945e-01,9.108783307320776146e+01,0.000000000000000000e+00
1.005980000000000069e-01,-2.006297268727789615e-02,-4.747922519978515880e-03,9.867142438888549805e-01,1.123926893388416288e-02,-3.340286779158985198e-03,-2.504359441912311270e-03,2.367291998740460660e-03,9.457719439127884077e-04,5.750039126724004745e-03,4.215139128669670443e-02,-4.001973524316623093e-02,7.345813865624990779e-02,6.398479712866660118e-02,1.694448852273692518e-01,6.758996859360204279e-02,1.387013554573059138e-01,2.033456861972808838e-01,7.452194094657897672e-02,4.991649333423066048e-01,-7.065673470497131348e-01,-6.955254077911376953e-02,1.770184635117056757e+02,0.000000000000000000e+00
1.264149999999999996e-01,-1.926112825286888444e-02,-5.804659981647683487e-03,9.866188764572143555e-01,1.297643184091088787e-02,-5.240274981711756652e-03,-1.935579994982169778e-03,-1.623161658444373162e-03,-1.189836390358021793e-02,-1.674627652391791344e-03,7.242020274653537815e-02,-7.961885731725713844e-02,-3.992584256982701502e-02,1.040259309650273384e-01,1.213471444335999933e-02,2.060956504689224478e-01,2.018837213516235241e-01,6.020645499229430875e-02,2.114023804664611761e-01,5.036057850938624458e-01,-5.041548013687133789e-01,-2.500485181808471680e-01,8.721909098390747772e+01,0.000000000000000000e+00
1.507100000000000106e-01,-1.878654114280337711e-02,-6.962140187905199555e-03,9.861195087432861328e-01,1.578464209958451575e-02,-9.984931487867498845e-03,-5.728488303626878310e-04,1.080771819333898589e-03,-1.054102856305785992e-02,-1.791050843894481659e-02,7.838280952238070587e-02,-1.910219993669547700e-01,4.854316345569660573e-02,1.062849044799804576e-01,4.451265827397772601e-02,-1.458501454357850335e-01,2.062849044799804632e-01,1.203805625438690158e-01,-1.444757938385009821e-01,5.015943642795904767e-01,-6.775146126747131348e-01,-1.829725503921508789e-01,1.025716760115603137e+02,0.000000000000000000e+00
1.797320000000000029e-01,-1.840825280251243840e-02,-8.220659097773636362e-03,9.851135611534118652e-01,1.953634993574047268e-02,-1.553135484052958759e-02,-7.069385714727513363e-04,-8.280316711175648992e-03,-1.830221795600040641e-02,-3.667283058166503906e-02,1.281892179769485440e-01,-1.683957460533944128e-01,-3.339135714356651630e-02,7.261581420898435835e-02,-1.474794983863830511e-01,2.080820397753724016e-01,1.726158142089843639e-01,-4.747949838638305248e-02,2.096314251422881914e-01,5.144887529967892004e-01,-7.506465911865234375e-02,8.273223638534545898e-01,5.903085929812983323e+01,0.000000000000000000e+00
2.006630000000000080e-01,-1.814590093696568859e-02,-9.104174230049680294e-03,9.840611219406127930e-01,2.141092535004613523e-02,-1.853418559426134316e-02,-1.650303747548296585e-03,1.001223828077748949e-02,-1.330304856071041868e-02,-6.205620616674423218e-02,5.738592197491223373e-02,-1.208401783357731657e-01,-1.259538638643606205e-02,8.226146697998046320e-02,-1.227489948272705161e-01,1.788588881701515809e-01,1.822614669799804688e-01,-2.274899482727050712e-02,1.829688191413879339e-01,5.088230237992281690e-01,-4.851291179656982422e-01,-2.841933965682983398e-01,1.066230027177533799e+02,0.000000000000000000e+00
2.265419999999999934e-01,-1.782251475173723954e-02,-1.037069509206820991e-02,9.819163084030151367e-01,2.425608292444068892e-02,-2.120056669873893185e-02,-1.111547983407208803e-03,-7.214313329385982874e-03,-2.945512907863447397e-02,-7.634051144123077393e-02,1.097569495223583019e-01,-9.342124100884745264e-02,1.065619685541781096e-02,-6.976188421249390759e-02,-3.005168676376342995e-01,2.019565220288656870e-01,3.023811578750610143e-02,-2.005168676376342662e-01,2.043976843357086237e-01,5.237621559843982366e-01,2.465245723724365234e-01,2.895557880401611328e-02,7.811097225399294075e+01,0.000000000000000000e+00
2.482219999999999982e-01,-1.749178221137452291e-02,-1.127854567952242884e-02,9.801256656646728516e-01,2.572870528928862879e-02,-2.145316258917628893e-02,-1.967215615852513973e-03,8.572015880466072116e-03,-2.293971498548129720e-02,-1.009012460708618164e-01,1.824890587223114424e-02,6.295428638903394214e-02,-6.187244191591578790e-02,-2.794077396392822266e-01,1.110821783542632890e-01,2.124284110469995268e-01,-1.794077396392822210e-01,2.110821783542632946e-01,2.172448396682739313e-01,5.115173157890109401e-01,-5.217115879058837891e-01,-3.474270105361938477e-01,9.386779519748381517e+01,0.000000000000000000e+00
2.750920000000000032e-01,-1.674617098295420187e-02,-1.279676022958487445e-02,9.768158197402954102e-01,2.814195525502264164e-02,-2.049247038500801033e-02,-4.050593946467138072e-03,-3.600177821816428689e-03,-3.682461234785131682e-02,-1.188887357711791992e-01,9.711637325601388260e-02,2.370540931417878389e-02,-7.163876971819545247e-02,-3.137599885463714378e-01,-2.293142318725585882e-01,2.086834201206865247e-01,-2.137599885463714600e-01,-1.293142318725585826e-01,2.192936718463897594e-01,5.139495068544058798e-01,-4.833497405052185059e-01,-4.262262582778930664e-01,5.689950901291111052e+01,0.000000000000000000e+00
3.009990000000000165e-01,-1.595895154736254318e-02,-1.438373305748373229e-02,9.729671478271484375e-01,2.922532742060365840e-02,-1.606286479187901683e-02,-7.110679377999327110e-03,7.152816414637861581e-03,-3.354992612061070967e-02,-1.369262933731079102e-01,-6.905310073515785046e-03,1.946739420398216902e-01,-1.372459486693270725e-01,-3.122401237487804071e-03,1.247910559177398682e-01,2.006740882343553689e-01,9.687759876251220148e-02,2.247910559177398737e-01,2.200078010559081976e-01,5.193832268392890583e-01,-2.862279415130615234e-01,-2.110301256179809570e-01,9.783398359567267732e+01,0.000000000000000000e+00
3.243599999999999817e-01,-1.549268667073660892e-02,-1.545727551341983391e-02,9.701173901557922363e-01,2.800339215835420670e-02,-1.389248873106274651e-02,-9.280566813315835328e-03,3.118150901966457774e-03,-2.827662014565188175e-02,-1.472420990467071533e-01,-8.017822183425864224e-02,8.298775397089766526e-02,-9.276116962985504755e-02,1.122378349304199163e-01,1.082385845385570311e-01,1.078806896656153980e-01,2.122378349304199219e-01,2.073482751846313366e-01,1.333576083183288519e-01,5.203709650669083864e-01,-2.937877774238586426e-01,-4.677913188934326172e-01,1.219539018947914286e+02,0.000000000000000000e+00
3.503009999999999735e-01,-1.450236211651583125e-02,-1.683816507653321248e-02,9.654158353805541992e-01,2.220784277657048000e-02,-9.998579522398243213e-03,-1.251353484479774715e-02,-9.695944766359283068e-03,-3.283958392085709749e-02,-1.674555540084838867e-01,-1.982898808909593635e-01,1.062945849879706195e-01,-1.023129865919115006e-01,1.224724292755126898e-01,-2.698629749704085090e-01,-2.591078706026069822e-01,2.224724292755126953e-01,-1.874241113662719616e-01,-2.243763327598571611e-01,5.155907222127815714e-01,-6.595278382301330566e-01,-2.330302000045776367e-01,-4.139237729490838547e+01,0.000000000000000000e+00
3.771760000000000113e-01,-1.383512704712326451e-02,-1.779804402553700898e-02,9.621409773826599121e-01,1.887062093047369923e-02,-8.991321832869214603e-03,-1.467250411448839734e-02,-5.341574486108055693e-03,-3.612385776470931897e-02,-1.711980104446411133e-01,-1.293601723551852101e-01,4.653314979600797069e-02,-1.118688958269588862e-01,1.264990687370300126e-01,-4.711002613530952676e-02,-2.634530367734169154e-01,2.264990687370300182e-01,2.318322658538818359e-02,-2.225749254226684626e-01,5.161558363877762901e-01,-6.674038767814636230e-01,-5.234847068786621094e-01,1.042293629231224088e+02,0.000000000000000000e+00
3.983659999999999979e-01,-1.326396370416978165e-02,-1.883797731652001040e-02,9.589025974273681641e-01,1.729644503396987262e-02,-9.606940140263420247e-03,-1.624574935779603616e-02,-1.210288512437443682e-02,-3.664585275712601425e-02,-1.750372499227523804e-01,-6.734945217865626055e-02,-4.749852801382830475e-02,-3.477514822222141366e-02,1.062967061996459850e-01,-1.184540537761531731e-02,-2.512855167832442338e-01,2.062967061996459905e-01,6.791623234748840610e-02,-2.060009121894836315e-01,5.157707758336433912e-01,-7.268618345260620117e-01,-8.947241306304931641e-02,1.181550872822137421e+02,0.000000000000000000e+00
4.237190000000000123e-01,-1.261858972013316961e-02,-2.050741945608766312e-02,9.541407823562622070e-01,1.775504353043071137e-02,-1.010957331897288647e-02,-1.545954888769458802e-02,-2.057892644291466760e-02,-4.466776418506411550e-02,-1.717836856842041016e-01,7.566120327743386387e-02,1.435901311930649904e-02,7.728871396246216052e-02,-1.320628225803375244e-01,1.246684071023472923e-01,-2.424879656196773925e-01,-3.206282258033752580e-02,2.128819942474365068e-01,-1.994136571884155273e-01,5.174037978846075525e-01,-6.562254428863525391e-01,-1.907871961593627930e-01,7.579465703095569040e+01,0.000000000000000000e+00
4.486229999999999940e-01,-1.225848130201551145e-02,-2.176037314083827459e-02,9.508975744247436523e-01,1.894613022207988079e-02,-8.794379860653123160e-03,-1.383161358596080373e-02,-1.081967096884077668e-02,-4.426352072635077184e-02,-1.730987727642059326e-01,5.749736494563437855e-02,1.010368352661238228e-01,6.858432568417338615e-02,-8.202476501464844860e-02,1.529403066175817061e-01,1.765608342251010210e-01,1.797523498535156042e-02,2.238328635692596325e-01,2.150990009307861273e-01,5.180151071057667034e-01,-6.523948311805725098e-01,6.910926103591918945e-01,-6.034430467552328281e+01,0.000000000000000000e+00
4.737310000000000132e-01,-1.194705998789082069e-02,-2.383029877006608704e-02,9.460900425910949707e-01,2.137131636196129905e-02,-6.414691243692427491e-03,-1.052103829963340828e-02,-2.355839277421321876e-02,-5.796204659619261929e-02,-1.761421561241149902e-01,4.982494470871440956e-02,5.213726100228310845e-02,1.211311358239111763e-01,-3.081733942031860130e-01,1.574672251940606449e-01,-2.477637688198512655e-01,-2.081733942031860352e-01,2.238365113735198975e-01,-2.184913873672485185e-01,5.206382133085573072e-01,-5.538908243179321289e-01,-3.455234766006469727e-01,1.218580470199794661e+02,0.000000000000000000e+00
5.005840000000000289e-01,-1.164039728617005838e-02,-2.597873772943868828e-02,9.410740733146667480e-01,2.245924442368915641e-02,-5.485974931977777302e-03,-8.534512060185158247e-03,3.119818056064118522e-03,-5.432423650183731273e-02,-1.878838688135147095e-01,-7.608231872210971872e-03,7.935538512839670697e-03,1.967680292609225168e-02,8.759791851043699507e-02,1.874894274420049745e-01,-2.448822565399315088e-01,1.875979185104370006e-01,2.255910336971282959e-01,-2.211062192916870006e-01,5.388527207857766177e-01,3.647103309631347656e-01,-4.857338666915893555e-01,9.560404977506857449e+01,0.000000000000000000e+00
5.236450000000000271e-01,-1.151054618155564202e-02,-2.738283039229630692e-02,9.377073049545288086e-01,2.227770502057510940e-02,-6.562668859813713951e-03,-8.556373646234065322e-03,-1.963151633859737746e-02,-5.649402619597909680e-02,-1.836548000574111938e-01,-1.412679673782571248e-02,-7.191911290768440712e-02,3.970423254605136287e-03,4.449245929718015358e-02,-6.510657570982819609e-03,-2.437300550657423015e-01,1.444924592971801591e-01,5.956985950469970148e-02,-2.199709296226501354e-01,5.191582415162362407e-01,-7.211316227912902832e-01,-2.111681699752807617e-01,5.642743365823650947e+01,0.000000000000000000e+00
5.493820000000000370e-01,-1.148718635643230894e-02,-2.925845160278149268e-02,9.324949383735656738e-01,1.868408639862773751e-02,-8.875037224171489214e-03,-5.942991310569536133e-03,-1.429361864701292339e-02,-5.455881432565725525e-02,-1.945542544126510620e-01,-1.752580049059492551e-01,-9.176955358298374832e-02,1.232067096288928104e-01,9.161851406097409889e-02,8.429255106290393929e-02,-1.245593814358671864e-01,1.916185140609741044e-01,1.582045018672943171e-01,-1.080850481986999484e-01,5.208453465440644470e-01,-7.067854404449462891e-01,2.071535587310791016e-02,-4.625013077602651634e+01,0.000000000000000000e+00
5.721709999999999852e-01,-1.166749225202795212e-02,-3.026068732637163597e-02,9.291312098503112793e-01,1.652510236759386145e-02,-1.149306493881430136e-02,-3.499346964464548990e-03,-1.949839734973704553e-02,-5.046546609616515272e-02,-1.923671662807464600e-01,-9.468176719038975953e-02,-1.273047169362521436e-01,1.254191125876415180e-01,1.767355203628538651e-02,-1.182587491232911514e-01,-2.224484447213882221e-01,1.176735520362853921e-01,-2.243081331253051619e-02,-2.128269910812377874e-01,5.211164038719793279e-01,-7.099444866180419922e-01,-5.735396146774291992e-01,1.044084778039168242e+02,0.000000000000000000e+00
5.997440000000000548e-01,-1.196704163960750009e-02,-3.194208469862733907e-02,9.241083860397338867e-01,1.439540678081892462e-02,-1.589146436222388381e-02,-1.415638586295299027e-04,-2.541104278622582230e-02,-6.409795126374520646e-02,-1.888005733489990234e-01,-3.998669353659154574e-02,-1.916174802007213351e-01,8.799149725972121860e-02,6.026971340179432257e-03,-1.549356818199157659e-01,-2.218171789359567048e-01,1.060269713401794378e-01,-5.493568181991576732e-02,-2.215468883514404297e-01,5.215439006925404186e-01,-7.061784267425537109e-01,-4.789193868637084961e-01,1.007322924076975426e+02,0.000000000000000000e+00
6.249949999999999672e-01,-1.221168363983715470e-02,-3.309380417021298010e-02,9.207944273948669434e-01,1.385686235072415388e-02,-1.780323513422832349e-02,2.305317152779171128e-03,-2.572105385419035453e-02,-5.873376133854173176e-02,-1.966928243637084961e-01,-6.210793424240499544e-02,-2.055819943673150088e-02,1.249546712752229310e-01,-5.969984531402588307e-02,-4.498267173767098170e-03,3.767426233576198682e-03,4.030015468597412248e-02,9.550173282623290738e-02,-2.832734584808349696e-03,5.232769810771881192e-01,-6.702638864517211914e-01,8.514133691787719727e-01,-7.920269603054944696e+01,0.000000000000000000e+00
6.503560000000000452e-01,-1.244211823981921511e-02,-3.502649587104247897e-02,9.157094955444335938e-01,1.400152778739702057e-02,-1.884956183856911771e-02,6.118470155034157372e-03,-2.244046493985350083e-02,-6.563527894590327760e-02,-1.941585689783096313e-01,3.147434205739450819e-02,-3.050067021498953368e-02,1.346625015606482401e-01,-2.766696155071258767e-01,8.614239096641540527e-02,-1.494695639337861176e-03,-1.766696155071258434e-01,1.861423909664154108e-01,-1.874535083770751884e-02,5.238020375807432849e-01,-6.659681200981140137e-01,-3.155688047409057617e-01,1.052332914480875701e+02,0.000000000000000000e+00
6.744989999999999597e-01,-1.236474635396539283e-02,-3.648213819184926293e-02,9.123422503471374512e-01,1.397090208109589074e-02,-1.696875833136357592e-02,8.178078386952468415e-03,-2.244804746969836229e-02,-6.267384996936087305e-02,-1.914285570383071899e-01,-2.057750304824434648e-02,1.249633070888238190e-01,4.589475406401411633e-02,-1.212770879268646324e-01,1.237144172191619873e-01,-2.017324849659672681e-01,-2.127708792686462333e-02,2.237144172191619929e-01,-2.247485160827636663e-01,5.352366076079893009e-01,-5.675238370895385742e-02,-1.090089082717895508e-01,8.210679684299047665e+01,0.000000000000000000e+00
6.994439999999999547e-01,-1.233900073082999996e-02,-3.797408879652638264e-02,9.088431000709533691e-01,1.359039687478521587e-02,-1.535565038490704914e-02,9.518871631411449097e-03,-6.613029212010241263e-03,-5.723433861791688698e-02,-2.082485109567642212e-01,-2.960106990711086627e-03,7.120073731996266753e-02,8.919825881184120786e-02,-6.850918531417847512e-02,1.260739743709564098e-01,-1.943574988112428958e-01,3.149081468582153043e-02,2.260739743709564153e-01,-2.211090087890625056e-01,5.459591036234195949e-01,4.444206953048706055e-01,-4.328962564468383789e-01,1.020585648803522787e+02,0.000000000000000000e+00
7.252469999999999750e-01,-1.239657361940064290e-02,-4.009670123506019895e-02,9.036247134208679199e-01,1.103667963662202829e-02,-1.323889211588813453e-02,1.099088618512243307e-02,-3.795151242770224143e-02,-6.220970778892086911e-02,-2.034290134906768799e-01,-1.153446646811514126e-01,5.653642330020004769e-02,5.797770953229141461e-02,1.244242906570434404e-01,-2.166074633598327748e-01,-1.964571747482631858e-01,2.244242906570434459e-01,-1.166074633598327553e-01,-2.272495508193969616e-01,5.343468072069713637e-01,-2.178990840911865234e-01,-4.568508863449096680e-01,1.037654564746951422e+02,0.000000000000000000e+00
7.469430000000000236e-01,-1.261135197105636187e-02,-4.139826085512393616e-02,9.001271724700927734e-01,8.032099960778117664e-03,-1.350230055940171425e-02,1.319086920051622605e-02,-2.408321587740478581e-02,-5.264006425419518603e-02,-2.155612558126449585e-01,-2.137263920300645492e-01,1.548410444748040326e-03,1.410023383324721657e-01,1.260500669479369951e-01,1.157621860504150224e-01,-1.873648773607746454e-01,2.260500669479370006e-01,2.157621860504150280e-01,-2.242692947387695257e-01,5.275330479318215415e-01,-6.686059832572937012e-01,-3.778768777847290039e-01,1.169664704420914347e+02,0.000000000000000000e+00
7.722790000000000488e-01,-1.312302165908617313e-02,-4.329407898659644316e-02,8.952807784080505371e-01,4.409419567102675075e-03,-1.601983742974488756e-02,1.706823412620806640e-02,-4.470047482853019977e-02,-5.785055065081164821e-02,-1.891194134950637817e-01,-4.803941340923490594e-02,-1.250577152575441386e-01,1.604115506522705847e-01,-9.441846902470979463e-02,-1.672920465469360241e-01,-1.560466913928540145e-01,1.212215423583984288e-03,-6.729204654693603238e-02,-2.036527633666992132e-01,5.256996427332869537e-01,-6.983268857002258301e-01,-1.032208204269409180e-01,2.867450017354752911e-01,0.000000000000000000e+00
7.997100000000000319e-01,-1.373374611366232241e-02,-4.523864209899108174e-02,8.908129334449768066e-01,2.817150244159592754e-03,-1.763864368284173700e-02,2.055328728797595900e-02,-3.023582883570461594e-02,-4.947722143858370586e-02,-1.836882829666137695e-01,2.196191309527907240e-02,-1.899725214146854094e-02,1.110393341708432596e-01,-2.542207396771239414e-01,6.723337173461912952e-02,6.488684748830877980e-02,-1.742639780044555609e-01,1.672333717346191351e-01,7.542783021926879536e-03,5.263420928476244542e-01,-6.738350987434387207e-01,5.992635488510131836e-01,4.779899911373196630e+01,0.000000000000000000e+00
8.233350000000000390e-01,-1.420870269639226691e-02,-4.656554589815004724e-02,8.881369233131408691e-01,3.374729521276125920e-03,-1.847981762918027293e-02,2.285355274144129645e-02,-3.421549427372352903e-02,-5.961135351351094097e-02,-1.796098500490188599e-01,2.881289236660046146e-02,-4.042289546686336082e-02,1.178405640174459423e-01,-2.602047172587992341e-01,-1.040565729141235407e-01,-9.333622662236271128e-02,-1.669047653675079235e-01,-4.056572914123535156e-03,-1.570739865303039384e-01,5.261907601824903358e-01,-6.914764046669006348e-01,-4.141451120376586914e-01,5.097572692689406892e+01,0.000000000000000000e+00
8.511189999999999589e-01,-1.487252977585509610e-02,-4.845025049029379194e-02,8.841836452484130859e-01,3.097097464799236470e-03,-1.687778655518656912e-02,2.537321277776781805e-02,-4.055598860274973322e-02,-5.307698333489552223e-02,-1.869128197431564331e-01,-1.003868853806519773e-01,9.231407465135808843e-02,5.252539222518154416e-02,1.296015489421596389e-01,-3.196275353431701771e-01,-1.560811733506450028e-01,2.159184694290161022e-01,-2.196275353431701716e-01,-2.268993973731994462e-01,5.346214649147597031e-01,-2.891142368316650391e-01,-2.578722238540649414e-01,1.100535471906623286e+02,0.000000000000000000e+00
8.749270000000000103e-01,-1.540555696386566170e-02,-4.964472450719319141e-02,8.816179633140563965e-01,1.315905067419484301e-03,-1.576509219436816878e-02,2.631488428624899692e-02,-3.209297454926644116e-02,-4.496123961216255682e-02,-1.832057386636734009e-01,-1.377038432389608436e-01,9.381634048171581808e-02,2.322801381398314699e-02,1.498671011336290826e-01,-3.258877754211425559e-01,-1.539006496305208027e-01,2.205249309539794866e-01,-2.258877754211425781e-01,-2.273440361022949219e-01,5.305946293818301074e-01,-5.207880139350891113e-01,-2.324169874191284180e-01,1.237982032348566150e+02,0.000000000000000000e+00
8.999599999999999822e-01,-1.635101363220553203e-02,-5.120074209384553598e-02,8.776981830596923828e-01,-4.157937863302796008e-03,-1.315832513803827375e-02,2.893205193953875265e-02,-5.029432240654155978e-02,-3.958513344601577444e-02,-1.834332495927810669e-01,-1.799578829880022768e-01,1.035451145638813658e-01,9.851414281434779652e-02,1.921382547760733805e-01,-2.791957736015319713e-01,-1.466433679592478168e-01,2.249640941619872880e-01,-1.791957736015319658e-01,-2.272700428962707297e-01,5.329223172696254673e-01,-4.248971939086914062e-01,-5.281428098678588867e-01,1.208555118536049946e+02,0.000000000000000000e+00
9.231540000000000301e-01,-1.696566248864476989e-02,-5.220152411019782918e-02,8.751659989356994629e-01,-6.656148764915068537e-03,-1.033459248776114059e-02,3.079932336871311210e-02,-3.891405825487728731e-02,-3.979583192787770896e-02,-1.781839430332183838e-01,-7.199516825754294358e-02,1.698704686232838101e-01,1.008526159054889959e-01,1.468655557612924545e-01,1.227289021015167125e-01,-1.396610530611149814e-01,1.652960300445556474e-01,2.227289021015167181e-01,-2.255371212959289551e-01,5.446985280463774171e-01,2.239634990692138672e-01,7.717144489288330078e-02,-2.590068863461906901e+01,0.000000000000000000e+00
9.508029999999999538e-01,-1.785581176411479495e-02,-5.372730943914540841e-02,8.716281652450561523e-01,-6.712507960851249629e-03,-3.950643834833122980e-03,3.362147506688151211e-02,-3.422349430787469809e-02,-4.238715075036726676e-02,-1.685589253902435303e-01,7.303161599821586525e-02,2.171475242321423971e-01,7.069053889301231408e-02,2.051089252706397581e-01,1.627885405832941723e-01,3.187508379459014218e-01,2.259788274765014426e-01,2.246948540210723932e-01,2.248308777809142900e-01,5.278523537126461607e-01,-6.977986693382263184e-01,3.623260259628295898e-01,-5.627904096832880754e+01,0.000000000000000000e+00
9.742800000000000349e-01,-1.849558787071245089e-02,-5.481580481469659760e-02,8.693948388099670410e-01,-5.087358950025054442e-03,1.330507281066761749e-03,3.576786201775547513e-02,-5.045526442491634483e-02,-4.892812836262563914e-02,-1.698587983846664429e-01,5.987358320507558257e-02,2.702499485268300972e-01,1.409660063051959289e-01,1.887691781668061619e-01,1.851378854138843455e-01,-3.647912740707395796e-02,2.248766183853149470e-01,2.261109173297881914e-01,-1.364791274070739635e-01,5.299606191110014519e-01,-6.119425892829895020e-01,9.961330890655517578e-02,-9.154633684200153709e+01,0.000000000000000000e+00
9.982649999999999579e-01,-1.915715823283664285e-02,-5.587348584852770694e-02,8.673582673072814941e-01,-1.663613716417193349e-03,4.755328177862061523e-03,3.710307139000281612e-02,-2.744196574153692086e-02,-3.854700141226725246e-02,-1.577794998884201050e-01,1.802341880709432964e-01,1.683945926033123541e-01,-8.661820885836411799e-03,1.690483035579547488e-01,2.231128193071488797e-01,3.263727724552154541e-01,2.201537489891052246e-01,2.228548228740692139e-01,2.263727724552154486e-01,5.276391095318468949e-01,-7.131250500679016113e-01,1.192842721939086914e-01,5.972660968774400914e+01,0.000000000000000000e+00
1.023292000000000090e+00,-2.024254573121160930e-02,-5.748811913080702218e-02,8.645377755165100098e-01,4.037122731078379018e-03,5.416733066285539522e-03,3.648440164585980972e-02,-4.038308424374420502e-02,-4.608992237629593036e-02,-1.414113938808441162e-01,2.037822956413381792e-01,-7.413976986960760240e-02,-1.399651086269940344e-02,-2.614369512452078270e-01,1.663431377288402124e-01,2.793999433517456166e-01,-1.652716398239135742e-01,1.753245770931243785e-01,1.793999433517456110e-01,5.335490062537718847e-01,-3.500629067420959473e-01,1.302560567855834961e-01,-5.874097923956531986e+01,0.000000000000000000e+00
1.052173000000000025e+00,-2.100669011236093453e-02,-5.852493306014618091e-02,8.627837896347045898e-01,7.967903281979226565e-03,3.920986613300758705e-03,3.643623712347086180e-02,-4.140730021061374971e-02,-4.078141717385051768e-02,-1.383800804615020752e-01,2.218480164607027905e-01,-1.086177425203621177e-01,1.279813721501989968e-03,-2.552868843078613392e-01,1.664375306272179722e-01,2.823032915592193492e-01,-1.552868843078613337e-01,1.844566047191619762e-01,1.823032915592193437e-01,5.336277590525471126e-01,-3.543280363082885742e-01,-3.273609876632690430e-01,1.182306564951907575e+02,0.000000000000000000e+00
1.075123000000000051e+00,-2.194597084966940642e-02,-5.977461811443535861e-02,8.609724044799804688e-01,1.164622039214252038e-02,1.143351472921994016e-03,3.440396977003880308e-02,-3.274746074276565361e-02,-4.511619066822357416e-02,-1.507875025272369385e-01,1.719731543017813946e-01,-1.404151545268865486e-01,-1.295844874523204571e-01,-2.492725133895873912e-01,8.852526378361022519e-02,2.961245711120497059e-01,-1.492725133895873857e-01,1.184890866279602051e-01,1.997914731502532792e-01,5.385673421635663871e-01,-1.521507501602172852e-01,1.142774820327758789e-01,9.529321469613046247e+01,0.000000000000000000e+00
1.102225999999999928e+00,-2.364928396005364086e-02,-6.186009404122583266e-02,8.583055734634399414e-01,1.389161184664995836e-02,-3.486099798871933331e-03,3.101106462009154199e-02,-3.895983046131877570e-02,-3.508031634364275342e-02,-1.484804004430770874e-01,-1.144453832199128149e-02,-1.751874389898449291e-01,-1.118343061139043387e-01,-2.739514827728271595e-01,-3.065875235032220619e-02,-3.987095311413027532e-02,-1.739514827728271540e-01,3.592082262039184709e-02,-1.267547965049743708e-01,5.287048375988895321e-01,-7.108891606330871582e-01,-1.103159189224243164e-01,6.934835864324350041e+01,0.000000000000000000e+00
1.126468999999999943e+00,-2.474898335963682944e-02,-6.305489976091392668e-02,8.563152551651000977e-01,1.164651920266059765e-02,-6.377417998281176281e-03,2.862928020352995678e-02,-3.136477916651242426e-02,-3.338395648532558463e-02,-1.520875245332717896e-01,-1.803063293507795040e-01,-1.280391268074249356e-01,-1.252244025516037751e-01,7.370808124542235773e-02,7.136249735732193289e-02,-1.049730790558858762e-01,1.737080812454223633e-01,1.510649800300598034e-01,-1.851584315299987793e-01,5.293387010925829639e-01,-7.130593061447143555e-01,2.934181690216064453e-02,5.818298010513196061e+01,0.000000000000000000e+00
1.149291000000000063e+00,-2.584546891596293042e-02,-6.408890276616899251e-02,8.542921543121337891e-01,8.014413264704456016e-03,-9.196383945855313158e-03,2.588693715464821313e-02,-3.470263244621118320e-02,-2.314127723573575560e-02,-1.519956588745117188e-01,-1.885161989192976895e-01,-1.395295015035629138e-01,-1.688215402135076204e-01,5.560184717178343061e-02,-7.545989751815807001e-03,-9.705989545592799694e-02,1.556018471717834362e-01,9.245401024818419855e-02,-1.695162892341613714e-01,5.299017871595160800e-01,-7.046490907669067383e-01,2.584496736526489258e-01,4.955420063607433434e+01,0.000000000000000000e+00
1.176290999999999976e+00,-2.694795528160814913e-02,-6.506875484339851023e-02,8.522047996520996094e-01,2.694760475254914453e-03,-1.204483431411973449e-02,2.411592518754157588e-02,-3.594759194531745028e-02,-1.738221626477778892e-02,-1.623798906803131104e-01,-3.024702300059493587e-01,-1.230478787753532255e-01,-2.772837974171228625e-02,1.399699421125140120e-01,9.272091984748839777e-02,-1.182257789097768685e-01,2.148523807525634655e-01,1.927209198474884033e-01,-1.855881214141845703e-01,5.308734124394347553e-01,-7.161571979522705078e-01,-1.964713335037231445e-01,9.938452532972478082e+01,0.000000000000000000e+00
1.198604999999999920e+00,-2.822228917274607202e-02,-6.592158362321638709e-02,8.501063585281372070e-01,-2.591638439663375860e-03,-1.359853843488334491e-02,2.359781734908100725e-02,-3.868155420257034238e-02,-1.860102112296630611e-02,-1.505841314792633057e-01,-2.370613431606545807e-01,-1.140829998303003190e-01,-3.002495191986901193e-02,1.649844433516877151e-01,8.955805897712706964e-02,-1.070459701426737797e-01,2.080160379409790039e-01,1.895580589771270752e-01,-1.727758884429931585e-01,5.304905418965129016e-01,-7.139845490455627441e-01,-2.312024831771850586e-01,9.402512177482589095e+01,0.000000000000000000e+00
1.223109999999999919e+00,-3.034009943673516424e-02,-6.712869185422848384e-02,8.474236130714416504e-01,-7.768100774737689805e-03,-1.580225701476112299e-02,2.408891947107648368e-02,-4.892138884829676931e-02,-2.326134380818598718e-02,-1.369191408157348633e-01,-1.046430643273479344e-01,-5.456595885861001416e-02,-2.196325967259381371e-03,1.852837999541831759e-01,8.554724454879758522e-02,-9.598716583217725695e-02,1.989162683486938310e-01,1.855472445487975908e-01,-1.628341555595397838e-01,5.300162004446590247e-01,-7.113815546035766602e-01,-1.755312681198120117e-01,9.627764986120439517e+01,0.000000000000000000e+00
1.249100000000000099e+00,-3.255114472383481561e-02,-6.833981631071323060e-02,8.449614644050598145e-01,-8.769971081156315712e-03,-1.758776193022271173e-02,2.512713564647465342e-02,-4.621170119143418187e-02,-1.955738803188883379e-02,-1.320818662643432617e-01,5.429095414560784240e-03,-8.592958699188589511e-02,4.272179210199952837e-02,1.230696970435883053e-01,-1.168597936630249023e-01,-1.448209412650252881e-01,1.278762102127075084e-01,-1.685979366302490026e-02,-2.145143508911132868e-01,5.301196177881886129e-01,-7.105783820152282715e-01,-2.131701707839965820e-01,9.807546493377847696e+01,0.000000000000000000e+00
1.273444000000000020e+00,-3.483861284979199863e-02,-6.950180887050758094e-02,8.427532315254211426e-01,-6.687435051810742583e-03,-1.943460739569280449e-02,2.689291077283204393e-02,-6.134562924358524100e-02,-2.133937033686394286e-02,-1.264015585184097290e-01,5.308356870995590421e-02,-3.068885866237557047e-02,9.662870493757140522e-02,-1.827847392566613882e-01,-1.158519983291626809e-02,-8.839365624247907949e-02,-1.619149625301360973e-01,8.841480016708373746e-02,-1.630006313323974498e-01,5.308591282785132259e-01,-6.709612011909484863e-01,-9.506881237030029297e-02,1.079779210037871451e+02,0.000000000000000000e+00
1.299104000000000037e+00,-3.707807157036920737e-02,-7.095432937000221985e-02,8.407042622566223145e-01,-1.981934839312464447e-03,-2.219953493147719392e-02,2.855636691261681168e-02,-5.608442414203428789e-02,-1.351179735561291138e-02,-1.212268322706222534e-01,2.153290955218518377e-01,-7.332633455717690873e-02,1.005438633893857153e-01,-2.451984648997249661e-01,-2.639608979225158691e-01,-9.680216787385453880e-02,-1.984888136386871171e-01,-1.639608979225158636e-01,-1.762598633766174205e-01,5.320823525984084146e-01,-6.052550077438354492e-01,8.732879161834716797e-02,1.003830238542997648e+02,0.000000000000000000e+00
1.324016999999999999e+00,-3.933047306297134810e-02,-7.224696410800583724e-02,8.386371731758117676e-01,2.240914917162958528e-03,-2.293030530310424808e-02,3.033772970353704537e-02,-6.498664753324596977e-02,-1.395746458973269252e-02,-1.111033707857131958e-01,1.287532527421509088e-01,1.621242246127082426e-02,5.356122890722671281e-02,-2.692738524050455884e-01,-6.165903806686402061e-02,-9.993896105929234164e-02,-1.928840517997741644e-01,3.834096193313598494e-02,-1.845334768295288086e-01,5.323061452612644073e-01,-5.750989317893981934e-01,-5.048642158508300781e-01,1.649793944957228007e+02,0.000000000000000000e+00
1.350311000000000039e+00,-4.160362155746418628e-02,-7.327199286408589418e-02,8.364543318748474121e-01,3.026800933487437586e-03,-2.085833649611057439e-02,3.196124231948054700e-02,-5.562856378978147526e-02,-5.123582508377785838e-03,-1.193222925066947937e-01,-3.020761265712378074e-02,7.738255070276411907e-02,4.894357758803122987e-02,1.221952867686965094e-01,1.169121563434600830e-01,-8.363984425936563105e-02,1.978361964225769098e-01,2.169121563434600886e-01,-1.728850364685058649e-01,5.477121144744492298e-01,2.259682416915893555e-01,2.149947881698608398e-01,-7.213724782476477060e+01,0.000000000000000000e+00
1.373909999999999965e+00,-4.308045453138584224e-02,-7.373467363693783638e-02,8.348438143730163574e-01,5.917207908060703736e-04,-1.760171021588630147e-02,3.310049414675399898e-02,-7.394482209182873245e-02,-2.905495032904621428e-03,-1.283252984285354614e-01,-1.410668979778164633e-01,1.645431454928215353e-01,6.272729413624705819e-02,1.579478088015930370e-01,-3.056017994880676492e-01,-1.308455002332584716e-01,2.170794725418090654e-01,-2.056017994880676159e-01,-2.231869697570800781e-01,5.363968677428839760e-01,-4.616728425025939941e-01,-5.513216257095336914e-01,1.262831763190689998e+02,0.000000000000000000e+00
1.399521000000000015e+00,-4.462122794653497482e-02,-7.359037822565829556e-02,8.331580758094787598e-01,-3.399524384664173466e-03,-1.420186565979930648e-02,3.439492531540812997e-02,-5.978969008008680475e-02,6.615896591540631165e-03,-1.265504062175750732e-01,-2.419031904991544302e-01,1.747910134417812178e-01,4.061907074058361544e-02,1.973544492312717391e-01,-3.141942381858825462e-01,-1.294783609772504618e-01,2.240660190582275391e-01,-2.141942381858825684e-01,-2.254000067710876243e-01,5.347235006059034568e-01,-5.678080916404724121e-01,2.108901739120483398e-01,6.840095676384937917e+01,0.000000000000000000e+00
1.424425999999999970e+00,-4.714773380005773257e-02,-7.333047078660707985e-02,8.308172821998596191e-01,-6.712659126617196055e-03,-1.199311070739828011e-02,3.637981865293668515e-02,-7.215761381922571049e-02,9.598389052471887950e-06,-1.067301332950592041e-01,-4.512205401446885145e-02,2.316795936588141036e-02,7.302602415578243744e-02,2.145573643504099515e-01,1.192787051200866477e-01,-1.189830541610717718e-01,2.255375862121581920e-01,2.192787051200866533e-01,-2.189830541610717773e-01,5.356729198644852863e-01,-4.607709646224975586e-01,-1.941295862197875977e-01,9.441569248213473031e+01,0.000000000000000000e+00
1.448442999999999925e+00,-4.883697732543848535e-02,-7.318695348481280005e-02,8.295180797576904297e-01,-6.400635095581466358e-03,-1.020978166079777871e-02,3.786242646240710330e-02,-8.028536063746234686e-02,-8.333913285826255490e-05,-1.052611917257308960e-01,4.526232087191390391e-02,1.277236119206766884e-01,9.251182374125935248e-02,2.098162868464003294e-01,1.246700167655944713e-01,3.083803534507751354e-01,2.217871427536010631e-01,2.246700167655944769e-01,2.083803534507751298e-01,5.322097656933053589e-01,-6.648037433624267578e-01,-1.332279443740844727e-01,3.729306850979598664e+01,0.000000000000000000e+00
1.472625000000000073e+00,-5.125194987997504920e-02,-7.300676151485199772e-02,8.277608752250671387e-01,-3.270834949686486810e-03,-5.557018701763505319e-03,3.983000046122908006e-02,-6.450152846164346199e-02,8.238549355323801157e-03,-9.016393870115280151e-02,1.669285965052657583e-01,1.761588798513599452e-01,4.893134959444361831e-02,1.563053503381474085e-01,1.205412924289703258e-01,3.253088474273681530e-01,1.826729893684387040e-01,2.205412924289703314e-01,2.253088474273681474e-01,5.308026238771637040e-01,-7.019004821777343750e-01,4.074045419692993164e-01,1.112720119574575790e+02,0.000000000000000000e+00
1.497784999999999922e+00,-5.279590641851351906e-02,-7.304911649179204880e-02,8.267595767974853516e-01,2.110352715040881883e-04,-3.014459158354076962e-03,4.049765416916099176e-02,-7.541980237306682155e-02,-1.169076980936001927e-03,-7.832875847816467285e-02,1.972495027093643660e-01,8.099221253612769178e-02,2.782555086186780727e-03,9.865994216951277929e-02,1.112875998020171897e-01,3.193570435047149436e-01,1.554899811744689941e-01,2.112875998020171953e-01,2.193570435047149658e-01,5.309326178212175895e-01,-6.651927232742309570e-01,4.515298604965209961e-01,7.082344044734530542e+01,0.000000000000000000e+00
1.522534000000000054e+00,-5.512386891051616195e-02,-7.322223624145603182e-02,8.254035115242004395e-01,6.739987857251159183e-03,-2.051057713882586953e-03,3.772930510855082575e-02,-6.481063395157807272e-02,-2.737674165813374586e-03,-7.986344397068023682e-02,2.104840924407149483e-01,-1.889877020272647153e-03,-1.109030654127188958e-01,-2.002698540726065568e-01,5.768811800567795467e-02,3.141117870807647594e-01,-1.004896044731140164e-01,1.516865372657775768e-01,2.141117870807647539e-01,5.365158362372830503e-01,-3.816781044006347656e-01,-7.654345035552978516e-02,4.065951507243894270e+01,0.000000000000000000e+00
1.550513999999999948e+00,-5.742694646569659889e-02,-7.332406126309622130e-02,8.240497708320617676e-01,1.301178879417575970e-02,-4.034903959051927558e-03,3.353607747085245172e-02,-7.216236553734570180e-02,4.159048453168967020e-03,-7.713314890861511230e-02,2.028009645338505196e-01,-6.942618793020750856e-02,-1.776491300305267917e-01,-2.932800889015197976e-01,-1.693828463554382380e-01,3.146385963468398828e-01,-1.932800889015197643e-01,-6.938284635543823242e-02,2.206211507320403886e-01,5.413964673982418763e-01,-1.183459758758544922e-01,5.739191770553588867e-01,1.235209385356891119e+02,0.000000000000000000e+00
1.573566999999999938e+00,-5.896095804891437336e-02,-7.333102771254036700e-02,8.230358958244323730e-01,1.577166372886343662e-02,-5.805928952358208051e-03,3.034978522675033097e-02,-6.387462999078326320e-02,3.305345650595407306e-03,-7.991405576467514038e-02,8.985917408831474440e-02,-8.932103666011580179e-02,-1.329699840496627594e-01,-2.708820521831512562e-01,-2.884431362152099498e-01,2.887112251206868652e-01,-1.708820521831512507e-01,-1.884431362152099443e-01,2.035447061061859131e-01,5.354591524297082072e-01,-4.751088619232177734e-01,-4.362891912460327148e-01,8.367995333338450337e+01,0.000000000000000000e+00
1.597703000000000095e+00,-6.098814725212987203e-02,-7.315068975705454890e-02,8.218512535095214844e-01,1.639152405281297728e-02,-6.751280916089008599e-03,2.673278671397733008e-02,-6.668230660277497945e-02,6.496510691600948864e-03,-8.110599964857101440e-02,-2.622542206535728726e-02,-2.013556884930733579e-02,-1.966609809323193458e-01,-1.789223730564117321e-01,-1.429305791854858509e-01,5.699984511590164282e-02,-7.892237305641174039e-02,-4.293057918548583846e-02,-1.808413267135619909e-02,5.318290798961650134e-01,-6.974043846130371094e-01,4.717081785202026367e-01,-7.078976078454797971e+01,0.000000000000000000e+00
1.623397999999999897e+00,-6.382808050350879947e-02,-7.266047495573074722e-02,8.197637796401977539e-01,1.213356251059588033e-02,-6.254350761810467674e-03,2.169542811293965687e-02,-5.753570135684418774e-02,2.336795445693360535e-02,-8.796609938144683838e-02,-1.917517815902030631e-01,3.171157831937748695e-02,-1.282281718644181501e-01,1.224406361579895020e-01,8.236687779426574152e-02,-1.492038986214057339e-01,2.224406361579895075e-01,1.823668777942657471e-01,-2.101060509681701716e-01,5.329477357559877504e-01,-6.842342615127563477e-01,-1.811667680740356445e-01,8.432014696428979050e+01,0.000000000000000000e+00
1.648071999999999981e+00,-6.565259433212168594e-02,-7.214615918172428977e-02,8.183054327964782715e-01,7.201151244569691141e-03,-3.509348838250048175e-03,1.867629031235469236e-02,-6.653029708448605917e-02,2.141672144916716841e-02,-9.685441851615905762e-02,-2.729094086007544107e-01,1.407473569666391477e-01,-1.435874754825053612e-01,1.355161853974962693e-01,-9.318082332611084262e-02,-1.652363278278557168e-01,2.248409986495971680e-01,6.819176673889160330e-03,-2.175405263900756780e-01,5.346285581954282051e-01,-6.469175815582275391e-01,3.154052495956420898e-01,4.350740684310536466e+01,0.000000000000000000e+00
1.672803000000000040e+00,-6.832499743826865590e-02,-7.138492724895539876e-02,8.161700963973999023e-01,-9.804474677772255780e-05,1.051586057998932233e-03,1.671792069481778387e-02,-6.510699955268088590e-02,2.349176735315924511e-02,-8.683197200298309326e-02,-2.462266633748770583e-01,1.700962290114161335e-01,1.278194855870030955e-02,1.813923093446481172e-01,-1.113695288359418945e-02,-1.759787016588837683e-01,2.212841749191284124e-01,7.269939780235290527e-02,-2.226702690124511552e-01,5.372996348254978072e-01,-4.817139506340026855e-01,1.689232587814331055e-01,9.100281087841943872e+01,0.000000000000000000e+00
1.699195000000000011e+00,-7.012801167244260558e-02,-7.082394996891154537e-02,8.149489760398864746e-01,-1.911759169376376060e-03,2.390360658892642931e-03,1.664073760821511982e-02,-6.314668113539811944e-02,2.274766507280412409e-02,-7.331879436969757080e-02,-9.003929382897809738e-03,3.223991508628080288e-02,6.668104545839493615e-03,-1.481038455645845298e-01,1.485810299661957934e-01,-1.777157460448542670e-01,-1.193032443523406871e-01,2.241433739662170299e-01,-2.241713762283325251e-01,5.422616021554544918e-01,-1.705144643783569336e-01,2.629555463790893555e-01,7.411497691026615087e+01,0.000000000000000000e+00
1.729950000000000099e+00,-7.271810358576714928e-02,-6.995298381581091518e-02,8.133202791213989258e-01,-9.818153058370278265e-04,3.242169935540495374e-03,1.779694795250081826e-02,-7.644512153040919356e-02,1.166246826492046106e-02,-5.617970973253250122e-02,8.217545496074801781e-02,5.496910781466208401e-03,3.872357127127484810e-02,1.233671419491133570e-01,1.312184628018809307e-01,1.018783620870965800e-01,1.657551527023315430e-01,2.135721266269683671e-01,5.220306515693664412e-02,5.325489391654090188e-01,-6.596823334693908691e-01,-1.284611225128173828e-02,9.565744136381056251e+01,0.000000000000000000e+00
1.752725000000000088e+00,-7.440138528585668598e-02,-6.939231427459773005e-02,8.124400973320007324e-01,1.317929678378251595e-03,3.807130091841637309e-03,1.901835475406822226e-02,-6.487895191761587632e-02,1.875493209187319849e-02,-5.678995326161384583e-02,8.239487054173814939e-02,6.445859875714850251e-02,6.092217611066846200e-02,1.484662572850434514e-01,1.537484767856714396e-01,2.685209983955418878e-01,1.989307165145874079e-01,2.233804285526275468e-01,2.153518438339233343e-01,5.322830728061779260e-01,-6.918463110923767090e-01,4.178260564804077148e-01,-1.166500960797364428e+02,0.000000000000000000e+00
1.780839999999999979e+00,-7.603958818358801108e-02,-6.879858020400507479e-02,8.115037083625793457e-01,3.368028759018068790e-03,3.749243194475448959e-03,2.058609199561863001e-02,-6.530817497889403189e-02,2.886838843498126805e-02,-4.097918048501014709e-02,1.160549923804429784e-01,-1.844735898593267628e-02,9.858045066495060849e-02,-9.062249153179180450e-02,1.385058648372974877e-01,-9.520337120222749361e-02,-3.359735012054443359e-02,2.118875026702880804e-01,-1.528056263923645020e-01,5.322004836356164503e-01,-6.491289734840393066e-01,1.981157064437866211e-01,9.343779380809650092e+01,0.000000000000000000e+00
1.805620999999999921e+00,-7.683896726191374871e-02,-6.845747072619653983e-02,8.110957145690917969e-01,3.555915227783388276e-03,3.632712404183502386e-03,2.102634158688277896e-02,-6.861600827283430293e-02,2.213472167451674411e-02,-4.757644981145858765e-02,2.163992540484866237e-02,-4.215349668588012910e-02,7.504570101416549455e-02,-2.160500295229942358e-01,1.091675787096149652e-01,6.815886072516315342e-02,-1.517258763313293346e-01,1.865095674991607555e-01,9.338575601577758095e-03,5.321439450049120223e-01,-6.919881701469421387e-01,1.211117506027221680e-01,9.088969611557486417e+01,0.000000000000000000e+00
1.827201000000000075e+00,-7.763490060398958725e-02,-6.812461421358737002e-02,8.106957077980041504e-01,3.861736659946802229e-03,3.269707831267787412e-03,2.100772027707978329e-02,-7.713419856323444623e-02,1.518192357026972375e-02,-3.986753895878791809e-02,3.439317597076533076e-03,-5.792181146422399618e-02,-1.967634273486239954e-02,1.310666476321426799e-01,1.178227163033030711e-01,-1.080759338449550910e-01,2.014886856079101396e-01,2.044356644153594860e-01,-1.668314695358276423e-01,5.313790958065663927e-01,-7.169743180274963379e-01,2.324563264846801758e-01,6.757498881770889909e+01,0.000000000000000000e+00
1.854818999999999996e+00,-7.921535131070188418e-02,-6.747141827638318545e-02,8.099426627159118652e-01,4.896667457660747354e-03,1.904050389145428568e-03,2.007393885350757315e-02,-5.750964404761341880e-02,2.852400559029966143e-02,-3.625370189547538757e-02,6.801658950327646447e-02,-4.904257371192956988e-02,-7.488712639099774637e-02,1.096399370284402569e-01,-1.051830413051398350e-01,2.716281833008112878e-01,1.761663794517517034e-01,-2.411066293716430595e-02,2.154349207878112626e-01,5.355885368898218868e-01,-4.844669103622436523e-01,-8.794605731964111328e-02,-1.348066786673546176e+02,0.000000000000000000e+00
1.873758999999999952e+00,-7.997745265623870670e-02,-6.717471205192085404e-02,8.095611333847045898e-01,5.628346917253072325e-03,7.452470301652081019e-04,1.888571260655414266e-02,-5.259681309289826467e-02,2.562010248708426752e-02,-3.998881205916404724e-02,3.176899384229949636e-02,-7.509232756937596343e-02,-9.692165433244558093e-02,4.256764971688165033e-02,-1.108788755023710909e-01,2.112039271279678165e-01,1.177927136421203502e-01,-2.250405550003051550e-02,1.583356440067291149e-01,5.330994692691750636e-01,-6.494632959365844727e-01,6.966125965118408203e-02,5.228368083219483253e+01,0.000000000000000000e+00
1.903801000000000077e+00,-8.230211017370545057e-02,-6.625601432064934238e-02,8.085299134254455566e-01,8.449126193844514604e-03,-2.872001411250435510e-03,1.730321482707387892e-02,-6.727620484126109468e-02,2.633864586692636831e-02,-2.917404659092426300e-02,9.989907418210867973e-02,-1.305546197863377000e-01,-5.092120268653488671e-03,1.222640930121911690e-01,5.552588701248167835e-02,2.542473759687605694e-01,2.145831227302551214e-01,1.555258870124816839e-01,2.057328701019286998e-01,5.410930724161497896e-01,-1.801943778991699219e-01,1.054302453994750977e-01,9.909816281858282139e+01,0.000000000000000000e+00
1.925550000000000095e+00,-8.382778709560666230e-02,-6.553765690542043276e-02,8.078317642211914062e-01,8.713670883904196113e-03,-4.816006061188149445e-03,1.670040655119448339e-02,-7.067884285684676582e-02,2.707886610536160490e-02,-2.859008125960826874e-02,-3.083693560076082238e-02,-7.086391135616976200e-02,-2.784638189638199285e-02,7.004006333366039061e-02,1.097072422504424827e-01,-1.680903845733844881e-01,1.633859395980834794e-01,2.097072422504424882e-01,-2.149364948272705078e-01,5.314581419066114476e-01,-7.241714596748352051e-01,3.437043428421020508e-01,5.794326778602119532e+01,0.000000000000000000e+00
1.951302000000000092e+00,-8.604523190952978462e-02,-6.428105328333835744e-02,8.068121671676635742e-01,8.282923357906400025e-03,-7.486397451474724463e-03,1.677691817032733387e-02,-5.960880529946278178e-02,3.515687825436335234e-02,-2.975553087890148163e-02,-3.913915279366820404e-02,-5.007223766060917014e-02,-1.464084866704896959e-02,9.105147647288681922e-02,1.034408152103424017e-01,-1.455840633756420588e-01,1.752631902694702093e-01,2.034408152103424072e-01,-1.926695108413696289e-01,5.320993941093694612e-01,-7.083129882812500000e-01,-6.380975246429443359e-02,8.463026487336504999e+01,0.000000000000000000e+00
1.973260000000000014e+00,-8.737491482494257056e-02,-6.339993705344351693e-02,8.061405420303344727e-01,8.519221024053266755e-03,-9.371078588963799305e-03,1.549471278717123868e-02,-6.445807213507896705e-02,2.544783437554836228e-02,-2.401069551706314087e-02,3.082057071709327217e-02,-7.398881942078680551e-02,-8.317514204136007561e-02,-7.244219852525690673e-02,-2.798094987869262917e-01,2.294084648236146273e-01,2.117865085601806571e-02,-1.798094987869262584e-01,1.859343588352203314e-01,5.335771601016451315e-01,-6.183473467826843262e-01,-1.388815641403198242e-01,1.197047479218629178e+02,0.000000000000000000e+00
1.999257999999999980e+00,-8.928330790960330166e-02,-6.214730744208845498e-02,8.051000833511352539e-01,9.182790481578344613e-03,-9.809896821695085478e-03,1.235995147406910091e-02,-5.640587655132427852e-02,2.534032768544487724e-02,-3.101477958261966705e-02,2.991171039567585080e-02,3.083500006625030862e-02,-1.287871416148219650e-01,-1.086983268529269769e-01,6.299966573715209961e-02,2.456628011662101985e-01,-1.238529682159423759e-02,1.629996657371521052e-01,2.109329581260681041e-01,5.339954304020196885e-01,-6.381110548973083496e-01,4.035073518753051758e-01,6.988561449316753738e+01,0.000000000000000000e+00
2.024017999999999873e+00,-9.109983498551504910e-02,-6.092144844888212202e-02,8.041395545005798340e-01,1.166353587656285447e-02,-9.336274693616974929e-03,9.547686484298361503e-03,-5.692921734149982566e-02,2.982729801272616596e-02,-2.097655273973941803e-02,1.031886845312740275e-01,2.327816584134003927e-02,-2.240523294028397977e-02,-1.295307099819183461e-01,7.218043804168700062e-02,2.410525235420234447e-01,-2.953070998191833357e-02,1.721804380416870062e-01,2.140872180461883545e-01,5.331671565586462158e-01,-6.587668657302856445e-01,-2.924247980117797852e-01,1.924177806936597506e+02,0.000000000000000000e+00
2.049841999999999942e+00,-9.303484422805663456e-02,-5.955649414870410607e-02,8.032547235488891602e-01,1.502108529278756675e-02,-9.373414277545233375e-03,9.897583939697040395e-03,-6.673583820657325028e-02,3.067132590001584239e-02,-8.982013911008834839e-03,1.420629721080591545e-01,-5.708503305991419891e-03,5.264063274093418177e-02,-3.006849884986877441e-01,-2.143934607505798284e-01,-1.825567798065984848e-01,-2.006849884986877386e-01,-1.143934607505798229e-01,-2.106447458267211859e-01,5.333057664832057121e-01,-6.179795861244201660e-01,8.278489112854003906e-03,9.945316190069424067e+01,0.000000000000000000e+00
2.074978000000000211e+00,-9.475128541224896173e-02,-5.788199289518800722e-02,8.024715781211853027e-01,1.799585429213313229e-02,-9.145194706907444626e-03,8.320019313997516902e-03,-5.807729516410926884e-02,2.478732461767361658e-02,-9.415803477168083191e-03,6.569669309876138841e-02,6.660909142989557274e-02,-1.228746015202397401e-01,-2.613139331340789684e-01,9.637365937232969526e-02,2.448049107312197936e-01,-1.613139331340789628e-01,1.963736593723297008e-01,2.210632145404815563e-01,5.324312845585972287e-01,-6.809549331665039062e-01,-2.928074598312377930e-01,1.208046952461801027e+02,0.000000000000000000e+00
2.101080000000000059e+00,-9.626552126635809503e-02,-5.620283447925037562e-02,8.015565276145935059e-01,1.823009502973242310e-02,-7.125134004304811697e-03,4.836744311230517512e-03,-5.645323985565200292e-02,3.349540703417818593e-02,-1.656751148402690887e-02,-6.158207600812038579e-02,8.454216415322308997e-02,-1.108325027243402122e-01,1.194025516510009710e-01,1.159970223903655784e-01,2.372524836079658861e-01,2.194025516510009766e-01,2.159970223903655839e-01,2.232463181018829179e-01,5.371898237908796503e-01,-4.611214399337768555e-01,6.003224849700927734e-02,7.114346896090626160e+01,0.000000000000000000e+00
2.123099999999999987e+00,-9.731898966791284467e-02,-5.507356658578345388e-02,8.008127212524414062e-01,1.697622578121098236e-02,-6.309450438706454278e-03,2.249295864760172438e-03,-5.536905599683068779e-02,3.259839980401006698e-02,-1.620866544544696808e-02,-7.736402760779134691e-02,4.438417897914777310e-03,-1.276693913815627468e-01,7.137377262115476850e-02,8.146232962608335182e-02,2.632568013434291934e-02,1.713737726211547741e-01,1.814623296260833574e-01,1.962532997131347448e-02,5.333403446742993603e-01,-6.858547925949096680e-01,-2.324211597442626953e-02,5.646005464171248889e+01,0.000000000000000000e+00
2.147838999999999832e+00,-9.899121338667012104e-02,-5.338658344590609811e-02,7.997086048126220703e-01,1.302439514391001522e-02,-5.408298921322218789e-03,1.084896209702769813e-03,-6.229774073623145503e-02,3.919312139166318543e-02,-1.775708608329296112e-02,-1.824886480528858657e-01,7.111644788049636956e-02,-2.701825097230789799e-02,1.151337623596191406e-01,9.279453754425048828e-02,-4.424358573420443530e-02,2.151337623596191462e-01,1.927945375442504938e-01,-4.758639335632323941e-02,5.347659971322328287e-01,-6.289824843406677246e-01,3.151749372482299805e-01,1.073146959750005749e+02,0.000000000000000000e+00
2.173331000000000124e+00,-1.005450376021543996e-01,-5.172801514679805507e-02,7.984922528266906738e-01,6.436806217108406551e-03,-3.645312501326936072e-03,-1.513537676665559217e-03,-5.269121027155474618e-02,3.879923881971180516e-02,-2.214461378753185272e-02,-2.436606195059030366e-01,6.786648685370474943e-02,-1.005498045945488750e-01,1.549176886393324182e-01,1.004042327404022217e-01,-1.810367179928398795e-01,2.208195447921752763e-01,2.004042327404022272e-01,-1.768777370452880859e-01,5.348586350465699413e-01,-6.568489074707031250e-01,4.046958684921264648e-01,9.933502011862051972e+01,0.000000000000000000e+00
2.202247999999999983e+00,-1.021436790043690201e-01,-5.009771947607721820e-02,7.975020408630371094e-01,2.721684520850067759e-03,-4.176205300783442098e-03,-4.802097368507478835e-03,-5.982059081526314853e-02,3.911587658783136773e-02,-7.227637339383363724e-03,-5.353674874546469897e-02,-7.049063516385657702e-02,-6.715068855252612212e-02,4.394054011768450813e-02,9.773695468902587891e-02,-2.102752336008155143e-01,8.486319780349731168e-02,1.977369546890258845e-01,-1.968051195144653320e-01,5.333030128098406042e-01,-6.984187960624694824e-01,2.021931409835815430e-01,7.186214829556416817e+01,0.000000000000000000e+00
2.227489999999999970e+00,-1.032816634712153264e-01,-4.914598953143305138e-02,7.969624996185302734e-01,2.211733144402128724e-03,-5.659419804990184488e-03,-6.095092561703640069e-03,-6.542202523603792008e-02,3.061454501998979796e-02,6.303418427705764771e-03,-7.773575185451083759e-03,-1.101834845856357464e-01,-4.076676676697037899e-02,1.624659113426178969e-01,1.045902848243713268e-01,-1.677554990298263937e-01,2.060190796852111872e-01,2.045902848243713323e-01,-1.506145477294921764e-01,5.320971746427345384e-01,-7.235392928123474121e-01,2.578157186508178711e-01,7.120848553161560801e+01,0.000000000000000000e+00
2.249366999999999894e+00,-1.045814633082013390e-01,-4.814195434572937637e-02,7.964544892311096191e-01,2.950660327995036428e-03,-7.482887360342971306e-03,-6.465963523607318880e-03,-6.844791833499398737e-02,3.460288614460894224e-02,1.490362570621073246e-03,6.837107288670818406e-02,-9.167795999315529742e-02,1.902968411177187458e-02,1.675650240818926107e-01,7.360662221908567671e-02,1.563641772852512879e-01,2.113224506378173773e-01,1.736066222190856823e-01,1.744963288307189997e-01,5.364245541172915077e-01,-5.163343548774719238e-01,4.908128976821899414e-01,1.208266064930375023e+02,0.000000000000000000e+00
2.278728000000000087e+00,-1.066078313648504972e-01,-4.664554418121878709e-02,7.958223223686218262e-01,5.773393263676500700e-03,-1.100480537850301310e-02,-5.178911731022931876e-03,-6.206365099656521028e-02,3.857968384233814718e-02,1.129525527358055115e-02,1.230850062122720023e-01,-1.320067805956094409e-01,7.816046513502368509e-02,1.212859750704992634e-01,-3.292388916015626110e-02,1.629861694094683899e-01,1.800609111785888561e-01,6.707611083984374445e-02,1.773803651332855058e-01,5.347845160120826558e-01,-5.800637006759643555e-01,3.128203153610229492e-01,9.235283191881831044e+01,0.000000000000000000e+00
2.301626000000000172e+00,-1.080228030586137533e-01,-4.565647867995460685e-02,7.955558300018310547e-01,7.834532965247888517e-03,-1.341403032993171429e-02,-3.887496528776442171e-03,-7.611523151345798988e-02,3.532850213148553548e-02,1.870588399469852448e-02,8.244628711541181210e-02,-1.181857149614255198e-01,6.041039276526966040e-02,1.111268978480806913e-01,-4.037306308746338446e-02,1.584054363812864297e-01,1.856113672256469727e-01,5.962693691253662109e-02,1.690874040126800482e-01,5.340276558062750922e-01,-6.036050319671630859e-01,1.201204061508178711e-01,1.026225131095527274e+02,0.000000000000000000e+00
2.325013000000000218e+00,-1.094399019292830871e-01,-4.469846303261874182e-02,7.952988743782043457e-01,9.914231107669190315e-03,-1.531666629354844211e-02,-2.410415594790490251e-03,-6.795233186857467522e-02,3.508051518285444648e-02,1.958246342837810516e-02,1.202710594031864977e-01,-8.517708242678964647e-02,7.580419650014744160e-02,-1.655918741049929310e-01,-2.815092325210571400e-01,1.487909489221062032e-01,-7.852181196212768000e-02,-1.815092325210571345e-01,1.552241921424865612e-01,5.359057158885637273e-01,-5.064339041709899902e-01,3.540408611297607422e-02,8.824046381201284817e+01,0.000000000000000000e+00
2.353158999999999779e+00,-1.114263395689255171e-01,-4.348756409474720253e-02,7.951385974884033203e-01,1.427273494041984489e-02,-1.861889956412654534e-02,-3.055005290929497467e-03,-7.147349147520330737e-02,3.269773821747028186e-02,3.140833973884582520e-02,1.878594270670521649e-01,-9.078668957248856031e-02,-3.946582466818487900e-02,-6.472501754760742743e-02,-3.144201517105102428e-01,2.104858690761150508e-01,3.527498245239257812e-02,-2.144201517105102373e-01,2.184568226337432750e-01,5.377457014651680911e-01,-3.676137924194335938e-01,3.516781330108642578e-02,9.895077416648311441e+01,0.000000000000000000e+00
2.375163000000000135e+00,-1.125496024428910141e-01,-4.299687802515497065e-02,7.949630022048950195e-01,1.718045807282227860e-02,-1.997487281375853740e-02,-4.627145940101959863e-03,-6.974317429273670099e-02,2.954713780496604283e-02,1.920890621840953827e-02,1.333904366151478227e-01,-8.941073124486285939e-02,-5.016591345975895261e-02,-6.360281705856324352e-02,-3.147053956985473855e-01,2.068462596615898985e-01,3.639718294143676897e-02,-2.147053956985473522e-01,2.190513253211975042e-01,5.375220338283540622e-01,-4.381465315818786621e-01,1.741014719009399414e-01,6.739971250322803087e+01,0.000000000000000000e+00
2.399172000000000082e+00,-1.137056583942193111e-01,-4.249865884379556979e-02,7.947683334350585938e-01,1.983573008245449049e-02,-2.041513508214132244e-02,-6.519835968871588727e-03,-7.340809948434960652e-02,2.789624366263505559e-02,1.690140180289745331e-02,1.473149261811064759e-01,9.676057736984372895e-03,-1.182769179764557310e-01,-3.180346786975860596e-01,-3.199112415313720703e-01,2.014442770991118070e-01,-2.180346786975860540e-01,-2.199112415313720648e-01,2.187796354293823076e-01,5.334463918302431162e-01,-6.826600432395935059e-01,8.466541767120361328e-02,1.520416911510196485e+02,0.000000000000000000e+00
