timestamp,x,y,z,roll,pitch,yaw,vx,vy,vz,p,q,r,psp,qsp,rsp,pres,qres,rres,thrust_sp, thrust_res,wind_mag,wind_angle,wind_obs
0.000000000000000000e+00,-3.720910061013896902e-02,4.918551582681930656e-02,9.980813264846801758e-01,2.182315829244600366e-02,-3.186343093781296432e-03,-1.895554179001425477e-03,7.452601466613557359e-03,1.879804393231727239e-02,-1.181916985660791397e-02,-5.853770062015046377e-02,-1.152955944513166589e-02,2.246600976746767828e-02,1.243058525008408910e-01,1.749313491373057361e-01,-1.744213671448642811e-01,2.200854063034057562e-01,2.131172239780425859e-01,-1.693513870239257701e-01,4.995108408970108105e-01,-7.123495936393737793e-01,3.322292566299438477e-01,9.982928675790849127e+01,0.000000000000000000e+00
2.462800000000000059e-02,-3.650882082669599377e-02,5.014774317866804026e-02,9.974573850631713867e-01,2.126907867420149006e-02,-3.524767347209856183e-03,-1.870695645534165528e-03,1.028313407553556498e-02,1.784574072877561854e-02,-2.624226268380880356e-03,-4.448506078357354100e-03,5.773572040217155379e-03,2.822904698681429070e-02,4.526745672115335684e-02,1.836629495769133147e-01,-6.502757488719596024e-02,1.400460362434387263e-01,2.225420594215392900e-01,-6.002354621887207031e-02,5.083864326427709468e-01,-2.113464474678039551e-01,-3.890550136566162109e-02,9.170431911750394249e+01,0.000000000000000000e+00
4.863599999999999868e-02,-3.602936503416017539e-02,5.070286943753173764e-02,9.968924522399902344e-01,2.101520297858707961e-02,-4.254923090041273781e-03,-2.153344162516194690e-03,2.340452298237412701e-02,1.057194654852695523e-02,-2.225236035883426666e-03,-3.478207427066836843e-03,-7.085773258752955939e-02,-2.673931914750472469e-02,9.975210244233166657e-02,1.595567689638585918e-01,-2.119895438260223364e-01,1.980236291885375810e-01,1.927713632583618053e-01,-2.061525106430053544e-01,4.987740131219687845e-01,-7.179925441741943359e-01,-2.917051315307617188e-04,-8.616035702104214522e+01,0.000000000000000000e+00
7.568199999999999927e-02,-3.529092239391062175e-02,5.142060802732516950e-02,9.961051344871520996e-01,2.082463937493199066e-02,-5.249295367812933932e-03,-2.022230740536026024e-03,1.552186675313992114e-03,3.169049008301918352e-03,-3.940733149647712708e-03,-2.763627405534396266e-03,-6.470976503471080610e-02,2.428944771223078697e-02,1.111841917037963701e-01,1.006119047174136305e-01,-2.156196096058908551e-01,2.111841917037963756e-01,1.594587564468383789e-01,-2.102875471115112360e-01,4.989817333437429614e-01,-7.174737453460693359e-01,-1.404370069503784180e-01,7.663261878927870896e+01,0.000000000000000000e+00
9.837799999999999323e-02,-3.489717491962628787e-02,5.163655844262957095e-02,9.954910278320312500e-01,2.178306378772528612e-02,-7.084834947885365608e-03,-1.343684214271559417e-03,1.743127151055260185e-02,9.998939546309815185e-03,-8.710337802767753601e-03,5.397382038562225509e-02,-1.101738413341240563e-01,4.565228686576081052e-02,1.110388875007629339e-01,1.056981217338783252e-01,-1.157168858903564052e-01,2.110388875007629395e-01,1.602427124977111872e-01,-1.122843503952026395e-01,5.002179144475964456e-01,-6.747385263442993164e-01,1.055824398994445801e+00,-7.312180251814917931e+00,0.000000000000000000e+00
1.254190000000000027e-01,-3.441984388578556847e-02,5.151134223565446979e-02,9.944981932640075684e-01,2.416014230524343026e-02,-1.100521530621545452e-02,7.508557900908848946e-04,8.840854817681244749e-04,6.051060684801543710e-05,-1.438118424266576767e-02,1.248713399841039629e-01,-1.578825455889423246e-01,7.363267123127523184e-02,1.027087688446044755e-01,-2.590717329345834652e-03,1.482261396192562086e-01,2.027087688446044811e-01,9.273383617401122214e-02,1.455266118049621527e-01,5.022451476150897598e-01,-5.957214832305908203e-01,3.278523683547973633e-01,6.350993343128411084e+01,0.000000000000000000e+00
1.482630000000000059e-01,-3.412966005046107199e-02,5.133492926818872260e-02,9.936488866806030273e-01,2.588126090174927563e-02,-1.365938846927461370e-02,2.332521983603067211e-03,4.192098713505287844e-03,-3.767692270459024537e-03,-2.996367216110229492e-02,2.305315213730793622e-02,-1.320089545300346390e-01,9.285306276281438120e-02,1.130696058273315263e-01,2.585117816925047718e-02,-2.084490959718487690e-01,2.130696058273315319e-01,1.258511781692504827e-01,-2.156857967376708818e-01,5.013304459960605808e-01,-7.103799581527709961e-01,7.806289196014404297e-02,8.719834769939814123e+01,0.000000000000000000e+00
1.749940000000000107e-01,-3.369446701800836441e-02,5.090606343437185932e-02,9.919944405555725098e-01,2.910448417732938720e-02,-1.761474379833072312e-02,3.475016686801201456e-03,8.544184350348421955e-03,-9.425313580226645643e-03,-4.362797737121582031e-02,1.421758728564217478e-01,-1.335564456978163006e-01,2.459089927261592576e-02,8.133928775787352405e-02,-1.682481646537780651e-01,2.223363993399841421e-01,1.813392877578735296e-01,-6.824816465377807340e-02,2.116815090179443304e-01,5.235498624502866738e-01,4.117617607116699219e-01,-1.426815986633300781e-03,-1.980789351759006323e+01,0.000000000000000000e+00
2.043270000000000086e-01,-3.324161716666742400e-02,5.067797814696412689e-02,9.906026721000671387e-01,3.069871295660248078e-02,-1.931131001542696346e-02,3.535666336687208304e-03,2.182064155757050972e-03,-1.617890242555047528e-02,-5.767837539315223694e-02,2.947307949124498144e-02,-9.539510098751094458e-02,3.143016681584892558e-02,1.003398418426513505e-01,-1.005145192146301297e-01,-1.801521664552872548e-01,2.003398418426513561e-01,-5.145192146301268881e-04,-1.911219835281371959e-01,5.041351271239835619e-01,-6.903379559516906738e-01,8.669241666793823242e-01,5.314288447883658506e+01,0.000000000000000000e+00
2.272859999999999880e-01,-3.269738773489578448e-02,5.051810465487550916e-02,9.890052080154418945e-01,3.268446656354964674e-02,-2.037619770764065308e-02,4.475695683386842795e-03,1.791032719055308392e-02,-8.666504108546097679e-03,-6.527869403362274170e-02,1.121697402441804020e-01,-1.115321715796360399e-02,1.179264984934587715e-02,-3.135240614414215310e-01,-2.963182449340820424e-01,4.183952211398521415e-02,-2.135240614414214977e-01,-1.963182449340820368e-01,2.819670438766479215e-02,5.063949651206142155e-01,-6.112435460090637207e-01,-9.248888492584228516e-02,1.149550070522793703e+02,0.000000000000000000e+00
2.541109999999999758e-01,-3.177680885798887800e-02,5.011218697560480134e-02,9.862259030342102051e-01,3.446923063275730836e-02,-2.051631354102667615e-02,3.444552354115094483e-03,-1.878747199190188922e-03,-2.964186393861245605e-02,-7.910817116498947144e-02,3.384503791354675356e-02,-1.190153688442970384e-02,-3.629306610893283380e-02,-3.207922935485839622e-01,-2.928813695907592773e-01,2.326223535971882472e-01,-2.207922935485839844e-01,-1.928813695907592718e-01,2.217528104782104381e-01,5.111565323713915809e-01,-4.288898706436157227e-01,-1.676877737045288086e-01,6.808966406223687784e+01,0.000000000000000000e+00
2.769050000000000122e-01,-3.119476467126321498e-02,4.973678934097215676e-02,9.840942621231079102e-01,3.585829000010427176e-02,-1.904441202411444323e-02,3.982411944935469218e-03,1.542354814279753294e-02,-1.683661377646823720e-02,-9.018740803003311157e-02,8.121293968903992022e-02,1.375197210113388302e-01,1.598573399706980369e-02,-2.082149028778076394e-01,1.179541230201721080e-01,2.351236605647347433e-01,-1.082149028778076200e-01,2.179541230201721136e-01,2.228583633899688665e-01,5.073582528730916641e-01,-6.879784464836120605e-01,2.082301378250122070e-01,1.109584652934189677e+02,0.000000000000000000e+00
3.004749999999999921e-01,-3.061639504637125864e-02,4.930080589343924929e-02,9.817580580711364746e-01,3.580860745068383671e-02,-1.698273067918698587e-02,4.196263486888140472e-03,1.465580122672684518e-02,-2.408588089916155126e-02,-1.096614673733711243e-01,-5.680665927104936591e-02,1.042931101892144441e-01,3.642785690425696943e-02,5.980991125106810413e-02,1.000918090343475286e-01,2.227567811141350218e-01,1.598099112510681097e-01,2.000918090343475342e-01,2.100157499313354548e-01,5.159693348666919421e-01,-3.217022418975830078e-01,-6.915330886840820312e-04,8.850793401991053599e+01,0.000000000000000000e+00
3.281379999999999852e-01,-2.931243873846373083e-02,4.859889436540700686e-02,9.777037501335144043e-01,3.177931335229338544e-02,-1.033805804023679720e-02,2.560362075452690157e-03,1.780352773355621532e-02,-2.312025154763121260e-02,-1.242189630866050720e-01,-1.696828052910411000e-01,2.591187936579163464e-01,-9.628887849619617578e-02,1.913442611694335382e-02,1.430160373555635633e-01,-1.377364691492680149e-01,1.191344261169433594e-01,2.171119987964630071e-01,-1.454542279243469238e-01,5.174786629890040235e-01,-3.215153217315673828e-01,7.924020290374755859e-02,9.813861686284441532e+01,0.000000000000000000e+00
3.502390000000000225e-01,-2.834501627008635324e-02,4.808815761365650004e-02,9.748088121414184570e-01,2.753420460071557066e-02,-6.435593202783085331e-03,5.843725098982878669e-04,2.401087165747441132e-02,-2.321520864527655895e-02,-1.395819038152694702e-01,-2.500108721941741163e-01,1.777605055537315459e-01,-9.356182219736310091e-02,1.158797025680541881e-01,1.591807392061372339e-01,-2.189725309964943023e-01,2.158797025680541937e-01,2.030530750751495250e-01,-2.208928585052490068e-01,5.149998334802322608e-01,-5.348358154296875000e-01,-6.706917285919189453e-02,1.038754908222240516e+02,0.000000000000000000e+00
3.753210000000000157e-01,-2.703295314451067965e-02,4.708763309406870795e-02,9.704198837280273438e-01,2.323524337226989117e-02,-3.950805416471192544e-03,-2.746045971295201296e-03,8.312049109021267881e-03,-3.677859531385809649e-02,-1.326570063829421997e-01,-5.677976038678912707e-02,-2.382435001673854566e-02,-6.355120132853117609e-02,1.245972394943237194e-01,1.113557020848557066e-01,-1.633038798022374005e-01,2.245972394943237249e-01,1.515471518039703258e-01,-1.558232545852661077e-01,5.112542819286488571e-01,-7.329131960868835449e-01,-2.466293573379516602e-01,9.457764309754490739e+01,0.000000000000000000e+00
4.011129999999999973e-01,-2.603830852097346882e-02,4.584263909123441338e-02,9.661246538162231445e-01,2.200033301801811517e-02,-5.385919889298040886e-03,-3.204597576843962788e-03,-8.050985018978175454e-04,-4.325037043906065221e-02,-1.341999471187591553e-01,2.950134623668919723e-02,-8.525216422579270925e-02,1.293648573439125371e-02,7.328840494155883234e-02,-3.631694856467444776e-02,-1.299889762035872365e-01,1.732884049415588379e-01,1.751528978347778251e-02,-1.212739348411560059e-01,5.124930977806972932e-01,-6.983824968338012695e-01,1.290458440780639648e-01,8.811090878383603808e+01,0.000000000000000000e+00
4.264569999999999750e-01,-2.525986982568625625e-02,4.404974278271762272e-02,9.619999527931213379e-01,2.348474998034314268e-02,-9.066574144141359426e-03,-1.523596260975103615e-03,2.780280358137184830e-03,-5.038147847704371740e-02,-1.251232624053955078e-01,7.533346812723611119e-02,-1.718558471701424895e-01,3.046188721856350756e-02,8.059256076812743030e-02,-7.040866826598846107e-02,-7.202380516799047894e-02,1.805925607681274359e-01,2.836954593658447092e-03,-6.811805963516234796e-02,5.126223974987085263e-01,-6.800518035888671875e-01,-3.689646720886230469e-03,8.713256614750174833e+01,0.000000000000000000e+00
4.502590000000000203e-01,-2.476066268211317076e-02,4.276004921191203789e-02,9.592252373695373535e-01,2.485161988157018678e-02,-1.179088355786883646e-02,-2.482881056884823191e-06,-5.958606509439134079e-03,-5.129807020887782593e-02,-1.388222277164459229e-01,7.406911937695666304e-02,-1.233557495190256287e-01,1.088063492543628608e-01,3.058187961578368030e-02,-1.667941570012169972e-01,-2.095292397865122502e-01,1.305818796157836859e-01,-6.888266801834105890e-02,-2.100310564041137640e-01,5.136601555559761056e-01,-6.987466216087341309e-01,-2.691103219985961914e-01,1.012489825580306615e+02,0.000000000000000000e+00
4.756259999999999932e-01,-2.404484862514648727e-02,4.074258409775875084e-02,9.550481438636779785e-01,2.695247800022488802e-02,-1.453392343365633721e-02,1.737066339959934770e-03,9.999486876748026748e-03,-5.307892697274407823e-02,-1.407955735921859741e-01,9.824469490121992554e-02,-3.555779228156486643e-02,4.820878949157606647e-02,-3.017479121685028298e-01,-1.107732534408569364e-01,-1.434584679681621955e-01,-2.017479121685027965e-01,-1.077325344085693255e-02,-1.488882780075073131e-01,5.169996533638632208e-01,-5.533453822135925293e-01,-2.507044076919555664e-01,6.339948927240500609e+01,0.000000000000000000e+00
5.007979999999999654e-01,-2.353402075795390722e-02,3.932198252526537124e-02,9.521209001541137695e-01,2.781683045938488155e-02,-1.541830498092999768e-02,2.881362632168323057e-03,3.991316616067380231e-03,-5.970003343726031780e-02,-1.482291370630264282e-01,1.854458671354774005e-02,-3.362102695444094125e-02,8.324578504475613205e-02,-1.688335120677947887e-01,1.427508592605589155e-02,-8.117449995185298250e-02,-6.883351206779479703e-02,1.142750859260558971e-01,-8.987624645233154019e-02,5.152372843970091099e-01,-6.986570358276367188e-01,-2.452400922775268555e-01,9.707207599375774976e+01,0.000000000000000000e+00
5.255720000000000391e-01,-2.256469248394608884e-02,3.717015715949840288e-02,9.476308822631835938e-01,2.844392668979046218e-02,-1.368907978407918336e-02,5.617028290780204207e-03,9.698602486561035130e-03,-5.890940366719280008e-02,-1.562998592853546143e-01,-2.471843091655809635e-02,1.251780614459699070e-01,1.242209785410316875e-01,-3.348815441131594572e-03,1.287168978669920305e-01,-2.074208449456077796e-01,9.665118455886841098e-02,2.256483972072601263e-01,-2.237006664276122991e-01,5.331305677040751867e-01,2.126531600952148438e-01,-4.499638080596923828e-02,8.706073987818990645e+01,0.000000000000000000e+00
5.494040000000000035e-01,-2.190361966783057474e-02,3.571842247974231499e-02,9.444649219512939453e-01,2.708924050706484898e-02,-1.167536127067725360e-02,6.897623455957136926e-03,1.297202405436794978e-02,-6.493310896176751612e-02,-1.584141999483108521e-01,-7.014695559503035527e-02,7.179866034220505622e-02,3.141369816567134154e-02,4.174369573593139648e-02,4.455156277533453557e-02,-2.057356612895842596e-01,1.417436957359314020e-01,1.263135910034179632e-01,-2.254752874374389426e-01,5.274416680393572143e-01,-1.305488944053649902e-01,-1.488603353500366211e-01,9.414949268942265803e+01,0.000000000000000000e+00
5.746719999999999606e-01,-2.096983047441700054e-02,3.353296704425037800e-02,9.398328661918640137e-01,2.318062785216672139e-02,-8.877845050903276913e-03,9.090619826811677587e-03,3.048327606546287569e-03,-6.445805673778140510e-02,-1.588015407323837280e-01,-1.678070797746470666e-01,5.932065117672613574e-02,8.785897242893088432e-02,1.261779189109802080e-01,1.375246114207669679e-01,-2.000303225515950023e-01,2.261779189109802135e-01,2.086331248283386230e-01,-2.257945060729980302e-01,5.209363866748089045e-01,-5.144972801208496094e-01,-8.625149726867675781e-03,1.144864219242706440e+02,0.000000000000000000e+00
5.998179999999999623e-01,-2.047677802314061199e-02,3.198424190696887159e-02,9.368065595626831055e-01,2.151437157190132579e-02,-8.842233101021168551e-03,1.107116457233824416e-02,1.625091112890469230e-02,-6.359137760006058904e-02,-1.647689938545227051e-01,-3.777870494834226212e-02,-2.906791125977218476e-02,1.283339753071990330e-01,-5.260583162307740090e-02,8.599718606209011407e-02,3.655124158025900571e-02,4.739416837692260465e-02,1.451133012771606279e-01,5.316209793090820139e-03,5.185841922101546153e-01,-6.882343888282775879e-01,-1.092389822006225586e-01,-6.490504738058341161e+01,0.000000000000000000e+00
6.252210000000000267e-01,-1.980285742578177105e-02,3.007717164273990620e-02,9.327816367149353027e-01,2.068973052567832371e-02,-1.050085982511972382e-02,1.421128392202486088e-02,-1.022781520590444922e-02,-7.667026289890244151e-02,-1.376561671495437622e-01,6.450118361355394736e-02,-7.842701048033128008e-02,1.103992503275105508e-01,-2.120807886123657338e-01,2.219450450244377093e-02,-1.014360107184630044e-01,-1.120807886123657143e-01,1.140038251876830944e-01,-1.415426373481750433e-01,5.171166124719777102e-01,-6.864466071128845215e-01,-1.804174184799194336e-01,9.721628860789340365e+01,0.000000000000000000e+00
6.508150000000000324e-01,-1.937780309075564159e-02,2.867612181281579964e-02,9.302358627319335938e-01,2.134995980461760687e-02,-1.232930319557778986e-02,1.565380609178713620e-02,1.282420276430549892e-02,-7.778559883431353239e-02,-1.483614593744277954e-01,-2.997458321237290828e-03,-7.852531393538392246e-02,3.395996372293757365e-02,-7.356765270233155130e-02,-7.634057778018343843e-02,-1.742459327655873358e-01,2.643234729766845773e-02,5.751657485961914236e-03,-2.183692574501037431e-01,5.178307626569059741e-01,-7.111909389495849609e-01,-2.683080434799194336e-01,9.394759912774624411e+01,0.000000000000000000e+00
6.747919999999999474e-01,-1.878645532942896726e-02,2.649544670186588721e-02,9.266326427459716797e-01,2.135314548336011975e-02,-1.536926552480033514e-02,1.720226245334570761e-02,-1.129009032775595521e-02,-8.127060842360624149e-02,-1.512490063905715942e-01,-5.727042447654402679e-02,-9.756099084412611644e-02,1.036361412627364587e-01,-2.313688218593597523e-01,-8.210744857788086770e-02,-1.514310773032093438e-01,-1.313688218593597468e-01,1.789255142211914132e-02,-2.000214815139770563e-01,5.187138810334153138e-01,-7.007173299789428711e-01,-8.068668842315673828e-02,9.663372128301550390e+01,0.000000000000000000e+00
6.977320000000000189e-01,-1.842425615482324794e-02,2.508482777102850544e-02,9.241073727607727051e-01,1.956059151918125225e-02,-1.638829643839212480e-02,1.839954073299197856e-02,-9.807200172814384623e-04,-7.465234446721866202e-02,-1.553467661142349243e-01,-1.275629617329904764e-01,-2.377852600645516401e-02,2.557536152755081685e-02,1.218235492706298828e-01,1.055491387844085527e-01,-1.541777320439798316e-01,2.218235492706298884e-01,2.055491387844085582e-01,-2.060758352279662975e-01,5.194026766295436470e-01,-7.011802196502685547e-01,-2.902268171310424805e-01,8.759622670911889486e+01,0.000000000000000000e+00
7.251220000000000443e-01,-1.808037126073831422e-02,2.280219413079056373e-02,9.203623533248901367e-01,1.494533376038736754e-02,-1.705731618290329266e-02,2.136731903956505182e-02,3.606517701457707080e-03,-7.634066781773801713e-02,-1.604570299386978149e-01,-1.987673397959478505e-01,-2.886548449277598349e-02,1.220482596215495263e-01,1.227221250534057395e-01,1.162326812744140514e-01,-1.189355823674066448e-01,2.227221250534057451e-01,2.162326812744140569e-01,-1.790159940719604492e-01,5.207637165918674871e-01,-6.747703552246093750e-01,-7.158161997795104980e-01,1.029195170554215508e+02,0.000000000000000000e+00
7.492830000000000323e-01,-1.792931187773771917e-02,2.119849592494827545e-02,9.177544116973876953e-01,1.145276385192340630e-02,-1.666074551787732894e-02,2.342238991402432677e-02,-1.071255050472299901e-02,-7.482543755217091475e-02,-1.550252586603164673e-01,-1.408733860375301905e-01,-1.130570269071258516e-02,9.221190397337629407e-02,1.241780996322631725e-01,1.158597111701965277e-01,-1.478397330510400898e-01,2.241780996322631780e-01,2.158597111701965332e-01,-2.135974645614623912e-01,5.207972308540564921e-01,-6.737450957298278809e-01,-1.545916795730590820e-01,9.328972213707979222e+01,0.000000000000000000e+00
7.742799999999999683e-01,-1.782734504855939747e-02,1.859943236720770082e-02,9.142401814460754395e-01,9.304131177804675704e-03,-1.802058919963744898e-02,2.627628811896780964e-02,3.687705110653772926e-03,-8.161608967234089407e-02,-1.523007899522781372e-01,-1.950317303340066630e-03,-9.222370492971623812e-02,8.585585648225474431e-02,-2.025186061859131081e-01,-1.633848190307617410e-01,-1.342526108107915950e-01,-1.025186061859130887e-01,-6.338481903076172153e-02,-2.079072475433349498e-01,5.205811324089135717e-01,-7.004685997962951660e-01,-3.844474554061889648e-01,-2.824034261405025603e+01,0.000000000000000000e+00
7.993489999999999762e-01,-1.786344354661768136e-02,1.677388300119030812e-02,9.120864868164062500e-01,9.916477612258656898e-03,-1.991962894729426559e-02,2.815998438793702874e-02,-2.502504561373632488e-02,-9.061006967973574133e-02,-1.463488042354583740e-01,3.288880425993351980e-02,-1.055379232424958763e-01,1.069781786222271797e-01,-2.065021872520446666e-01,-2.548524379730224831e-01,-1.326504187168545679e-01,-1.065021872520446750e-01,-1.548524379730224498e-01,-2.115867018699645885e-01,5.205861691871230823e-01,-6.972627043724060059e-01,9.461605548858642578e-02,8.047188178212121556e+01,0.000000000000000000e+00
8.242730000000000334e-01,-1.779180849638433218e-02,1.412543194698407528e-02,9.090881943702697754e-01,1.224959925564796624e-02,-2.300459068200066959e-02,3.113684181450742175e-02,-3.634381189776290851e-05,-8.108805247772123137e-02,-1.501599550247192383e-01,3.885331071861554408e-02,-5.310405756937908867e-02,1.224475649214219058e-01,-2.692371964454650657e-01,-1.913827180862426869e-01,-3.474841572244508070e-02,-1.692371964454650879e-01,-9.138271808624266745e-02,-1.221302747726440430e-01,5.215132419555377208e-01,-6.857786178588867188e-01,-1.826751232147216797e-02,6.818628391823587265e+01,0.000000000000000000e+00
8.518440000000000456e-01,-1.754061576323164354e-02,1.170946271979722911e-02,9.059041738510131836e-01,1.154427072790186956e-02,-2.187005824581889080e-02,3.374013995205338984e-02,-2.088718353354152360e-02,-7.989238467500985041e-02,-1.498563885688781738e-01,-3.879350045212007908e-02,9.919001408056529745e-02,7.995896822223828859e-02,1.072885513305663896e-01,1.212176561355590709e-01,-1.236959005246120735e-01,2.072885513305663951e-01,2.212176561355590765e-01,-2.183462619781494085e-01,5.408569031389008908e-01,3.514142036437988281e-01,3.553937673568725586e-01,1.077888750279395396e+02,0.000000000000000000e+00
8.768920000000000048e-01,-1.730137309236605067e-02,1.021020445542763708e-02,9.038509726524353027e-01,8.410821329377671587e-03,-1.841211413069210323e-02,3.499285107072055978e-02,-2.654377699620256124e-03,-6.659905301352617157e-02,-1.673174649477005005e-01,-2.177344150931277977e-01,2.163776973668487258e-01,5.691758506013799845e-02,1.163440815273551476e-01,-3.183413982391357644e-01,-1.283611756300244156e-01,2.053436279296874944e-01,-2.183413982391357311e-01,-2.264277219772338756e-01,5.283305818196429859e-01,-4.290247559547424316e-01,-2.956513166427612305e-01,1.104041271403807372e+02,0.000000000000000000e+00
8.998199999999999532e-01,-1.710360523332139782e-02,8.783102252949988309e-03,9.017264842987060547e-01,4.644512085961688234e-03,-1.453697524968955435e-02,3.620114466404918824e-02,-5.598781978644566150e-03,-7.085869319290580282e-02,-1.565892845392227173e-01,-1.733260146642098265e-01,1.829511032032046514e-01,7.349899168283662021e-02,1.372712463469131228e-01,-1.301689147949218750e-01,-1.260613679885864147e-01,2.075956106185913030e-01,-3.016891479492187292e-02,-2.260613679885864202e-01,5.323914906295434957e-01,-1.854487657546997070e-01,-3.815535306930541992e-01,1.147667721613956893e+01,0.000000000000000000e+00
9.244510000000000227e-01,-1.668739090005367381e-02,6.359022652387967198e-03,8.989599943161010742e-01,1.217552986116724302e-03,-1.108176537393257277e-02,3.844897503586330173e-02,-2.010532889443429963e-02,-7.968474486481536001e-02,-1.367893964052200317e-01,-3.783640680666345429e-02,5.785593688736150736e-02,2.637703111268677528e-02,9.292212846612976640e-02,1.157860755920410156e-01,-1.254066228866576871e-01,1.483423948287963812e-01,2.157860755920410212e-01,-2.254066228866576926e-01,5.393191794578018339e-01,2.522654533386230469e-01,4.193934202194213867e-01,1.145077184541027435e+02,0.000000000000000000e+00
9.507349999999999968e-01,-1.635671027757436280e-02,4.587324463476883871e-03,8.973239064216613770e-01,5.447612260510118366e-04,-8.939103827625638488e-03,4.045157546238890151e-02,-1.239411804596329651e-02,-7.189903734596371498e-02,-1.432169228792190552e-01,-5.949174503544141929e-02,1.562199441394215016e-01,1.172890350213530858e-01,1.265427311195190807e-01,1.466141945542446257e-01,-1.251846075057983232e-01,1.717964887619018444e-01,2.249133110046386552e-01,-2.251846075057983287e-01,5.419194150760070494e-01,3.529120683670043945e-01,-6.284210681915283203e-01,6.123972198514444898e+01,0.000000000000000000e+00
9.722359999999999891e-01,-1.603689192762185189e-02,2.814257324915716424e-03,8.958575725555419922e-01,1.401633926926870331e-03,-7.144125017871205685e-03,4.218020369449347606e-02,-8.733589786441947958e-03,-7.601122651680997100e-02,-1.270899325609207153e-01,8.157079872231826068e-02,7.583908284861605453e-02,8.101798811363031261e-02,1.398606148437315788e-01,1.577202372215483206e-01,2.957829654216766468e-01,1.961943268775939997e-01,2.227847814559936468e-01,1.957829654216766413e-01,5.223869129028451130e-01,-6.736836433410644531e-01,-1.304665803909301758e-01,7.263092706778412833e+01,0.000000000000000000e+00
9.983070000000000555e-01,-1.564872726285008314e-02,1.771326808080947251e-04,8.941620588302612305e-01,4.229871906541647804e-03,-5.665746939114812974e-03,4.485103845679763029e-02,-2.020516062118494702e-02,-8.081269675761909577e-02,-1.014776974916458130e-01,1.211852620118290119e-01,5.886191925244219384e-04,5.986940965893775002e-02,-4.316054836461385297e-02,1.388189215006763177e-01,9.507911205291748324e-02,3.623435497283935408e-02,2.035308301448821855e-01,-4.920887947082519705e-03,5.216142546993978169e-01,-6.315855979919433594e-01,-7.302972674369812012e-01,1.108996300439084877e+02,0.000000000000000000e+00
1.024585000000000079e+00,-1.557929920801218691e-02,-2.297937779565083823e-03,8.929033279418945312e-01,7.910689715020034762e-03,-7.019487968739301920e-03,4.549478575122600094e-02,-6.850081646885977128e-03,-8.117565704500522006e-02,-9.466523677110671997e-02,1.082977255869844030e-01,-7.378784710558279614e-02,-6.562945435503816927e-02,-1.611571013927459717e-01,6.865390204337602775e-02,3.000730872154235840e-01,-6.115710139274596613e-02,1.303481876850128007e-01,2.000730872154235784e-01,5.272889894245774700e-01,-3.114896416664123535e-01,-3.986760377883911133e-01,1.039222366369036195e+02,0.000000000000000000e+00
1.050756999999999941e+00,-1.563232766563319928e-02,-3.911084576165497692e-03,8.922563791275024414e-01,1.072537105382531837e-02,-9.495074647136281243e-03,4.470854486792544269e-02,-1.689467958396961844e-02,-7.685660616751122109e-02,-9.175875782966613770e-02,1.582000983067740341e-01,-1.139937084457425254e-01,-1.865131072972451426e-02,-1.399062454700469860e-01,5.432446197847121128e-02,3.014850378036498801e-01,-3.990624547004699429e-02,1.414331316947936845e-01,2.014850378036499023e-01,5.301707901826535618e-01,-1.550811529159545898e-01,6.581294536590576172e-02,-1.125955523544443082e+02,0.000000000000000000e+00
1.078745999999999983e+00,-1.568966334890146280e-02,-6.244399581362906904e-03,8.912638425827026367e-01,1.295039087508639310e-02,-1.281852390163096267e-02,4.218429457280937350e-02,-1.465683197666950086e-02,-7.350719008316602965e-02,-8.930240571498870850e-02,4.910506582892865818e-02,-8.433491673949260192e-02,-1.513585503175339519e-01,-2.652250230312347412e-01,-2.679588556289672630e-01,2.714902698993683083e-01,-1.652250230312347357e-01,-1.679588556289672852e-01,1.714902698993682750e-01,5.218169861289536637e-01,-6.138646006584167480e-01,-1.761418581008911133e-01,1.312118954656635594e+02,0.000000000000000000e+00
1.102408000000000055e+00,-1.568447186430844617e-02,-7.730348213441443073e-03,8.905346393585205078e-01,1.207906089016430075e-02,-1.460662030954451573e-02,3.961952195592750164e-02,-1.312818505298134555e-02,-7.243020091970601981e-02,-9.280657023191452026e-02,-4.720631530114712676e-02,-8.770404649414777210e-02,-1.277667228143700984e-01,-2.553180158138275146e-01,-8.791258931159973145e-02,1.219900012016296442e-01,-1.553180158138275091e-01,1.208741068840026890e-02,2.199000120162963867e-02,5.208493952220982770e-01,-6.930135488510131836e-01,-6.557714939117431641e-02,9.263288333516717898e+01,0.000000000000000000e+00
1.126303000000000054e+00,-1.568826715980294398e-02,-9.126520094788804355e-03,8.897506594657897949e-01,9.760811017081321914e-03,-1.591916097877410508e-02,3.660879323983697031e-02,-5.644673201574208939e-03,-6.965354516192796830e-02,-9.100023657083511353e-02,-1.657482136462435085e-01,-6.910167727054367104e-02,-1.560156714448658610e-01,9.486159086227416437e-02,8.986785411834716242e-02,6.171257495880127369e-02,1.948615908622741699e-01,1.898678541183471680e-01,-3.828742504119873186e-02,5.207938225264044929e-01,-7.019766569137573242e-01,-3.176513910293579102e-01,9.572032691549887318e+01,0.000000000000000000e+00
1.150929000000000091e+00,-1.573445348527863219e-02,-1.070108426411770300e-02,8.889574408531188965e-01,6.354993022453909145e-03,-1.591378969186796333e-02,3.366030619591207224e-02,-5.501934402001029678e-03,-6.081796801617980752e-02,-9.612489491701126099e-02,-1.839493297942937644e-01,4.053848588053468593e-02,-1.697416581300456861e-01,1.392030873712008232e-01,7.153280973434447687e-02,-6.903294940911799960e-02,2.269379496574401855e-01,1.715328097343444824e-01,-1.632597684860229437e-01,5.221400431665247366e-01,-6.628208756446838379e-01,7.029682397842407227e-01,1.404800267448112727e+01,0.000000000000000000e+00
1.178714000000000039e+00,-1.577583648499533003e-02,-1.292979671681859788e-02,8.875117897987365723e-01,-9.337113102506931295e-04,-1.378842053290152414e-02,3.039025032094413992e-02,-2.769928582814152902e-03,-5.659505036954091267e-02,-1.001383587718009949e-01,-2.772223388987516413e-01,5.300456136002173330e-02,-9.032281925403498613e-02,1.876818570884990489e-01,6.503825187683104359e-02,-1.389957034902797317e-01,2.274707794189453069e-01,1.650382518768310491e-01,-2.239079475402832031e-01,5.225447477426905518e-01,-6.730836629867553711e-01,1.950198411941528320e-01,1.264209822157631748e+02,0.000000000000000000e+00
1.202379000000000087e+00,-1.587165310726524475e-02,-1.433324428179268140e-02,8.866615891456604004e-01,-4.702474466147145080e-03,-1.243028997990158757e-02,2.890933540712236835e-02,-1.745827097279564408e-02,-5.538250909077543221e-02,-9.510034322738647461e-02,-1.143475107761445508e-01,4.290355339079594821e-02,-5.239630352784249712e-02,2.118793393788831747e-01,-7.982937693595887341e-02,-1.419511449068409925e-01,2.275850772857666016e-01,2.017062306404113561e-02,-2.226229548454284612e-01,5.227706124042461600e-01,-6.548492908477783203e-01,-2.157586812973022461e-01,1.014956889908515336e+02,0.000000000000000000e+00
1.227616000000000041e+00,-1.621810234381514809e-02,-1.650488147122450983e-02,8.855640888214111328e-01,-6.376379626277691760e-03,-1.300694423398884858e-02,2.828201872517019724e-02,-1.449014083693542058e-02,-5.564788385050983138e-02,-8.218774199485778809e-02,1.564487293560510098e-02,-3.659974711368468858e-02,-1.039741741726639239e-02,1.946297559240023900e-01,5.799561142921447199e-02,1.337925454989996044e-01,2.015463352203369085e-01,1.579956114292144775e-01,5.492277145385741910e-02,5.218810213957386646e-01,-6.661677956581115723e-01,1.271532773971557617e-01,7.502757214564989852e+01,0.000000000000000000e+00
1.250207999999999986e+00,-1.656096502791226319e-02,-1.810427606253724869e-02,8.851038813591003418e-01,-5.129633184446696394e-03,-1.437758240131747911e-02,2.858326794488449951e-02,-1.937720908564176739e-02,-5.974386347234213884e-02,-7.476539909839630127e-02,7.857869886520509051e-02,-8.958077322027081790e-02,2.925536408323235749e-02,1.405236032686432712e-01,-2.904258966445923129e-02,1.735098623482964897e-01,1.598103046417236328e-01,7.095741033554077426e-02,9.382131099700927179e-02,5.225768558589332091e-01,-6.106310486793518066e-01,4.555499553680419922e-02,-9.592361383576596268e+01,0.000000000000000000e+00
1.276604000000000072e+00,-1.706239436604400569e-02,-2.044979817424763882e-02,8.844766020774841309e-01,-7.052763444379998381e-04,-1.524051199124931699e-02,2.953966853393800995e-02,-2.037925171571754526e-02,-5.980246741533645077e-02,-7.558003067970275879e-02,1.201677508509662734e-01,5.020522471386424518e-02,4.873612088627712197e-02,1.239699685541127971e-01,1.089351236820220725e-01,2.905697795295379970e-01,1.731205701828002763e-01,2.089351236820220781e-01,2.081046044826507513e-01,5.215715943999243986e-01,-6.803132891654968262e-01,9.771740436553955078e-02,1.277665294822556774e+02,0.000000000000000000e+00
1.304640000000000022e+00,-1.751092624735049383e-02,-2.281123054483096685e-02,8.838822245597839355e-01,5.310412648435942559e-03,-1.524084524115143502e-02,2.829616988274077580e-02,-1.447183357375057301e-02,-5.746546695085296558e-02,-6.876523047685623169e-02,2.303370065799249522e-01,1.725266730822989231e-02,-4.418530622366507316e-02,-2.183111895097706867e-01,6.870635151863097034e-02,2.640248511790618258e-01,-1.300409317016601451e-01,1.687063515186309759e-01,1.848747074604034368e-01,5.259644405284535917e-01,-4.266213178634643555e-01,-3.075957298278808594e-03,9.607512109193517347e+01,0.000000000000000000e+00
1.326101999999999892e+00,-1.776874978836049182e-02,-2.436795143917506318e-02,8.833969831466674805e-01,8.848116216499106457e-03,-1.446847168492215729e-02,2.614106102042298291e-02,-2.449343831760267265e-02,-6.879328690211035380e-02,-6.817384064197540283e-02,1.404646572651031822e-01,2.848859994213592123e-02,-1.235571665555185855e-01,-1.566271543502807673e-01,1.111637353897093616e-02,2.921799051159840732e-01,-5.662715435028076172e-02,1.111163735389709417e-01,2.190121114253997803e-01,5.247869642458241612e-01,-4.998412132263183594e-01,1.666907072067260742e-01,8.364813148204140703e+01,0.000000000000000000e+00
1.349684000000000106e+00,-1.820270505443202097e-02,-2.592910348856461086e-02,8.829058408737182617e-01,1.238375289594731594e-02,-1.392430068168293289e-02,2.335807304826222758e-02,-9.379712957463837500e-03,-5.801420528978642327e-02,-6.725504994392395020e-02,1.842123370809449490e-01,4.005635971395919009e-02,-1.681655490885416437e-01,-2.089985728263855091e-01,4.897271394729613148e-02,2.831327777904901755e-01,-1.089985728263854897e-01,1.489727139472961370e-01,2.176400542259216142e-01,5.242438615136064683e-01,-5.365010499954223633e-01,-4.353265762329101562e-01,9.433863428791865147e+01,0.000000000000000000e+00
1.380540000000000100e+00,-1.890021813266404976e-02,-2.818538594466192537e-02,8.819395303726196289e-01,1.537086179904421229e-02,-1.488771355282714204e-02,1.843991882970808655e-02,-2.085836853903682425e-02,-5.872710079092263724e-02,-7.268585264682769775e-02,1.165287142308306899e-02,-5.861335341020547374e-02,-1.790273404712542649e-01,-2.699922025203704834e-01,-2.825319051742553600e-01,1.896685268247982892e-01,-1.699922025203704778e-01,-1.825319051742553544e-01,1.378649353981017955e-01,5.223953248195408738e-01,-6.717394590377807617e-01,-9.312951564788818359e-02,9.411519830960001798e+01,0.000000000000000000e+00
1.403550999999999993e+00,-1.939085811394843095e-02,-2.962138216030135371e-02,8.811249732971191406e-01,1.483349984825461064e-02,-1.550897794122318984e-02,1.521759253943185536e-02,-2.112494685838062214e-02,-5.322645774677921271e-02,-7.798263430595397949e-02,-2.341639875535654136e-04,-4.133755576561028156e-02,-1.582363464725877744e-01,-2.469351649284362848e-01,-2.803660392761230247e-01,1.719845982290438280e-01,-1.469351649284362793e-01,-1.803660392761230469e-01,1.292003989219665527e-01,5.228669198411074470e-01,-6.800866723060607910e-01,2.382832765579223633e-01,4.914670472000220514e+01,0.000000000000000000e+00
1.424676000000000053e+00,-1.992078326574054509e-02,-3.093787379623244918e-02,8.803058266639709473e-01,1.270846511995925299e-02,-1.615616042956591336e-02,1.148867291447049251e-02,-2.238016423586494316e-02,-4.873971495400369197e-02,-8.235231041908264160e-02,-1.495485730368603661e-01,-3.326489878638719255e-02,-1.816350870025431608e-01,1.078532814979553112e-01,8.804287910461425226e-02,1.843906208710282060e-02,2.078532814979553167e-01,1.880428791046142578e-01,-1.385747194290161063e-02,5.230610912365857290e-01,-7.001413106918334961e-01,-1.599907875061035156e-03,9.672992449747512467e+01,0.000000000000000000e+00
1.448387000000000091e+00,-2.064865868336427865e-02,-3.274804880891879488e-02,8.788791298866271973e-01,7.687225825225190053e-03,-1.632227005698849709e-02,6.258809451419159592e-03,-1.925177870150584711e-02,-4.726017654963988318e-02,-8.428139984607696533e-02,-1.856299644829208784e-01,2.094611611225866143e-02,-1.612550193667376397e-01,1.255782842636108121e-01,1.012417972087860107e-01,-1.803840755201991941e-01,2.255782842636108176e-01,2.012417972087860163e-01,-1.978876590728759766e-01,5.239106205247797687e-01,-6.775914430618286133e-01,2.723993062973022461e-01,-9.896571008265064862e+00,0.000000000000000000e+00
1.473610000000000086e+00,-2.119342482659486784e-02,-3.421602720073616682e-02,8.772965669631958008e-01,7.582017981836845257e-04,-1.272475824520480359e-02,1.734907474660058162e-03,-1.633017485084714907e-02,-4.335132072022991612e-02,-8.146717399358749390e-02,-2.200508491949852430e-01,1.744851013897388559e-01,-1.324191486168702914e-01,1.644864471768657799e-01,-1.575840950012206976e-01,-2.126954045851034425e-01,2.224060893058776855e-01,-5.758409500122069896e-02,-2.173783063888549694e-01,5.304076552975189873e-01,-3.286338448524475098e-01,-2.892458438873291016e-02,8.704335704675222019e+01,0.000000000000000000e+00
1.498785999999999952e+00,-2.186531637557006039e-02,-3.563118922780603159e-02,8.759001493453979492e-01,-2.638621645064360716e-03,-9.299958479382919307e-03,-7.288380432651137041e-04,-3.165608178896416047e-02,-4.962976353687153369e-02,-6.937364488840103149e-02,-4.943253761802656604e-02,7.162482321111365846e-02,-7.237817881741846759e-02,1.566938139994125401e-01,1.196539159877478831e-01,1.998531275989995637e-01,1.990149736404418779e-01,2.196144104003906194e-01,2.021476864814758245e-01,5.424586148971012323e-01,3.696653842926025391e-01,-1.263288259506225586e-01,5.477652912452023770e+01,0.000000000000000000e+00
1.524825000000000097e+00,-2.276214246072352093e-02,-3.717095066934787695e-02,8.749049901962280273e-01,-1.412223598110014851e-03,-8.511961206476126307e-03,-3.549370957941146046e-04,-2.212261247253208274e-02,-5.054974917829399561e-02,-5.557712167501449585e-02,3.015038942733606203e-02,2.729761501178008115e-02,3.517986514457271258e-02,2.704222672638895153e-02,1.350621824263451565e-01,1.710677411931738334e-01,7.848200798034667136e-02,2.213901042938232477e-01,1.722612440586090143e-01,5.233342155727388478e-01,-6.402738094329833984e-01,1.710816621780395508e-01,8.342866384363055943e+01,0.000000000000000000e+00
1.555045000000000011e+00,-2.344098266902168784e-02,-3.837984135430424354e-02,8.743227124214172363e-01,8.292206219331061225e-04,-7.865115783424858620e-03,-3.827830047345719849e-04,-3.141323134512286758e-02,-4.492364915038738610e-02,-4.791928082704544067e-02,1.598706999882360535e-01,1.755915911090338150e-02,-2.969493822438103517e-02,4.449336250853584696e-02,8.952752371233912987e-02,2.035312108814424648e-01,1.071847200393676730e-01,1.805874645709991400e-01,2.047596395015716386e-01,5.234336813819552292e-01,-6.156652569770812988e-01,-2.924026250839233398e-01,1.054696159933700130e+02,0.000000000000000000e+00
1.575998999999999928e+00,-2.407032068038907416e-02,-3.959845622929891729e-02,8.738657832145690918e-01,3.684327878810955258e-03,-7.668015616343781815e-03,-2.424422913725026493e-03,-2.690870558948415397e-02,-5.090974312206015401e-02,-3.390135243535041809e-02,1.467029300878076314e-01,-3.265712629556159069e-02,-1.450557617255839038e-01,2.924928560439409020e-02,1.551358610755754208e-03,2.115668465633933903e-01,1.169945240020751898e-01,8.718763589859009067e-02,2.184683024883270208e-01,5.263669150835720290e-01,-4.108057022094726562e-01,5.777180194854736328e-02,9.512495298592719450e+01,0.000000000000000000e+00
1.601836999999999955e+00,-2.505527430044629869e-02,-4.138770102863965905e-02,8.731753826141357422e-01,7.277179856439546825e-03,-9.027143992078601187e-03,-6.091844610334981244e-03,-2.670693746690553511e-02,-4.669644336202780077e-02,-3.317214921116828918e-02,7.249495824657571641e-02,-5.893510330095215466e-02,-1.341420406280618427e-01,-9.853483438491822399e-02,-2.289839530812498025e-01,1.855363548074038527e-01,1.465165615081786979e-03,-1.334274530410766435e-01,2.026371717453002985e-01,5.247991444820518936e-01,-5.038799643516540527e-01,-9.544932842254638672e-02,1.035830972540449721e+02,0.000000000000000000e+00
1.625985000000000014e+00,-2.605515436944451368e-02,-4.308835105752295558e-02,8.724530339241027832e-01,1.000572916688564386e-02,-1.192990490299239426e-02,-1.013036888116128353e-02,-2.669683667905433516e-02,-4.035164837810641114e-02,-3.330796584486961365e-02,7.720885773247236628e-02,-1.083667685531059660e-01,-1.173600067766471244e-01,-1.490111112594604548e-01,-2.708018898963928112e-01,1.694913239773727098e-01,-4.901111125946044922e-02,-1.708018898963928056e-01,1.978296518325805553e-01,5.255317758709963094e-01,-4.754184484481811523e-01,6.074639558792114258e-01,8.663295147009365849e+01,0.000000000000000000e+00
1.653186999999999962e+00,-2.678529232714412303e-02,-4.402744636646643839e-02,8.718519806861877441e-01,1.123050057437290083e-02,-1.327040860641037767e-02,-1.331461022029105726e-02,-3.262094143392638146e-02,-4.821754579741235197e-02,-3.412347286939620972e-02,6.502424011694796224e-02,-2.923801489082298102e-02,-1.842136020098681382e-01,-9.765639305114746926e-02,-2.418754100799560547e-01,1.649750860356969107e-01,2.343606948852538889e-03,-1.418754100799560491e-01,2.022245943546294999e-01,5.228507735041149074e-01,-6.349692940711975098e-01,8.174812793731689453e-02,9.613830717194696263e+01,0.000000000000000000e+00
1.673029000000000099e+00,-2.743058314973703324e-02,-4.492732933989172783e-02,8.711489439010620117e-01,1.120742877495111388e-02,-1.273797446280289236e-02,-1.608698535231042545e-02,-1.978576321419524969e-02,-3.766223409700171498e-02,-3.878426924347877502e-02,-1.036163347343780489e-02,6.794073152920776515e-02,-1.262713654231618909e-01,4.610478878021240234e-02,1.227924883365630881e-01,1.738906319450967131e-01,1.461047887802124079e-01,2.227924883365630937e-01,2.188744604587554987e-01,5.331359948876185362e-01,-1.026569604873657227e-01,-1.954877376556396484e-02,1.022565310832559220e+02,0.000000000000000000e+00
1.701524999999999954e+00,-2.820360860143535792e-02,-4.619550531155988682e-02,8.699575662612915039e-01,9.759673677557438934e-03,-7.925854755350236758e-03,-2.074405856761769168e-02,-1.598866928896625766e-02,-3.448622698293180022e-02,-3.544479236006736755e-02,-4.236541206308242630e-02,2.068895433855519328e-01,-1.652113773722108381e-01,2.276953458786010187e-02,1.419111451177775540e-01,1.681507805881799489e-01,1.227695345878601074e-01,2.252040982246398815e-01,2.262172579765319713e-01,5.289876438658176472e-01,-3.299299478530883789e-01,-7.268917560577392578e-02,9.947853605346082873e+01,0.000000000000000000e+00
1.726282000000000094e+00,-2.886194496768089424e-02,-4.739423299732087314e-02,8.686647415161132812e-01,7.316329394566562470e-03,-1.213295919062273853e-03,-2.533090117652591830e-02,-1.740496601363089244e-02,-4.532330022733582764e-02,-3.882561996579170227e-02,-8.193692077766691340e-02,1.994608578379332420e-01,-1.588106377370220590e-01,-2.834659934043884388e-01,1.833606310897807068e-01,1.493673257178012859e-01,-1.834659934043884333e-01,2.246800303459167425e-01,2.203205645084380937e-01,5.363918286712987538e-01,4.980766773223876953e-02,1.191784143447875977e-01,1.043404832707293508e+02,0.000000000000000000e+00
1.750550999999999968e+00,-2.931859560614439100e-02,-4.844991613052042345e-02,8.679612874984741211e-01,6.981990124155342675e-03,1.385318274760738433e-03,-2.817020527453922146e-02,-1.508338939131534211e-02,-3.381523997041444712e-02,-3.350886702537536621e-02,1.386690207017444477e-02,1.133039635476008888e-01,-1.490622890874211959e-01,6.049351692199705921e-02,2.018485952519534221e-01,1.483601536984338054e-01,1.604935169219970648e-01,2.248369932174682506e-01,2.272456347942352073e-01,5.271708346458617855e-01,-4.461651444435119629e-01,-2.624309062957763672e-02,9.697827700588597111e+01,0.000000000000000000e+00
1.773551000000000100e+00,-2.983886805054595734e-02,-4.955763606094885920e-02,8.673950433731079102e-01,7.139517050907619004e-03,1.557595300048841835e-03,-3.133820952955067990e-02,-1.650459308681213877e-02,-4.107468175953663675e-02,-2.508553676307201385e-02,-3.402223614606952190e-02,-3.392408235587566351e-02,-1.595120126720443454e-01,-2.053128063678741344e-01,1.626248018411766971e-01,-2.492209665362319915e-01,-1.053128063678741427e-01,1.860770344734191950e-01,-1.614593267440795898e-01,5.220038231216604929e-01,-7.039217352867126465e-01,-1.434403657913208008e-01,9.576184763546336853e+01,0.000000000000000000e+00
1.798777000000000070e+00,-3.067553597260966325e-02,-5.107348404557807142e-02,8.666157126426696777e-01,5.411456062663881281e-03,-6.884423883251056253e-04,-3.543645772606239530e-02,-3.106738438725992549e-02,-3.151007054245073130e-02,-2.072375454008579254e-02,-1.032689117059854833e-01,-8.142517782089842004e-02,-9.838242896202915866e-02,-1.858833254997903639e-01,1.488157362125543115e-01,-2.956451693530423031e-01,-9.067257642745971125e-02,1.982932806015014482e-01,-1.963849067687988281e-01,5.219116104486308805e-01,-7.024782896041870117e-01,-6.159888505935668945e-01,1.011467756072905928e+02,0.000000000000000000e+00
1.826753000000000071e+00,-3.160454941441880744e-02,-5.236489361444583712e-02,8.659176230430603027e-01,2.626804836809174849e-03,-5.611937310580517035e-03,-3.757924509411956354e-02,-2.608700209612429058e-02,-2.785836312268930026e-02,-1.718215271830558777e-02,-1.180791505676141162e-01,-1.617747187363600403e-01,-9.795807546239816525e-04,-1.607988039235004329e-01,1.249725405301902598e-01,-2.953591585159301980e-01,-8.442236781120300571e-02,2.012170851230621338e-01,-1.953591585159301647e-01,5.217615204068930534e-01,-7.068197727203369141e-01,-1.454910039901733398e-01,-1.614660305640328630e+01,0.000000000000000000e+00
1.850170000000000092e+00,-3.228391853383409671e-02,-5.310401140743926246e-02,8.654601573944091797e-01,-7.449242338841082867e-05,-9.079447534741769132e-03,-3.705710654278442789e-02,-3.249203513473570420e-02,-2.453169440243618479e-02,-4.648648668080568314e-03,-1.425718668082642249e-01,-1.582979331720395233e-01,2.468349115675752201e-02,-1.854778487805282816e-01,9.824889898300170898e-02,-2.820127725601196400e-01,-1.278602421283721868e-01,1.982488989830017145e-01,-1.820127725601196345e-01,5.212150238307673433e-01,-6.957170367240905762e-01,1.267126798629760742e-01,9.242967837717012003e+01,0.000000000000000000e+00
1.877053000000000083e+00,-3.334595785300764614e-02,-5.404140183632411693e-02,8.648566007614135742e-01,-5.156173285388056943e-03,-1.400213912906678182e-02,-3.486293078410390711e-02,-3.763053722582923588e-02,-2.129403708714118840e-02,8.249009959399700165e-03,-1.588259910092572613e-01,-1.718102367334660707e-01,3.762142078450059213e-02,-1.308782391725954453e-01,9.483155012130736750e-02,-2.767657956295324073e-01,-1.075298130512237493e-01,1.948315501213073730e-01,-1.787296056747436357e-01,5.205600215359382776e-01,-6.889409422874450684e-01,-1.881825923919677734e-02,1.024880949866868747e+02,0.000000000000000000e+00
1.901310000000000056e+00,-3.406141374920129694e-02,-5.455470995917195004e-02,8.645602464675903320e-01,-8.840283019535544184e-03,-1.679484102179285010e-02,-3.272931875051296458e-02,-3.090658576524173487e-02,-1.336956167882729848e-02,-2.724096877500414848e-03,-2.470826511759162958e-01,-1.045324792823371790e-01,1.300523603883476098e-01,2.431421109272587783e-02,8.312172293663022682e-02,-2.551486769676556410e-01,1.824989318847656042e-02,1.831217229366302324e-01,-1.629529953002929743e-01,5.221031863636347303e-01,-6.567124724388122559e-01,4.684412479400634766e-02,1.013339501113056258e+02,0.000000000000000000e+00
1.925964999999999927e+00,-3.516913221602085970e-02,-5.520118954035856118e-02,8.642200827598571777e-01,-1.417578043542703191e-02,-2.033425589001347511e-02,-2.939895058890091770e-02,-4.501868077249965294e-02,-1.086438579820886430e-02,1.863521523773670197e-03,-1.764392014580196122e-01,-1.017133164896052294e-01,1.558313176495063346e-01,-6.238083269268913933e-02,6.179785728454589844e-02,-2.330130954845221480e-01,-1.031836330890655434e-01,1.617978572845459040e-01,-1.497981548309326172e-01,5.220010476995039506e-01,-6.524471640586853027e-01,-1.946648359298706055e-01,1.092787441915944129e+02,0.000000000000000000e+00
1.948422000000000098e+00,-3.583439192900573361e-02,-5.532729966715348169e-02,8.640996217727661133e-01,-1.696126714331998991e-02,-2.232491462299623919e-02,-2.724772420141645737e-02,-3.894568359625603243e-02,4.015755463494689870e-03,1.236680988222360611e-02,-1.271468286984879792e-01,-9.211302730237369563e-02,6.399593385169857762e-02,1.805269916022019805e-01,7.519227266311645508e-02,-2.503243329479799550e-01,1.108058810234069796e-01,1.751922726631164606e-01,-1.730502605438232477e-01,5.210475477686309365e-01,-6.688066720962524414e-01,1.200272202491760254e+00,8.254117638363578635e+01,0.000000000000000000e+00
1.974915999999999894e+00,-3.644164670428653302e-02,-5.524383951525489028e-02,8.640108108520507812e-01,-1.949544849302975447e-02,-2.437514629575354697e-02,-2.457386733822770203e-02,-3.837166512203082219e-02,2.344877724395870531e-03,1.144182961434125900e-02,-1.217165319569503829e-01,-9.075890201306446858e-02,1.430437263559540817e-01,1.532593124385583927e-01,1.185194253921507956e-02,-2.548558918196121015e-01,7.042089700698851706e-02,1.118519425392150851e-01,-1.848582029342651367e-01,5.215140064662999730e-01,-6.539139747619628906e-01,-2.500032186508178711e-01,1.066661968340645359e+02,0.000000000000000000e+00
2.000312999999999786e+00,-3.742735808770681488e-02,-5.494138038394617840e-02,8.639235496520996094e-01,-2.202193838207086932e-02,-2.678335621982386172e-02,-2.072007389619461709e-02,-4.539206063436027061e-02,1.387828634708465278e-02,9.095907211303710938e-03,-1.055379987975367945e-01,-1.744528690575955845e-02,1.380928777479703828e-01,3.070466518402099609e-01,9.181395769119260475e-02,-2.719577293474538249e-01,2.070466518402099554e-01,1.918139576911926103e-01,-2.125693559646606445e-01,5.216081071436963201e-01,-6.647869348526000977e-01,3.336583375930786133e-01,1.590139619161470250e+02,0.000000000000000000e+00
2.025390999999999941e+00,-3.818697037345896578e-02,-5.465589144409317007e-02,8.637779355049133301e-01,-2.166257672322377884e-02,-2.888794425448959480e-02,-1.795044374532906231e-02,-4.306620316967111478e-02,1.329633462193096326e-02,2.500081062316894531e-02,9.716409461995219321e-02,-1.392977445037087703e-01,1.451042413578675083e-01,2.526399374008178600e-01,-1.775371551513671986e-01,-2.200016226219982107e-01,1.526399374008178544e-01,-7.753715515136717917e-02,-1.682997465133666826e-01,5.202030703070266160e-01,-6.839816570281982422e-01,7.266056537628173828e-02,9.070824531008429403e+01,0.000000000000000000e+00
2.051553000000000182e+00,-3.936720613723059675e-02,-5.417561547310068004e-02,8.637124896049499512e-01,-1.962484587981205494e-02,-3.132711583289382595e-02,-1.341378880988428404e-02,-5.445267637851382292e-02,2.519909189937584101e-02,2.201941609382629395e-02,1.332357467496235737e-01,-5.735686024099363040e-02,1.361459990521600716e-01,-3.826465220689731495e-03,-2.865208864212036022e-01,-1.969166431372695591e-01,-1.038020968437194796e-01,-1.865208864212035966e-01,-1.579666972160339300e-01,5.210175137545181023e-01,-6.578997969627380371e-01,-3.999292850494384766e-02,6.467398891115104220e+01,0.000000000000000000e+00
2.076532999999999962e+00,-4.060998114237306805e-02,-5.384205350521224093e-02,8.635137081146240234e-01,-1.409251444988865107e-02,-3.374432052924181136e-02,-8.968166525098034136e-03,-6.832259947415872392e-02,1.021397893092962708e-02,3.310722857713699341e-02,2.409799114387900232e-01,-7.615190883408748390e-02,1.016532429819600319e-01,-1.111624821041858058e-01,-3.189286231994629128e-01,-1.981496553507823555e-01,-1.621588826179504450e-01,-2.189286231994628795e-01,-1.717387676239013616e-01,5.214938523995129582e-01,-5.948371291160583496e-01,4.540801048278808594e-03,9.656397139121132511e+01,0.000000000000000000e+00
2.099514999999999798e+00,-4.144121066453827079e-02,-5.355628809381785677e-02,8.633900284767150879e-01,-9.820244728992153643e-03,-3.330381658571157644e-02,-6.054218900561300111e-03,-5.346744484782821327e-02,3.172263996430440408e-02,1.087258756160736084e-02,1.558811568628564459e-01,1.001991176861406346e-01,1.855630802413867630e-01,1.324209958156904315e-02,7.564372420310971901e-02,6.575638626050742119e-02,-2.872413396835327148e-02,1.756437242031097246e-01,8.350750207901000421e-02,5.222276593820395219e-01,-6.490833163261413574e-01,-7.417082786560058594e-03,9.531801511300677987e+01,0.000000000000000000e+00
2.125968999999999998e+00,-4.264154147487197316e-02,-5.288828625934930555e-02,8.629466891288757324e-01,-4.895617156740666130e-03,-2.852756045151005893e-02,-2.123098402787285208e-03,-6.131308729288492687e-02,2.924557799661994806e-02,1.061061769723892212e-02,1.380400132833018711e-01,2.167807687517374071e-01,1.451283995639187085e-01,-1.300622683889360587e-01,1.025201022624969427e-01,2.117349438217946689e-01,-1.355202198028564453e-01,2.025201022624969482e-01,2.181805014610290472e-01,5.219921640957386755e-01,-6.712667942047119141e-01,-4.055842161178588867e-01,1.043325261003462856e+02,0.000000000000000000e+00
2.150701999999999892e+00,-4.332819375418622831e-02,-5.220316482863825158e-02,8.625609278678894043e-01,-3.921067286943806691e-03,-2.328809170597834211e-02,-7.398197716497238946e-04,-4.651408908616636723e-02,3.939289571400431123e-02,6.785339210182428360e-03,-4.177361557239694934e-02,2.661368709790178921e-01,2.915516980205276956e-02,2.308394458901865398e-01,1.058403015136718528e-01,2.215965197399890063e-01,2.232896089553833008e-01,2.058403015136718583e-01,2.239764511585235485e-01,5.239730614042608092e-01,-5.866531133651733398e-01,1.864778995513916016e-02,8.969645523738445547e+01,0.000000000000000000e+00
2.175037999999999805e+00,-4.437283333529321722e-02,-5.097739851412413231e-02,8.621835112571716309e-01,-3.024186934386066672e-03,-1.780512998516314838e-02,-4.959308331663274914e-04,-6.264607506472064102e-02,4.281004178598711574e-02,3.366740653291344643e-03,-1.998894666211395096e-02,1.105966950894035766e-01,5.401391965208874810e-03,2.273141681573119244e-01,1.167789936065673773e-01,2.166970706422484960e-01,2.236999511718749944e-01,2.167789936065673828e-01,2.183149516582489069e-01,5.253309096418993240e-01,-5.350720882415771484e-01,7.685621976852416992e-01,2.028761526904049362e+01,0.000000000000000000e+00
2.200959999999999805e+00,-4.521175052394694333e-02,-5.009475027003363473e-02,8.619515299797058105e-01,-3.088487998154188646e-03,-1.669759846149676541e-02,-1.766480709893103462e-03,-7.391270794871195038e-02,4.088759978126736000e-02,1.328796427696943283e-02,-1.850776934270610685e-02,1.149330798704378473e-02,-7.846465993248620541e-02,1.780836736368857087e-01,-1.012346386909484947e-01,1.687769129753864117e-01,1.755653858184814398e-01,-1.234638690948486285e-03,1.739644825458526445e-01,5.225765364754645370e-01,-6.527820825576782227e-01,5.402106046676635742e-01,3.617793084476468124e+01,0.000000000000000000e+00
2.226589999999999847e+00,-4.615623910403725966e-02,-4.920282888084457490e-02,8.616224527359008789e-01,-2.714049179724626303e-03,-1.763848536394374555e-02,-3.121033538461085236e-03,-6.407309039025863018e-02,4.367019930393619548e-02,9.452873491682112217e-04,3.163837571428838868e-02,-4.169127757785985600e-02,-5.324279774544874583e-02,1.715268224022480359e-01,-2.958026170730591042e-01,1.844548352263162827e-01,1.685559511184692438e-01,-1.958026170730590709e-01,1.933983743190765270e-01,5.247735477063993903e-01,-5.902155041694641113e-01,-2.582067251205444336e-01,-2.782895349015121766e+01,0.000000000000000000e+00
2.252920000000000034e+00,-4.773694822669177773e-02,-4.784324726551070217e-02,8.611932396888732910e-01,8.609621622850556748e-04,-2.097291758698549557e-02,-5.448783220722203981e-03,-7.126100462355614007e-02,4.431408451863456249e-02,1.286974828690290451e-02,1.732162093594802887e-01,-1.406176557008901595e-01,-7.964666685949430003e-02,1.764007375716347692e-01,-2.939237117767333762e-01,1.930756957721558864e-01,1.958907008171081598e-01,-1.939237117767333984e-01,2.083916544914245494e-01,5.261163649980202806e-01,-4.783675670623779297e-01,3.121255636215209961e-01,-1.054948876932990487e+02,0.000000000000000000e+00
2.274723999999999968e+00,-4.894992100168049642e-02,-4.657067227874824022e-02,8.608275651931762695e-01,3.884611584102469570e-03,-2.242157149515966452e-02,-6.873616564693908748e-03,-6.889528001808682689e-02,4.352478985890766844e-02,5.710107740014791489e-03,1.498177345243474345e-01,-6.093474913463097636e-02,-2.686441347380274028e-02,1.271185667964787602e-01,-3.098929405212402233e-01,1.965114375120940726e-01,1.662004709243774248e-01,-2.098929405212402177e-01,2.156688094139098955e-01,5.291132063386383422e-01,-3.511889576911926270e-01,2.104226350784301758e-01,9.014989100581409787e+01,0.000000000000000000e+00
2.302461000000000091e+00,-5.066017846819361597e-02,-4.458731174725363150e-02,8.601097464561462402e-01,9.129023569569126237e-03,-2.077561381710779642e-02,-9.358366591788940675e-03,-6.570645756403224735e-02,4.616517847056061247e-02,1.045640558004379272e-03,2.126817969473456527e-01,1.212903378353560463e-01,-7.414703974912134621e-02,1.329007513770082138e-01,9.719019532203673761e-02,1.995323268170377806e-01,2.028795719146728460e-01,1.971901953220367432e-01,2.253814280033111517e-01,5.233483581319077205e-01,-6.932384371757507324e-01,2.393831014633178711e-01,9.226317885577272193e+01,0.000000000000000000e+00
2.325654999999999806e+00,-5.170344250504602113e-02,-4.326683107224314068e-02,8.595550656318664551e-01,1.271669828490611630e-02,-1.688480276754411591e-02,-1.125951773456793092e-02,-5.463412380296663734e-02,4.835078394186398398e-02,-5.128341261297464371e-03,1.489981655441214026e-01,2.351374091260089172e-01,-9.087437268448159133e-02,-9.965285550337987797e-02,1.160584628582000677e-01,1.945596565367766206e-01,-8.377325534820555600e-03,2.160584628582000732e-01,2.256280303001403642e-01,5.237649469659740875e-01,-7.042447328567504883e-01,-6.409226655960083008e-01,2.654713871880409570e+01,0.000000000000000000e+00
2.352864999999999984e+00,-5.319361253528831490e-02,-4.142215527982615053e-02,8.585954904556274414e-01,1.874252787723251074e-02,-8.355224829210028403e-03,-1.439831775626843231e-02,-5.894406200135303420e-02,4.666218714722533689e-02,-4.517650231719017029e-04,2.468202098591434912e-01,2.714949492223275862e-01,-7.174533060665144735e-02,-1.467732548713684138e-01,1.165989637374877930e-01,1.864489752485735952e-01,-4.677325487136840820e-02,2.165989637374877985e-01,2.262522518634796087e-01,5.233779511928942085e-01,-7.178587317466735840e-01,-1.205002069473266602e-01,9.020228538693726250e+01,0.000000000000000000e+00
2.376882999999999857e+00,-5.463416241523166156e-02,-3.972837086259479317e-02,8.581131100654602051e-01,2.290221595983164132e-02,-3.620269121388908218e-03,-1.687640309856321130e-02,-6.702691960505961777e-02,3.761703821495959027e-02,4.051877185702323914e-03,1.944351362276637851e-01,1.795160976907730632e-01,-1.213509237298854015e-01,-2.827199816703796498e-01,1.142991304397582841e-01,1.799886614359226256e-01,-1.827199816703796442e-01,2.142991304397582897e-01,2.267393052577972301e-01,5.232163017647565306e-01,-7.179167270660400391e-01,1.065742969512939453e-02,1.100735596449304552e+02,0.000000000000000000e+00
2.398843999999999976e+00,-5.615698538518239247e-02,-3.809999345641037344e-02,8.576142787933349609e-01,2.639173699151945579e-02,-1.020547884888367562e-03,-1.913377998645732908e-02,-6.411187267960753722e-02,4.354132031321162472e-02,-5.214781966060400009e-03,1.792942634387988676e-01,9.551325015968312182e-02,-1.003208087783908908e-01,-2.974701642990112416e-01,1.154186275104845255e-01,1.729500413947642479e-01,-1.974701642990112360e-01,2.090227067470550593e-01,2.260138928890228216e-01,5.243584302291794952e-01,-7.017912268638610840e-01,1.248490810394287109e-02,1.259633475885412679e+01,0.000000000000000000e+00
