timestamp,x,y,z,roll,pitch,yaw,vx,vy,vz,p,q,r,psp,qsp,rsp,pres,qres,rres,thrust_sp, thrust_res,wind_mag,wind_angle,wind_obs
0.000000000000000000e+00,-3.576083398715800259e-03,-3.720684683618552101e-03,9.954836368560791016e-01,6.626415163596088148e-03,-7.450108231097596345e-03,7.861426336262904158e-03,-6.948031154569930118e-03,-3.017205392165231426e-02,1.337667461484670639e-02,6.601178429118620405e-02,-4.997332792957725686e-03,-2.090387526640400187e-02,1.003926649541223293e-01,5.379413437721426716e-02,-1.803816880778696397e-01,1.703532814979553112e-01,1.102139890193939153e-01,-2.024238109588623047e-01,5.001038003089491868e-01,-5.905877947807312012e-01,-3.264762163162231445e-01,1.169153533063430643e+02,2.915487527847290261e-01
2.541099999999999956e-02,-3.281104920786247995e-03,-4.644904212571038943e-03,9.957852363586425781e-01,6.489726055941118406e-03,-7.154337284737133373e-03,7.850230056582481464e-03,1.132063413574377342e-02,-2.603340666755649124e-02,-9.250799193978309631e-04,-5.882589383670078220e-02,5.974289965607598729e-02,1.546214440424270239e-02,-2.858452691238685950e-01,1.733436622743559918e-01,2.437543472029209957e-01,-2.238491714000701849e-01,2.118104696273803711e-01,2.217453002929687389e-01,5.000231115852503683e-01,-6.503002047538757324e-01,-5.197192430496215820e-01,1.120450800884762970e+02,2.915487527847290261e-01
5.229799999999999727e-02,-2.746582917793715609e-03,-6.259339155344348544e-03,9.960771799087524414e-01,6.158227024237889098e-03,-6.923343720785402056e-03,8.130921860979760732e-03,2.786542048453246982e-03,-2.655583013190870173e-02,-4.953952971845865250e-03,-4.321935727336167349e-02,6.392149870835779971e-03,3.674132800566528440e-02,-2.482067870389601805e-01,1.680150770051514753e-01,2.178909471048622037e-01,-1.862808823585510309e-01,2.142317712306976152e-01,1.950966954231262152e-01,5.014323234073722046e-01,-5.916733741760253906e-01,4.051710367202758789e-01,1.680258910919802702e+02,2.915487527847290261e-01
7.459999999999999964e-02,-2.386030434765492626e-03,-7.293712812328436226e-03,9.962450861930847168e-01,5.707863730116317751e-03,-7.269538219895288478e-03,7.807982368662642718e-03,5.247535737068333671e-03,-1.981817426875140745e-02,-3.975609433837234974e-04,-2.800421114153270330e-02,-3.857644872818205561e-02,-4.974372663206249462e-02,-1.917174257626894085e-01,1.697836753163238788e-01,-6.731070639672508127e-02,-1.374363720417022539e-01,2.147476315498351995e-01,-8.920265436172485074e-02,5.062501427383608865e-01,-3.195407390594482422e-01,-3.361037969589233398e-01,1.132999497635477297e+02,2.915487527847290261e-01
1.014879999999999949e-01,-1.913285242006251006e-03,-8.680050954568852700e-03,9.962418675422668457e-01,3.012095461865088065e-03,-9.231989938543128105e-03,5.651820564218900007e-03,6.606046647433021224e-03,-3.103569773024332859e-02,-1.440361700952053070e-02,-1.414289357165983418e-01,-9.892013463054785682e-02,-1.044202584810118156e-01,-1.050567118036491998e-01,1.000125469038460752e-01,-1.957143553033628136e-01,-5.734498500823974332e-02,1.567547142505645585e-01,-2.115233659744262529e-01,5.062020599814922583e-01,-3.784312009811401367e-01,-1.622861623764038086e-01,1.064973955389168481e+02,2.790273427963256836e-01
1.234139999999999959e-01,-1.655064718228858043e-03,-9.459419858483466767e-03,9.959574341773986816e-01,-3.158543042693254081e-04,-1.177166426463616133e-02,4.445096973135170479e-03,4.355039742981919697e-03,-3.633400313111083239e-03,-3.029795549809932709e-02,-1.727349254249213872e-01,-1.238492200436860091e-01,-5.095903606245289624e-02,6.429299984019797021e-02,-2.038792036622031345e-01,-2.079023831202155559e-01,6.721097230911254883e-02,-1.288681268692016546e-01,-2.203311681747436579e-01,5.025318902139004340e-01,-6.372697353363037109e-01,-2.568842172622680664e-01,1.277442630655614408e+02,2.790273427963256836e-01
1.505920000000000036e-01,-1.543147273602807866e-03,-1.062958613399492096e-02,9.952571988105773926e-01,-5.895406743988665550e-03,-1.633511211051397183e-02,4.865814973976093777e-03,-8.047743775646215222e-03,-7.925645120700260809e-03,-2.886046841740608215e-02,-1.593581969519961283e-01,-1.857113431354512900e-01,5.656717437435494072e-02,2.154519379504137300e-01,-3.060867428779602273e-01,-2.123257566337416191e-01,1.903462886810302623e-01,-2.060867428779601940e-01,-2.257548093795776201e-01,5.014810771610664908e-01,-6.912485361099243164e-01,-1.680971384048461914e-01,1.021491741698816611e+02,2.790273427963256836e-01
1.768089999999999939e-01,-1.523705010913554763e-03,-1.127703967807977721e-02,9.946328997611999512e-01,-9.555886125181626764e-03,-1.897651363466268393e-02,6.135589409417724870e-03,-1.015379625055985030e-02,-5.549516711133730892e-03,-4.487834125757217407e-02,-1.808055200194045586e-01,-1.047384101552504831e-01,7.293714764906999992e-02,2.660604816974361242e-01,-2.891948699951171764e-01,-2.091613510134397169e-01,2.150991082191467119e-01,-1.891948699951171708e-01,-2.260219573974609208e-01,5.023951388071654645e-01,-7.115042805671691895e-01,8.591216802597045898e-01,-7.687676731625539439e+00,2.790273427963256836e-01
1.980510000000000048e-01,-1.518948166533870894e-03,-1.188283993547687399e-02,9.937970638275146484e-01,-1.223821166673507398e-02,-2.022118560295593781e-02,8.042266041727128001e-03,2.685061812467150286e-03,1.566887813865427623e-03,-4.002717137336730957e-02,-8.426109730735542591e-02,-2.110398986027321039e-02,8.396955853493537347e-02,2.933169178819086120e-01,-2.944688439369201882e-01,-2.008534754929151012e-01,2.201266765594482311e-01,-1.944688439369201549e-01,-2.230045795440673828e-01,5.026225980467838861e-01,-6.859751343727111816e-01,3.027263879776000977e-01,-1.502868379683249600e+02,2.790273427963256836e-01
2.242609999999999881e-01,-1.437372196349975904e-03,-1.271790643035177436e-02,9.923847913742065430e-01,-1.336906540304462487e-02,-1.838530394001969270e-02,1.088351964647915442e-02,-3.287259013046175526e-03,-4.281983554720552101e-03,-5.238207429647445679e-02,3.629702628724576496e-02,1.109693739985346261e-01,6.277551404677057800e-02,-1.514325636675207809e-01,-2.211131453514099399e-02,2.514814482757050662e-01,-2.257273077964782604e-01,7.788868546485901156e-02,2.214157104492187333e-01,5.055989707535973876e-01,-5.866212844848632812e-01,-1.146675348281860352e-01,1.053061968872882801e+02,2.631372213363647461e-01
2.515379999999999838e-01,-8.041730605485679362e-04,-1.432607015630652653e-02,9.907633662223815918e-01,-9.808487715735756535e-03,-1.285533023500073924e-02,1.424658244974766341e-02,-3.196951217976276555e-05,-9.153870793253344670e-03,-5.501087009906768799e-02,1.873714334453697727e-01,1.932683582970485259e-01,1.041181635233219410e-01,-1.785281402713016496e-01,1.218634301885891530e-01,2.626422382143380752e-01,-2.255921781063079667e-01,2.059061229228973389e-01,2.229757547378539984e-01,5.062972622439351200e-01,-5.697625875473022461e-01,-6.285345554351806641e-02,1.240761236321844336e+02,2.631372213363647461e-01
2.750770000000000159e-01,-3.272661222363071700e-04,-1.535772799119089309e-02,9.894793629646301270e-01,-6.014054938879719210e-03,-7.591581110439893365e-03,1.598565196502499397e-02,1.130468480010666729e-02,-3.845141238745216142e-03,-7.637121528387069702e-02,1.875678627655164854e-01,2.849520073181154856e-01,5.484474690788878476e-02,-1.980694791555729084e-01,1.197653438984669361e-01,2.649351300877937909e-01,-2.247349619865417480e-01,1.606763541698455755e-01,2.202451586723327692e-01,5.065099779892981990e-01,-6.523001194000244141e-01,-3.555504083633422852e-01,1.582192420854593422e+02,2.631372213363647461e-01
3.018199999999999772e-01,4.442743181112981899e-04,-1.680730093205520803e-02,9.870837330818176270e-01,-1.492914661327070930e-03,-1.249541143587329373e-03,1.441065221337002426e-02,1.041552117055197756e-02,-2.412396202872515039e-03,-8.424955606460571289e-02,1.254654836296000830e-01,1.456428705031596049e-01,-8.029245385993906414e-02,-2.275618691572863783e-01,2.145524167283038575e-01,2.609972239997916388e-01,-2.244586586952209417e-01,2.159719884395599199e-01,2.206484735012054499e-01,5.088399325829293662e-01,-5.743542313575744629e-01,-3.013054132461547852e-01,1.059928904460630292e+02,2.631372213363647461e-01
3.235279999999999823e-01,9.578047680551801451e-04,-1.755986193881379706e-02,9.852355122566223145e-01,-1.023932641265111942e-03,9.601618091459318549e-04,1.261873863907726247e-02,2.166531248265091397e-03,1.529334069205246296e-02,-1.077004298567771912e-01,-3.431111891555638227e-02,7.935643527173810718e-02,-7.178198375208062754e-02,-2.181794185976286271e-01,2.305940526081851072e-01,2.581610879025655336e-01,-2.254275083541870117e-01,2.235458493232727051e-01,2.228272497653961126e-01,5.090218457455492063e-01,-6.707128882408142090e-01,7.404792308807373047e-02,1.223419386019182014e+02,2.631372213363647461e-01
3.507500000000000062e-01,1.642664679612134641e-03,-1.791958904719631943e-02,9.820702672004699707e-01,-3.097985829064157318e-03,7.249213410589483431e-04,9.274927994406987827e-03,5.236286299672317929e-03,1.149133270551438643e-02,-1.187294498085975647e-01,-9.454649996170524928e-02,-8.056626630504280795e-02,-1.172130073102547326e-01,-5.746068369910499463e-02,1.627423918201053865e-01,1.229647809923069407e-01,-7.241790890693663996e-02,1.532758891582488847e-01,9.698705077171325406e-02,5.164034897170651783e-01,-3.397326469421386719e-01,-2.854005098342895508e-01,6.910073696507386387e+01,2.631372213363647461e-01
3.771820000000000173e-01,2.063802002916700733e-03,-1.803311269096237110e-02,9.797025322914123535e-01,-6.269508144536147833e-03,-1.109364001447898929e-03,6.831153115582202194e-03,7.098479422457955323e-03,2.847538536025015152e-02,-1.341214329004287720e-01,-2.028772511668397727e-01,-1.018986736435078394e-01,-1.432550762303680669e-01,2.332555788772264216e-01,-3.959694423119998821e-03,-8.267457943790629260e-02,1.839529752731323131e-01,-2.845931053161620834e-03,-1.018005609512329102e-01,5.144620540622252269e-01,-5.216397643089294434e-01,-9.952700138092041016e-02,8.153978185885270591e+01,2.631372213363647461e-01
3.985330000000000261e-01,2.461476196687659417e-03,-1.797067249417633183e-02,9.771816134452819824e-01,-1.011506642547477068e-02,-4.069732736640796489e-03,4.388192223262603678e-03,2.650589387955946952e-03,2.717662697597519536e-02,-1.319560855627059937e-01,-1.724057211132359324e-01,-1.749606167597633766e-01,-1.252008569989736253e-01,2.692628678202955150e-01,-1.143126746471060107e-01,-2.071584400211260446e-01,1.983083367347717174e-01,-9.045764207839965265e-02,-2.193974733352661022e-01,5.127522126956347570e-01,-6.221281886100769043e-01,-1.193891763687133789e-01,1.170503451650992019e+02,2.631372213363647461e-01
4.258959999999999968e-01,2.929649821470534706e-03,-1.774826904475890893e-02,9.731000661849975586e-01,-1.565589911385318472e-02,-9.498645830402718815e-03,1.654316789844428219e-03,4.351519781016075471e-03,3.666436134045438638e-02,-1.340012848377227783e-01,-1.244867518215232588e-01,-2.054230223519638021e-01,-5.448553649822131945e-02,3.108737707138061745e-01,-2.283710439873651576e-01,-2.199836976520812282e-01,2.108737707138061412e-01,-1.715063452720642090e-01,-2.244483947753906083e-01,5.118668695961815507e-01,-7.016221880912780762e-01,-7.533967494964599609e-02,9.711830271406039117e+01,2.631372213363647461e-01
4.480009999999999826e-01,3.051354781860810949e-03,-1.742713753399466325e-02,9.704294800758361816e-01,-1.756790469899086396e-02,-1.254230516793120032e-02,1.467960578585639827e-03,-7.954275404142216455e-03,2.859654940199029063e-02,-1.522340923547744751e-01,-5.130913333683494171e-02,-1.244176566344969287e-01,3.334580380330666449e-02,3.098897933959960938e-01,-2.864676325573584648e-01,-2.228755623782969764e-01,2.098897933959960882e-01,-2.000945806503295898e-01,-2.266749143600463867e-01,5.134440557960381346e-01,-7.090981006622314453e-01,-5.166311264038085938e-01,1.088094828748578635e+02,2.631372213363647461e-01
4.747179999999999733e-01,3.216140917699061418e-03,-1.683148250292129319e-02,9.663732051849365234e-01,-1.623963507267500023e-02,-1.514807362090064835e-02,3.135292960240339526e-03,6.952858011280207799e-03,4.516083023007294583e-02,-1.492435932159423828e-01,1.113510483760709047e-01,-1.546783155096306990e-02,1.206764243734473052e-01,2.921299934387207031e-01,-1.577506160087046860e-01,-3.607670316691425488e-02,1.921299934387206976e-01,-6.782602071762085238e-02,-4.460005760192870677e-02,5.201330273458363296e-01,-3.634177446365356445e-01,4.718276262283325195e-01,4.676955641712223155e+01,2.631372213363647461e-01
5.014180000000000303e-01,3.411892564753382217e-03,-1.615125722296655714e-02,9.624704718589782715e-01,-1.117395242798999502e-02,-1.377679430608291788e-02,5.658977924018693088e-03,-5.760042587976309941e-03,3.691072595286114949e-02,-1.454977989196777344e-01,2.354762580824046048e-01,1.189233194042458586e-01,1.045928843906548805e-01,-1.320421220887860181e-01,1.093518449928277958e-01,1.344534230391655205e-01,-2.163122177124023326e-01,2.021807491779327448e-01,1.187960386276245006e-01,5.163225922775795951e-01,-5.781388282775878906e-01,1.176470398902893066e+00,-5.788154336649178333e+01,2.631372213363647461e-01
5.258779999999999566e-01,3.645786142108583833e-03,-1.569614033943597664e-02,9.598216414451599121e-01,-5.889250516952425699e-03,-1.083594676676136181e-02,6.996834179682160162e-03,1.442347656381181946e-02,4.090954331515975206e-02,-1.377274841070175171e-01,3.083970563186276825e-01,1.557051630812207044e-01,4.781674366926277203e-02,-1.577248747445841870e-01,1.441033145797717685e-01,2.052220453749684925e-01,-2.121794879436492975e-01,2.001743853092193548e-01,1.856721103191375788e-01,5.152382836951314715e-01,-6.250026226043701172e-01,-2.057517766952514648e-01,8.008245854659293173e+01,2.631372213363647461e-01
5.487969999999999793e-01,4.002754211244550359e-03,-1.534917713947527192e-02,9.572438597679138184e-01,-5.388876916557806828e-05,-6.951991151612046949e-03,7.607405075506373099e-03,7.212858921437944985e-03,3.076564517465884413e-02,-1.549884378910064697e-01,2.921273328640403566e-01,2.204670691240059599e-01,2.907286926681515102e-02,-2.140684384673466889e-01,1.410431880866935828e-01,2.394022787378048966e-01,-2.224999129772186335e-01,1.800407409667968694e-01,2.180915772914886475e-01,5.166221813803107965e-01,-6.389680504798889160e-01,5.106037855148315430e-01,9.394391082559444328e+01,2.631372213363647461e-01
5.750250000000000083e-01,4.688314875830825249e-03,-1.487946449462875312e-02,9.532173275947570801e-01,7.831378672039847333e-03,-2.532970551379465363e-03,6.328453257569924099e-03,1.793968447648364162e-02,5.120327926197928980e-02,-1.613609939813613892e-01,1.766228086593651658e-01,1.447120375212855303e-01,-5.963827478550939171e-02,-2.474180440768022071e-01,2.074123549430900160e-01,2.365068918046249746e-01,-2.220685064792632946e-01,2.078416585922241155e-01,2.187860012054443359e-01,5.185637449710386315e-01,-5.862619876861572266e-01,-1.063596010208129883e-01,1.782971705469804533e+02,2.631372213363647461e-01
6.009360000000000257e-01,5.304956801423193861e-03,-1.418242918869739265e-02,9.490962028503417969e-01,1.027803485896277777e-02,-1.191902318251170101e-03,3.357475406684292535e-03,5.814927828848238858e-04,4.826873378629675110e-02,-1.594296097755432129e-01,4.844436766570295316e-02,-1.321252416855074607e-02,-1.298752675530073786e-01,-2.112415962971817829e-01,2.110807937135031620e-01,2.216637376759977573e-01,-1.654874503612518144e-01,2.173006474971771185e-01,2.122446119785308671e-01,5.189813446451377876e-01,-5.828390717506408691e-01,2.499021291732788086e-01,-2.031369976148077328e+01,2.631372213363647461e-01
6.260719999999999619e-01,5.850550656920946828e-03,-1.307964373840094473e-02,9.447236061096191406e-01,7.621157990948597416e-03,-2.629128357050314335e-03,-1.341987614077761891e-04,8.654289083406690314e-03,6.074025374391328613e-02,-1.740917861461639404e-01,-1.686339190857913117e-01,-5.502026173151518262e-02,-1.271439752338379137e-01,-1.952924036452344803e-01,1.359766208433675350e-01,1.130207141835035678e-01,-1.774504601955413652e-01,1.427163183689117432e-01,1.133783340454101451e-01,5.251298606340851771e-01,-3.369266390800476074e-01,-2.951122522354125977e-01,1.187044940386712284e+02,2.631372213363647461e-01
6.532200000000000228e-01,5.761566225232985124e-03,-1.146337487656203143e-02,9.417166113853454590e-01,3.988912531111703068e-03,-5.126246193362549164e-03,-2.635301648808653554e-03,-1.043115193611900008e-03,6.062201137593499489e-02,-1.740924865007400513e-01,-2.013739970323631390e-01,-1.616324204565711686e-01,-1.231979007625315786e-01,-3.255724218740616016e-02,7.095777732194105680e-02,-2.208800387219899131e-01,-3.761084675788878978e-02,1.025526523590087891e-01,-2.135607004165649414e-01,5.209977039551609845e-01,-5.843326449394226074e-01,-4.323991537094116211e-01,1.020911380525040641e+02,2.631372213363647461e-01
6.748309999999999587e-01,5.682066993411098547e-03,-9.796983557211680002e-03,9.386141300201416016e-01,-7.274740337581642137e-04,-8.582362649654395881e-03,-4.963370729816196994e-03,9.151729641208172436e-03,7.206915272206756984e-02,-1.856748759746551514e-01,-2.851031874535546184e-01,-1.475624227788602805e-01,-1.206646248421688050e-01,2.124128453757106183e-01,-6.728171542805484739e-02,-2.339770142114980522e-01,1.668490648269653209e-01,-2.221430540084838937e-02,-2.201333999633789118e-01,5.213026808616618712e-01,-6.383919715881347656e-01,1.823264360427856445e-01,5.028895823603846083e+01,2.631372213363647461e-01
7.009539999999999660e-01,5.428106125239786674e-03,-7.135593331191754547e-03,9.337915182113647461e-01,-8.095774088919501996e-03,-1.452486278519993235e-02,-7.016856583819049663e-03,-9.644956457332685279e-03,7.239693355531531815e-02,-1.886275559663772583e-01,-2.714857465262646707e-01,-1.791405785909660486e-01,1.932184012781519578e-02,2.987729882995892039e-01,-2.795205325990934297e-01,-2.455125754558719064e-01,2.049438357353210449e-01,-1.800213575363159013e-01,-2.258279085159301536e-01,5.204937165438511260e-01,-7.255330681800842285e-01,-2.836886644363403320e-01,1.003247623406795555e+02,2.631372213363647461e-01
7.266780000000000461e-01,5.016092652269811721e-03,-4.347435740052842980e-03,9.290246963500976562e-01,-1.292836684997773072e-02,-1.938478484380357081e-02,-5.996914031207620580e-03,-8.604904855175773970e-03,7.655848530379080752e-02,-1.807368695735931396e-01,-6.780181409270270854e-02,-1.113543553136309566e-01,6.406635144539664373e-02,3.168932914733886830e-01,-3.026118516921997292e-01,-2.445720848971566497e-01,2.168932914733886774e-01,-2.026118516921996959e-01,-2.276208400726318359e-01,5.206803676685152205e-01,-7.157933712005615234e-01,1.274107694625854492e-01,1.283373557119503232e+02,2.631372213363647461e-01
7.517540000000000333e-01,4.538052003946213900e-03,-2.556650817496823429e-03,9.262548089027404785e-01,-1.309392344845191486e-02,-2.145611741151620677e-02,-4.571631665222993489e-03,-1.235840426149871496e-02,7.677424280911258891e-02,-1.566188037395477295e-01,5.137231512351028012e-02,-7.330320014215988000e-02,6.520027745533386876e-02,3.209097385406494141e-01,-2.294015645980835016e-01,-2.281418622590445644e-01,2.209097385406494085e-01,-1.294015645980834961e-01,-2.151602268218994196e-01,5.212617297445996112e-01,-6.116032600402832031e-01,-4.014517068862915039e-01,1.035533312896420597e+02,2.631372213363647461e-01
7.727840000000000265e-01,4.089946407722306124e-03,-8.315581888280620558e-04,9.235903620719909668e-01,-1.098071556470088875e-02,-2.116438667886311187e-02,-3.098055200644862003e-03,-4.882853386935843325e-04,7.356853040477460970e-02,-1.588854491710662842e-01,1.279860808181369769e-01,7.103103629779787542e-02,6.270317967758984312e-02,-1.006408035755157471e-01,1.056931912899017334e-01,2.057355939652354970e-01,-2.006408035755157526e-01,2.056931912899017389e-01,2.145222723484039307e-01,5.214104870095971345e-01,-6.347772479057312012e-01,5.685889720916748047e-02,3.417795583313657204e+01,2.631372213363647461e-01
7.975219999999999532e-01,3.720166427136071749e-03,8.662321443946030281e-04,9.209793210029602051e-01,-6.794273597263812171e-03,-1.841002071601560708e-02,-1.255656405579769598e-03,-2.681484726520151803e-03,7.548568219558787762e-02,-1.527226716279983521e-01,2.435304960103447658e-01,1.768108312358207812e-01,9.636589840218512393e-02,-1.178302925326415590e-01,1.030219256877898948e-01,2.199031495517436430e-01,-2.110801398754119929e-01,2.030219256877899003e-01,2.233995258808136042e-01,5.209151067798031276e-01,-6.591690778732299805e-01,-3.689740896224975586e-01,1.358718056872830857e+02,2.631372213363647461e-01
8.239319999999999977e-01,3.249232319813966010e-03,3.397058719402154710e-03,9.171584844589233398e-01,2.187320266555261346e-03,-1.122914732862256848e-02,1.567565164885350204e-04,-5.277827152875354429e-04,7.453567142983838489e-02,-1.521947383880615234e-01,3.328408176423088283e-01,2.518656496096264852e-01,-2.479174073281170676e-02,-1.612572135792403327e-01,1.206692210872387233e-01,2.200279299317343118e-01,-1.968035280704498180e-01,1.913574099540710505e-01,2.194391369819641002e-01,5.215055859369241986e-01,-6.520326733589172363e-01,-2.135256528854370117e-01,1.053969427806010657e+02,2.631372213363647461e-01
8.508710000000000440e-01,3.421114535123720348e-03,5.369478630812394952e-03,9.133362770080566406e-01,9.290393292197135500e-03,-6.218284192626599705e-03,-2.013988535381166893e-03,-3.405579266622380582e-03,8.167310530286468750e-02,-1.452753245830535889e-01,1.691408900697957129e-01,1.189165081651143846e-01,-1.020574489261725365e-01,-2.145085276508013061e-01,1.707565808408311181e-01,2.168541768736610698e-01,-2.109003424644470270e-01,2.113725364208221269e-01,2.223358690738677923e-01,5.229875119515324799e-01,-5.713457465171813965e-01,3.689607381820678711e-01,-1.521514454607925870e+01,2.631372213363647461e-01
8.752330000000000387e-01,3.634893544229278982e-03,6.699854173911607216e-03,9.107367992401123047e-01,1.052147900607954857e-02,-4.995347804370942058e-03,-4.194501327482798476e-03,-3.011157590060571350e-04,9.045990330577431682e-02,-1.584896445274353027e-01,-1.582792559827671253e-02,4.283105844748118923e-02,-1.010475335268025965e-01,-2.233382997837328188e-01,1.920110611509147913e-01,2.021208893188508882e-01,-2.182778656482696478e-01,2.219587504863738958e-01,2.137353479862213190e-01,5.247455396657146887e-01,-5.509887337684631348e-01,-1.521431207656860352e-01,2.421185264534712900e+01,2.631372213363647461e-01
8.979949999999999877e-01,3.751822754973873058e-03,8.106737525079094064e-03,9.080361127853393555e-01,1.014967549128450650e-02,-5.477891023245140545e-03,-6.540028445054606697e-03,-7.669297916793385399e-03,9.368867196968351518e-02,-1.495243608951568604e-01,-1.982541589918569713e-02,-7.531096931473867107e-02,-1.243588135341663348e-01,1.778672369406138765e-01,1.786401519771907698e-01,-2.129569751202701477e-01,1.780745029449462835e-01,2.178150415420532227e-01,-1.948149919509887529e-01,5.293085291499839418e-01,-2.896435260772705078e-01,-8.173584938049316406e-03,7.222973541631591843e+01,2.631372213363647461e-01
9.245339999999999669e-01,3.889293447624760005e-03,1.044354103433561831e-02,9.039530158042907715e-01,6.369472967212041516e-03,-8.437695668618516720e-03,-1.014137407414491404e-02,-4.520688562441667162e-03,9.750476780078792816e-02,-1.544134914875030518e-01,-1.663613755985775267e-01,-1.245178130486197660e-01,-1.404798485022733523e-01,1.947433170741565411e-01,-1.122522145253301712e-01,-2.479777064527246833e-01,1.662961006164550837e-01,-5.709235668182372631e-02,-2.197839260101318304e-01,5.275311942726917946e-01,-4.348164200782775879e-01,6.521073579788208008e-01,1.196395879171809895e+02,2.631372213363647461e-01
9.510319999999999885e-01,3.717787959567974299e-03,1.295551784852391058e-02,8.997968435287475586e-01,1.496243617601451933e-03,-1.335124836169998552e-02,-1.246786196464932418e-02,-2.568518867425065647e-02,9.150362088893715384e-02,-1.517227143049240112e-01,-1.670310502033922617e-01,-1.568619248130048160e-01,-1.083304787831904228e-04,2.297520541438506647e-01,-2.888782620429992676e-01,-2.597953569707920352e-01,1.729586005210876354e-01,-1.888782620429992620e-01,-2.251464128494262695e-01,5.225404751228380773e-01,-7.244222164154052734e-01,-2.547968626022338867e-01,-3.982853376744768070e+01,2.631372213363647461e-01
9.749870000000000481e-01,3.334569469885865795e-03,1.471735965112241050e-02,8.971917033195495605e-01,4.893854050489128719e-04,-1.715357221431323964e-02,-1.179520497503458616e-02,-1.704871204128031656e-02,1.049725008022790590e-01,-1.467804312705993652e-01,-2.133123205540156039e-02,-1.381944871133908292e-01,6.006348587156905977e-02,2.883524958627162738e-01,-2.747851133346557728e-01,-2.587374976068080867e-01,2.124984741210937389e-01,-1.747851133346557673e-01,-2.260348320007324052e-01,5.240431940735940097e-01,-6.465588212013244629e-01,-4.990164041519165039e-01,1.409203946538113712e+02,2.631372213363647461e-01
1.002316999999999902e+00,2.664825320287898640e-03,1.720938257630820825e-02,8.937557935714721680e-01,2.635853950139923404e-03,-2.065856338513794022e-02,-9.679793231996651828e-03,-2.516147228870509178e-02,8.597108492849736550e-02,-1.271578967571258545e-01,1.470701099951371160e-01,-6.156248983172156464e-02,9.453141103794862610e-02,2.684916166174485808e-01,-2.534415960311889870e-01,-2.460066700459609956e-01,2.207842111587524359e-01,-1.534415960311889537e-01,-2.193092107772827148e-01,5.222117689161370757e-01,-6.931347250938415527e-01,3.015803098678588867e-01,1.263649473438123891e+02,2.631372213363647461e-01
1.023352999999999957e+00,2.335708927355630796e-03,1.883703658217905641e-02,8.917163014411926270e-01,5.385385493221431057e-03,-1.974382144405684159e-02,-7.997351210360810134e-03,-1.274145312740163245e-02,8.703154332881951616e-02,-1.135716885328292847e-01,1.407114175317172866e-01,8.689907093716024711e-02,6.367543869621995756e-02,-1.673142941261365202e-01,1.169377982616424394e-01,2.010406356661592064e-01,-2.020330846309661699e-01,2.169377982616424450e-01,2.229709625244140625e-01,5.219956798129515851e-01,-6.704111695289611816e-01,5.557000637054443359e-02,7.948489212629768019e+01,2.631372213363647461e-01
1.049614000000000047e+00,2.049476950089436540e-03,2.079105201925321444e-02,8.888988494873046875e-01,1.197971394081807570e-02,-1.446844698869420576e-02,-4.832969916053053185e-03,-2.290176725672566152e-02,6.889870803825536016e-02,-1.011925563216209412e-01,2.688600593979393327e-01,1.832957701990240718e-01,8.655316376240644594e-02,-2.390310732085048906e-01,1.049004733562469427e-01,2.095103015311464423e-01,-2.184355080127715898e-01,2.049004733562469482e-01,2.225568115711211992e-01,5.213370278175794015e-01,-6.785699129104614258e-01,-1.927193403244018555e-01,9.334150180117765672e+01,2.631372213363647461e-01
1.075385000000000035e+00,2.106284945596533301e-03,2.114896029229691027e-02,8.880016803741455078e-01,1.469910545916127027e-02,-1.194394125767783699e-02,-3.702170106597259952e-03,-1.176778573155627151e-02,8.146077318122349475e-02,-1.012488603591918945e-01,2.885003104173553545e-01,2.225906314187452162e-01,8.235270510240635944e-02,-2.421860830778469476e-01,1.068516951624612632e-01,2.129917186554101116e-01,-2.164300918579101507e-01,1.891964614391326849e-01,2.229073226451873668e-01,5.218424259797626030e-01,-6.659824848175048828e-01,2.064725160598754883e-01,-1.101394094987185497e+02,2.631372213363647461e-01
1.101201000000000096e+00,2.211074196477417174e-03,2.183936901067061453e-02,8.862923979759216309e-01,1.952609902312422985e-02,-7.164813872571951237e-03,-3.895033161597433787e-03,3.630132058947349496e-03,8.680161071112145466e-02,-1.185661926865577698e-01,1.822466134419420403e-01,2.265577920232164921e-01,-5.455895467339053756e-02,-2.693131352343050011e-01,1.057096506985710505e-01,1.974855005224560034e-01,-2.149307548999786210e-01,1.468871891498565729e-01,2.081203043460845836e-01,5.255598933098922787e-01,-5.511899590492248535e-01,3.132563829421997070e-01,-8.577343363475009141e+01,2.352940797805786188e-01
1.126112000000000002e+00,2.331282203865840501e-03,2.255190023121919976e-02,8.844199180603027344e-01,2.217621006868977090e-02,-4.535267309135670999e-03,-5.063150952755213034e-03,-1.510123222351402068e-02,7.785763335249883121e-02,-1.109912097454071045e-01,1.074632008638877340e-01,6.235276554484434769e-02,-5.205479762879471062e-02,-2.953008792347880940e-01,1.528784011664574560e-01,2.092055811763712525e-01,-2.169618487358093151e-01,1.932417154312133789e-01,2.231026232242584173e-01,5.246274926969574093e-01,-5.904871225357055664e-01,-7.085430026054382324e-01,1.273507485467203253e+02,2.352940797805786188e-01
1.150457999999999981e+00,2.393841232279189657e-03,2.341384480289867079e-02,8.824573755264282227e-01,2.185843456386298359e-02,-3.477864316463241678e-03,-6.951017807076727804e-03,-1.059075324659642693e-02,9.266618107733215481e-02,-1.168461963534355164e-01,-8.537244602633173307e-02,3.905691748021166559e-02,-9.861336664699818511e-02,-2.876595394145773921e-01,1.519866717269705569e-01,2.504341038413859799e-02,-2.244989454746246227e-01,1.797132968902587780e-01,4.430508613586425781e-02,5.239562175202492345e-01,-6.699388623237609863e-01,-3.084063529968261719e-03,2.537068986068817367e+01,2.352940797805786188e-01
1.174921000000000104e+00,2.390017617615849879e-03,2.438507697951232053e-02,8.803730010986328125e-01,1.993048380822214430e-02,-4.072909244331013312e-03,-8.862664164257925969e-03,-1.426968171023069824e-02,8.774185967156004906e-02,-1.198304519057273865e-01,-6.899945455370076752e-02,-6.307206265387838018e-02,-9.132410317894641694e-02,-2.662279162082997752e-01,9.216383190214907928e-02,-2.146103829333859125e-01,-2.106777906417846569e-01,1.272883594036102184e-01,-1.900297880172729381e-01,5.287433759676875011e-01,-4.410722255706787109e-01,-1.014629602432250977e-01,8.666056592490802757e+01,2.352940797805786188e-01
1.198866999999999905e+00,1.798300399936861912e-03,2.581030501366680246e-02,8.783243894577026367e-01,1.614265637857998509e-02,-5.582905840659346808e-03,-1.106913271966578766e-02,-2.011242362555129906e-02,8.683630598170297143e-02,-1.168523430824279785e-01,-2.468202420211019210e-01,-8.369808151054976275e-02,-1.360687538214910286e-01,-2.119969736698281981e-01,-2.172369309416835037e-01,-1.904924225802439586e-01,-1.822258472442626898e-01,-1.678784966468810924e-01,-1.597911000251769909e-01,5.258160734144553539e-01,-6.090234518051147461e-01,-2.959142923355102539e-01,7.662246912817205668e+01,2.352940797805786188e-01
1.227702999999999989e+00,1.195592297344129883e-03,2.724626228582711571e-02,8.761937022209167480e-01,1.188744369791911240e-02,-7.448897111586472164e-03,-1.306241143392817584e-02,-7.634410561362948641e-03,9.615457453015922862e-02,-1.197607591748237610e-01,-2.141936285908651594e-01,-9.886558953182762732e-02,-1.163754166372919091e-01,-2.563528383180592451e-02,-2.388764312477779095e-01,-2.528738514562747786e-01,-3.187075853347778182e-02,-1.870023250579833929e-01,-2.165726423263549805e-01,5.262588367768337161e-01,-6.172685623168945312e-01,-1.530708074569702148e-01,8.157852269182501459e+01,2.352940797805786188e-01
1.251781000000000033e+00,5.947937668884502403e-04,2.877942279695266253e-02,8.741453886032104492e-01,6.735352568101375843e-03,-9.982678421649460176e-03,-1.521116512411511794e-02,-1.913573246797144536e-02,8.600488276002642152e-02,-1.127740144729614258e-01,-2.806104024343386572e-01,-1.140461298397142387e-01,-1.056997899082432329e-01,1.349116343019468867e-01,-2.789592794787474350e-01,-2.630469583056949667e-01,1.028018116950988742e-01,-1.999129772186279130e-01,-2.207670807838439941e-01,5.244407760455430667e-01,-7.083224654197692871e-01,2.076507806777954102e-01,-6.780645112207594138e+00,2.352940797805786188e-01
1.272542999999999980e+00,2.523524763320104686e-04,2.955117296990365447e-02,8.730912804603576660e-01,4.114984830519384518e-03,-1.130359999098606849e-02,-1.578694474597649999e-02,-2.418338158602400742e-02,9.708435315072287686e-02,-1.081115305423736572e-01,-2.440920460334929931e-01,-1.696844930694653419e-01,-7.531275352203750661e-02,1.907135554569112657e-01,-2.929135564005716508e-01,-2.678277915342549553e-01,1.310065627098083441e-01,-2.026816964149475153e-01,-2.239605188369750977e-01,5.241438593449500027e-01,-7.223427295684814453e-01,3.107947111129760742e-01,8.240337731713077574e+01,2.352940797805786188e-01
1.298151000000000055e+00,-4.571334834124470914e-04,3.110374893457299936e-02,8.710837960243225098e-01,-1.314633485172401984e-03,-1.354129379542534650e-02,-1.552307311135746326e-02,-1.695848746870590174e-02,9.821552114702092329e-02,-1.056810691952705383e-01,-2.787580608096924539e-01,-8.273360812677517384e-02,5.617488081515797926e-02,3.012322607820323572e-01,-2.732532907235767361e-01,-2.687222426340776238e-01,2.054939389228820634e-01,-1.742367625236511119e-01,-2.255141258239745927e-01,5.242404401807643222e-01,-7.271518111228942871e-01,1.499584913253784180e-01,1.742043845925254288e+02,2.352940797805786188e-01
1.327990999999999921e+00,-1.464610345262631940e-03,3.371073862603091165e-02,8.682112693786621094e-01,-9.330351950054516577e-03,-1.551774175195963501e-02,-1.385505592468844020e-02,-2.870596120370467325e-02,1.014526688995011083e-01,-1.100087091326713562e-01,-3.249941746557097888e-01,6.700109532360457899e-03,8.117620374516645865e-02,3.178898572921752819e-01,-7.870562076568604626e-02,-2.628830482397152557e-01,2.178898572921752763e-01,2.129437923431396276e-02,-2.242120385169982799e-01,5.251167387159100253e-01,-7.203155159950256348e-01,2.357614040374755859e-02,-1.450759910278738687e+02,2.352940797805786188e-01
1.351453000000000015e+00,-1.999743730744188690e-03,3.566899135230655604e-02,8.663666844367980957e-01,-1.413197479536568331e-02,-1.456298701888036895e-02,-1.219989075976902690e-02,-1.878144299077157565e-03,1.150625722318622396e-01,-8.486231416463851929e-02,-1.881692043908040624e-01,4.797963705183133643e-02,8.505488025911150940e-02,3.187558889389038308e-01,7.503312757083388518e-02,-2.582828778190301433e-01,2.187558889389037975e-01,1.695165395736694391e-01,-2.241583585739135576e-01,5.236265057898499276e-01,-7.205299139022827148e-01,1.119102597236633301e+00,-1.455760906487130235e+01,2.352940797805786188e-01
1.374292000000000069e+00,-2.500909351739145567e-03,3.772565176901917366e-02,8.646582365036010742e-01,-1.817824083102091703e-02,-1.217596201197190808e-02,-1.009434169859016461e-02,-2.642921379259124612e-02,9.598616033519322133e-02,-8.719547837972640991e-02,-1.825044744101343430e-01,1.493894466069564941e-01,1.034204237001270094e-01,3.153275966644287220e-01,1.121929347515105979e-01,-2.490956575207773360e-01,2.153275966644287165e-01,2.121929347515106035e-01,-2.207320332527160645e-01,5.240790738673244409e-01,-7.225435376167297363e-01,-3.215044736862182617e-01,9.627381129489084799e+01,2.352940797805786188e-01
1.396525999999999934e+00,-2.968291706046637026e-03,3.979395362479890008e-02,8.629781007766723633e-01,-1.997504551255724001e-02,-8.548809010300528755e-03,-7.561915524490090898e-03,-1.363365506431920768e-02,1.172319830203132490e-01,-8.346639573574066162e-02,-5.164817822536645064e-02,2.303827353232293373e-01,1.338599289922310365e-01,6.370145082473757658e-03,1.437201194414010064e-01,1.868595651908133148e-01,-9.362985491752624789e-02,2.086328566074371338e-01,2.080784440040588379e-01,5.240627402767412679e-01,-7.271704673767089844e-01,-9.028542041778564453e-02,1.635643295638578820e+02,2.352940797805786188e-01
1.424768999999999952e+00,-3.643984393079551399e-03,4.291785977389882267e-02,8.608117103576660156e-01,-1.842938847774349201e-02,-2.111795627841805967e-03,-3.790690613054790298e-03,-2.533243312109586740e-02,9.706498343267590256e-02,-6.759113818407058716e-02,1.349586614803498508e-01,2.285998672658730302e-01,1.526376036739026665e-01,8.288316130638123669e-02,1.803865380185500078e-01,2.072554394046489390e-01,-1.711683869361877233e-02,2.142493665218353216e-01,2.178992986679077204e-01,5.240645389656385378e-01,-6.826263070106506348e-01,-2.149001359939575195e-01,1.061487826836794000e+02,2.352940797805786188e-01
1.448768999999999973e+00,-4.072295357112547948e-03,4.535042622908417448e-02,8.595843315124511719e-01,-1.448037658482470395e-02,2.681309500660367107e-03,-1.194465952045772970e-03,-9.970161209973130850e-03,1.203223511885505581e-01,-5.268040299415588379e-02,2.481847772283126419e-01,2.243350890839097278e-01,9.077079893271565447e-02,2.648156642913818137e-01,2.298313671780184142e-01,2.163968761981505395e-01,1.648156642913818359e-01,2.196279644966125377e-01,2.197486281394958330e-01,5.231073565473359777e-01,-6.911118030548095703e-01,1.797391176223754883e-01,5.917177976108553850e+01,2.352940797805786188e-01
1.475800999999999918e+00,-4.713359655630154632e-03,4.897089530952577346e-02,8.581117391586303711e-01,-5.137079304991054238e-03,9.022267647086801290e-03,2.755262908585298220e-03,-2.461228385841724570e-02,1.007919804649043127e-01,-3.223400935530662537e-02,3.936476395333580180e-01,1.228317105226790495e-01,1.171682626266063038e-01,3.027981758117676003e-01,2.623564671183046815e-01,2.131771451003819928e-01,2.027981758117675670e-01,2.243261218070983776e-01,2.055467963218688965e-01,5.222178507553796312e-01,-6.724050641059875488e-01,2.168415784835815430e-01,1.175774718444840943e+02,2.352940797805786188e-01
1.498807999999999918e+00,-5.086018051870936675e-03,5.138628707311974214e-02,8.573186993598937988e-01,2.457613365307234100e-03,1.201309907013103917e-02,5.494143764167910317e-03,-8.240452433459929948e-03,1.155807207089155769e-01,-4.405291751027107239e-02,3.554626743369664887e-01,1.520783434491498887e-01,9.558927035348872836e-02,2.567713260650634766e-01,2.963388982814378902e-01,2.380961733356526111e-01,1.567713260650634710e-01,2.244204640388488825e-01,2.230258941650390681e-01,5.237373071705470062e-01,-6.498938202857971191e-01,-1.836506128311157227e-01,8.932851294679586829e+01,2.352940797805786188e-01
1.524297000000000013e+00,-5.557890450282050587e-03,5.500053085223484406e-02,8.563155531883239746e-01,1.382630787304673509e-02,1.342971920119984119e-02,7.655608226639763758e-03,-7.738858087073219663e-03,1.038595127713288074e-01,-3.397636488080024719e-02,2.880281353332572181e-01,-1.396985827962311799e-02,1.133911229602467194e-02,2.306085873306308320e-01,3.040322878286861874e-01,-7.344935225802858014e-02,2.123537063598632812e-01,2.248369038105010875e-01,-9.436808824539184848e-02,5.228889419262042759e-01,-6.685310006141662598e-01,-4.553034305572509766e-01,1.694029938324382272e+02,2.238205194473266713e-01
1.551814000000000027e+00,-5.971217523464971040e-03,5.815606965388117611e-02,8.554734587669372559e-01,2.107179076666251469e-02,1.210487448228070306e-02,6.546463670090344085e-03,-4.925833733672891658e-03,1.160054834639502597e-01,-4.625008627772331238e-02,1.841891916915003313e-01,-5.540959924428316696e-02,-2.456028491082771700e-02,2.036329847537025339e-01,2.938319923335084294e-01,-1.781554811119696047e-01,2.197190165519714300e-01,2.214391529560089111e-01,-1.958702802658081055e-01,5.232912340145111640e-01,-7.087334394454956055e-01,2.441314458847045898e-01,1.001535636491331900e+02,2.238205194473266713e-01
1.575021999999999922e+00,-6.202224753686328730e-03,6.033815045597006044e-02,8.549122810363769531e-01,2.426586790105888375e-02,9.297190149126777214e-03,4.976162106033604760e-03,-1.621417859211252274e-03,1.119006906166060689e-01,-3.056105412542819977e-02,1.251401393882708435e-01,-1.648435786955342597e-01,-1.208279260582641040e-01,1.811844311068558366e-01,2.639203763047826001e-01,-5.210241785403364745e-02,2.206724882125854492e-01,2.080361545085906982e-01,-6.552718877792358676e-02,5.230084674786741328e-01,-6.729353070259094238e-01,-1.576102972030639648e-01,9.210174050455030681e+01,2.238205194473266713e-01
1.601242999999999972e+00,-6.506881371111441006e-03,6.350209610381746250e-02,8.540514111518859863e-01,2.977633285010496816e-02,2.757015945153762360e-03,2.525100114437827878e-03,5.200274238468800651e-03,1.027498370169201147e-01,-3.060588985681533813e-02,1.708352129913179029e-01,-2.461627057808511709e-01,-9.393979663092306975e-02,1.409774720050681052e-01,2.201670043843053370e-01,-1.735307768287638608e-01,2.203483343124389704e-01,2.025843679904937578e-01,-1.804231524467468095e-01,5.226720804442364088e-01,-7.033534646034240723e-01,3.750234842300415039e-01,8.913810776330342378e+01,2.238205194473266713e-01
1.623857000000000106e+00,-6.692438425829710241e-03,6.546582099557966827e-02,8.535107970237731934e-01,3.457190186746498389e-02,-2.736006578192506922e-03,4.130137371682457144e-04,-1.050899639687440492e-03,9.885545223880003174e-02,-3.183322772383689880e-02,2.677147261551081070e-01,-2.831294297619760258e-01,-1.174278550347037098e-01,1.190934896469116044e-01,1.671502048489956205e-01,-1.705577402828156175e-01,2.190934896469116100e-01,1.913083076477050670e-01,-1.719856739044189342e-01,5.231369180709665168e-01,-6.940755248069763184e-01,2.772749662399291992e-01,9.662751947124912988e+01,2.238205194473266713e-01
1.651936999999999989e+00,-6.659351688474524772e-03,6.824630323339887783e-02,8.525190949440002441e-01,4.243885662010727505e-02,-1.163751820223168920e-02,-2.008267795176517725e-03,-6.869806732600422169e-03,8.846979647556632576e-02,-2.666609361767768860e-02,3.224866863875655021e-01,-3.071482858422104334e-01,-5.195687975043194323e-02,7.462432384490966242e-02,-1.706906289322563386e-01,-1.614810603200472483e-01,1.746243238449096680e-01,-8.479235172271727683e-02,-1.569522857666015569e-01,5.225938901448468066e-01,-7.154683470726013184e-01,8.779251575469970703e-02,7.692487575367437103e+01,2.238205194473266713e-01
1.675006999999999913e+00,-6.707483079265028764e-03,6.996776178672048374e-02,8.518902063369750977e-01,4.781647951292887500e-02,-1.748317228069584672e-02,-2.172930059756548234e-03,-1.136215071207252042e-02,7.069514171008582648e-02,-2.109680511057376862e-02,2.629691171495913693e-01,-2.835428823392311393e-01,3.214861519971690812e-02,-2.274444818496704213e-01,-2.823906779289245828e-01,-9.251977479520696879e-02,-1.274444818496704157e-01,-1.823906779289245494e-01,-8.815190792083739402e-02,5.224596127067931972e-01,-7.112136483192443848e-01,9.002387523651123047e-02,8.961671960901372813e+01,2.238205194473266713e-01
1.698574000000000028e+00,-6.822876331268066218e-03,7.158204679646207325e-02,8.513053059577941895e-01,5.360186720263653698e-02,-2.306101646658431648e-02,-1.485643570290584971e-03,-4.188198054833357220e-03,8.493043318300112776e-02,-2.144249156117439270e-02,3.058716253458542700e-01,-2.562823682700232641e-01,3.358063837125062345e-02,-3.010329246520996316e-01,-3.071812629699707253e-01,1.953927933349506874e-01,-2.010329246520995983e-01,-2.071812629699706920e-01,1.971545398235320934e-01,5.227874112646957450e-01,-7.063090801239013672e-01,2.223457098007202148e-01,-4.778053369731083677e+01,2.238205194473266713e-01
1.724209000000000103e+00,-7.097285117816379101e-03,7.373621255083566417e-02,8.505021929740905762e-01,6.159455614074697133e-02,-3.137424094176011202e-02,-7.426680618340664435e-04,-1.636271894835318250e-02,5.811962479941137211e-02,-5.174355581402778625e-03,3.110425918076528684e-01,-3.384521524493570577e-01,4.321858029093993137e-02,-3.181974709033966175e-01,-3.124042749404907227e-01,2.243307839097650469e-01,-2.181974709033966120e-01,-2.124042749404907171e-01,2.227948844432830755e-01,5.215227715458127244e-01,-7.205190062522888184e-01,3.782379627227783203e-02,9.415641850124104906e+01,2.238205194473266713e-01
1.750828999999999969e+00,-7.223610156800148487e-03,7.583925457033977025e-02,8.497713804244995117e-01,6.702255271792806335e-02,-3.852500393414826085e-02,1.010813867312031818e-03,-1.894518456622110159e-02,5.524111848615295695e-02,-1.509993989020586014e-02,1.433398564399073483e-01,-2.175100271912855654e-01,5.435240031129103672e-02,-3.200184404850006104e-01,-3.130454301834106334e-01,2.305686641197047526e-01,-2.200184404850006048e-01,-2.130454301834106279e-01,2.230226039886474554e-01,5.223781603530360806e-01,-7.247301936149597168e-01,-1.620596647262573242e-01,8.649441474315828771e+01,2.238205194473266713e-01
1.772512000000000087e+00,-7.322067746104464481e-03,7.712553141255394651e-02,8.493160605430603027e-01,6.993743614842741485e-02,-4.273022161603967639e-02,2.443248347891562641e-03,-2.451622237121163506e-02,4.107324183217923169e-02,-2.147206850349903107e-02,1.183626788863444412e-01,-1.915554260583281765e-01,8.448437535270693355e-02,-3.210902512073516846e-01,-3.141442775726318581e-01,2.369201280756790817e-01,-2.210902512073516790e-01,-2.141442775726318248e-01,2.247209429740905651e-01,5.229256936346409201e-01,-7.303098440170288086e-01,3.743585348129272461e-01,8.358480879824621468e+01,2.238205194473266713e-01
1.798569000000000084e+00,-7.544888792167926336e-03,7.868363632297224741e-02,8.485769629478454590e-01,7.214713455880893134e-02,-4.502762731174136945e-02,4.871760246945660254e-03,-2.725431862925872806e-02,2.701195773638601777e-02,-1.840300112962722778e-02,2.051782505248916921e-02,1.392691794351258797e-02,1.098453228378363095e-01,-3.247617125511169656e-01,-3.143419027328491211e-01,2.414317974396259781e-01,-2.247617125511169323e-01,-2.143419027328491155e-01,2.220720291137695257e-01,5.233467693469033843e-01,-7.065168619155883789e-01,1.577047109603881836e-01,1.074972669315150142e+02,2.238205194473266713e-01
1.824600999999999917e+00,-7.658897523332542680e-03,7.992876075447014061e-02,8.475684523582458496e-01,6.979926352017229441e-02,-4.080079451030660387e-02,4.868993698715904858e-03,-1.589473045480926244e-02,2.637542575747579138e-02,-2.524255029857158661e-02,-1.132474715936066800e-01,1.986260420267284832e-01,-6.415311145527340109e-02,-3.205539524555206521e-01,-5.859717130661011575e-02,1.457078711915340830e-01,-2.205539524555206188e-01,4.140282869338988980e-02,1.271327376365661566e-01,5.241132142612456857e-01,-7.048369646072387695e-01,2.439562082290649414e-01,7.952877609171501661e+01,2.238205194473266713e-01
1.851944000000000035e+00,-6.894077198656154218e-03,8.152451549111984497e-02,8.464739918708801270e-01,6.350854246715223472e-02,-3.249028682729471207e-02,3.014087189126683861e-03,-2.360026118989291474e-02,3.583231234321318515e-03,-3.134181350469589233e-02,-2.349037656567647125e-01,2.943617417804631486e-01,-8.734486705995468669e-02,-3.194127798080444447e-01,-8.756524324417119809e-03,1.708703778966068620e-01,-2.194127798080444391e-01,9.124347567558288574e-02,1.587532639503478893e-01,5.256206991302524445e-01,-6.601095199584960938e-01,6.237924098968505859e-02,5.463836122780004700e+01,2.238205194473266713e-01
1.873008000000000006e+00,-6.457053547059748121e-03,8.243625574569922454e-02,8.456940650939941406e-01,5.848634624347975181e-02,-2.586337696448626211e-02,1.150600699199173706e-03,-2.580605872580114118e-02,8.130352451473484010e-03,-3.343013301491737366e-02,-2.412416183768207045e-01,3.128688031451673512e-01,-1.179015263860146850e-01,-3.198353886604309304e-01,-7.554626464843755551e-03,1.608308424309170537e-01,-2.198353886604308971e-01,9.244537353515625000e-02,1.547625660896301270e-01,5.272800159643127316e-01,-5.906801819801330566e-01,7.058382034301757812e-04,1.035314337031630032e+02,2.238205194473266713e-01
1.900619999999999976e+00,-5.881548507968205157e-03,8.335592369862562800e-02,8.444561958312988281e-01,4.961232789482348388e-02,-1.522792662530103591e-02,-2.084258735870742237e-03,-1.737728028573505210e-02,-1.427536890703954946e-02,-3.500374034047126770e-02,-3.032178783916960607e-01,3.521342611594276417e-01,-1.499419083175330125e-01,-3.195013284683227428e-01,-3.979486823081970770e-02,1.728613568564816294e-01,-2.195013284683227373e-01,6.020513176918029785e-02,1.772669255733489990e-01,5.295720950318375531e-01,-4.855636954307556152e-01,-2.878590822219848633e-01,1.745771353362897003e+02,2.238205194473266713e-01
1.926562000000000108e+00,-5.320976672518059301e-03,8.410456971618808508e-02,8.432137966156005859e-01,3.972146503179110888e-02,-4.299780349121373746e-03,-5.514559081323778915e-03,-2.123011179291877867e-02,-1.407702113351000026e-02,-4.169883951544761658e-02,-3.518985244333439621e-01,3.593719839841368335e-01,-8.906590852588651408e-02,-3.189249038696289062e-01,8.245451573785217425e-02,1.829501515234364939e-01,-2.189249038696289007e-01,1.294900953769683727e-01,1.978962242603301835e-01,5.311731343788527182e-01,-4.392595887184143066e-01,1.276463270187377930e-01,1.171683435132003410e+02,2.238205194473266713e-01
1.947796000000000083e+00,-4.999730415974418946e-03,8.455432219744321576e-02,8.423994183540344238e-01,3.334710722833263835e-02,1.347541978433453025e-03,-7.383069463514101149e-03,-1.888193432635184091e-02,-1.807137038262907752e-02,-2.701254189014434814e-02,-2.573891768229321642e-01,2.000236531293502762e-01,-9.398684010915528408e-02,-3.191728472709655651e-01,1.541611156298878793e-01,1.563936442353963674e-01,-2.191728472709655595e-01,1.622656345367431696e-01,1.769940555095672607e-01,5.278972764141330876e-01,-5.728523135185241699e-01,2.727233171463012695e-01,7.854183424721568940e+01,2.238205194473266713e-01
1.973327000000000053e+00,-4.603983021948172306e-03,8.514584541445807675e-02,8.413518667221069336e-01,2.334147050124707121e-02,6.513429725464314757e-03,-1.058605827025625550e-02,-3.481305108430386014e-02,-2.135761304823063922e-02,-2.609181962907314301e-02,-3.293011963185533131e-01,1.073479468776940560e-01,-1.294082962391081004e-01,-3.158839190233320715e-01,1.984430464748281331e-01,-1.554767324759485231e-02,-2.201231360435485784e-01,1.852050840854644609e-01,1.418588161468505721e-02,5.264822404455802296e-01,-6.598335504531860352e-01,2.596932649612426758e-01,1.763809951262792453e+01,2.238205194473266713e-01
1.999929999999999986e+00,-4.297504669902928003e-03,8.553628047846874305e-02,8.403647541999816895e-01,1.238724420768371783e-02,8.644032852849869997e-03,-1.374180405160630759e-02,-1.935172937268258425e-02,-2.761600858260457314e-02,-3.591817244887351990e-02,-4.142072852932450755e-01,6.745857874499758267e-02,-1.087209654686160654e-01,-2.189727217270138748e-01,2.409763730352673106e-01,-2.100747549543297565e-01,-1.904672205448150468e-01,2.000376820564269964e-01,-1.714165806770324707e-01,5.280787048316845089e-01,-6.250341534614562988e-01,1.749843358993530273e-01,1.249378885997649462e+02,2.238205194473266713e-01
2.025974000000000164e+00,-4.274094151854537608e-03,8.547168995999217256e-02,8.395290374755859375e-01,1.707862128782513611e-03,9.679138173475765328e-03,-1.729068832373342399e-02,-1.637139466345939251e-02,-1.266374364575902425e-02,-3.641012310981750488e-02,-4.031583851024212461e-01,5.899282666151689503e-02,-1.026656186784274810e-01,2.200456720141309996e-01,2.617248230734489089e-01,-2.645589297999831890e-01,1.671286582946777399e-01,2.140988945960998480e-01,-2.160252571105956976e-01,5.274610601285389944e-01,-6.741502285003662109e-01,3.277519941329956055e-01,8.063457005796173860e+01,2.238205194473266713e-01
2.048543000000000003e+00,-4.333479505972771817e-03,8.525256931653657499e-02,8.391165137290954590e-01,-4.539064662627833452e-03,9.100967465415443769e-03,-1.979958943425623105e-02,-1.135141525840228927e-02,-1.939180968459461654e-02,-1.554015371948480606e-02,-2.750111491954945198e-01,-7.004303056845079256e-02,-1.367342123684634758e-01,2.833757760728805586e-01,2.798047638987236074e-02,-2.724524302505759721e-01,1.965840339660644420e-01,-1.923129558563232283e-02,-2.169698238372802790e-01,5.257992026409038511e-01,-6.924972534179687500e-01,-1.214779615402221680e-01,9.136093818717071713e+01,2.238205194473266713e-01
2.074270999999999976e+00,-4.405702326442624724e-03,8.508015304466598483e-02,8.386774063110351562e-01,-1.413388934752402883e-02,6.834404278485362028e-03,-2.278189848874216314e-02,-2.061257777999499566e-02,-1.425314206119723294e-02,-4.077170975506305695e-03,-3.199109998206283723e-01,-9.866452998842292765e-02,-1.049852601882627912e-01,3.150828361511230358e-01,-4.755690718562197161e-02,-2.853331457504253432e-01,2.150828361511230302e-01,-7.238341569900512418e-02,-2.215696334838867243e-01,5.251793412217767854e-01,-6.911237239837646484e-01,3.720840215682983398e-01,9.612399109544662679e+01,2.238205194473266713e-01
2.100788999999999795e+00,-4.603401018856412112e-03,8.512100258203167402e-02,8.385447263717651367e-01,-2.311086248429973858e-02,2.485217356383850884e-03,-2.277138088230168042e-02,-1.829289609727364693e-02,-6.346161597659750152e-03,7.169140502810478210e-03,-3.126607743385507732e-01,-1.582829210145169363e-01,3.377754274381875033e-02,3.192730188369751199e-01,-1.854821224890165210e-01,-2.895033087367396840e-01,2.192730188369750866e-01,-1.850003242492675726e-01,-2.257451534271240068e-01,5.243195680824573879e-01,-7.017925977706909180e-01,2.436999082565307617e-01,1.062060196689240996e+02,2.238205194473266713e-01
2.126952999999999872e+00,-5.256779511965115753e-03,8.492655694566446367e-02,8.388597369194030762e-01,-2.875828719924522145e-02,-4.528910627541016254e-03,-2.051256913835878756e-02,-2.408778438284394849e-02,7.114311228941816792e-03,2.967990189790725708e-02,-1.015939636145213321e-01,-2.905036246014435219e-01,6.758265162349474942e-02,3.173414707183838113e-01,-2.597495018366050012e-01,-2.848672789772753178e-01,2.173414707183837780e-01,-2.084993004798889049e-01,-2.272506237030029186e-01,5.223912886477023454e-01,-7.231020927429199219e-01,1.969710588455200195e-01,7.747077862308765361e+01,2.238205194473266713e-01
2.147793000000000063e+00,-5.836821103753723344e-03,8.469805125995147344e-02,8.394219875335693359e-01,-2.951991646053175877e-02,-9.952164740193669701e-03,-1.833661881242009892e-02,-2.925261568505769724e-02,-6.795350822771691404e-03,3.931330516934394836e-02,-3.466953127591429484e-02,-2.350382452846009607e-01,1.432980059104113080e-01,3.203129291534423939e-01,-2.981273146638481752e-01,-2.791218266496343081e-01,2.203129291534423884e-01,-2.082700967788696234e-01,-2.274074435234069713e-01,5.218424917128658969e-01,-7.182392477989196777e-01,3.589450120925903320e-01,7.970792512345528280e+01,2.238205194473266713e-01
2.175247000000000153e+00,-6.386597970665541801e-03,8.452376388868024226e-02,8.401534557342529297e-01,-2.790831153794424979e-02,-1.457016051240223042e-02,-1.609317057500231352e-02,-1.743562517757613756e-02,1.981695955499909040e-02,3.953328728675842285e-02,1.085203241468986474e-01,-1.836962982599265604e-01,1.218610529708048090e-01,3.237090706825256348e-01,-2.295560956001281849e-01,-2.680916781913924019e-01,2.237090706825256292e-01,-1.295560956001281794e-01,-2.226909399032592773e-01,5.218029423694942048e-01,-7.233155369758605957e-01,6.154030561447143555e-01,6.326815839504400429e+01,2.238205194473266713e-01
2.201289000000000051e+00,-6.918192275066585920e-03,8.440277488764506841e-02,8.410519361495971680e-01,-2.482138079621676319e-02,-1.752063473961817941e-02,-1.370631974258397327e-02,-2.521138114732244737e-02,4.109364759210040220e-03,6.226508691906929016e-02,1.706909470212187585e-01,-1.192088903313608950e-01,1.154172014611994090e-01,3.246667623519897683e-01,-1.610347032546997903e-02,-2.574692895004844218e-01,2.246667623519897350e-01,8.389652967453002652e-02,-2.186907291412353571e-01,5.201433771445126419e-01,-7.239967584609985352e-01,2.612415552139282227e-01,5.787161227143858611e+01,2.238205194473266713e-01
2.226494999999999891e+00,-7.384838842780695398e-03,8.435523202097063022e-02,8.420484066009521484e-01,-2.069624680466562727e-02,-1.798009339110251403e-02,-1.113874078663310528e-02,-1.959045751853768710e-02,1.583220178796573840e-02,5.594179406762123108e-02,1.915242313199765622e-01,2.498556734905704041e-02,1.202118541216940090e-01,3.205760717391967773e-01,1.179583430290221946e-01,-1.918754283265248772e-01,2.205760717391967718e-01,2.179583430290222001e-01,-1.604622602462768555e-01,5.210163629416227904e-01,-7.033501863479614258e-01,3.492926359176635742e-01,1.022245111564269138e+02,2.238205194473266713e-01
2.250846000000000124e+00,-7.252946226909687787e-03,8.397123138900473849e-02,8.431856632232666016e-01,-1.509179988494916726e-02,-1.632490331312075327e-02,-8.412539867861447765e-03,-9.472281977940699704e-03,2.154728859036346422e-02,6.013350561261177063e-02,2.995160135348471364e-01,1.034603147313719052e-01,1.416003069030921935e-01,3.033771753311157449e-01,1.227302610874175803e-01,1.624825552461360290e-01,2.033771753311157116e-01,2.227302610874175859e-01,1.860796988010406383e-01,5.226354229975722632e-01,-5.996145009994506836e-01,2.952873706817626953e-02,9.287279372976387037e+01,2.238205194473266713e-01
2.277560999999999947e+00,-7.056356957136831337e-03,8.372994274701735240e-02,8.444885015487670898e-01,-8.772046082205475423e-03,-1.272601256145899917e-02,-6.019466405426117384e-03,-1.560664410705994709e-02,1.542058102469199415e-02,7.679633796215057373e-02,3.133427487011615220e-01,1.985655421993768321e-01,8.803603777684676501e-02,2.332230687141418346e-01,1.222300827503204346e-01,2.010108269403617365e-01,1.332230687141418290e-01,2.222300827503204401e-01,2.177809417247772161e-01,5.233897346190246047e-01,-4.915576577186584473e-01,9.694206714630126953e-02,7.069105089066295022e+01,2.238205194473266713e-01
2.304626999999999981e+00,-6.835461959063401753e-03,8.351972589625829280e-02,8.458278179168701172e-01,-2.291179422369911574e-03,-7.513504006510851596e-03,-3.128449858661240795e-03,-9.089074465502847144e-03,2.862562872281682394e-02,5.559640377759933472e-02,3.066486013377128228e-01,3.077572418788400155e-01,1.633281224187575487e-01,-7.877588272094671051e-04,1.555551235063380444e-01,2.077915216794428976e-01,-1.007877588272094727e-01,2.166480839252471757e-01,2.163935244083404486e-01,5.239847962111597868e-01,-5.430426001548767090e-01,2.576559782028198242e-01,9.297817671846799215e+01,2.238205194473266713e-01
2.324447000000000152e+00,-6.728150856566542104e-03,8.344429198558078742e-02,8.465603590011596680e-01,1.193068417905278128e-03,-5.053987562620099183e-03,-2.004392022891538731e-03,-2.708423712720942761e-03,1.431410698546832679e-02,7.650242000818252563e-02,3.271814194066703374e-01,2.592037693791828801e-01,1.153205983344218477e-01,-4.571862760167126616e-02,1.784984883314376936e-01,2.129978182036394718e-01,-1.189048647880554116e-01,2.195978522300720270e-01,2.184895634651184138e-01,5.244144624014469569e-01,-4.376028776168823242e-01,7.860624790191650391e-02,9.510793898470468832e+01,2.238205194473266713e-01
2.347827000000000108e+00,-6.521030417397894602e-03,8.330048665173042655e-02,8.479996919631958008e-01,8.243449347884993297e-03,1.201052411965441991e-04,8.340112781268623149e-04,-1.183331089615047814e-02,2.081043066389386478e-02,6.732726097106933594e-02,3.084089257603985224e-01,2.560845208129322592e-01,1.342710102498955449e-01,-1.481411627703819178e-01,2.026784704873623999e-01,2.198746685064832118e-01,-1.825243055820464921e-01,2.176739573478698730e-01,2.174689292907714677e-01,5.254622734395455463e-01,-4.157566428184509277e-01,-5.836641788482666016e-02,9.804818515823343716e+01,2.238205194473266713e-01
2.372789000000000037e+00,-5.986602143450711101e-03,8.276272346183129180e-02,8.503705263137817383e-01,1.967241206298757025e-02,4.064093754146513859e-03,4.245747674046421345e-03,-1.115629135516789903e-02,8.209737239548332496e-03,7.703843712806701660e-02,3.653552095441841008e-01,8.385147864726778810e-02,8.970911747105604628e-02,-6.173031117385523875e-02,2.361087544874080901e-01,2.048932413235861616e-01,-1.160321831703185931e-02,2.231619894504547064e-01,1.930923163890838623e-01,5.257820224802993714e-01,-3.538727760314941406e-01,9.649752378463745117e-01,-4.575820774539750779e+00,2.215904474258422741e-01
2.399468999999999852e+00,-5.347092441283420733e-03,8.200227049504847654e-02,8.527309298515319824e-01,3.034012672839812158e-02,3.388680304157842826e-03,4.083678845107355064e-03,-2.404135783200474479e-03,2.358952291955005234e-02,7.710819691419601440e-02,3.449117072797755479e-01,-5.449542869180381416e-02,-4.401496127174248790e-02,7.897772789001464289e-02,2.367886717128620810e-01,9.214539449804223792e-02,1.789777278900146484e-01,2.212394893169402910e-01,8.085801601409911554e-02,5.200863512514011244e-01,-6.568632721900939941e-01,3.090935945510864258e-01,1.058264250756114677e+02,2.215904474258422741e-01
2.426229000000000191e+00,-4.751678600424067735e-03,8.122654950684714270e-02,8.548625707626342773e-01,3.919613271192616544e-02,-1.041355582085401466e-04,2.310147571964921848e-03,-7.585637771186573911e-03,-1.057710956188950618e-03,8.668464422225952148e-02,2.842737988354832601e-01,-1.825662069780128738e-01,-7.344009943754896408e-02,-8.601378202438354770e-02,8.442921775775368010e-02,4.235924890182852370e-02,1.398621797561645438e-02,9.666157364845275046e-02,3.575842380523681224e-02,5.189420384873012493e-01,-6.744982600212097168e-01,2.593790292739868164e-01,9.750054059058182077e+01,1.929950475692749079e-01
