timestamp,x,y,z,roll,pitch,yaw,vx,vy,vz,p,q,r,psp,qsp,rsp,pres,qres,rres,thrust_sp, thrust_res,wind_mag,wind_angle,wind_obs
0.000000000000000000e+00,3.386604731798326454e-03,2.596499260513039989e-02,1.000921249389648438e+00,1.483652392389596050e-02,-6.815158486027650397e-03,-1.187548922523607711e-03,8.011651217330640088e-04,-1.403464209291352231e-02,-1.225969009101390839e-02,-4.416342582525706328e-02,-2.859019384421724024e-03,4.835588286509078654e-03,-9.145115159700376029e-02,-4.155155151262675955e-02,-3.185489811577346675e-03,0.000000000000000000e+00,0.000000000000000000e+00,0.000000000000000000e+00,5.128027432064112823e-01,-0.000000000000000000e+00,6.385251283645629883e-01,-2.693279510500510909e+01,0.000000000000000000e+00
2.395699999999999913e-02,3.526723092237044228e-03,2.523576608018845632e-02,1.000860571861267090e+00,1.521974246256974778e-02,-6.582349074403248679e-03,-1.168869748769032785e-03,3.649102937607920979e-03,-8.228069134913877994e-03,-2.203639596700668335e-03,2.227879260160682898e-02,4.659077950299612969e-02,-3.049392566517665840e-02,-8.757644335786662904e-02,-3.774501054771235709e-02,-3.134917098810641178e-03,0.000000000000000000e+00,0.000000000000000000e+00,0.000000000000000000e+00,5.120642670571038391e-01,-0.000000000000000000e+00,1.001011133193969727e-01,9.550387139051198915e+01,0.000000000000000000e+00
4.814999999999999836e-02,3.728183821663122455e-03,2.413706275827915901e-02,1.000704288482666016e+00,1.493672745573239140e-02,-6.569884593765396019e-03,-1.117411293888605521e-03,-5.956899608483886416e-03,-1.786591630945561296e-02,-1.190379407489672303e-05,-1.985851163088459340e-02,-4.292664402433427756e-02,-1.981168383127313720e-02,-9.504306299753553788e-02,-4.570690911344472279e-02,-2.978601629835153641e-03,0.000000000000000000e+00,0.000000000000000000e+00,0.000000000000000000e+00,5.119122265057366450e-01,-0.000000000000000000e+00,4.916445016860961914e-01,3.591986580735409262e+01,0.000000000000000000e+00
7.376599999999999824e-02,3.812469695863310304e-03,2.339967606560099805e-02,1.000507831573486328e+00,1.446730799130750700e-02,-6.421005973330728978e-03,-9.919058094229802041e-04,3.784732846036357361e-04,-1.201143729473601665e-02,-9.133081883192062378e-03,-7.707456538389978115e-03,3.230610423736877262e-02,1.090045417348291419e-02,-8.628350538093687572e-02,-3.815098873740496721e-02,-2.648658098131140282e-03,0.000000000000000000e+00,0.000000000000000000e+00,0.000000000000000000e+00,5.126107501748219386e-01,-0.000000000000000000e+00,4.925125837326049805e-01,8.689279918687762461e+01,0.000000000000000000e+00
9.817399999999999738e-02,3.876391995192629558e-03,2.221986571157318763e-02,1.000313758850097656e+00,1.333954351745140869e-02,-6.539162494529904279e-03,-1.188330376052809364e-03,2.221809429923655207e-03,-1.856311282522708078e-02,-2.338150516152381897e-03,-5.169456061870062596e-02,-1.226128811192756657e-02,-3.357981497539228033e-02,-8.581487303434762182e-02,-3.829549612049895635e-02,-3.216156405071224356e-03,0.000000000000000000e+00,0.000000000000000000e+00,0.000000000000000000e+00,5.121235565123292144e-01,-0.000000000000000000e+00,-1.412657499313354492e-01,-9.320358662145676476e+01,0.000000000000000000e+00
1.240860000000000019e-01,3.949539067774582128e-03,2.147858196585271731e-02,1.000165224075317383e+00,1.213096139340896946e-02,-5.758343175882973952e-03,-1.019347352473857484e-03,-8.612554921450282092e-03,-1.414933850593493372e-02,-2.459634328261017799e-03,-5.921289646441890708e-02,6.774763368761044235e-02,3.090988338909354816e-02,-7.388606574431881568e-02,-4.220016350034293262e-02,-2.736967732652695329e-03,0.000000000000000000e+00,0.000000000000000000e+00,0.000000000000000000e+00,5.121458252400304945e-01,-0.000000000000000000e+00,1.210473775863647461e-01,9.193831456827940940e+01,0.000000000000000000e+00
1.486619999999999886e-01,4.052289231799055362e-03,2.040473519172422701e-02,9.998931288719177246e-01,9.634604773666550701e-03,-4.383164431973174402e-03,-1.209665522192198512e-03,7.712995821526385382e-03,-8.004578750877608395e-03,-8.355363970622420311e-04,-7.543327906932219273e-02,7.553537164927687231e-02,-2.695178125713513367e-02,-5.397054610427564486e-02,-1.839226388053240291e-02,-3.343625150725781925e-03,0.000000000000000000e+00,0.000000000000000000e+00,0.000000000000000000e+00,5.120470437750075376e-01,-0.000000000000000000e+00,2.358130216598510742e-01,9.411329951701075913e+01,0.000000000000000000e+00
1.773500000000000076e-01,4.143851019352651037e-03,1.940089450020838005e-02,9.995891451835632324e-01,6.791922251751777995e-03,-3.373237888437685683e-03,-1.153494934255630240e-03,-2.166879125133161239e-03,-1.669761638648407931e-02,8.561637252569198608e-03,-7.190062163708012266e-02,-1.706485063878737315e-02,-1.192983360350797530e-02,-4.404564486988715027e-02,-2.212693567530304647e-02,-3.197339272148547185e-03,0.000000000000000000e+00,0.000000000000000000e+00,0.000000000000000000e+00,5.113645600641649747e-01,-0.000000000000000000e+00,4.148232936859130859e-02,1.028141204063390859e+02,0.000000000000000000e+00
2.015319999999999889e-01,4.126789720104739358e-03,1.873848818256201518e-02,9.994398355484008789e-01,5.089434233677777968e-03,-2.280845870541892140e-03,-1.297919968272350129e-03,-3.261585347252751732e-03,-1.632737881775443711e-02,-3.984424751251935959e-03,-7.930510106702433337e-02,6.519576058416313991e-02,-2.344912318558418571e-03,-3.181148116522449637e-02,-1.446137387932665448e-02,-3.617714084781120665e-03,0.000000000000000000e+00,0.000000000000000000e+00,0.000000000000000000e+00,5.123098392707746696e-01,-0.000000000000000000e+00,1.685949563980102539e-01,9.297080011416437628e+01,0.000000000000000000e+00
2.238030000000000019e-01,4.157435565104069565e-03,1.809547095526415836e-02,9.993028640747070312e-01,3.756204899527046132e-03,-1.569769389800690362e-03,-1.418201698789537312e-03,2.280574498934976289e-03,-1.267881353716740836e-02,7.876421324908733368e-03,-7.436964249340977107e-02,3.563265482750813812e-02,-4.581264055438993843e-02,-2.063062849619088854e-02,-5.156297858225421075e-03,-3.966146906247691728e-03,0.000000000000000000e+00,0.000000000000000000e+00,0.000000000000000000e+00,5.114342993363617529e-01,-0.000000000000000000e+00,6.930688619613647461e-01,1.581026370959488929e+02,0.000000000000000000e+00
2.482489999999999974e-01,4.140348259860476311e-03,1.722611291552902935e-02,9.990504980087280273e-01,1.659844369211729929e-03,-6.063618406029203101e-04,-1.247233093840087763e-03,-1.574009803615535356e-03,-1.048947562807023975e-02,5.908511579036712646e-03,-7.219856833745405544e-02,1.199303998488406887e-02,1.657726001936049229e-02,-6.306072353460743553e-03,-2.825901506666617536e-03,-3.490823865226533318e-03,0.000000000000000000e+00,0.000000000000000000e+00,0.000000000000000000e+00,5.115942238663778729e-01,-0.000000000000000000e+00,4.272044897079467773e-01,1.138842861074206496e+02,0.000000000000000000e+00
2.736540000000000084e-01,4.154721971465377001e-03,1.671525696245074188e-02,9.988775253295898438e-01,7.542224159349751860e-04,-2.456773721808414024e-04,-1.281573013398228534e-03,-1.520933576361715002e-03,-1.078308884923309674e-02,7.374304346740245819e-03,-1.261165117594551487e-02,1.450923457371581897e-02,-6.263793758515711317e-03,-1.280256277037551118e-03,1.509692804709305896e-04,-3.588447535832095525e-03,0.000000000000000000e+00,0.000000000000000000e+00,0.000000000000000000e+00,5.114924660181141558e-01,-0.000000000000000000e+00,-1.447464227676391602e-01,9.128689893656778054e+01,0.000000000000000000e+00
2.981559999999999766e-01,4.060156025406152537e-03,1.613473800291803650e-02,9.986295700073242188e-01,-1.902930673692040085e-04,1.217831585480499967e-04,-1.511614856087632091e-03,5.512068225399393770e-03,-9.844747717142009885e-03,1.087214425206184387e-02,-3.031855892914034345e-02,1.369769524842214242e-03,-5.304670253387491069e-02,5.326078644073944934e-03,8.196344893574731075e-03,-4.233293836222173923e-03,0.000000000000000000e+00,0.000000000000000000e+00,0.000000000000000000e+00,5.112427016290210791e-01,-0.000000000000000000e+00,8.754217624664306641e-02,9.584387137720605665e+01,0.000000000000000000e+00
3.235649999999999915e-01,4.001155226257274364e-03,1.583552710089915563e-02,9.984038472175598145e-01,-6.918159287532764639e-04,1.756062556759196980e-04,-1.109729881177457010e-03,-9.464828862309982100e-04,-3.644689011671038703e-03,1.032413635402917862e-02,1.184852574802887012e-02,1.023421404969549961e-02,5.588747492100985814e-02,1.330646554812519623e-02,2.255462169210430568e-03,-3.107566966981278878e-03,0.000000000000000000e+00,0.000000000000000000e+00,0.000000000000000000e+00,5.112919341516894978e-01,-0.000000000000000000e+00,-2.723968029022216797e-02,9.274913315484079135e+01,0.000000000000000000e+00
3.479800000000000115e-01,3.882871479599313801e-03,1.551748583791070883e-02,9.981763362884521484e-01,-1.359798658962214392e-03,4.068227090143761160e-04,-1.142643263639065918e-03,9.522228091772687308e-03,3.442981525281306205e-03,1.567557454109191895e-02,8.277766229443435375e-03,4.032890644151543302e-02,-1.691397182807095195e-02,2.235522665081613944e-02,1.316073409088781322e-02,-3.201438146035073817e-03,0.000000000000000000e+00,0.000000000000000000e+00,0.000000000000000000e+00,5.108995381392256174e-01,-0.000000000000000000e+00,2.936404943466186523e-01,6.666649169582716183e+01,0.000000000000000000e+00
3.742699999999999916e-01,3.844858258140194593e-03,1.536704401186113171e-02,9.980975389480590820e-01,-1.546812025723966633e-03,1.501975467621541327e-04,-1.095636197982292111e-03,9.083558495743219302e-03,-4.347041191466820536e-04,7.948962040245532990e-03,-3.281578114074221869e-02,-2.859987769622015369e-02,2.075114166019839668e-02,1.932377995709549240e-02,9.602170306374481490e-03,-3.067528727008550504e-03,0.000000000000000000e+00,0.000000000000000000e+00,0.000000000000000000e+00,5.114724645341690579e-01,-0.000000000000000000e+00,2.287989854812622070e-01,8.768019022458587131e+01,0.000000000000000000e+00
3.988059999999999938e-01,3.438889200821129352e-03,1.543145708967661421e-02,9.980286359786987305e-01,-1.177800016142208995e-03,-2.203497376775942485e-04,-9.714449390728809985e-04,-3.724748578910410009e-03,3.449231513661245568e-03,1.492302771657705307e-02,4.011221030737832649e-02,1.250217899500694063e-02,2.077902987784592537e-02,2.075602300451302035e-02,-3.354869590243624716e-03,-2.719441757607687915e-03,0.000000000000000000e+00,0.000000000000000000e+00,0.000000000000000000e+00,5.109480477542983623e-01,-0.000000000000000000e+00,1.823889017105102539e-01,5.043602586924717457e+01,0.000000000000000000e+00
4.223529999999999784e-01,3.107076575384566663e-03,1.557989547440348337e-02,9.979556202888488770e-01,-9.801951965009382452e-04,-4.692775793326831035e-04,-1.003757216590543764e-03,1.146798637640430996e-02,6.390994081676926175e-03,1.531119551509618759e-02,-1.147331851164840044e-02,-3.877318495140995303e-02,-2.446484299605124896e-02,2.146311854689195164e-02,9.062043744561631628e-03,-2.813136357903200935e-03,0.000000000000000000e+00,0.000000000000000000e+00,0.000000000000000000e+00,5.109129697249341628e-01,-0.000000000000000000e+00,3.427540063858032227e-01,-3.888335852972298312e+01,0.000000000000000000e+00
4.520529999999999826e-01,2.589676374811775324e-03,1.593726696744559093e-02,9.979378581047058105e-01,-7.103533262309804286e-04,-8.054821362488695513e-04,-7.471460566574389048e-04,4.688268042718280945e-03,1.059621406368516441e-02,1.143337320536375046e-02,1.098090687255825343e-02,-1.230367199187169976e-02,3.347936275820399821e-02,2.297561055485896481e-02,-1.159688183817535493e-03,-2.091483939188565344e-03,0.000000000000000000e+00,0.000000000000000000e+00,0.000000000000000000e+00,5.111931782013990899e-01,-0.000000000000000000e+00,-9.409940242767333984e-02,1.302083767520485935e+02,0.000000000000000000e+00
4.750079999999999858e-01,2.285899879250084723e-03,1.625860423511873640e-02,9.978792667388916016e-01,-3.662924007120790739e-04,-1.243588382493054922e-03,-7.632515768916295741e-04,-6.956497288403276158e-04,1.047242041745638334e-02,2.161938138306140900e-02,3.580013655522475136e-02,-2.557516746257201476e-02,-1.302136965365891571e-03,2.035565737330461908e-02,-7.544873435834793286e-03,-2.133209627129373231e-03,0.000000000000000000e+00,0.000000000000000000e+00,0.000000000000000000e+00,5.104228982149651150e-01,-0.000000000000000000e+00,3.520866632461547852e-01,7.676252215710317728e+01,0.000000000000000000e+00
4.996340000000000225e-01,1.911299039803165305e-03,1.698320246432339850e-02,9.978239536285400391e-01,-2.155912438113305639e-05,-1.414436195777746264e-03,-8.830937407758929344e-04,1.367072978962526053e-02,1.880612001621980237e-02,1.676499098539352417e-02,9.192985347064322466e-03,1.014212996963551397e-02,-4.617464583234597714e-02,2.545690777847140276e-02,3.589650937589697072e-03,-2.475662379603338348e-03,0.000000000000000000e+00,0.000000000000000000e+00,0.000000000000000000e+00,5.107756664669095281e-01,-0.000000000000000000e+00,-2.036772966384887695e-01,8.459348942732640708e+00,0.000000000000000000e+00
5.238690000000000291e-01,1.697015054573338755e-03,1.774676919128389055e-02,9.976885914802551270e-01,-2.039707651083346734e-05,-1.858759425196421233e-03,-5.899140706571002644e-04,8.357092719166686265e-03,2.167088323639581454e-02,1.596230827271938324e-02,3.790754743051560904e-02,-5.319047613535066166e-02,5.533279720282152647e-02,2.714852053779124447e-02,-5.820681015547050051e-03,-1.646581102643207561e-03,0.000000000000000000e+00,0.000000000000000000e+00,0.000000000000000000e+00,5.108323396184440979e-01,-0.000000000000000000e+00,1.192995190620422363e+00,-3.370999908253148902e+01,0.000000000000000000e+00
5.500570000000000181e-01,1.399659782720066858e-03,1.902743048710914264e-02,9.975432157516479492e-01,-9.283126864995757852e-05,-1.807328106163019754e-03,-5.958388531537795125e-04,8.863039380805385128e-03,2.659875938384850119e-02,1.285973936319351196e-02,1.327447533551670035e-02,2.657531872839710707e-02,-3.139040169733300217e-02,3.213452533802816508e-02,-4.447419357689461582e-03,-1.663800248035696150e-03,0.000000000000000000e+00,0.000000000000000000e+00,0.000000000000000000e+00,5.110647256478562106e-01,-0.000000000000000000e+00,1.742979288101196289e-01,9.647248783746817935e+01,0.000000000000000000e+00
5.719370000000000287e-01,1.234724700055700669e-03,1.991144645611383351e-02,9.973968267440795898e-01,-4.851901302724226996e-05,-2.140496106062483861e-03,-5.647346550937504088e-04,1.615178089778792486e-02,3.021045407667134752e-02,8.776070550084114075e-03,-3.588637801114973047e-02,-6.601826199931725564e-03,3.030857548269861104e-02,3.474788090575163524e-02,-8.424975124696615358e-04,-1.580313241572539606e-03,0.000000000000000000e+00,0.000000000000000000e+00,0.000000000000000000e+00,5.113739755353929883e-01,-0.000000000000000000e+00,-5.264903306961059570e-01,-5.087703410848197194e+01,0.000000000000000000e+00
5.977900000000000436e-01,1.041948799237847568e-03,2.120978923693045415e-02,9.972302317619323730e-01,6.432242330346029735e-04,-2.131753160844240824e-03,-5.164279138831631222e-04,-1.478973489640255333e-04,3.017817626657925967e-02,1.656660065054893494e-02,6.617383486368466627e-02,2.224544161357740885e-02,2.156274883597813705e-02,3.074764311601384248e-02,-1.515789787312121252e-02,-1.426366663812961288e-03,0.000000000000000000e+00,0.000000000000000000e+00,0.000000000000000000e+00,5.107947337668521381e-01,-0.000000000000000000e+00,3.161777257919311523e-01,9.007025100009174423e+01,0.000000000000000000e+00
6.229010000000000380e-01,9.252390553043929105e-04,2.199665721567122326e-02,9.970577955245971680e-01,7.647056929989673110e-04,-2.293965155755639529e-03,-5.656821833287289025e-04,1.481173196586524875e-02,3.197346159748115646e-02,1.436778996139764786e-02,-4.757118672104955481e-02,-1.812976203279283507e-02,-1.583261462115995860e-02,3.209489231916554802e-02,-1.711399538150662003e-03,-1.581538561257811448e-03,0.000000000000000000e+00,0.000000000000000000e+00,0.000000000000000000e+00,5.109612940796480762e-01,-0.000000000000000000e+00,7.555776834487915039e-01,-4.011395371248417518e+01,0.000000000000000000e+00
6.478289999999999882e-01,7.637098643038838907e-04,2.328212188616630637e-02,9.968650937080383301e-01,1.397472389251073728e-03,-2.475051725644217271e-03,-3.604959446675367512e-04,7.261512206485779344e-03,4.031485402154533909e-02,1.210123021155595779e-02,1.302634286510686613e-02,2.264092103856965577e-02,3.273238881597458766e-02,3.547797311353341476e-02,-1.128189527255435073e-02,-9.893485917620292724e-04,0.000000000000000000e+00,0.000000000000000000e+00,0.000000000000000000e+00,5.111371803752575715e-01,-0.000000000000000000e+00,1.057883501052856445e-01,4.980256680486350973e+01,0.000000000000000000e+00
6.775339999999999696e-01,6.668663933884776173e-04,2.463080857946142038e-02,9.967483878135681152e-01,2.252382632298812956e-03,-2.676270479029296823e-03,-4.120678104098480718e-04,1.293840366007170499e-02,3.781615338603955961e-02,1.803933829069137573e-02,4.085485475901384084e-02,1.452085936010321689e-02,3.059329446194299779e-03,2.780009798277751840e-02,-6.879972218739994691e-03,-1.140792435985082953e-03,0.000000000000000000e+00,0.000000000000000000e+00,0.000000000000000000e+00,5.106907987065668619e-01,-0.000000000000000000e+00,3.617802858352661133e-01,9.742465718890298376e+01,0.000000000000000000e+00
7.002890000000000503e-01,6.183907785607304459e-04,2.563593667058456163e-02,9.967320561408996582e-01,2.954348791161952661e-03,-2.603273046062781759e-03,-6.260209392513903411e-04,1.988344265372159539e-02,4.239825403299705975e-02,1.575507596135139465e-02,-4.089005459108363029e-03,2.895609490474820510e-02,-2.659477411867929714e-02,2.817976162096825707e-02,-1.592525947593742639e-03,-1.749374089495270290e-03,0.000000000000000000e+00,0.000000000000000000e+00,0.000000000000000000e+00,5.108520898359187878e-01,-0.000000000000000000e+00,-2.683726549148559570e-01,1.754786246840830088e+01,0.000000000000000000e+00
7.221790000000000154e-01,5.731729452153338936e-04,2.675226512597402018e-02,9.966130256652832031e-01,3.521769308020193667e-03,-2.675068735180197166e-03,-4.830067306359471058e-04,1.140231112405221819e-02,4.532791682909859815e-02,1.841828413307666779e-02,6.593061484239948200e-02,-3.354794655059723657e-02,2.920144848027746154e-02,2.717493608417934081e-02,-9.928275287877765323e-03,-1.328445840466041528e-03,0.000000000000000000e+00,0.000000000000000000e+00,0.000000000000000000e+00,5.106493885271925492e-01,-0.000000000000000000e+00,3.111664056777954102e-01,2.104044896464305481e+01,0.000000000000000000e+00
7.477850000000000330e-01,5.295765475233474339e-04,2.849279969207045224e-02,9.965472817420959473e-01,4.157066995790926339e-03,-2.547430183534427073e-03,-5.080494845085785490e-04,9.754151617434583463e-03,4.641917556397205658e-02,2.902057021856307983e-02,1.816030112707124611e-02,3.728956682679800821e-02,-3.394503606413649954e-02,2.498990635163453669e-02,-9.152577401800327667e-03,-1.398604071471964971e-03,0.000000000000000000e+00,0.000000000000000000e+00,0.000000000000000000e+00,5.098432150267473428e-01,-0.000000000000000000e+00,-3.729375600814819336e-01,8.823411856627390648e+01,0.000000000000000000e+00
7.743929999999999980e-01,4.941349953961134307e-04,2.967239167313250395e-02,9.965258240699768066e-01,4.519442310859776539e-03,-2.873225566960568855e-03,-4.599216331510344396e-04,2.291674854866089517e-02,5.011606093287740427e-02,1.168898493051528931e-02,-7.708311381808381595e-03,2.143039992871899509e-03,3.877723935234455438e-02,2.629621599663154244e-02,-3.420969000122804811e-04,-1.286848669406204237e-03,0.000000000000000000e+00,0.000000000000000000e+00,0.000000000000000000e+00,5.111270575678794614e-01,-0.000000000000000000e+00,3.684252500534057617e-01,9.623209249944041233e+01,0.000000000000000000e+00
7.986509999999999998e-01,5.206311633621858899e-04,3.149265156335903648e-02,9.965636134147644043e-01,5.620448313002627400e-03,-2.761395975445113393e-03,-5.477035149723078226e-04,3.960006809900595663e-03,4.735287498381667015e-02,2.261819504201412201e-02,6.917417430076117091e-02,-3.551674984402260985e-03,6.750486017987279621e-04,1.791838270162408528e-02,-1.686486999919880811e-02,-1.482769304356701401e-03,0.000000000000000000e+00,0.000000000000000000e+00,0.000000000000000000e+00,5.102928773267471074e-01,-0.000000000000000000e+00,1.617304086685180664e-01,4.608405814145223900e+01,0.000000000000000000e+00
8.226400000000000379e-01,4.964929798393898173e-04,3.252389870200546318e-02,9.966212511062622070e-01,5.894852461294477347e-03,-2.689691265788773933e-03,-3.873318486538513848e-04,1.748591430639741609e-02,5.013650045804726035e-02,2.163879573345184326e-02,-4.032940512933663041e-02,2.175842089659412934e-02,6.758346498117852666e-03,1.974523931211836711e-02,-2.564794966177889012e-03,-1.076372017682347693e-03,0.000000000000000000e+00,0.000000000000000000e+00,0.000000000000000000e+00,5.103466400484921728e-01,-0.000000000000000000e+00,3.428465127944946289e-01,9.891753163579267039e+01,0.000000000000000000e+00
8.487329999999999597e-01,4.948261059399819070e-04,3.410655448046316651e-02,9.968119859695434570e-01,6.672452836994328604e-03,-2.986987095774162881e-03,-2.326810882190205121e-04,1.036306405048752384e-02,5.639345900066058959e-02,2.195642143487930298e-02,4.506974142845050768e-02,-1.147374898498117884e-02,3.451439891639557916e-02,2.068456380294390537e-02,-1.222911006394951892e-02,-6.080005522685061337e-04,0.000000000000000000e+00,0.000000000000000000e+00,0.000000000000000000e+00,5.102934120279950525e-01,-0.000000000000000000e+00,2.737897634506225586e-01,9.298004136011141441e+01,0.000000000000000000e+00
8.755830000000000002e-01,5.077922713727723095e-04,3.518072312348849429e-02,9.969974160194396973e-01,7.182496825690789198e-03,-3.035901696672560490e-03,-6.243324322858272634e-04,6.735431220359630773e-03,4.251906954099198693e-02,2.644767425954341888e-02,1.401253924936476242e-02,-4.870576465878780070e-02,-3.779531034456833777e-02,6.210115841396642022e-03,-1.441162622666041816e-02,-1.700628896315059535e-03,0.000000000000000000e+00,0.000000000000000000e+00,0.000000000000000000e+00,5.099185974785037656e-01,-0.000000000000000000e+00,2.227882146835327148e-01,8.995669910514028800e+01,0.000000000000000000e+00
9.000249999999999639e-01,5.535931766129425970e-04,3.626271907129463568e-02,9.972136020660400391e-01,7.644949149924744336e-03,-2.717765644473235653e-03,-4.668692221123254583e-04,1.322201196282891608e-02,5.860726877133071167e-02,2.229241281747817993e-02,3.869925508106834833e-02,6.360582668146202989e-02,1.033335632023946356e-02,1.929404246471263726e-02,-6.466469944812675875e-03,-1.281865842863660898e-03,0.000000000000000000e+00,0.000000000000000000e+00,0.000000000000000000e+00,5.102010568765042997e-01,-0.000000000000000000e+00,9.324475526809692383e-01,-3.146524289765480820e+00,0.000000000000000000e+00
9.266809999999999770e-01,6.020976751231178975e-04,3.754427582880275754e-02,9.975605010986328125e-01,8.333135672806359431e-03,-2.623456903978915733e-03,-6.339483554204836894e-04,1.713452862588613762e-02,5.687286634150816311e-02,2.332853153347969055e-02,7.348610091821738965e-02,-3.171133101464344156e-02,-4.094688477092826157e-03,1.220787197512332965e-02,-3.549544096943980150e-03,-1.760958643592380746e-03,0.000000000000000000e+00,0.000000000000000000e+00,0.000000000000000000e+00,5.100774652429374001e-01,-0.000000000000000000e+00,3.124278783798217773e-01,7.885807883597644263e+01,0.000000000000000000e+00
9.504599999999999715e-01,6.627134130021303205e-04,3.868624642389737606e-02,9.979575276374816895e-01,8.709431214302154264e-03,-2.449559094253261904e-03,-7.783678895063860523e-04,1.187972315132379726e-02,5.144675172652702494e-02,2.618308924138545990e-02,6.089989030824671454e-03,1.113286710256106149e-02,-3.507192880124285206e-02,6.711812694608823744e-03,-7.180018314966369643e-03,-2.150991447677885748e-03,0.000000000000000000e+00,0.000000000000000000e+00,0.000000000000000000e+00,5.098110722458187860e-01,-0.000000000000000000e+00,-3.056925535202026367e-01,9.568200272406592433e+01,0.000000000000000000e+00
9.765390000000000459e-01,6.873388233713715288e-04,3.947922446896005855e-02,9.982898235321044922e-01,9.101256592614704113e-03,-2.442265871434923241e-03,-7.349310528517200448e-04,2.674020972080488889e-02,5.511377724558590846e-02,2.027141116559505463e-02,3.927207489582743710e-02,-1.620865201597504121e-02,2.619669790135080098e-02,8.716649414008896535e-03,5.807448421302044243e-03,-2.082348004002587682e-03,0.000000000000000000e+00,0.000000000000000000e+00,0.000000000000000000e+00,5.102122009250794621e-01,-0.000000000000000000e+00,1.850005388259887695e-01,8.845281439330854312e+01,0.000000000000000000e+00
1.001563999999999899e+00,7.851076473513290662e-04,4.026996097991728668e-02,9.986211657524108887e-01,9.610137118435913353e-03,-2.139355148734756185e-03,-1.044542952369333219e-03,7.036510934008232895e-03,5.300200192376041536e-02,2.467675879597663879e-02,4.571928667980807576e-02,-1.359787297771430752e-02,-4.311240114165099113e-02,4.055438750350493296e-03,-1.033550749623439631e-02,-2.880692097998460710e-03,0.000000000000000000e+00,0.000000000000000000e+00,0.000000000000000000e+00,5.098357039316644412e-01,-0.000000000000000000e+00,1.798497438430786133e-01,8.848246424449556002e+01,0.000000000000000000e+00
1.025900000000000034e+00,7.997940048787095715e-04,4.116396054944747307e-02,9.989385604858398438e-01,9.520100113473298556e-03,-2.000159905712450836e-03,-9.364506363090148314e-04,1.545896330523385473e-02,5.362639001727190907e-02,1.855757832527160645e-02,4.039018597191346843e-03,1.873035706612243652e-03,3.074900735114466724e-02,6.289131186410260380e-03,3.909039685132199350e-04,-2.623879348573721071e-03,0.000000000000000000e+00,0.000000000000000000e+00,0.000000000000000000e+00,5.102519946485180036e-01,-0.000000000000000000e+00,3.625379800796508789e-01,1.076365071679348944e+02,0.000000000000000000e+00
1.049703000000000053e+00,7.781763912564403302e-04,4.220718971558341109e-02,9.992960095405578613e-01,9.750464412803187819e-03,-1.858326478766825218e-03,-1.121184738581482111e-03,2.021612476272155803e-02,5.308661771567831783e-02,2.094651386141777039e-02,-7.224741443974858415e-03,5.233089143375116263e-03,-4.200707274732628366e-02,5.314552190777195421e-03,3.985403229857168231e-03,-3.156919082558606870e-03,0.000000000000000000e+00,0.000000000000000000e+00,0.000000000000000000e+00,5.100294365069688585e-01,-0.000000000000000000e+00,7.467218637466430664e-01,-1.066356112469612150e+01,0.000000000000000000e+00
1.078853999999999980e+00,7.857607221332163277e-04,4.374135756043527612e-02,9.998090267181396484e-01,1.002260461322448427e-02,-2.092021627430495911e-03,-1.173182016449275363e-03,8.852903272962510742e-03,5.323081328128028561e-02,1.450782176107168198e-02,-2.121735495805776930e-02,-1.547697235510764845e-02,2.388101401544786076e-02,4.962411121445025816e-03,-7.435097819529700065e-03,-3.251768972809321312e-03,0.000000000000000000e+00,0.000000000000000000e+00,0.000000000000000000e+00,5.104561878947726505e-01,-0.000000000000000000e+00,-4.763292074203491211e-01,-1.986888369178369196e+00,0.000000000000000000e+00
1.097792000000000101e+00,8.061381740061092979e-04,4.425810542564760641e-02,1.000012636184692383e+00,1.017498046007683787e-02,-2.057053133926123323e-03,-1.388228360214447061e-03,1.211775243313131453e-02,4.790533423436749844e-02,2.090059220790863037e-02,-2.254037035846290921e-02,-3.267725479721772519e-02,-4.550585147466751357e-02,4.010104402725964134e-04,-2.813079109094306952e-03,-3.874869736882613491e-03,0.000000000000000000e+00,0.000000000000000000e+00,0.000000000000000000e+00,5.099447199137915332e-01,-0.000000000000000000e+00,1.694571971893310547e-02,4.890144628728538834e+01,0.000000000000000000e+00
1.130662999999999974e+00,8.610890969825695396e-04,4.582703521184776363e-02,1.000442743301391602e+00,1.031189903997595941e-02,-1.979606499333819158e-03,-1.203709012757995470e-03,1.804933940635621362e-02,5.947068851238686976e-02,1.179219689220190048e-02,-3.250459935620967494e-02,2.070759739683215167e-02,5.103069515663170852e-02,1.091291554611011939e-02,2.098841093254422141e-03,-3.380686409025168704e-03,0.000000000000000000e+00,0.000000000000000000e+00,0.000000000000000000e+00,5.105849151798733665e-01,-0.000000000000000000e+00,1.794453859329223633e-01,9.090890260752092900e+01,0.000000000000000000e+00
1.148800999999999961e+00,8.902266481234985930e-04,4.636017246022901273e-02,1.000592708587646484e+00,1.031934361040213674e-02,-2.168119165589565966e-03,-1.341298272024268228e-03,1.944387967040945436e-02,5.305777333527816192e-02,1.753129623830318451e-02,-2.732641308062503868e-02,-6.421856192536670727e-02,-2.879975158958398857e-03,4.752948182685574896e-03,1.236376035749662096e-03,-3.761538432671573950e-03,0.000000000000000000e+00,0.000000000000000000e+00,0.000000000000000000e+00,5.101268175456222798e-01,-0.000000000000000000e+00,1.852763891220092773e-01,9.449903445038722793e+01,0.000000000000000000e+00
1.178331000000000017e+00,6.166021989281515693e-04,4.810020042522088896e-02,1.001044631004333496e+00,1.028825915727748543e-02,-2.093775969573830054e-03,-1.332339450771026935e-03,1.156145045613577761e-02,5.822571580406753905e-02,1.416272204369306564e-02,-3.081142666185954920e-02,4.974160922304327742e-02,1.745113981201892525e-02,1.152460725258771385e-02,-5.022107507019270799e-03,-3.706624997448948466e-03,0.000000000000000000e+00,0.000000000000000000e+00,0.000000000000000000e+00,5.103324678719525220e-01,-0.000000000000000000e+00,1.904367208480834961e-01,8.054838673101451718e+01,0.000000000000000000e+00
1.200105999999999895e+00,4.614417368488929797e-04,4.926607057175436122e-02,1.001372814178466797e+00,1.075235274502876238e-02,-2.441613039769974236e-03,-1.579096373113886027e-03,2.345289376455945637e-02,5.350843273373251385e-02,2.295621111989021301e-02,-3.892158613686640730e-03,-5.392053046157346992e-03,-1.561304957097277638e-02,5.198507197180157399e-03,3.544415611206663819e-03,-4.438764366891612134e-03,0.000000000000000000e+00,0.000000000000000000e+00,0.000000000000000000e+00,5.096307087112038614e-01,-0.000000000000000000e+00,3.783072233200073242e-01,7.660333093811769345e+01,0.000000000000000000e+00
1.225062000000000095e+00,2.878648213547853807e-04,5.100922772515217862e-02,1.001836061477661133e+00,1.097203731287290339e-02,-2.445643321094204126e-03,-1.732347522182073156e-03,9.040432498741106729e-03,5.246169920556217892e-02,1.840017735958099365e-02,-1.805309649438788938e-02,-2.566290085267883270e-02,-1.717127346533148247e-02,5.013250609123111670e-03,-1.005303344629755735e-02,-4.801708672851512372e-03,0.000000000000000000e+00,0.000000000000000000e+00,0.000000000000000000e+00,5.099153915578186202e-01,-0.000000000000000000e+00,2.331806421279907227e-01,9.414789442515687767e+01,0.000000000000000000e+00
1.252837999999999896e+00,-6.201926593943333054e-06,5.303212163567326554e-02,1.002318024635314941e+00,1.095860387164589514e-02,-2.447003270668268726e-03,-1.624854873817275494e-03,1.912242592285356285e-02,5.818077519065342762e-02,1.225066557526588440e-02,-2.204502997805126915e-02,3.917272911146470887e-02,1.514017755074295764e-02,1.148654018455051370e-02,1.272264542173068649e-04,-4.550575028217040963e-03,0.000000000000000000e+00,0.000000000000000000e+00,0.000000000000000000e+00,5.103277408392413728e-01,-0.000000000000000000e+00,-1.095505952835083008e-01,5.384776000118190353e+01,0.000000000000000000e+00
1.273824000000000067e+00,-3.462942347301107573e-04,5.469477794340137783e-02,1.002649426460266113e+00,1.142019575389966596e-02,-2.754810347847636010e-03,-1.704337941422622797e-03,1.216144325483996778e-02,5.487253186611629197e-02,2.827366627752780914e-02,3.839348677768897322e-02,-1.480742272553262594e-02,-2.645681444955874304e-02,6.696368449682408783e-03,-9.153673039228149566e-03,-4.725433770410680800e-03,0.000000000000000000e+00,0.000000000000000000e+00,0.000000000000000000e+00,5.090805389064515518e-01,-0.000000000000000000e+00,-1.883460283279418945e-01,1.182406422317573202e+02,0.000000000000000000e+00
1.298243999999999954e+00,-8.110759186956620478e-04,5.717217716558631313e-02,1.003133296966552734e+00,1.167059900775661505e-02,-2.492461728009542909e-03,-1.909216874263494103e-03,1.638285633526426893e-02,5.754380972554754697e-02,2.076365239918231964e-02,-3.123755900371613659e-02,2.219568945536154470e-02,-2.641248148864692308e-02,9.594304921018658588e-03,-3.256604856694366671e-03,-5.328827422754145449e-03,0.000000000000000000e+00,0.000000000000000000e+00,0.000000000000000000e+00,5.095841391430944167e-01,-0.000000000000000000e+00,-9.738862514495849609e-02,8.762268686196352974e+01,0.000000000000000000e+00
1.325477999999999934e+00,-1.217419281929893677e-03,5.966395473190768545e-02,1.003621220588684082e+00,1.192315606505931110e-02,-2.627958357306781068e-03,-1.643894975464620664e-03,1.656774515834801356e-02,5.983595951546474140e-02,2.159840613603591919e-02,1.984980221073659457e-02,-2.355868190960323447e-02,6.381576624894244598e-02,1.145259260578273403e-02,-4.791265493958163715e-03,-4.576876216678515963e-03,0.000000000000000000e+00,0.000000000000000000e+00,0.000000000000000000e+00,5.094643163535289565e-01,-0.000000000000000000e+00,-2.919441461563110352e-01,1.744346029486898715e+02,0.000000000000000000e+00
1.351274000000000086e+00,-1.713651780052706302e-03,6.254045190994748926e-02,1.004117846488952637e+00,1.211942734819391847e-02,-2.468310272775164904e-03,-1.755527626022716954e-03,1.360300243431161391e-02,6.167850679852980578e-02,2.530810236930847168e-02,5.353357771965597256e-02,4.160883901334536811e-02,-1.472046265180695576e-02,1.369278325057468430e-02,-6.465381134095484796e-03,-4.879247657852636699e-03,0.000000000000000000e+00,0.000000000000000000e+00,0.000000000000000000e+00,5.091258396979517764e-01,-0.000000000000000000e+00,1.609059572219848633e-01,1.015054015198512900e+02,0.000000000000000000e+00
1.374230999999999980e+00,-2.057710985265890930e-03,6.456352729959025094e-02,1.004470586776733398e+00,1.217013450925518055e-02,-2.544221350104125534e-03,-1.885840063488481788e-03,2.068727286647770863e-02,6.040710536678323139e-02,1.538378838449716568e-02,-4.679115932578236520e-02,-5.765042424932357266e-03,3.960414005378438788e-03,1.360072329172707511e-02,-9.451876612069647250e-04,-5.275457905966340899e-03,0.000000000000000000e+00,0.000000000000000000e+00,0.000000000000000000e+00,5.098199892023707047e-01,-0.000000000000000000e+00,-4.455602169036865234e-02,9.668147113550305960e+01,0.000000000000000000e+00
1.399786999999999892e+00,-2.519373444244135934e-03,6.756944974604124632e-02,1.004958510398864746e+00,1.262718532074838008e-02,-2.383101516840291367e-03,-1.695334936022366767e-03,5.906330689200146172e-03,6.443642799799041698e-02,2.426238730549812317e-02,5.288686497525273145e-02,1.127183515390481859e-02,2.164839449638846641e-02,1.665905182840078658e-02,-1.321872087754409619e-02,-4.668239944397800656e-03,0.000000000000000000e+00,0.000000000000000000e+00,0.000000000000000000e+00,5.090991963479373217e-01,-0.000000000000000000e+00,2.861353158950805664e-01,7.687592378789290137e+01,0.000000000000000000e+00
1.423931999999999976e+00,-2.941059526977821397e-03,7.053587063572394622e-02,1.005413651466369629e+00,1.254097118558838986e-02,-2.378921288924251698e-03,-1.791426031060186800e-03,1.657265628196662524e-02,6.633473336230666373e-02,1.818565838038921356e-02,4.301031939692216005e-02,1.106322008409883588e-02,-4.008294490012271477e-02,2.042828773706607468e-02,-2.556310451970491421e-03,-5.001004064112857250e-03,0.000000000000000000e+00,0.000000000000000000e+00,0.000000000000000000e+00,5.094984494775505190e-01,-0.000000000000000000e+00,6.362713575363159180e-01,-7.589730111380263544e+00,0.000000000000000000e+00
1.448110999999999926e+00,-3.272234115635808821e-03,7.339817529607813029e-02,1.005942106246948242e+00,1.263340922289625870e-02,-2.801922416959978790e-03,-1.764801441168254792e-03,4.803552957287532225e-03,6.034507614450088098e-02,3.063081577420234680e-02,2.245664759188362170e-02,-5.487109548635193956e-02,-1.176271861237696524e-02,1.725262344123583771e-02,-1.664931407457503204e-02,-4.841844550584950557e-03,0.000000000000000000e+00,0.000000000000000000e+00,0.000000000000000000e+00,5.084954238560988049e-01,-0.000000000000000000e+00,-1.880937814712524414e-01,1.136058739364725909e+02,0.000000000000000000e+00
1.476047000000000109e+00,-3.544520927423870562e-03,7.618097363201534189e-02,1.006527423858642578e+00,1.293154636937026390e-02,-2.270786650979683685e-03,-1.765820131052005812e-03,1.464865227875622108e-02,6.933085905662340898e-02,1.348348520696163177e-02,-2.092588107660187796e-02,6.178657797585798694e-02,2.562467689071466683e-03,2.543042819925709144e-02,-3.602962709217454214e-03,-4.921810504631529692e-03,0.000000000000000000e+00,0.000000000000000000e+00,0.000000000000000000e+00,5.097181458504640439e-01,-0.000000000000000000e+00,8.252727985382080078e-02,8.587169956633906054e+01,0.000000000000000000e+00
1.501227000000000089e+00,-3.737760807271227424e-03,7.891940992288351553e-02,1.007109522819519043e+00,1.333808583801088590e-02,-2.223629521968417677e-03,-1.622427019118539721e-03,1.536886397387144353e-02,6.511435267765569579e-02,2.224200032651424408e-02,4.636190861743368086e-02,-3.440992289616955080e-02,4.671298702530837788e-02,2.050810707099932212e-02,-4.210690485664508181e-03,-4.516299137339641057e-03,0.000000000000000000e+00,0.000000000000000000e+00,0.000000000000000000e+00,5.089934456435150079e-01,-0.000000000000000000e+00,1.510730981826782227e-01,8.296501694239175606e+01,0.000000000000000000e+00
1.524599999999999955e+00,-3.869110084426296940e-03,8.073735973917640918e-02,1.007550358772277832e+00,1.336262816389924279e-02,-1.907370629167015608e-03,-1.780574299154732932e-03,6.730380841537614116e-03,6.018414647682872320e-02,1.893650367856025696e-02,-2.063959732838093614e-02,1.695910715180184297e-02,-3.845510190941335560e-02,1.855068370113979390e-02,-9.383569238429279383e-03,-4.926425381635179956e-03,0.000000000000000000e+00,0.000000000000000000e+00,0.000000000000000000e+00,5.091798709676277346e-01,-0.000000000000000000e+00,-7.690823078155517578e-02,1.426018096425501085e+02,0.000000000000000000e+00
1.548407000000000089e+00,-3.673106892964370183e-03,8.361802420418186499e-02,1.008115410804748535e+00,1.386260881887194270e-02,-1.779760831923438147e-03,-1.709172595641966427e-03,2.352264270797581672e-02,6.643334121052961450e-02,1.467150449752807617e-02,-3.544970511612552388e-02,5.195330028288546592e-03,3.391395236527267043e-02,2.341181600168146595e-02,6.574242875524334562e-03,-4.830691417975596647e-03,0.000000000000000000e+00,0.000000000000000000e+00,0.000000000000000000e+00,5.094419253259526714e-01,-0.000000000000000000e+00,2.992194890975952148e-01,7.400211486442086084e+01,0.000000000000000000e+00
1.577415999999999929e+00,-3.491091481100293270e-03,8.550717782105485276e-02,1.008487105369567871e+00,1.451467738646172907e-02,-1.397520094805093649e-03,-1.842972368414366518e-03,4.690120843454050406e-03,6.311653584361923142e-02,2.566905692219734192e-02,6.614295245982472482e-02,2.928968550791824499e-02,-2.958856669877698436e-02,1.755136873807843986e-02,-8.641140599229830965e-03,-5.101975326807395295e-03,0.000000000000000000e+00,0.000000000000000000e+00,0.000000000000000000e+00,5.085605537526953768e-01,-0.000000000000000000e+00,1.952267885208129883e-01,7.555950044802132481e+01,0.000000000000000000e+00
1.598012999999999906e+00,-3.307932697063134184e-03,8.735562279409546382e-02,1.008812189102172852e+00,1.447281019526807516e-02,-9.624590565213697602e-04,-1.669484610249947739e-03,1.709602611003799635e-02,6.671043039874008374e-02,1.139523461461067200e-02,-5.334023602864050584e-02,5.128476409408871256e-02,4.347138067446172649e-02,2.262816978345525906e-02,7.243528423901759994e-03,-4.725831840686645080e-03,0.000000000000000000e+00,0.000000000000000000e+00,0.000000000000000000e+00,5.095849191772987563e-01,-0.000000000000000000e+00,3.262463808059692383e-01,2.615284897349218340e+01,0.000000000000000000e+00
1.623383999999999938e+00,-2.983455584202424158e-03,9.010145043295178513e-02,1.009352922439575195e+00,1.502591564399308535e-02,-6.571456128743324854e-04,-1.565690284364706702e-03,1.944932829533622606e-02,6.740780139238727875e-02,1.768064871430397034e-02,7.087970687338789044e-02,2.419411545071686181e-02,1.954326034144105925e-02,2.155789107699248794e-02,9.595171950122697094e-03,-4.453570067382728315e-03,0.000000000000000000e+00,0.000000000000000000e+00,0.000000000000000000e+00,5.090538317092109244e-01,-0.000000000000000000e+00,1.532739400863647461e-01,1.008557412467563523e+02,0.000000000000000000e+00
1.650290999999999952e+00,-2.647220440209666938e-03,9.236351353054798874e-02,1.009878993034362793e+00,1.525941702840719928e-02,-6.361913796075757688e-04,-1.780731490913900917e-03,1.570909464502373912e-02,5.848952197296138078e-02,2.632524631917476654e-02,-1.581249865132219878e-02,2.647874208692804505e-03,-3.514005849098929962e-02,1.489685104725453450e-02,6.603937678278657027e-03,-5.033439739083156450e-03,0.000000000000000000e+00,0.000000000000000000e+00,0.000000000000000000e+00,5.083316110991927816e-01,-0.000000000000000000e+00,-2.934082746505737305e-01,1.063478143960935682e+02,0.000000000000000000e+00
1.673448000000000047e+00,-2.423743579528519262e-03,9.371140296513080781e-02,1.010196924209594727e+00,1.550963522037111797e-02,-3.166843122321960635e-04,-1.620647469896524268e-03,2.488376003681659968e-02,7.113014620024718515e-02,1.318586338311433792e-02,-2.090812300714415747e-02,6.767152838402386295e-02,1.689388877885784901e-02,2.600911095626290068e-02,1.689509752904261655e-02,-4.666032778384621160e-03,0.000000000000000000e+00,0.000000000000000000e+00,0.000000000000000000e+00,5.092773806773311929e-01,-0.000000000000000000e+00,2.812348604202270508e-01,9.010747553106831731e+01,0.000000000000000000e+00
1.700166000000000066e+00,-2.027733361760710243e-03,9.570768067809846957e-02,1.010612130165100098e+00,1.588338068637831779e-02,-5.506174940248520500e-04,-1.630751790885315300e-03,1.720187493081964947e-02,5.927441718178749763e-02,2.110104076564311981e-02,5.285644668835694227e-02,-3.883073759897127941e-02,4.001483283650829510e-03,1.409981323774103963e-02,8.102435140233527761e-03,-4.626031811940156668e-03,0.000000000000000000e+00,0.000000000000000000e+00,0.000000000000000000e+00,5.086173073551630841e-01,-0.000000000000000000e+00,2.155896425247192383e-01,9.496626720094029395e+01,0.000000000000000000e+00
1.723200000000000065e+00,-1.745592361823210736e-03,9.698512348519336412e-02,1.010860919952392578e+00,1.566147244451364037e-02,-4.683396482572099728e-04,-1.602005057920836409e-03,1.848498106282077738e-02,6.176027494161419329e-02,2.408109791576862335e-02,-5.329987878729078310e-02,3.267242608042647545e-02,-1.364459163062987576e-02,2.081861577432050914e-02,1.107700370936049068e-02,-4.568723743346103650e-03,0.000000000000000000e+00,0.000000000000000000e+00,0.000000000000000000e+00,5.083489399727149083e-01,-0.000000000000000000e+00,1.004751920700073242e-01,8.886580178147336539e+01,0.000000000000000000e+00
1.751435999999999993e+00,-1.415009710105736207e-03,9.929587045516492794e-02,1.011246085166931152e+00,1.631920460185248833e-02,-1.024226094637370466e-03,-1.647347008610128413e-03,2.557308350730006646e-02,6.128411387805126481e-02,1.989319734275341034e-02,4.109746632562986945e-02,-4.694936470645218185e-02,2.554881913175578376e-02,1.774140401647236742e-02,1.333149580717646852e-02,-4.714901113529457177e-03,0.000000000000000000e+00,0.000000000000000000e+00,0.000000000000000000e+00,5.086048573699715192e-01,-0.000000000000000000e+00,1.937216520309448242e-01,9.190501739607559273e+01,0.000000000000000000e+00
1.775952999999999893e+00,-1.221078965297791794e-03,1.009266507927340795e-01,1.011474370956420898e+00,1.684877217511835529e-02,-1.006681653652696795e-03,-1.995724696031346210e-03,8.517744110468841376e-03,5.098346136335810824e-02,2.928659878671169281e-02,4.062957219514600621e-02,-7.276565220950367840e-03,-3.882527014613106064e-02,7.805256043197225310e-03,-1.384130924111367416e-03,-5.578506269369898352e-03,0.000000000000000000e+00,0.000000000000000000e+00,0.000000000000000000e+00,5.078416184713478998e-01,-0.000000000000000000e+00,3.042610883712768555e-01,1.069254571545798882e+02,0.000000000000000000e+00
1.800540000000000029e+00,-8.837329259256900991e-04,1.033180834030521245e-01,1.011680603027343750e+00,1.709207320485848364e-02,-1.121888546544713705e-03,-1.884913229326632550e-03,3.499931376037381664e-02,5.833258271125312672e-02,9.550249204039573669e-03,-4.025560608048645017e-02,-1.288103690296998893e-02,-8.220128207781769378e-03,1.534812814032032562e-02,2.225983686207266485e-02,-5.453882357353334598e-03,0.000000000000000000e+00,0.000000000000000000e+00,0.000000000000000000e+00,5.092886435266573697e-01,-0.000000000000000000e+00,-1.046179533004760742e-01,9.963551429115523206e+01,0.000000000000000000e+00
1.824696000000000096e+00,-6.265600925525491392e-04,1.048621447182182670e-01,1.011703372001647949e+00,1.783919604116402172e-02,-1.415971578752728277e-03,-1.743538776929627609e-03,1.930019311114726521e-02,6.103723190189665887e-02,2.558640576899051666e-02,1.069485944734139826e-01,-2.147779597323684619e-02,-9.393648638946037674e-03,1.363061264973531271e-02,3.935396201092747348e-03,-4.914847691679935515e-03,0.000000000000000000e+00,0.000000000000000000e+00,0.000000000000000000e+00,5.080575954304475950e-01,-0.000000000000000000e+00,8.496081829071044922e-02,-1.519132835946234081e+02,0.000000000000000000e+00
1.849626999999999910e+00,-5.183624296816298710e-04,1.075163152663764776e-01,1.011758089065551758e+00,1.814859125735668322e-02,-1.932476888109935231e-03,-1.984506335726997448e-03,2.306875601908173895e-02,5.315951000543499977e-02,2.289102785289287567e-02,-5.050709212716984232e-03,-2.280675903491988579e-02,-5.054009486629646580e-02,6.996825244828634716e-03,6.116642380966569315e-03,-5.606839703059807167e-03,0.000000000000000000e+00,0.000000000000000000e+00,0.000000000000000000e+00,5.082178713937269832e-01,-0.000000000000000000e+00,3.835862874984741211e-01,8.412653159188744212e+01,0.000000000000000000e+00
1.872082000000000024e+00,-5.510076107914194544e-04,1.093797823965485388e-01,1.011736631393432617e+00,1.841939040354475740e-02,-1.996993428812654514e-03,-1.781111238299134267e-03,3.158952739003822313e-02,6.168876824922574220e-02,1.543108373880386353e-02,4.676079099490795116e-02,7.444578554710452357e-03,3.767842784109243226e-02,1.495574699924935580e-02,1.215447144331825539e-02,-5.090569798606336960e-03,0.000000000000000000e+00,0.000000000000000000e+00,0.000000000000000000e+00,5.087606557307104982e-01,-0.000000000000000000e+00,2.142947912216186523e-01,-8.753765783698604253e+01,0.000000000000000000e+00
1.899672999999999945e+00,-5.286479926031680985e-04,1.121163881997790657e-01,1.011751651763916016e+00,1.870197008557585028e-02,-2.267153477079286716e-03,-1.923722171132516250e-03,1.703180667388099617e-02,4.774918660118516317e-02,1.402682997286319733e-02,4.621189064871303320e-02,-1.978709832001243965e-02,-2.095362152096180708e-02,2.753717819421841288e-03,-2.662463395884712494e-03,-5.365693323765408085e-03,0.000000000000000000e+00,0.000000000000000000e+00,0.000000000000000000e+00,5.088274564005542677e-01,-0.000000000000000000e+00,1.619344949722290039e-01,9.153109868996324394e+01,0.000000000000000000e+00
1.923685000000000089e+00,-4.842490480240555623e-04,1.138610184721588758e-01,1.011692881584167480e+00,1.880631132809787096e-02,-2.358960548369593013e-03,-1.835102639786690771e-03,2.136537418834311142e-02,5.892328055876445980e-02,1.126462221145629883e-02,-2.207593996418560217e-02,3.043601583551805087e-02,7.550956067146645176e-03,1.490355747936643674e-02,2.524951810337889343e-03,-5.161062591564846702e-03,0.000000000000000000e+00,0.000000000000000000e+00,0.000000000000000000e+00,5.090296350884394583e-01,-0.000000000000000000e+00,3.276857137680053711e-01,8.491254976157250667e+01,0.000000000000000000e+00
1.948693000000000008e+00,-4.335161148570470515e-04,1.155371022844262768e-01,1.011621475219726562e+00,1.928305430461546219e-02,-2.783680120570952710e-03,-1.840882366619882955e-03,2.944021854858453607e-02,5.601999609286800741e-02,1.351708080619573593e-02,5.651748694979272930e-02,-4.314189885554530618e-02,4.881020364043201637e-03,9.541519636087153478e-03,5.849515314009097813e-03,-5.205956941422618112e-03,0.000000000000000000e+00,0.000000000000000000e+00,0.000000000000000000e+00,5.088421196314178996e-01,-0.000000000000000000e+00,1.126488447189331055e-01,6.142113863968915410e+01,0.000000000000000000e+00
1.972447999999999979e+00,9.235369525877759077e-06,1.183833143541671989e-01,1.011456727981567383e+00,1.916233763870055229e-02,-2.563855015734750609e-03,-1.919329707693319094e-03,1.746770550138999206e-02,5.045740222386637525e-02,1.118216291069984436e-02,-3.403788110670171591e-02,1.851024376086337579e-03,-2.259139521389681021e-02,8.552741167202814951e-03,-3.345510280948379468e-03,-5.346639348537352010e-03,0.000000000000000000e+00,0.000000000000000000e+00,0.000000000000000000e+00,5.090035200765681278e-01,-0.000000000000000000e+00,6.374055147171020508e-01,1.374559041407274833e+02,0.000000000000000000e+00
2.000729999999999897e+00,4.393880648109268908e-04,1.211146373593149222e-01,1.011236786842346191e+00,1.904789008961713798e-02,-2.652808852038557319e-03,-1.686950804456879578e-03,3.055034401565507457e-02,5.439687343975076889e-02,-3.589450381696224213e-03,-9.266233734096513200e-03,-4.198826686466573810e-03,2.664312358498217848e-02,1.523206596040195711e-02,8.830258463793084350e-03,-4.801375986260070228e-03,0.000000000000000000e+00,0.000000000000000000e+00,0.000000000000000000e+00,5.101198793033898671e-01,-0.000000000000000000e+00,-9.575784206390380859e-02,9.290040818457822525e+01,0.000000000000000000e+00
2.023194000000000159e+00,7.696215557866299987e-04,1.228687504045241768e-01,1.011068701744079590e+00,1.938425271618972670e-02,-2.628795576835818437e-03,-1.794819504213232162e-03,1.200819366949632330e-02,4.721597845902821000e-02,1.232205331325531006e-02,3.679761180736235843e-02,5.146909828161919977e-03,-3.310218974739239511e-02,8.815295027160942667e-03,-7.718712662914145421e-03,-4.959823174708666293e-03,0.000000000000000000e+00,0.000000000000000000e+00,0.000000000000000000e+00,5.089197102201984402e-01,-0.000000000000000000e+00,-2.831269502639770508e-01,-9.089404011588698040e+01,0.000000000000000000e+00
2.050281000000000020e+00,1.182886281794658751e-03,1.252576836191562903e-01,1.010828018188476562e+00,1.947302119698074083e-02,-2.516040317019907491e-03,-1.853910853245535053e-03,3.035397417000178927e-02,4.783278505474903436e-02,5.517420358955860138e-03,-3.913375971907050860e-02,2.187866209678376514e-02,-2.526033853578058680e-02,1.175096122242336172e-02,1.103573776008874227e-02,-5.288918967908673441e-03,0.000000000000000000e+00,0.000000000000000000e+00,0.000000000000000000e+00,5.094350825359185153e-01,-0.000000000000000000e+00,3.428045511245727539e-01,8.037345875618132141e+01,0.000000000000000000e+00
2.073277000000000037e+00,1.330958009138507366e-03,1.266373901260532397e-01,1.010592341423034668e+00,1.959197318347365158e-02,-2.629216823020419369e-03,-1.447202165241291000e-03,2.384236540137113503e-02,5.409722917558001248e-02,6.969158537685871124e-03,4.072272078910063597e-02,-1.716599093818373459e-02,2.441075445025795571e-02,1.752582286479792764e-02,2.521252204306366398e-03,-4.075847323638637221e-03,0.000000000000000000e+00,0.000000000000000000e+00,0.000000000000000000e+00,5.093338511199886343e-01,-0.000000000000000000e+00,2.575024366378784180e-01,9.287339478641082735e+01,0.000000000000000000e+00
2.101405000000000189e+00,1.587685055969620352e-03,1.286104144344136502e-01,1.010316848754882812e+00,1.957171015341937353e-02,-2.632278189095726972e-03,-1.641035113286273047e-03,2.500071516114084694e-02,4.406922317043601711e-02,8.526921272277832031e-03,-1.796757715522544901e-02,2.632193014172498971e-02,-5.008287191128152349e-02,1.048899183360096563e-02,4.661147370623331537e-03,-4.636793253276594307e-03,0.000000000000000000e+00,0.000000000000000000e+00,0.000000000000000000e+00,5.092131072346181009e-01,-0.000000000000000000e+00,2.899552583694458008e-01,8.720277366198031643e+01,0.000000000000000000e+00
2.124667999999999779e+00,1.795386401434406493e-03,1.298534099234679162e-01,1.010254740715026855e+00,1.976076545345532842e-02,-2.720813031192204079e-03,-1.531921749195350613e-03,2.622544103869795667e-02,4.705793590944801208e-02,3.778912127017974854e-03,-1.764448126189945010e-02,3.343004763664843282e-02,4.386990614709908309e-02,1.444930554252219640e-02,5.129172944675229953e-03,-4.336469711501034219e-03,0.000000000000000000e+00,0.000000000000000000e+00,0.000000000000000000e+00,5.095636972745052340e-01,-0.000000000000000000e+00,1.885751485824584961e-01,1.059465681031119999e+02,0.000000000000000000e+00
2.150726999999999833e+00,2.192861802825225512e-03,1.315322529763210124e-01,1.010157942771911621e+00,2.014432545572684974e-02,-2.788532082854899841e-03,-1.514944772048077218e-03,2.104618705819686145e-02,4.192711577344247070e-02,3.358243731781840324e-03,4.921227935766060019e-02,5.284120140831686380e-03,-8.066734788133919989e-03,9.005935634085087890e-03,6.377014065174989831e-04,-4.248508062641931371e-03,0.000000000000000000e+00,0.000000000000000000e+00,0.000000000000000000e+00,5.095855499041259673e-01,-0.000000000000000000e+00,-1.861511468887329102e-01,9.645390972292574361e+01,0.000000000000000000e+00
2.174189000000000149e+00,2.556303149540861686e-03,1.324230338852583622e-01,1.010212898254394531e+00,2.014456028042997324e-02,-3.086207581128430633e-03,-1.503190588411891428e-03,2.537368230182087195e-02,4.126431201699629070e-02,7.585746701806783676e-03,-3.646457834153628286e-02,-6.697958539293607551e-03,-1.167322166299790236e-02,1.055862692615066115e-02,3.345735201809641769e-03,-4.240079596691648245e-03,0.000000000000000000e+00,0.000000000000000000e+00,0.000000000000000000e+00,5.092525911223629853e-01,-0.000000000000000000e+00,4.083248376846313477e-01,-3.834995832158541873e+01,0.000000000000000000e+00
2.197642000000000095e+00,2.915974475589605021e-03,1.332560479638315309e-01,1.010240912437438965e+00,2.060052976319148854e-02,-3.318589047260012137e-03,-1.364477251256781013e-03,3.351811016208385008e-02,4.210570997722234976e-02,1.192660257220268250e-02,5.933001670715653403e-02,-3.236520092414453542e-02,2.642377676661077784e-02,9.684638882094649681e-03,8.228437751921741788e-03,-3.897073205304357746e-03,0.000000000000000000e+00,0.000000000000000000e+00,0.000000000000000000e+00,5.089100868444800252e-01,-0.000000000000000000e+00,2.320812940597534180e-01,1.032959014598242788e+02,0.000000000000000000e+00
2.226353000000000026e+00,3.490379715443853084e-03,1.344328615461396481e-01,1.010354638099670410e+00,2.096125766480210276e-02,-3.509390717491678302e-03,-1.543585774287475378e-03,1.768616792770062382e-02,3.252170094381941212e-02,1.463039312511682510e-02,1.235657169880560215e-02,1.841412190210835534e-02,-3.095976861509824526e-02,8.376713871572410638e-04,-6.682694201350286578e-03,-4.262449647893129523e-03,0.000000000000000000e+00,0.000000000000000000e+00,0.000000000000000000e+00,5.086671056847122951e-01,-0.000000000000000000e+00,1.595747470855712891e-02,1.535030374447005670e+02,0.000000000000000000e+00
2.249746000000000024e+00,3.873811416599399083e-03,1.351821956422603888e-01,1.010440230369567871e+00,2.106024244100513157e-02,-3.432227000819798590e-03,-1.393982197166543499e-03,3.399742754281315921e-02,3.554377588453939973e-02,4.557627253234386444e-03,-2.158188894658708001e-02,6.284537546460283036e-03,2.045638351302411437e-02,4.866829852651756959e-03,9.796168543162932230e-03,-3.994482376305674709e-03,0.000000000000000000e+00,0.000000000000000000e+00,0.000000000000000000e+00,5.094046577854141056e-01,-0.000000000000000000e+00,2.979174852371215820e-01,9.313656197513142843e+01,0.000000000000000000e+00
2.274284999999999890e+00,4.620112589487633190e-03,1.357184856583894261e-01,1.010557651519775391e+00,2.125694358622159247e-02,-3.393415028783985932e-03,-1.351467055896005782e-03,1.714959651131236704e-02,3.162602910813391149e-02,1.103163510560989380e-02,5.461143263241575313e-02,-9.104364124717640935e-03,-3.150587807421623750e-03,1.087894808588700177e-03,-5.489992099819599597e-03,-3.734484256942505187e-03,0.000000000000000000e+00,0.000000000000000000e+00,0.000000000000000000e+00,5.088879339884502251e-01,-0.000000000000000000e+00,4.693077802658081055e-01,7.649460115672025040e+01,0.000000000000000000e+00
2.298160999999999898e+00,5.184681833602273159e-03,1.358501805128581874e-01,1.010703802108764648e+00,2.104118090174034866e-02,-3.433506635877270341e-03,-1.289850995245373248e-03,3.043858668303182913e-02,3.083284464353586163e-02,8.355026133358478546e-03,-5.000668784269042544e-02,-2.246113131906459295e-02,1.810072853113614338e-04,3.044528887274686787e-03,8.060739498192581731e-03,-3.686256869779469536e-03,0.000000000000000000e+00,0.000000000000000000e+00,0.000000000000000000e+00,5.090615283815745906e-01,-0.000000000000000000e+00,2.601007223129272461e-01,9.248845898516725583e+01,0.000000000000000000e+00
2.323106999999999811e+00,6.054540202474287085e-03,1.359957097248348235e-01,1.010951876640319824e+00,2.161942109320668520e-02,-3.426963673702543289e-03,-1.212003307986770761e-03,2.351784969456094040e-02,2.794094409365502352e-02,1.112035196274518967e-02,5.345035065505472638e-02,-3.663583857021293546e-03,5.174883274502078967e-02,-2.179250083110859972e-03,1.180885752073242666e-03,-3.405274956229609185e-03,0.000000000000000000e+00,0.000000000000000000e+00,0.000000000000000000e+00,5.088132824402686882e-01,-0.000000000000000000e+00,-2.740198373794555664e-01,7.180991783898107883e+01,0.000000000000000000e+00
2.350042000000000186e+00,6.628294483998934533e-03,1.360772641885372169e-01,1.011169314384460449e+00,2.136469702020653630e-02,-3.321747385724327373e-03,-1.506030598845315566e-03,2.275764807344161922e-02,1.674142844234512498e-02,1.033569872379302979e-02,-3.317991954527337028e-02,-6.187435333797466214e-02,-3.988381610951689110e-02,-8.621963959214804657e-03,2.713876022425813425e-03,-4.241931044913160864e-03,0.000000000000000000e+00,0.000000000000000000e+00,0.000000000000000000e+00,5.088269321563959613e-01,-0.000000000000000000e+00,4.458296298980712891e-02,-6.571381691039378836e+01,0.000000000000000000e+00
2.376812999999999843e+00,7.478467251186380650e-03,1.360266735597970844e-01,1.011490106582641602e+00,2.106687956463382597e-02,-3.384034971220861721e-03,-1.112928300557306698e-03,2.747959541190985594e-02,2.179693307319717152e-02,-1.284722122363746166e-03,-4.204950320427291305e-02,3.901706081063568629e-03,3.068227535999761349e-02,-7.223659132983631381e-04,6.908990910281019235e-03,-3.179396761965047613e-03,0.000000000000000000e+00,0.000000000000000000e+00,0.000000000000000000e+00,5.096655008225656758e-01,-0.000000000000000000e+00,2.041471004486083984e-02,9.347699226374319892e+01,0.000000000000000000e+00
2.399249000000000187e+00,8.066081477880503517e-03,1.359101197191794896e-01,1.011742830276489258e+00,2.141226379982080069e-02,-3.596600525602289267e-03,-1.078023370695055817e-03,2.438286170909967007e-02,1.720115707368663135e-02,1.288546901196241379e-02,5.909807440651734106e-02,-3.301985670002967332e-02,-1.331803981725870542e-02,-6.544053407405768172e-03,2.895207463746857657e-03,-3.045162891099129077e-03,0.000000000000000000e+00,0.000000000000000000e+00,0.000000000000000000e+00,5.085642616944872074e-01,-0.000000000000000000e+00,4.225194454193115234e-02,1.017022407415418854e+02,0.000000000000000000e+00
2.426848000000000116e+00,8.952143042794076522e-03,1.356557261894483779e-01,1.012174725532531738e+00,2.107019373505302981e-02,-3.663613858106984367e-03,-1.247621949240388739e-03,2.754762105475167325e-02,1.713407257042685525e-02,7.150328718125820160e-03,-4.206054354198355411e-02,1.218419594083669684e-02,-2.419039433449745799e-02,-3.453567269000824488e-03,6.138719556435507860e-03,-3.549071693780880832e-03,0.000000000000000000e+00,0.000000000000000000e+00,0.000000000000000000e+00,5.089427626120500703e-01,-0.000000000000000000e+00,2.981230020523071289e-01,8.038484468152773843e+01,0.000000000000000000e+00
