timestamp,x,y,z,roll,pitch,yaw,vx,vy,vz,p,q,r,psp,qsp,rsp,pres,qres,rres,thrust_sp, thrust_res,wind_mag,wind_angle,wind_obs
0.000000000000000000e+00,-2.874815891933672415e-02,-1.971350877964252873e-02,1.006037354469299316e+00,2.775658708177758480e-03,-3.596414578950879459e-03,1.987277958371351429e-03,-2.852958137940920375e-02,1.428926526231405481e-02,-1.161062624305486679e-02,5.424663240990482138e-02,-1.189989318670513219e-02,3.116982000292733285e-02,1.942219968507025996e-01,1.326560772582147663e-01,2.038574260721341125e-01,2.130458235740661510e-01,1.972154438495636042e-01,1.982562482357025091e-01,4.995988952664097704e-01,-6.749328970909118652e-01,5.752766132354736328e-02,1.128835267902303912e+02,0.000000000000000000e+00
2.377299999999999899e-02,-2.874815891933672415e-02,-1.971350877964252873e-02,1.006037354469299316e+00,2.775658708177758480e-03,-3.596414578950879459e-03,1.987277958371351429e-03,-2.852958137940920375e-02,1.428926526231405481e-02,-1.161062624305486679e-02,5.424663240990482138e-02,-1.189989318670513219e-02,3.116982000292733285e-02,1.920959876427263124e-01,1.366473845207870075e-01,2.038508974303107901e-01,2.130458235740661510e-01,1.972154438495636042e-01,1.982562482357025091e-01,4.996030038218809421e-01,-6.749328970909118652e-01,1.561034917831420898e-01,1.006471677600716674e+02,0.000000000000000000e+00
4.319699999999999929e-02,-2.897712707122145070e-02,-1.922828896273153301e-02,1.005825638771057129e+00,3.241869477434090614e-03,-3.454491044926122356e-03,2.400361511477512415e-03,-2.705247891397589283e-02,2.280557012818283658e-02,-1.248209644109010696e-02,9.100512233569273135e-02,-3.188329852430225875e-02,3.119599654219806784e-02,1.852906524764521279e-01,1.083875831349557367e-01,1.827162905637738366e-01,2.020792007446289007e-01,1.671615779399871771e-01,1.759460091590881181e-01,5.005281617171938313e-01,-6.311080455780029297e-01,1.934081315994262695e-01,1.158416065876820369e+02,0.000000000000000000e+00
7.053399999999999948e-02,-2.941807632156027627e-02,-1.831605175547121669e-02,1.005404472351074219e+00,3.840667702622970522e-03,-3.316520185831617340e-03,2.968835048727525450e-03,-2.095177960640486406e-02,2.295740658989079558e-02,-3.505438938736915588e-02,3.129867897007658495e-02,2.027635020583110764e-02,4.705891226415758605e-02,1.575943297125022291e-01,1.670837499939692439e-01,4.924898084651128938e-02,1.788302421569824274e-01,2.205462455749511719e-01,4.088551998138427457e-02,5.013638455240869707e-01,-6.795509457588195801e-01,-4.398277997970581055e-01,1.089360052990431740e+02,0.000000000000000000e+00
9.340800000000000491e-02,-2.979832522825939453e-02,-1.773306645327644981e-02,1.005226492881774902e+00,4.231741548672002598e-03,-3.410590993519146963e-03,3.260003168955913529e-03,-2.149271801779160593e-02,2.075494824461542737e-02,-2.098505944013595581e-02,2.872664046791149894e-02,2.209807876865313783e-02,3.231053579017668237e-03,1.946856505778868929e-01,1.620846166613294781e-01,2.349726344036990877e-01,2.198567390441894531e-01,2.180064260959625189e-01,2.257894635200500266e-01,4.996519338387910292e-01,-7.151578068733215332e-01,-3.299963474273681641e-02,1.508596586132572668e+02,0.000000000000000000e+00
1.185599999999999987e-01,-3.014368954461848701e-02,-1.714621799662174872e-02,1.005017995834350586e+00,4.672034580201975262e-03,-3.325861831720011708e-03,3.642971638049656569e-03,-2.328780204447109675e-02,2.031872291503864988e-02,-2.186618559062480927e-02,5.082611955746614563e-02,1.549838373626500308e-02,1.723678538457659032e-02,1.984217303991785697e-01,1.554563019787946199e-01,2.330860325914638764e-01,2.260877609252929521e-01,2.125807642936706487e-01,2.228232800960540660e-01,4.997792964809005811e-01,-7.136673331260681152e-01,5.800384283065795898e-01,1.058784591642559292e+01,0.000000000000000000e+00
1.421389999999999876e-01,-3.050855662768010845e-02,-1.658449100070967519e-02,1.004794836044311523e+00,5.250438023684539206e-03,-3.374037482373859476e-03,4.038200004886713899e-03,-2.257012130502420930e-02,2.344763364866801064e-02,-1.943841204047203064e-02,5.998605409898827984e-02,-1.906020666396122595e-02,5.382649918020683544e-02,1.590480277689780009e-01,1.476956267859821648e-01,1.848756934832720134e-01,1.875057935714721513e-01,2.047095000743865967e-01,1.734937191009521540e-01,5.003402758878335854e-01,-6.763274073600769043e-01,5.334850549697875977e-01,-1.083005040080976755e+02,0.000000000000000000e+00
1.683399999999999896e-01,-3.157784094591770119e-02,-1.499264089446402867e-02,1.004207849502563477e+00,7.365704888848237028e-03,-3.836638711008033553e-03,3.805798065048947992e-03,-2.338271599664923373e-02,2.035755271686788201e-02,-1.797387190163135529e-02,1.251884215868258321e-01,-4.060471983555923037e-02,-5.744561340623447615e-02,1.601542714926826316e-01,-1.992718008023933174e-03,2.313439766131055453e-01,2.042910218238830622e-01,5.965347290039062222e-02,2.205824911594390925e-01,5.032257479827566549e-01,-5.221382379531860352e-01,2.564600706100463867e-01,8.820588256424507279e+01,0.000000000000000000e+00
1.917290000000000105e-01,-3.227435722061108153e-02,-1.402463392616215034e-02,1.003692388534545898e+00,9.635491753782851609e-03,-5.187606899853314246e-03,3.117536491018244472e-03,-3.150528640943226627e-02,1.092734736499279338e-02,-2.678889408707618713e-02,1.496068614604102176e-01,-1.037769321220671781e-01,-1.845083832990584288e-02,1.281599457275156007e-01,-6.946681989048224259e-02,2.258684338708228934e-01,1.935821413993835394e-01,7.958060503005981792e-03,2.169860601425170898e-01,5.054840340570940782e-01,-4.412816762924194336e-01,-4.684044122695922852e-01,6.623455736290472373e+01,0.000000000000000000e+00
2.170040000000000024e-01,-3.303748087022506663e-02,-1.311185426959396612e-02,1.003065347671508789e+00,1.286166516063817419e-02,-7.316955123960910967e-03,2.388949073342605447e-03,-1.681886275532611455e-02,1.662250435188799072e-02,-4.542109370231628418e-02,1.157072734811716574e-01,-5.827550076437398863e-02,-4.257029556875768089e-02,8.802848596476178789e-02,-1.497907397295584753e-01,2.273447020514169914e-01,1.679491996765136719e-01,-7.100207805633544644e-02,2.204278886318206676e-01,5.091724901907177525e-01,-3.240590691566467285e-01,2.898570299148559570e-01,7.215489020339090587e+01,0.000000000000000000e+00
2.447759999999999936e-01,-3.380608140049577021e-02,-1.267458774381552238e-02,1.001600265502929688e+00,1.897386928750301530e-02,-1.191348703946881749e-02,1.196318868089889286e-03,-3.040209429462269880e-02,9.986602119920244547e-03,-5.554744973778724670e-02,2.463403204511674660e-01,-2.234307065266114278e-01,-4.322491525697286924e-02,5.364122390747069757e-02,-2.245281338691711426e-01,2.142939502041107946e-01,1.536412239074707031e-01,-1.245281338691711370e-01,2.104536473751068004e-01,5.177163393002209846e-01,8.365082740783691406e-02,1.135035872459411621e+00,-2.007264872529268374e+01,0.000000000000000000e+00
2.737149999999999861e-01,-3.464394329455883215e-02,-1.242755780668890545e-02,9.995250105857849121e-01,2.563132491669906782e-02,-1.674493738725701952e-02,-1.415232550258295301e-03,-2.770654405964819225e-02,4.579146423704829119e-03,-8.468028903007507324e-02,1.910335595020031252e-01,-1.153173481963653824e-01,-1.008584362429893327e-01,-2.754146814346313255e-01,-3.008366584777831809e-01,2.149866639290865522e-01,-1.754146814346313477e-01,-2.008366584777832031e-01,2.181476354598999023e-01,5.235305235018914427e-01,2.701339721679687500e-01,-7.061362266540527344e-03,-1.407289034702409083e+02,0.000000000000000000e+00
3.034359999999999835e-01,-3.526892016721141360e-02,-1.233641027169454264e-02,9.977619647979736328e-01,3.050795608189180164e-02,-2.034185652639863839e-02,-2.981998853207142117e-03,-2.321711055768344717e-02,-3.078023211018329590e-03,-8.931804448366165161e-02,2.587670995262416063e-01,-2.195084926862775621e-01,-8.135583707777256646e-02,-2.759503006935119518e-01,-3.125174999237060325e-01,2.082010849304187228e-01,-1.759503006935119462e-01,-2.125174999237060547e-01,2.154878854751586803e-01,5.244945075789213540e-01,2.926154136657714844e-01,-4.364132881164550781e-03,1.483852859826367308e+02,0.000000000000000000e+00
3.331819999999999782e-01,-3.634202460947851682e-02,-1.235345402856464006e-02,9.933249354362487793e-01,3.912608603165405874e-02,-2.514999974830711693e-02,-6.804931541217464248e-03,-3.432793084376317000e-02,-1.065385242040357665e-02,-1.312828063964843750e-01,1.780471723558192387e-01,-3.267210226548282470e-02,-1.103298907447357730e-01,-3.257454037666320801e-01,-3.229580163955688699e-01,2.038743322497938160e-01,-2.257454037666320745e-01,-2.229580163955688366e-01,2.212477147579192949e-01,5.190686686484012879e-01,-1.912739872932434082e-01,5.505204200744628906e-03,6.374019276858358296e+01,0.000000000000000000e+00
3.554499999999999882e-01,-3.678036775546297127e-02,-1.244789906373664802e-02,9.906491041183471680e-01,4.309287866488190760e-02,-2.558974382694589877e-02,-8.696126967609933353e-03,-3.074601405732636100e-02,-1.504800495424280481e-02,-1.397840231657028198e-01,1.950548951966782629e-01,-2.516363153409956546e-02,-1.123964472214298294e-01,-3.262937188148498091e-01,-3.243388891220092551e-01,1.989924797854694949e-01,-2.262937188148498313e-01,-2.243388891220092773e-01,2.215054392814636286e-01,5.194652353650045518e-01,-2.214485406875610352e-01,-1.066013574600219727e-01,9.404382283277338672e+01,0.000000000000000000e+00
3.775129999999999875e-01,-3.722886796326158043e-02,-1.267646147821330747e-02,9.876298308372497559e-01,4.623969228958342559e-02,-2.491528699018763504e-02,-1.069928147380949310e-02,-3.249418339740099693e-02,-2.136647959975470842e-02,-1.539041697978973389e-01,1.564898051928147460e-01,4.416987284195101476e-02,-5.961636790144405479e-02,-3.266658484935760498e-01,-3.238975763320922630e-01,1.892417971418326184e-01,-2.266658484935760443e-01,-2.238975763320922852e-01,2.172701597213745062e-01,5.135230211463530647e-01,-6.164385080337524414e-01,-1.967235803604125977e-01,1.101532133110311520e+02,0.000000000000000000e+00
4.015440000000000120e-01,-3.792843504555708928e-02,-1.321290046844833185e-02,9.826310276985168457e-01,4.954892467034113790e-02,-2.106521680174155975e-02,-1.378196028743974323e-02,-3.801073794414195489e-02,-3.128332158960837883e-02,-1.779743432998657227e-01,8.146980185744667757e-02,1.827736745982978805e-01,-1.157276227442669142e-01,-3.221434116363525169e-01,1.039727330207824707e-01,1.779145121233280391e-01,-2.221434116363525391e-01,2.039727330207824763e-01,2.146723151206970104e-01,5.149868689455225912e-01,-6.629113554954528809e-01,3.687134981155395508e-01,1.891895122730207390e+01,0.000000000000000000e+00
4.254720000000000169e-01,-3.839240913016164075e-02,-1.369283110781108724e-02,9.789275527000427246e-01,5.024649217577612653e-02,-1.700514960981269752e-02,-1.559446712549369951e-02,-3.083561550044996644e-02,-3.766682292983088154e-02,-1.883836686611175537e-01,9.528525054612118142e-03,2.007030601575138240e-01,-1.028171446270337991e-01,-3.218786776065826194e-01,1.153863728046417014e-01,1.652198244896161128e-01,-2.218786776065826416e-01,2.153863728046417070e-01,2.073617219924926702e-01,5.162277005278324005e-01,-6.625594496726989746e-01,9.102736711502075195e-01,-8.522130846300294138e+01,0.000000000000000000e+00
4.443090000000000095e-01,-3.851935754477914947e-02,-1.423260367809171638e-02,9.749248623847961426e-01,4.856502929311794226e-02,-1.121396319171674705e-02,-1.731256870384909746e-02,-2.561500746414922813e-02,-2.781479474135908556e-02,-2.115331739187240601e-01,-1.437861344077913106e-01,3.410044907939509540e-01,-6.654266309948539404e-02,-2.990582108497619740e-01,1.171735286712646262e-01,1.053873135639815661e-03,-1.990582108497619684e-01,2.171735286712646318e-01,4.841110110282897949e-02,5.198105096529119784e-01,-5.887701511383056641e-01,4.872010946273803711e-01,-1.577720081287960951e+01,0.000000000000000000e+00
4.697439999999999949e-01,-3.869604367987069388e-02,-1.516737897774462704e-02,9.684373140335083008e-01,4.258256804898447045e-02,-1.909665184726128118e-03,-1.999259317594908811e-02,-3.023736337183154793e-02,-4.161455431687426099e-02,-2.176331430673599243e-01,-2.264921283122837969e-01,2.976622988197784592e-01,-1.017480633405694335e-01,-2.838960945606231467e-01,1.391213914143263897e-01,-2.769580806579819976e-01,-1.838960945606231689e-01,1.985512197017669511e-01,-2.214546918869018388e-01,5.201143322264130120e-01,-6.348241567611694336e-01,-1.745909452438354492e-01,6.924213554127146608e+01,0.000000000000000000e+00
4.903100000000000236e-01,-3.881573328244132537e-02,-1.589278637664667815e-02,9.638726711273193359e-01,3.687231816599073619e-02,4.550088471386048994e-03,-2.183610066623507470e-02,-3.740809856783725712e-02,-4.399774970200643481e-02,-2.270257174968719482e-01,-2.787781773022092735e-01,3.317691090454067404e-01,-7.482728871954659466e-02,-2.750597894191741943e-01,1.770067186509883539e-01,-2.863075393151297554e-01,-1.750597894191741888e-01,1.992714822292327714e-01,-2.253207921981811301e-01,5.220694932998529714e-01,-5.975816249847412109e-01,2.703011035919189453e-02,9.630400756121147765e+01,0.000000000000000000e+00
5.213969999999999994e-01,-3.887480350197253937e-02,-1.670448268290857657e-02,9.591665863990783691e-01,3.037274827139001612e-02,1.130660640902148018e-02,-2.362080351523410116e-02,-1.893484232501414094e-02,-4.164473564452979282e-02,-2.393436580896377563e-01,-3.461695211126586402e-01,3.887493482571914849e-01,-9.683150901588323534e-02,-2.620634675025940163e-01,2.543339951549331013e-01,-2.922950900589769696e-01,-1.620634675025939830e-01,2.176093161106109619e-01,-2.259670257568359153e-01,5.258546726692656659e-01,-4.731109142303466797e-01,-9.980833530426025391e-02,9.333879021607715742e+01,0.000000000000000000e+00
5.426050000000000040e-01,-3.917554831816543598e-02,-1.755529624723644461e-02,9.518695473670959473e-01,2.048539943640110758e-02,2.076350219284384124e-02,-2.655955183012160062e-02,-2.214138238842987619e-02,-5.560190820724881383e-02,-2.423015385866165161e-01,-2.926218740296866461e-01,2.411209220623512506e-01,-6.703476455444504212e-02,-2.457403659820556752e-01,3.148573524007169944e-01,-3.015351015952252300e-01,-1.457403659820556696e-01,2.213209748268127330e-01,-2.269138813018798662e-01,5.287742098420282755e-01,-3.692275285720825195e-01,4.122841358184814453e-02,1.198087580425438716e+02,0.000000000000000000e+00
5.645379999999999843e-01,-3.945590047342906193e-02,-1.805221565929299513e-02,9.469221830368041992e-01,1.397782890771990735e-02,2.562808571769958910e-02,-2.876852738932799899e-02,-1.818781041840731097e-02,-4.674041860864483477e-02,-2.539972364902496338e-01,-3.194230472620244177e-01,2.240692366798669177e-01,-1.134668889752290244e-01,-1.779085159301757868e-01,3.218056321144103782e-01,-3.074728875847441145e-01,-7.790851593017578125e-02,2.218056321144104004e-01,-2.267150402069091630e-01,5.284529584815423897e-01,-4.676581621170043945e-01,-7.526004314422607422e-02,1.075969057311271513e+02,0.000000000000000000e+00
5.901269999999999571e-01,-3.989404541651339620e-02,-1.889751373085894401e-02,9.395601153373718262e-01,4.441096724096686536e-03,2.781308812185545598e-02,-3.098655774330941193e-02,-2.661796221872206325e-02,-5.932284455716394650e-02,-2.489743530750274658e-01,-3.115151877351605147e-01,2.464344628693538111e-02,-5.801406833083234829e-04,1.435465623419351078e-01,3.211640655994415505e-01,-3.122153597034210692e-01,2.257596731185912975e-01,2.211640655994415172e-01,-2.255661964416503795e-01,5.261687968230996937e-01,-6.173087954521179199e-01,-4.921131134033203125e-01,1.081771303011197460e+02,0.000000000000000000e+00
6.174370000000000136e-01,-4.035053911835885521e-02,-1.967102741505685412e-02,9.322220087051391602e-01,-4.751693485076684959e-03,2.684987731436905278e-02,-3.031728420851010838e-02,-9.170689820557758123e-03,-4.070723943019110419e-02,-2.477363944053649902e-01,-2.582659977157482634e-01,-7.257886055476832354e-02,6.062181205718892435e-02,2.202993220741838176e-01,3.226602554321288951e-01,-3.105690313595470542e-01,2.272810220718383678e-01,2.226602554321288896e-01,-2.260090827941894365e-01,5.248912337492473990e-01,-7.261344790458679199e-01,-1.907504796981811523e-01,8.211973322127848007e+01,0.000000000000000000e+00
6.426779999999999715e-01,-4.075632621662901578e-02,-2.076250659961580841e-02,9.273077845573425293e-01,-1.116994677944676759e-02,2.508998959824459973e-02,-2.840264853074377788e-02,-1.927063572100379263e-02,-5.065585848249475054e-02,-2.458799183368682861e-01,-3.449128186859664047e-01,-8.371988340299693632e-02,1.374856886416797042e-01,2.508755874367901151e-01,3.221431791782379261e-01,-3.045415856534958721e-01,2.269519686698913408e-01,2.221431791782379206e-01,-2.255061149597167858e-01,5.255474538918729621e-01,-7.188380956649780273e-01,-7.281611561775207520e-01,1.124354527202992102e+02,0.000000000000000000e+00
6.678020000000000067e-01,-4.125451265317255090e-02,-2.226509896077093903e-02,9.200364947319030762e-01,-2.029348196237934845e-02,2.124139374654188117e-02,-2.447919190469613135e-02,-1.035438638774408525e-02,-3.119642119648495179e-02,-2.544890642166137695e-01,-3.439724178384311326e-01,-7.016829440317697009e-02,1.774310504878092998e-01,3.251541605971594029e-01,3.178792893886566162e-01,-2.941460233970130123e-01,2.264408111572265569e-01,2.178792893886566107e-01,-2.261780977249145397e-01,5.272261050262487814e-01,-7.064691185951232910e-01,-5.457437038421630859e-02,9.423265024256755851e+01,0.000000000000000000e+00
6.948119999999999852e-01,-4.167251290741747632e-02,-2.352605108886448443e-02,9.128197431564331055e-01,-2.874111876912696303e-02,1.486129883255804529e-02,-1.973326965662861379e-02,-1.319796530225784623e-02,-2.496252745353516253e-02,-2.449168115854263306e-01,-2.472345518947468845e-01,-2.780832241756157619e-01,1.735255032452200086e-01,3.272040605545043501e-01,2.550338356746135737e-01,-2.802124788763865615e-01,2.272040605545043723e-01,1.953473389148712158e-01,-2.253911733627319280e-01,5.267410834564519861e-01,-7.402541041374206543e-01,-2.530957460403442383e-01,9.900653583086710796e+01,0.000000000000000000e+00
7.168689999999999785e-01,-4.180785003621473317e-02,-2.388940067696792430e-02,9.104286432266235352e-01,-3.184734062280362293e-02,1.250923511431878410e-02,-1.801239127830332395e-02,-1.658575272002760226e-02,-3.041287485505013086e-02,-2.379188239574432373e-01,-2.946205501631074530e-01,-2.340846132848652950e-01,1.833223499087273944e-01,3.277297377586364524e-01,2.471959919024075414e-01,-2.767870470767433977e-01,2.277297377586364746e-01,2.051574647426605280e-01,-2.266913652420043945e-01,5.267046072755172670e-01,-7.405417561531066895e-01,-4.511034488677978516e-02,3.812433326763780173e+01,0.000000000000000000e+00
7.421560000000000379e-01,-4.239363344056142763e-02,-2.502683387536054280e-02,9.033492803573608398e-01,-3.861564211150279868e-02,3.272509427087122447e-03,-1.236432550480211744e-02,1.898369601606203017e-03,-1.480785839682857360e-02,-2.452286630868911743e-01,-2.191515166382295987e-01,-3.120903915533611017e-01,2.192821217426706715e-01,3.264915943145751953e-01,7.399533970343799560e-02,-2.610433767667136862e-01,2.264915943145751898e-01,7.858643531799315574e-02,-2.263811588287353294e-01,5.282764011633382939e-01,-7.283611893653869629e-01,-1.480997800827026367e-01,1.080338739134679003e+02,0.000000000000000000e+00
7.688450000000000006e-01,-4.310192737888913356e-02,-2.605887725894670548e-02,8.963611721992492676e-01,-4.106239493956850145e-02,-7.736902070009765708e-03,-6.285256325716719571e-03,-2.190646939727482201e-02,-1.361672589172304229e-02,-2.300284504890441895e-01,-7.427684595801538336e-02,-3.424471538758290801e-01,2.267050153850025118e-01,3.186143398284911887e-01,-2.422406799456966187e-01,-2.405520351161998249e-01,2.186143398284912109e-01,-1.449187517166137529e-01,-2.220075130462646484e-01,5.283393375431648664e-01,-7.095428705215454102e-01,-3.383604288101196289e-01,9.635948918783948614e+01,0.000000000000000000e+00
7.918950000000000156e-01,-4.364890528735891617e-02,-2.663145773374601261e-02,8.918417692184448242e-01,-3.946791428773437083e-02,-1.566778723181094790e-02,-2.174973605881873068e-03,-2.547415008224616223e-03,-1.180937853423156105e-03,-2.244170457124710083e-01,1.171843045313247789e-01,-3.930760015171808064e-01,1.857586624275221199e-01,2.965257048606872448e-01,-2.776318311691284291e-01,-1.543388185220385678e-01,1.965257048606872392e-01,-1.776318311691284235e-01,-1.470486402511596569e-01,5.286609829373886127e-01,-7.038963437080383301e-01,-3.266111612319946289e-01,1.027509343263272967e+02,0.000000000000000000e+00
8.170469999999999677e-01,-4.452151262544042087e-02,-2.725463319023422107e-02,8.851224780082702637e-01,-3.490603532384629892e-02,-2.697130013215764954e-02,4.134448379209117001e-03,-2.841178796851292002e-02,-4.972033898511838768e-04,-2.069718390703201294e-01,1.639899481925805313e-01,-3.605761877434499607e-01,1.918912680873426924e-01,2.948482513427734264e-01,-2.953741788864135964e-01,-1.664471396963684569e-01,1.948482513427734208e-01,-1.953741788864135631e-01,-1.761586904525756780e-01,5.284159226163431811e-01,-6.914517879486083984e-01,-3.306561708450317383e-01,1.092818724182342862e+02,0.000000000000000000e+00
8.412600000000000078e-01,-4.542061293800425670e-02,-2.712629238544266019e-02,8.808656334877014160e-01,-3.014528825487475597e-02,-3.419652674809037229e-02,8.468064006665516202e-03,-1.597075890666505710e-02,9.920387693481186667e-03,-2.261800169944763184e-01,2.695444103450197471e-01,-3.343845405779565239e-01,2.390288048543478816e-01,2.887105345726013184e-01,-3.035697579383850320e-01,-1.357563695054752884e-01,1.887105345726013128e-01,-2.035697579383849987e-01,-1.576528072357177568e-01,5.306701354084975009e-01,-6.777499318122863770e-01,-1.077855825424194336e-01,7.237615418155347413e+01,0.000000000000000000e+00
8.645319999999999672e-01,-4.718659700921415401e-02,-2.605266641721926818e-02,8.746494650840759277e-01,-2.228558225581409730e-02,-4.410574858606253201e-02,1.455842599984099109e-02,-3.570003869534381369e-02,1.886365081247329614e-02,-2.157414406538009644e-01,2.610741007703931138e-01,-2.994027602017340084e-01,2.340181542939476500e-01,2.721390247344970814e-01,-3.103128671646118164e-01,-1.017559464722999629e-01,1.721390247344970759e-01,-2.103128671646118109e-01,-1.407884359359741211e-01,5.318385142907403607e-01,-6.144086718559265137e-01,-2.386945486068725586e-01,-7.040426490779245228e+01,0.000000000000000000e+00
8.904699999999999838e-01,-4.852533998024393530e-02,-2.529495934435584473e-02,8.707923293113708496e-01,-1.618593854260871184e-02,-4.956091328017420139e-02,1.838739655410828386e-02,-3.424629409105127420e-02,1.830947095354691287e-02,-2.169569581747055054e-01,2.867332901189282302e-01,-2.274886020474788939e-01,2.001223087502003173e-01,1.592354547987979430e-01,-3.185709238052368275e-01,-6.993918755171951718e-02,6.161313056945800365e-02,-2.185709238052368220e-01,-1.200071454048156627e-01,5.327325038977477334e-01,-6.025729775428771973e-01,-3.681710958480834961e-01,9.788108458018908209e+01,0.000000000000000000e+00
9.167009999999999881e-01,-5.058026025190488079e-02,-2.401386392821190652e-02,8.652128577232360840e-01,-7.172326225468047579e-03,-5.376772539497509662e-02,2.403453064169438005e-02,-4.052082984032324281e-02,2.586670621724817057e-02,-2.244723439216613770e-01,2.253327212937684954e-01,7.000811860975726490e-03,2.060080367077152252e-01,-1.672302821178224264e-01,-3.081159591674804688e-01,-8.981196693737741876e-02,-2.125093102455139216e-01,-2.081159591674804632e-01,-1.564478874206542969e-01,5.333481916217974739e-01,-6.385534405708312988e-01,-1.844021081924438477e-01,1.078897432616022911e+02,0.000000000000000000e+00
9.419560000000000155e-01,-5.185370598513393964e-02,-2.283431668275204968e-02,8.597457408905029297e-01,2.502651957088772219e-03,-5.172303936661259982e-02,2.853669777362243670e-02,-5.293459271281399092e-02,2.105951642749860284e-02,-2.111695855855941772e-01,3.562051853620183950e-01,1.118587226270177371e-01,1.852337279343549692e-01,-2.304557655232264413e-01,-2.225675106048584095e-01,1.191877029799115473e-03,-2.092200815677642822e-01,-1.225675106048583901e-01,-7.885229587554931641e-02,5.335511886101493850e-01,-6.142917275428771973e-01,-5.385752916336059570e-01,9.668386853190173724e+01,0.000000000000000000e+00
9.659969999999999946e-01,-5.247232083811684961e-02,-2.208968127896473663e-02,8.562988042831420898e-01,8.518389602408867056e-03,-4.699194486756042011e-02,3.101511838910851748e-02,-5.582063130008133728e-02,2.419414008770062047e-02,-2.116144001483917236e-01,2.425018442173923205e-01,2.695449113392055507e-01,1.173326281280509392e-01,-2.093984095174469540e-01,8.318625688552855335e-02,2.269475751849956702e-01,-1.526596963405608964e-01,1.831862568855285589e-01,1.394425749778747392e-01,5.333029928123104169e-01,-6.611195206642150879e-01,-2.657810449600219727e-01,1.125466481999870183e+02,0.000000000000000000e+00
9.913549999999999862e-01,-5.320559528016910456e-02,-2.135535638766884389e-02,8.528060317039489746e-01,1.501029460607298735e-02,-4.109917715187849652e-02,3.359588853063084912e-02,-4.709690830566669317e-02,3.066879152695975094e-02,-2.045029252767562866e-01,3.413915068085180970e-01,3.033408963623159260e-01,1.404667129407583814e-01,-1.529768713239583189e-01,1.040975093841552679e-01,2.217633967363761005e-01,-5.892273187637328546e-02,2.040975093841552734e-01,1.265932559967040960e-01,5.332792096637940515e-01,-6.655304431915283203e-01,2.210298776626586914e-01,-4.525069993062981411e+01,0.000000000000000000e+00
1.019457999999999975e+00,-5.445531279612748216e-02,-2.034543481028019962e-02,8.481147885322570801e-01,2.435652695807794324e-02,-3.055699563954061837e-02,3.666048472923587320e-02,-7.799799883601972461e-02,8.268974349629289178e-03,-1.972318440675735474e-01,2.974564566298157353e-01,3.649522358349943651e-01,6.802299125863048301e-02,-2.330583095550537165e-01,1.080853819847106823e-01,2.830486238002777322e-01,-1.330583095550537109e-01,2.080853819847106878e-01,1.830486238002776989e-01,5.334611578691254019e-01,-6.637185811996459961e-01,4.553252458572387695e-01,1.238406460303590677e+02,0.000000000000000000e+00
1.047946000000000044e+00,-5.520786159324026637e-02,-1.972786922943569818e-02,8.449724912643432617e-01,2.976421364193366711e-02,-2.317936652959340371e-02,3.890934588896795276e-02,-6.084886212121049659e-02,2.742433247875269986e-02,-2.060418128967285156e-01,2.290921733124144377e-01,4.236383933011209635e-01,1.256976071786351790e-01,-2.502364993095397838e-01,1.179685175418853649e-01,3.053773164749145619e-01,-1.502364993095397783e-01,2.179685175418853704e-01,2.053773164749145563e-01,5.347512103669173067e-01,-6.572782397270202637e-01,8.325326442718505859e-02,-1.600922985219303030e+02,0.000000000000000000e+00
1.071736999999999940e+00,-5.627819513203451834e-02,-1.875695453866640244e-02,8.404574394226074219e-01,3.519307018208389648e-02,-1.176210171404679095e-02,4.180768570292046210e-02,-7.337969602279142967e-02,1.550335973856055947e-02,-2.052968144416809082e-01,1.525763185922740794e-01,3.177763054701749912e-01,8.711833056362908168e-02,-2.539342820644378551e-01,1.222717106342315618e-01,3.174294650554657093e-01,-1.539342820644378496e-01,2.222717106342315674e-01,2.174294650554657038e-01,5.352709678585485520e-01,-6.622112393379211426e-01,1.159939408302307129e+00,-7.636140393016854766e+00,0.000000000000000000e+00
1.095344000000000095e+00,-5.699110651407537920e-02,-1.809354203909617140e-02,8.374118208885192871e-01,3.512802801190757079e-02,-3.932874359674487508e-03,4.342580548989295047e-02,-7.007374671844661396e-02,2.890633628445170994e-02,-2.251317203044891357e-01,-1.110438389568750295e-01,4.278151561416629889e-01,1.120496389362542894e-01,-2.894425451755523460e-01,1.245094954967498613e-01,-1.217931509017944336e-01,-1.894425451755523682e-01,2.245094954967498668e-01,-2.217931509017944391e-01,5.427026041337396078e-01,-3.595532178878784180e-01,-1.396352052688598633e-01,8.553430871190793994e+01,0.000000000000000000e+00
1.123834000000000000e+00,-5.778921396197825994e-02,-1.747236323256733115e-02,8.345380425453186035e-01,3.286668797690244642e-02,1.917705806512959299e-03,4.369258992761684834e-02,-6.422556359279039950e-02,1.154921450316638565e-02,-2.056794315576553345e-01,-1.875489061555239423e-01,2.392490240209260433e-01,-2.693246646771685349e-02,-2.421876907348632924e-01,1.051803456612923071e-01,-1.263529777526855302e-01,-1.421876907348632868e-01,1.713971436023712103e-01,-2.263529777526855358e-01,5.383917392084939246e-01,-5.522209405899047852e-01,-5.550825595855712891e-02,-5.012283095995082505e+01,0.000000000000000000e+00
1.151664999999999939e+00,-5.997593536692333999e-02,-1.615803195819152591e-02,8.288455009460449219e-01,2.384511997086361315e-02,6.325725638275381257e-03,4.209790818836589565e-02,-6.936746004116324527e-02,1.658352558327872220e-02,-2.054995745420455933e-01,-2.867383353435543070e-01,2.403710487313803074e-02,-9.192659714774360780e-02,1.258471488952636608e-01,1.345250659067604437e-01,-1.262275934219360130e-01,2.258471488952636663e-01,1.784365832805633600e-01,-2.262275934219360185e-01,5.364237866401111443e-01,-7.019723057746887207e-01,2.873913049697875977e-01,1.051461860456023913e+02,0.000000000000000000e+00
1.175491999999999981e+00,-6.180983960751124107e-02,-1.507471303448429216e-02,8.262177109718322754e-01,1.882339417718050315e-02,5.186512570277468370e-03,4.066125328144887252e-02,-6.869595641990218493e-02,1.063383389239094291e-02,-2.024009376764297485e-01,-2.540422034094630410e-01,-1.485746538009231066e-01,-6.921833898485428571e-02,1.211519956588744951e-01,1.383559827027910638e-01,-1.155203580856323242e-01,2.211519956588745006e-01,1.903572142124176081e-01,-2.155203580856323298e-01,5.361221576659659371e-01,-7.356075644493103027e-01,2.354229688644409180e-01,-1.137221442467137251e+02,0.000000000000000000e+00
1.200353999999999921e+00,-6.357966032497526510e-02,-1.410189552235147602e-02,8.235107064247131348e-01,1.332662323134408550e-02,3.328676999650337365e-03,3.864071367341146562e-02,-7.443688175986858113e-02,1.036291704691429637e-02,-1.998757719993591309e-01,-2.759011412577165867e-01,-9.249990523690956867e-02,-1.077713994839289563e-01,1.365263529661834840e-01,1.327946016992163636e-01,-1.191084384918212891e-01,2.253937125205993652e-01,2.027652025222778376e-01,-2.191084384918212946e-01,5.366379913089509568e-01,-7.268673777580261230e-01,6.699694395065307617e-01,-7.157259608607981249e+01,0.000000000000000000e+00
1.223541999999999907e+00,-6.624374843973647453e-02,-1.272166871968039362e-02,8.197329044342041016e-01,4.758782780211257175e-03,-1.094669999200048593e-03,3.512996892069093074e-02,-7.088025653118529279e-02,1.773294229693930454e-02,-1.988617032766342163e-01,-2.636798592356540127e-01,-2.083356676540158159e-01,-6.463055295938209543e-02,1.647303786175765561e-01,7.188647879541039398e-02,-9.740983560437635469e-02,1.922923564910888616e-01,1.693896353244781494e-01,-1.958737134933471735e-01,5.372892988850278551e-01,-7.206459045410156250e-01,-4.365608692169189453e-01,6.568749336133255667e+01,0.000000000000000000e+00
1.248210000000000042e+00,-6.807230954063717143e-02,-1.169279159777336305e-02,8.173830509185791016e-01,-1.293142681530239308e-03,-3.672162130097023081e-03,3.452195244544995628e-02,-7.850538897436951102e-02,1.777017230443555737e-02,-1.917206048965454102e-01,-3.161602168710575533e-01,-1.613654729464874815e-01,3.188084642982081524e-03,2.329991515961776227e-01,9.991168975830078125e-02,-9.130289712493533383e-02,2.215378761291503795e-01,1.999116897583007868e-01,-1.879302263259887695e-01,5.372262481193779138e-01,-7.242555022239685059e-01,9.960424900054931641e-02,1.427575106348697034e+02,0.000000000000000000e+00
1.267114000000000074e+00,-7.014168752643837323e-02,-1.046577602750110511e-02,8.151254653930664062e-01,-7.639686568609070118e-03,-6.427594890139110007e-03,3.518897995114398519e-02,-8.452814007057936341e-02,1.955967281014552028e-02,-1.836968064308166504e-01,-2.729674254596149985e-01,-1.362646269478959005e-01,4.799417542105052781e-02,2.758131729898300466e-01,1.036269247531890758e-01,-9.798769446645563819e-02,2.210514307022094782e-01,2.036269247531890814e-01,-1.962880611419677568e-01,5.371739506945247822e-01,-7.230381965637207031e-01,-1.723161935806274414e-01,1.113997091741801313e+02,0.000000000000000000e+00
1.288534000000000068e+00,-7.222043871166551610e-02,-9.173709967806848928e-03,8.130831122398376465e-01,-1.399979895975375470e-02,-9.091633124920006637e-03,3.620980795991921714e-02,-7.384673631669365357e-02,3.258303336687179419e-02,-1.790892779827117920e-01,-3.665263308676537934e-01,-1.014086204985139017e-01,4.945756756983483299e-02,3.244970321655273326e-01,8.186178207397459827e-02,-1.238765478134155051e-01,2.244970321655273271e-01,1.818617820739746038e-01,-2.238765478134155107e-01,5.372576520417072787e-01,-7.262890338897705078e-01,4.167722463607788086e-01,-6.486545277396484721e+01,0.000000000000000000e+00
1.316109999999999891e+00,-7.647106928358304856e-02,-6.612069108000818290e-03,8.094800114631652832e-01,-2.092018310902886077e-02,-1.563144240351532765e-02,3.915677635921010341e-02,-1.013955437162712830e-01,2.218621729939452419e-02,-1.358543485403060913e-01,-5.688126403235817252e-02,-1.657233278304937607e-01,5.242358950925429112e-02,3.153107523918151633e-01,-1.231801509857177734e-01,-1.157964825630187766e-01,2.153107523918151855e-01,-2.318015098571777136e-02,-2.157964825630187822e-01,5.360121471364842627e-01,-6.561420559883117676e-01,-3.779757022857666016e-02,4.800771603438921886e+01,0.000000000000000000e+00
1.345709999999999962e+00,-7.869246306349456099e-02,-5.378307776805615198e-03,8.079512715339660645e-01,-2.131810912424643434e-02,-1.894377259108770417e-02,4.064660328880605189e-02,-7.738862596964710128e-02,3.443507726229442373e-02,-1.515193432569503784e-01,-4.779085846080955574e-02,-1.145944411444548422e-01,8.826018568860682922e-02,3.206065416336059681e-01,-2.201416134834289495e-01,-1.225247859954833873e-01,2.206065416336059626e-01,-1.201416134834289440e-01,-2.225247859954833929e-01,5.385225495346964708e-01,-6.013558506965637207e-01,-3.894580602645874023e-01,9.836021552027629866e+01,0.000000000000000000e+00
1.364217999999999931e+00,-8.106155977136049462e-02,-4.331772779093582409e-03,8.066673278808593750e-01,-1.943344940232869314e-02,-2.233663288219123189e-02,4.204243584751227170e-02,-8.636489066796940173e-02,3.551015988860300315e-02,-1.230458915233612061e-01,1.629352964064467724e-01,-1.721030893714742827e-01,5.941560750293564674e-02,3.121629118919372337e-01,-2.273477077484130915e-01,1.616979598999023493e-01,2.121629118919372559e-01,-1.273477077484130859e-01,6.169795989990234375e-02,5.359598975729872317e-01,-6.521729230880737305e-01,-1.448744535446166992e-01,1.047575277912611540e+02,0.000000000000000000e+00
1.389561000000000046e+00,-8.461854027794100952e-02,-2.690257650197330156e-03,8.050460815429687500e-01,-1.561884127557361217e-02,-2.604302616480302923e-02,4.381257031643633060e-02,-1.042285270072862563e-01,3.032512627971488406e-02,-9.942478686571121216e-02,1.630253251909106471e-01,-1.025108606622288643e-01,2.232744521239614366e-02,2.444668531417846791e-01,-2.905652999877929576e-01,2.064281582832336315e-01,1.444668531417846735e-01,-1.905652999877929521e-01,1.064281582832336398e-01,5.364388319221236046e-01,-5.543324947357177734e-01,-3.662048578262329102e-01,1.068086472593943199e+02,0.000000000000000000e+00
1.420549999999999979e+00,-8.834026262019643860e-02,-9.987312563095353257e-04,8.036733269691467285e-01,-9.618338778733337077e-03,-2.877960169353843689e-02,4.572697832914603827e-02,-9.945377217445254547e-02,4.141941230646770805e-02,-1.038304120302200317e-01,2.014099637991512148e-01,-4.312609950404037301e-02,6.875390483055653090e-02,-6.116689015818425890e-02,-3.008297562599182018e-01,-3.995684385299680397e-02,-1.490300059318542536e-01,-2.008297562599181962e-01,-1.399568438529968095e-01,5.359791460462624002e-01,-6.174538135528564453e-01,-4.350627660751342773e-01,9.230332670771406356e+01,0.000000000000000000e+00
1.438784000000000063e+00,-9.089153142073853886e-02,1.407816341305028070e-04,8.028869628906250000e-01,-4.063162906827284641e-03,-3.093288196583054983e-02,4.718608081909114044e-02,-1.155544478641366141e-01,3.867866634760123296e-02,-9.363285452127456665e-02,3.373394698296975913e-01,-1.717025683204432829e-01,1.019587636857273577e-01,-1.969530616407299400e-02,-3.117815375328064076e-01,1.770480990409851185e-01,-6.928170919418334683e-02,-2.117815375328064020e-01,7.704809904098509910e-02,5.380025121755207529e-01,-4.837575554847717285e-01,-2.818969488143920898e-01,9.945373563658451133e+01,0.000000000000000000e+00
1.463948000000000027e+00,-9.474473712717521034e-02,1.955242267025941554e-03,8.019279837608337402e-01,4.694982339840902269e-03,-3.201720364085880455e-02,4.934316883246459701e-02,-1.070004671392793955e-01,4.865765000908601340e-02,-8.303689211606979370e-02,3.261280368559424381e-01,3.166787389476408837e-02,8.024108372783499143e-02,-2.054631264364962240e-01,-3.081957817077636830e-01,-7.053910493850706898e-02,-2.068842351436614990e-01,-2.081957817077636774e-01,-1.705391049385070745e-01,5.346547073520496740e-01,-6.445095539093017578e-01,-3.096736669540405273e-01,1.159932094664996498e+02,0.000000000000000000e+00
1.487422000000000022e+00,-9.738456657982731690e-02,3.140872650450720477e-03,8.013927936553955078e-01,1.069897885251027553e-02,-3.115403576567499222e-02,5.050436122127802824e-02,-1.106229836855573689e-01,4.008801083061087900e-02,-8.555035293102264404e-02,3.042014699284998902e-01,8.541790922556569132e-02,5.537477518175863006e-02,-2.563447288010714531e-01,-2.791368007659912331e-01,-3.034155368804930530e-02,-2.123392403125762828e-01,-1.791368007659911998e-01,-1.303415536880493109e-01,5.350954158998063592e-01,-6.467480659484863281e-01,-1.716467142105102539e-01,1.006349690422140242e+02,0.000000000000000000e+00
1.518191000000000068e+00,-1.025145791540414686e-01,5.313913824158180040e-03,8.003019690513610840e-01,2.259171790703220009e-02,-2.513523160602604278e-02,4.952384565810740574e-02,-1.047745317783590480e-01,4.014194564572365342e-02,-8.862408250570297241e-02,2.222920893546254939e-01,2.885527790092446421e-01,-2.454227384385054486e-02,-2.436833977699279785e-01,1.090539455413818137e-01,3.060753881931305154e-01,-1.436833977699279730e-01,2.090539455413818193e-01,2.060753881931304821e-01,5.349342431741401782e-01,-6.864489912986755371e-01,1.001729369163513184e+00,-7.746659683976830912e+00,0.000000000000000000e+00
1.537927999999999962e+00,-1.037758749263812952e-01,5.828191956903421879e-03,7.999938130378723145e-01,2.569829071597717202e-02,-2.308021518859537657e-02,4.867852231085353920e-02,-1.028706883119787918e-01,3.887427647225972366e-02,-8.604274690151214600e-02,2.459677770658018903e-01,2.858309928307863346e-01,-9.561124189452722966e-02,-2.779153227806091531e-01,1.077333509922027421e-01,3.113760948181152344e-01,-1.779153227806091198e-01,2.077333509922027477e-01,2.113760948181152288e-01,5.350060420613915735e-01,-6.878554821014404297e-01,-5.007411241531372070e-01,7.048255253605914561e+01,0.000000000000000000e+00
1.565256999999999898e+00,-1.063651417601604449e-01,6.890225111201271103e-03,7.993683815002441406e-01,3.101916515572049338e-02,-1.791127780922718848e-02,4.817290554548364634e-02,-1.172222099956465174e-01,3.282903466002554810e-02,-6.808617711067199707e-02,2.587624479247219722e-01,2.339815820857505113e-01,-7.961361655536236537e-03,-2.952729523181915061e-01,1.096634149551391491e-01,3.171083331108093262e-01,-1.952729523181915283e-01,2.096634149551391546e-01,2.171083331108093206e-01,5.338679199506606299e-01,-6.964050531387329102e-01,1.335363030433654785e+00,1.020343450295554106e+02,0.000000000000000000e+00
1.593593999999999955e+00,-1.102597345494258640e-01,8.569314178377224200e-03,7.984442710876464844e-01,3.529586638743298366e-02,-8.124426132161799430e-03,4.746474475398920756e-02,-1.269508630545342909e-01,3.189620260824042874e-02,-7.793457061052322388e-02,8.609331909362023805e-02,3.483489597062368048e-01,-3.646068323990123150e-02,-2.604087591171264648e-01,1.209472000598907360e-01,3.234722316265106201e-01,-1.604087591171264593e-01,2.209472000598907415e-01,2.234722316265106146e-01,5.350631228675644113e-01,-6.876459717750549316e-01,-4.449021816253662109e-02,8.447177716386407553e+01,0.000000000000000000e+00
1.615693999999999964e+00,-1.128459597928724578e-01,9.626096867221278081e-03,7.976077198982238770e-01,3.554019310389736064e-02,-1.199767714074928548e-03,4.794253290345950463e-02,-1.165848917511302651e-01,3.557604448949097664e-02,-8.968279510736465454e-02,-2.795204884717438290e-02,3.473472560540447063e-01,4.147436758475830237e-02,-6.055375337600708840e-02,1.250895857810973844e-01,3.087125003337859996e-01,3.944624662399291715e-02,2.250895857810973899e-01,2.087125003337859941e-01,5.359912741453647378e-01,-7.002654075622558594e-01,1.126111388206481934e+00,1.704446045110543295e+01,0.000000000000000000e+00
1.641035999999999939e+00,-1.166721827205024625e-01,1.125221986436820282e-02,7.964785695075988770e-01,3.239530728715247360e-02,9.561981398347407790e-03,4.884042450857607742e-02,-1.196573025419550296e-01,2.885744126088265679e-02,-7.768939435482025146e-02,-1.978624665925186599e-01,3.633216769918566902e-01,5.255436015985775686e-03,-1.813934206962585505e-01,1.277966112913010432e-01,-1.254308700561523326e-01,-8.139342069625854492e-02,2.226020872592925914e-01,-2.254308700561523382e-01,5.434375820775803057e-01,-2.583169937133789062e-01,-3.201826810836791992e-01,8.990724170536022086e+01,0.000000000000000000e+00
1.666503000000000068e+00,-1.202315496946376877e-01,1.247818804560589696e-02,7.952075600624084473e-01,2.591771238360039697e-02,1.843204401084896915e-02,4.822356519138287084e-02,-1.032639484006731279e-01,2.952731404575746621e-02,-7.578194141387939453e-02,-2.495503280927480472e-01,2.034187451334804331e-01,-5.490571437748411471e-02,5.423724651336669922e-02,1.914849332858058195e-01,-1.240992784500122015e-01,1.542372465133667048e-01,2.193795382976531927e-01,-2.240992784500122070e-01,5.410900738869595106e-01,-4.000118970870971680e-01,-2.030786275863647461e-01,8.930361007708201271e+01,0.000000000000000000e+00
1.692539000000000016e+00,-1.224673195525875641e-01,1.316655737532163029e-02,7.943828701972961426e-01,2.090232071599146257e-02,2.088821301728538415e-02,4.599872819069664165e-02,-1.149735090217679084e-01,2.050956207707997636e-02,-7.232432067394256592e-02,-1.929426431186782032e-01,1.284981999527577343e-02,-1.213714328300005557e-01,1.206146955490112194e-01,1.911151167226856351e-01,-1.029335737228393444e-01,2.206146955490112249e-01,2.163685441017150768e-01,-2.029335737228393499e-01,5.356605857889378264e-01,-7.053163647651672363e-01,-2.761408090591430664e-01,7.927968592287382421e+01,0.000000000000000000e+00
1.713996999999999993e+00,-1.247270043221947872e-01,1.380766684631820965e-02,7.935906052589416504e-01,1.502226812555456162e-02,2.154640728342505085e-02,4.347990367775961956e-02,-1.083705016096879470e-01,3.318450623964857432e-02,-9.037017077207565308e-02,-3.257886078947350161e-01,3.454521211634056094e-02,-9.608266202047940907e-02,1.614476675418697049e-01,2.002677398358411187e-01,-1.188268423080444114e-01,2.245146989822387751e-01,2.163220345973968506e-01,-2.188268423080444169e-01,5.375070435633371169e-01,-6.922523379325866699e-01,-4.716466665267944336e-01,1.142049908097094288e+02,0.000000000000000000e+00
1.741052000000000044e+00,-1.280117741380608354e-01,1.468278185862462518e-02,7.924159765243530273e-01,6.121672928194022388e-03,1.889510748306832966e-02,3.908508047270512625e-02,-1.043461706415854257e-01,1.700083006341088915e-02,-6.900693476200103760e-02,-2.693610437468529351e-01,-1.791596797139868857e-01,-1.549080080372924606e-01,1.967277096536830805e-01,1.782537624495419970e-01,-1.010226249694824163e-01,2.154335975646972656e-01,2.137051463127136175e-01,-2.010226249694824219e-01,5.361694830059348105e-01,-7.002412676811218262e-01,2.587543725967407227e-01,8.704301553729371221e+01,0.000000000000000000e+00
1.766634000000000038e+00,-1.315772214699479081e-01,1.577614301529321750e-02,7.912867665290832520e-01,-2.132665447137214575e-03,1.512658329862670570e-02,3.460609506023425153e-02,-1.016277659391505717e-01,2.520664482078137369e-02,-6.091357395052909851e-02,-2.339283318660008160e-01,-1.021536026616436388e-01,-1.342413847349507583e-01,2.660860718755578835e-01,1.551605316080883201e-01,-8.804828978154904950e-02,2.231153368949889970e-01,2.168048322200775146e-01,-1.849461793899536133e-01,5.358341986875144736e-01,-7.049168944358825684e-01,6.926497220993041992e-01,-1.170741142234108452e+02,0.000000000000000000e+00
1.791930999999999941e+00,-1.340916870400268857e-01,1.662667349396458605e-02,7.906113862991333008e-01,-6.387994921159034604e-03,1.213864320901159033e-02,3.380544793985035268e-02,-9.176772351822119755e-02,2.998610259631028993e-02,-6.219196319580078125e-02,-1.890912053887697508e-01,-1.703516763814682533e-01,2.481267762437191701e-02,2.622027699532302192e-01,1.344871796055949198e-01,-8.854820315259698260e-02,1.889829397201538141e-01,2.108784019947052002e-01,-1.831501722335815430e-01,5.364622603576941762e-01,-6.912018060684204102e-01,3.360444307327270508e-01,6.998998661387450682e+01,0.000000000000000000e+00
1.820928000000000102e+00,-1.377931560832275915e-01,1.790856235398910479e-02,7.899112105369567871e-01,-1.094211048384842976e-02,7.801404323555694020e-03,3.422059951969814995e-02,-1.025304103494659724e-01,3.026444096117246116e-02,-4.269751533865928650e-02,-4.117947785558904311e-02,-2.115829612609096688e-01,2.466712450916359184e-02,3.051804065704345481e-01,9.879163503646848365e-02,-9.433675227799176444e-02,2.051804065704345703e-01,1.987916350364684892e-01,-1.899697065353393444e-01,5.348802653479053371e-01,-7.178710103034973145e-01,8.961979150772094727e-01,9.483581058779304573e-01,0.000000000000000000e+00
1.841595000000000093e+00,-1.401861208010799220e-01,1.872337851204224773e-02,7.896799445152282715e-01,-1.209396952948797732e-02,4.435308568929041684e-03,3.492661941581293172e-02,-1.023144503913074321e-01,2.458668235478429775e-02,-2.526822313666343689e-02,-6.754276875426053206e-02,-1.383572576914891550e-01,3.394103723754388763e-02,2.852214097976684681e-01,1.000575840473174882e-01,-8.504188235813914254e-02,1.852214097976684626e-01,2.000575840473174938e-01,-1.825693845748901367e-01,5.342294026584221145e-01,-6.976130604743957520e-01,1.015134453773498535e+00,-4.697468748846522857e+01,0.000000000000000000e+00
1.866689000000000043e+00,-1.438559797279300723e-01,1.988239540864751922e-02,7.896800637245178223e-01,-1.014492590274529427e-02,-1.856567418840882056e-03,3.641316541179759336e-02,-9.439764563561042765e-02,2.745748708843666688e-02,-1.335327047854661942e-02,1.091390918196508686e-01,-2.038285689250121935e-01,3.823866991666766829e-02,3.181044177215762714e-01,3.243753910064695045e-02,1.759293496608734242e-01,2.197708368301391491e-01,1.324375391006469560e-01,7.592934966087340476e-02,5.340405783555127739e-01,-6.719650030136108398e-01,4.735199213027954102e-01,1.073173187676418507e+02,0.000000000000000000e+00
1.889566999999999997e+00,-1.463019696919644064e-01,2.059251708897285107e-02,7.897984981536865234e-01,-7.515995518884849291e-03,-6.254933462620737572e-03,3.754937023620832232e-02,-1.115806784456448153e-01,2.387835735899939207e-02,-1.778276637196540833e-03,1.691076044878324358e-01,-2.368601525435335420e-01,8.855355078345593378e-02,2.952463152235579313e-01,2.283998727798461359e-02,1.846560060977935902e-01,2.160140991210937333e-01,1.228399872779846191e-01,8.465600609779357077e-02,5.337724638315229919e-01,-6.523982882499694824e-01,2.902427911758422852e-01,-9.453653218893059318e+01,0.000000000000000000e+00
1.919008000000000047e+00,-1.499963023379182747e-01,2.163540291720995185e-02,7.902033925056457520e-01,-1.416282800259022721e-03,-1.210408668741291827e-02,3.902490146884814159e-02,-8.895715484273764018e-02,3.889882732661371911e-02,1.022191718220710754e-02,2.971525435919697422e-01,-1.899468070281734589e-01,2.985362084571406907e-02,1.929474600046619526e-01,-1.955006957054138406e-01,2.637519896030425803e-01,1.416299343109130859e-01,-9.550069570541382113e-02,1.637519896030426025e-01,5.352641993861726455e-01,-5.300623774528503418e-01,-1.819566488265991211e-01,9.477024077176092476e+01,0.000000000000000000e+00
1.940757000000000065e+00,-1.512254711350278780e-01,2.194710153683730736e-02,7.903357148170471191e-01,8.448181704974129557e-04,-1.387940635091866604e-02,3.950822999307380956e-02,-9.609044944068392824e-02,2.836396180556821633e-02,2.172977663576602936e-03,2.639068600089242711e-01,-1.614474331953144048e-01,8.279433814436341910e-02,2.287292576885950959e-02,-2.622433900833129883e-01,2.195985198020934948e-01,-4.560041427612304861e-03,-1.622433900833129827e-01,1.195985198020935031e-01,5.362891606692403723e-01,-5.157248377799987793e-01,-2.318128347396850586e-01,3.847081851894879634e+01,0.000000000000000000e+00
1.967036000000000007e+00,-1.561329892607028480e-01,2.319979437836302075e-02,7.909914255142211914e-01,1.170086956142640626e-02,-1.967416891725681793e-02,4.132448891687295900e-02,-1.018108356092443795e-01,3.131097273361797134e-02,1.231009606271982193e-03,2.382498796133639407e-01,-2.596400949423678661e-02,6.911466411570950374e-02,-2.395906734124768345e-01,-3.171474933624267578e-01,-9.361987113952635609e-02,-2.010313332080841120e-01,-2.171474933624267523e-01,-1.936198711395263616e-01,5.340889079620995128e-01,-6.492599248886108398e-01,7.924948930740356445e-01,-9.651513212355116167e+00,0.000000000000000000e+00
1.994720999999999966e+00,-1.586467625708936346e-01,2.376481944693313933e-02,7.913266420364379883e-01,1.824644426440660133e-02,-2.241192955868465120e-02,4.225649017908660043e-02,-9.779044536168711443e-02,2.296508178850293833e-02,2.275147661566734314e-02,3.350118521342764777e-01,-1.266465892586245701e-01,5.657575670526215211e-02,-2.558795173552491642e-01,-3.228615641593933216e-01,2.792372047901153786e-01,-1.688244581222534124e-01,-2.228615641593933161e-01,1.792372047901153453e-01,5.347133733207772854e-01,-5.376403927803039551e-01,2.215160131454467773e-01,9.921092924177973771e+01,0.000000000000000000e+00
2.017071000000000058e+00,-1.610954566932260856e-01,2.419949481814627143e-02,7.916538119316101074e-01,2.456979256236991455e-02,-2.405986655064973334e-02,4.205365590076472898e-02,-1.158871270570476231e-01,1.499780654544493816e-02,2.071892097592353821e-02,3.366276973258899852e-01,-7.388409081387907473e-02,-3.034380416426558317e-03,-3.136188507080078236e-01,-3.254695653915404829e-01,2.883611500263214000e-01,-2.136188507080078181e-01,-2.254695653915405051e-01,1.883611500263213945e-01,5.342188119025347293e-01,-5.823680758476257324e-01,7.072135210037231445e-01,-9.349231920824070130e+01,0.000000000000000000e+00
2.040048999999999779e+00,-1.635813861179929163e-01,2.452860982221367198e-02,7.920366525650024414e-01,3.143020762470704471e-02,-2.520018802322532281e-02,4.063451621409488318e-02,-1.140245660463104632e-01,9.308523312928909318e-03,2.028589323163032532e-02,3.552765716864224044e-01,-3.639929594304479842e-03,-7.452870672442903077e-02,-3.225955605506897195e-01,-3.246058225631713867e-01,2.726942956447601096e-01,-2.225955605506896862e-01,-2.246058225631713812e-01,1.726942956447601318e-01,5.327751164810408113e-01,-6.712380051612854004e-01,-1.437355279922485352e-01,1.310166340176712367e+02,0.000000000000000000e+00
2.069478000000000151e+00,-1.685470528323314843e-01,2.478855148804691780e-02,7.927149534225463867e-01,4.463831062512338410e-02,-2.559297809843186222e-02,3.637367002179248826e-02,-1.101411043349665303e-01,-5.038633209468490123e-03,2.252315171062946320e-02,2.874691585141038730e-01,5.632533084260405581e-02,-1.556215078654683281e-01,-3.259462654590606911e-01,-3.245597600936889759e-01,3.242262005805969238e-01,-2.259462654590606578e-01,-2.245597600936889704e-01,2.242262005805969183e-01,5.318642407299704056e-01,-7.190419435501098633e-01,2.324320077896118164e-01,8.969906436964740237e+01,0.000000000000000000e+00
2.090142000000000166e+00,-1.709699811221871424e-01,2.474977504347392748e-02,7.928267717361450195e-01,4.952425518800795262e-02,-2.311781651040445418e-02,3.420335369522422425e-02,-1.102806560959089244e-01,-4.125467409462912211e-03,2.230263873934745789e-02,2.283469059798024503e-01,1.460477092788151909e-01,-6.572984734091345815e-02,-3.239089846611022949e-01,-3.066418170928955078e-01,2.927208884753151885e-01,-2.239089846611022894e-01,-2.066418170928955023e-01,1.930926561355590654e-01,5.318857739004571039e-01,-7.278088927268981934e-01,-2.547699213027954102e-01,9.714059645151131406e+01,0.000000000000000000e+00
2.118056999999999856e+00,-1.746654654365093207e-01,2.466411301368779535e-02,7.929657101631164551e-01,5.237714258468964545e-02,-1.581044527028385716e-02,3.252575340506581869e-02,-1.120320646598182007e-01,-1.065694713171631315e-02,7.441073190420866013e-03,-4.846358284913706606e-03,3.244080846688147113e-01,-7.570345877985633354e-02,-2.973187088966369740e-01,1.124862432479858398e-01,1.988184787827790567e-01,-1.973187088966369684e-01,2.124862432479858454e-01,1.042386531829833929e-01,5.343500793273695537e-01,-6.607405543327331543e-01,-1.823604106903076172e-02,9.586201235964161071e+01,0.000000000000000000e+00
2.141040999999999972e+00,-1.770421827640036583e-01,2.449029483240173360e-02,7.928705811500549316e-01,5.071854068701588808e-02,-9.154142831151457216e-03,3.114636644966121970e-02,-1.045313314214739442e-01,-1.550940134726706311e-02,9.213682264089584351e-03,-1.312436439324134729e-01,3.323927617885447661e-01,-8.156602972631205040e-02,-2.782037854194641113e-01,1.149619400501251110e-01,1.111999566534652983e-01,-1.782037854194641058e-01,2.149619400501251165e-01,2.113673686981201033e-02,5.348902822307314286e-01,-6.338989734649658203e-01,-1.267856359481811523e-01,1.069479284769492295e+02,0.000000000000000000e+00
2.166259999999999852e+00,-1.804793604117970740e-01,2.413481956526978417e-02,7.926352024078369141e-01,4.474553510816537544e-02,1.930466788525375676e-03,2.716458593779532901e-02,-1.027377377254869162e-01,-1.755241283152123022e-02,4.297024104744195938e-03,-2.786605177251026966e-01,3.858561987855523290e-01,-1.708249452728480000e-01,4.386743307113646906e-02,1.152965188026428001e-01,2.756683829816459208e-01,1.438674330711364746e-01,2.152965188026428056e-01,1.977756321430206299e-01,5.359577787892502165e-01,-6.057093739509582520e-01,-1.512268781661987305e-01,7.680980072653800050e+01,0.000000000000000000e+00
2.194566000000000017e+00,-1.830515080272992756e-01,2.437144573431275149e-02,7.922137975692749023e-01,3.880860561842201795e-02,8.786180998491710525e-03,2.461291951996444002e-02,-9.515593864345753272e-02,-1.967773660273127237e-02,-1.953356841113418341e-04,-3.014038726615126396e-01,2.980119523325444053e-01,-1.003684823068033694e-01,9.135916233062743586e-02,1.129688262939453069e-01,1.699653598328484394e-01,1.913591623306274414e-01,2.129688262939453125e-01,9.986872673034667691e-02,5.380348377671180238e-01,-5.203329324722290039e-01,-3.583022356033325195e-01,1.019330123430291053e+02,0.000000000000000000e+00
2.217645999999999784e+00,-1.855435904637281752e-01,2.445301579331709760e-02,7.917065620422363281e-01,3.216553596923821950e-02,1.601993237747101340e-02,2.139642864963101077e-02,-9.958332452834903203e-02,-2.996113321740239560e-02,-5.644808057695627213e-03,-3.507776506145275919e-01,3.211697178500885208e-01,-1.719513420092472489e-01,7.704703807830809437e-02,1.192956387996673417e-01,-1.211640869338089510e-01,1.770470380783080999e-01,2.192956387996673473e-01,-1.817416191101074163e-01,5.413552871791322829e-01,-3.707644343376159668e-01,-2.467907667160034180e-01,7.523690378333245121e+01,0.000000000000000000e+00
2.248679000000000094e+00,-1.890480533545235708e-01,2.448673215601472608e-02,7.907505631446838379e-01,2.129718354202662228e-02,2.615598686978160003e-02,1.663726175250170372e-02,-9.511689398070899415e-02,-2.644842152536996255e-02,-7.894061505794525146e-03,-3.581758600508365142e-01,3.366638341454857852e-01,-1.253889880719214200e-01,-1.912043690681457520e-01,1.895253764854795964e-01,-1.769199834459734832e-01,-9.120436906814574640e-02,2.239988744258880615e-01,-2.236421585083007701e-01,5.450750134227603239e-01,-1.865521073341369629e-01,-3.828364610671997070e-01,7.641849235879880098e+01,0.000000000000000000e+00
2.274652000000000118e+00,-1.912855288168842371e-01,2.437571142193629276e-02,7.899806499481201172e-01,1.393211719744477835e-02,3.151779484859229541e-02,1.353297480635655414e-02,-8.702884455023815469e-02,-3.582923834011583764e-02,-1.040957309305667877e-02,-3.734733178028838974e-01,2.126039583184473059e-01,-1.502076814898993529e-01,-6.546846300569994503e-03,2.273368857991525938e-01,-1.722617242431309370e-01,8.907072544097900668e-02,2.239056408405303844e-01,-2.101258277893066351e-01,5.389607797647073539e-01,-5.509473085403442383e-01,-5.860316753387451172e-01,9.793448982930941327e+01,0.000000000000000000e+00
2.294938000000000144e+00,-1.954363907728732253e-01,2.292852438352731975e-02,7.889877557754516602e-01,3.952466804805287483e-03,3.504058068850013363e-02,1.017822710511460255e-02,-9.554676520814486818e-02,-2.995652286407635492e-02,-5.841827951371669769e-03,-3.424386208054045477e-01,8.970224767159350188e-02,-6.791765251998767294e-02,1.933519507610864663e-01,2.388500594768697138e-01,-1.863079991412166792e-01,2.199958562850952148e-01,2.232052981853485107e-01,-2.147789955139160212e-01,5.363334740244327659e-01,-6.941403746604919434e-01,-4.620953798294067383e-01,5.866603157380276912e+01,0.000000000000000000e+00
2.315450999999999926e+00,-1.983688884642453854e-01,2.150799919640607530e-02,7.883274555206298828e-01,-1.440147261979404011e-03,3.395556706773894540e-02,7.542023581508623502e-03,-8.179337528750964259e-02,-3.203848206678493182e-02,4.830987891182303429e-04,-2.296264987120076595e-01,-9.249685562908215031e-02,-1.275852877830531973e-01,2.240068304144008093e-01,2.362796141810717399e-01,-1.866039917905921441e-01,2.193536996841430609e-01,2.193569004535675104e-01,-2.077191710472106878e-01,5.360474319280983391e-01,-6.973152160644531250e-01,-3.807140588760375977e-01,-5.780730604040292064e+01,0.000000000000000000e+00
2.341960999999999959e+00,-2.025274355126703840e-01,1.931425057831554284e-02,7.876511216163635254e-01,-5.702435936824751077e-03,3.000116489973470024e-02,3.504598297731455203e-03,-8.944289786477739590e-02,-4.818901880970016122e-02,1.295777410268783569e-02,-8.294186562175147326e-02,-1.850736199197431375e-01,-1.301429136959719179e-01,2.489132800153807945e-02,1.840495688037382394e-01,-1.552609856187120441e-01,6.154596805572509766e-03,2.038911223411560003e-01,-1.650321364402770885e-01,5.351915529186660470e-01,-7.090592980384826660e-01,-7.110834121704101562e-04,9.690543986857694847e+01,0.000000000000000000e+00
2.372917000000000165e+00,-2.064325937800432775e-01,1.712428374880444262e-02,7.871163487434387207e-01,-6.463847846289831611e-03,2.517966243294944562e-02,2.612416826113580105e-03,-7.540850077457370015e-02,-3.670513551936052665e-02,1.702239550650119781e-02,-4.673163691929066443e-02,-9.171899314831327699e-02,2.596104287024125074e-02,7.405629340323881260e-02,1.641455969719728958e-01,-1.601365823118629239e-01,4.141960144042968611e-02,2.072376072406768854e-01,-1.673742771148681585e-01,5.351880406655737943e-01,-7.042515277862548828e-01,2.592772245407104492e-01,7.688670182640318274e+01,0.000000000000000000e+00
2.392079999999999984e+00,-2.089332317164529496e-01,1.509178236253273971e-02,7.869700193405151367e-01,-5.837866555720308027e-03,2.158812920029617999e-02,3.178459466312361786e-03,-6.539551044100705424e-02,-3.262140307157286589e-02,3.541521728038787842e-02,6.768396846256341526e-02,-2.150412924225842681e-01,3.147585365291962617e-02,2.368795636367286295e-01,1.025612162080673934e-01,-8.221140233030616029e-02,2.080183267593383734e-01,1.665393769741058405e-01,-9.100699424743652344e-02,5.343602742867883393e-01,-6.864321827888488770e-01,-2.443910837173461914e-01,7.609683826021539232e+01,0.000000000000000000e+00
2.422270000000000145e+00,-2.124702691670422583e-01,1.134069333157372919e-02,7.870699763298034668e-01,-6.453625951366966269e-03,1.672938336976659279e-02,4.694457560908568694e-03,-7.407333239646896050e-02,-3.612486221113066220e-02,4.644746705889701843e-02,-4.465970541300393060e-02,-1.841354923894286122e-01,4.361995407171292277e-02,2.176455390719331251e-01,1.034543335437774492e-01,-1.759078131967487524e-01,1.898149251937866211e-01,2.034543335437774547e-01,-1.888471126556396373e-01,5.331547546741826071e-01,-7.182288169860839844e-01,-2.727967500686645508e-01,9.774327185330572831e+01,0.000000000000000000e+00
