timestamp,x,y,z,roll,pitch,yaw,vx,vy,vz,p,q,r,psp,qsp,rsp,pres,qres,rres,thrust_sp, thrust_res,wind_mag,wind_angle,wind_obs
0.000000000000000000e+00,-2.834475258515024637e-04,1.763203886404545243e-02,9.850620031356811523e-01,1.810028841726741763e-02,-4.967963425010823997e-03,-2.019213013478390883e-03,-5.128135180275035163e-03,2.645625064994065398e-02,4.688891116529703140e-03,2.753210626929600280e-02,3.365969040244998212e-02,-9.862581584353564274e-03,8.047072052478032589e-02,1.852852249771264614e-01,2.220547699030467337e-01,1.656326293945312444e-01,2.220044016838073619e-01,2.275260150432586448e-01,4.988167577758044757e-01,-7.343911528587341309e-01,3.794109821319580078e-02,9.773382570168359962e+01,0.000000000000000000e+00
2.471699999999999939e-02,-3.374536748996673848e-04,1.844105693079864730e-02,9.849462509155273438e-01,1.826757417283029691e-02,-5.100285000193993667e-03,-2.010980420809213749e-03,-1.247007374317301957e-02,1.817671588748854747e-02,1.027740444988012314e-02,-6.446479107356020526e-03,-2.423343032301178424e-02,4.036493784949219711e-03,8.850999472869522378e-02,1.540661243631702981e-01,-2.119452449868703681e-01,1.846583604812621904e-01,1.968793630599975641e-01,-2.065149307250976618e-01,4.986991841119544633e-01,-7.190554141998291016e-01,2.137764692306518555e-01,1.273010930714543321e+02,0.000000000000000000e+00
5.005699999999999733e-02,-5.104219617393606192e-04,1.955499082725096344e-02,9.848045110702514648e-01,1.837688315112808585e-02,-4.716029357158202373e-03,-2.010767756238097861e-03,-1.130493593225112038e-02,2.128232869060591587e-02,-1.698697684332728386e-03,-3.986998829180467274e-02,3.366588400900372147e-02,7.496507090457467382e-03,1.283158525977584064e-01,1.554047375770427064e-01,-1.168026853062840119e-02,2.206816792488097978e-01,1.938379347324371282e-01,-6.236636638641357075e-03,5.064555880779384456e-01,-3.602474331855773926e-01,1.010767221450805664e-01,7.490771598609451587e+01,0.000000000000000000e+00
7.515700000000000158e-02,-7.174231632808331007e-04,2.019222197758272289e-02,9.847214221954345703e-01,1.871436927362350733e-02,-5.106073517301634723e-03,-1.745357598988960977e-03,-8.649435521815735176e-03,2.265590074380293903e-02,9.769832715392112732e-03,1.353504103486922322e-02,-1.138187156164320417e-02,1.936749906716221659e-02,6.600207052282171249e-02,1.720970430362519510e-01,9.856154026932686940e-02,1.592871665954589677e-01,2.112703263759612982e-01,1.032539248466491644e-01,4.992177815216088943e-01,-6.960195899009704590e-01,8.375656604766845703e-02,1.043805081792656182e+02,0.000000000000000000e+00
9.909199999999999953e-02,-1.120415472249667796e-03,2.103069476505318308e-02,9.847039580345153809e-01,1.975184916826006748e-02,-6.670357161897788600e-03,-3.654821284595429517e-04,-2.503587072516074569e-02,8.170986143374983635e-03,2.345990389585494995e-02,8.799050065308980373e-02,-1.175147647056041383e-01,-1.534952660848371876e-02,1.136785745620727539e-01,1.036308834502143034e-01,2.133635247548657798e-01,2.136785745620727595e-01,1.669086277484893854e-01,2.140817105770111139e-01,5.015568201479895238e-01,-5.190814733505249023e-01,8.109056949615478516e-02,8.220588239727985069e+01,0.000000000000000000e+00
1.237670000000000020e-01,-1.410553446068670653e-03,2.143900949847856938e-02,9.847259521484375000e-01,2.101523401977485606e-02,-8.658308623480381883e-03,2.180817516551981135e-04,-1.366661029210366508e-02,1.270592538233472103e-02,1.128658000379800797e-02,6.177050893916943841e-02,-8.394002580569658034e-02,4.288800030919296541e-02,1.066894173622131292e-01,8.751489182280015877e-02,4.955424759823211234e-02,2.066894173622131348e-01,1.522925376892089733e-01,4.860044717788696012e-02,5.001049249396120056e-01,-6.433483362197875977e-01,-2.143553495407104492e-01,3.646507541256660545e+01,0.000000000000000000e+00
1.493579999999999908e-01,-1.907778304064700666e-03,2.192681294430207789e-02,9.846853613853454590e-01,2.382299639900822830e-02,-1.303193117979040139e-02,-1.058269502023824558e-03,-1.752028857810592963e-02,8.195641448619225139e-03,1.475346460938453674e-02,1.421617308883618147e-01,-1.581141125457365681e-01,-6.948849367841745950e-02,9.144542217254636451e-02,-1.110535640466257662e-01,2.121843050062894864e-01,1.914454221725463701e-01,-1.261260509490966762e-02,2.145790636539459117e-01,5.068355920843610196e-01,-2.756866216659545898e-01,1.595652103424072266e-02,9.911997161260266864e+01,0.000000000000000000e+00
1.723820000000000074e-01,-2.067414463486053414e-03,2.227011013051017826e-02,9.846017956733703613e-01,2.583830343611537989e-02,-1.591682338036415345e-02,-2.498190509321139043e-03,-2.624416147597093477e-02,4.902501176249105669e-03,-3.080382244661450386e-03,8.838101876629193832e-02,-1.239866680480777167e-01,-3.759826522742787391e-02,9.089750051498413086e-02,-1.279885649681091475e-01,2.047689906211601629e-01,1.908975005149841364e-01,-2.798856496810913155e-02,2.110021412372589111e-01,5.083899404668620337e-01,-2.651150226593017578e-01,-3.114269971847534180e-01,1.010353205804143357e+02,0.000000000000000000e+00
1.979239999999999888e-01,-2.260276173815034713e-03,2.253342182576682437e-02,9.843042492866516113e-01,2.786522443760941145e-02,-1.859750870668452905e-02,-3.745911430958507801e-03,-1.205232704271944413e-02,1.312138194280935760e-03,-2.626452362164855003e-03,1.073781872729755171e-01,-1.086498217837016389e-01,-9.302791696952157630e-02,-6.351101398468017578e-02,-2.912938594818115234e-01,2.053690673495089103e-01,3.648898601531982283e-02,-1.912938594818115179e-01,2.150179088115692083e-01,5.057524915069525617e-01,-4.048634171485900879e-01,1.948058605194091797e-02,9.828473509975849254e+01,0.000000000000000000e+00
2.225979999999999903e-01,-2.511831925132978430e-03,2.281641731121351879e-02,9.837531447410583496e-01,3.035727654523430810e-02,-1.984182593787919835e-02,-6.349118091428244265e-03,-1.269732722899057087e-02,-1.879463126576028358e-03,-1.310329325497150421e-02,5.785311717400318243e-02,-1.508522810247316798e-02,-8.744474113400586834e-02,-3.109078347682953103e-01,-2.557208299636840598e-01,2.040504373528095605e-01,-2.109078347682952770e-01,-1.557208299636840820e-01,2.208494782447814886e-01,5.032275925089055857e-01,-5.829501152038574219e-01,5.581985712051391602e-01,-5.953677824014184949e+01,0.000000000000000000e+00
2.474889999999999868e-01,-2.673361180247696943e-03,2.296277219005866260e-02,9.830254316329956055e-01,3.278005446182243043e-02,-1.767258186408859899e-02,-9.781008970809940140e-03,-1.505711131002712005e-02,-1.009394451002327761e-02,-1.952962018549442291e-02,9.425187292893717761e-02,1.365309585003222081e-01,-1.178539346483427480e-01,-3.049078941345214622e-01,1.106275618076324463e-01,1.977172908522072114e-01,-2.049078941345214844e-01,2.106275618076324518e-01,2.241677463054656816e-01,5.019036464094605021e-01,-6.825815439224243164e-01,-3.229175806045532227e-01,1.028232182183135421e+02,0.000000000000000000e+00
2.716450000000000253e-01,-2.800482344265423432e-03,2.264690998974041442e-02,9.824147820472717285e-01,3.272474622461656046e-02,-1.392875339692478676e-02,-1.222173584494336968e-02,-2.749329176091549337e-03,-3.710685549258377954e-03,-2.692826837301254272e-02,-6.445367630080511834e-02,2.286246869067845855e-01,-1.317217709011452853e-01,-1.010211706161499023e-01,1.304916380106612983e-01,1.766701807206816355e-01,-1.021170616149902214e-03,2.241129755973815807e-01,2.101874828338622936e-01,5.121935481388305567e-01,-1.720550060272216797e-01,1.428092718124389648e-01,8.852193590770906440e+01,0.000000000000000000e+00
2.958790000000000031e-01,-2.897006530357050524e-03,2.237921828058472493e-02,9.816946983337402344e-01,3.115718213532556180e-02,-9.044689276766826325e-03,-1.472687558949005437e-02,-1.413171767878974774e-03,-4.956992090992892383e-03,-3.488402813673019409e-02,-1.155762139602114769e-01,2.317155570977997847e-01,-1.308113209070139449e-01,-8.543850183486939587e-02,1.594848674911536757e-01,1.365232362882239370e-01,1.456149816513061489e-02,2.222428858280181829e-01,1.773123621940612682e-01,5.148759492917709402e-01,-6.566107273101806641e-02,1.045452356338500977e-01,9.316617767537259454e+01,0.000000000000000000e+00
3.225890000000000146e-01,-3.152223176499028938e-03,2.200892742091856494e-02,9.805190563201904297e-01,2.560982904284738598e-02,-4.004524925901087329e-03,-1.830060914386195600e-02,-1.833767244665398047e-02,-5.401037584737006236e-03,-3.333988413214683533e-02,-2.013054995221933152e-01,1.150541021244521483e-01,-1.250076198518090265e-01,1.248017311096191184e-01,1.654227344049890580e-01,1.087244557425112168e-01,2.248017311096191240e-01,2.093769371509552057e-01,1.597069680690765270e-01,5.043728093161701231e-01,-6.247495412826538086e-01,4.977595806121826172e-02,-3.466965090620203682e+01,0.000000000000000000e+00
3.496389999999999776e-01,-3.660169671953789929e-03,2.148310555014182680e-02,9.793995022773742676e-01,2.048871065400248784e-02,-4.155015185750787765e-03,-2.183388556241381076e-02,-1.883100787401704654e-02,-1.448037041022175522e-02,-3.644528239965438843e-02,-2.023008330171258973e-01,-6.554433530421947818e-02,-8.544814223982384604e-02,1.077687740325927734e-01,1.629832696675222181e-01,-2.534806797577142112e-01,2.077687740325927790e-01,2.060973286628723089e-01,-1.925421953201293945e-01,5.032237369488795631e-01,-7.047452330589294434e-01,1.009383082389831543e+00,-7.906249273745659423e+01,0.000000000000000000e+00
3.719350000000000156e-01,-3.911759416767327142e-03,2.141011706872103515e-02,9.791170358657836914e-01,1.931872524839896299e-02,-5.176704854644276210e-03,-2.307058023319084189e-02,-2.138130123977482339e-02,-1.555882936867822655e-02,-2.531408891081809998e-02,-1.579581390438930810e-01,-1.070593114322261619e-01,-1.457745856719290523e-01,-5.634164810180669614e-03,1.143358519043812804e-01,-2.459768240292822539e-01,9.436583518981933594e-02,1.663447558879852239e-01,-1.816036820411681962e-01,5.024512045365798762e-01,-7.048276662826538086e-01,2.501217126846313477e-01,7.359603279750692195e+01,0.000000000000000000e+00
4.007720000000000171e-01,-4.813977309111663883e-03,2.110866572250541875e-02,9.781894087791442871e-01,1.683231039584914476e-02,-9.703749786108328834e-03,-2.520023377153728789e-02,-3.518535750880270180e-02,-1.589536870167080132e-02,-2.292856201529502869e-02,-7.937588249906959992e-02,-1.733200122445105462e-01,2.092896439171152215e-02,-2.207360267639160711e-02,9.817972160600914322e-02,-2.721875085490538249e-01,7.792639732360839844e-02,1.909332633018493708e-01,-2.019764900207519365e-01,5.021952121238231204e-01,-7.148630619049072266e-01,-1.343929767608642578e-02,1.049448662198162623e+02,0.000000000000000000e+00
4.270499999999999852e-01,-5.551037325095046354e-03,2.088009551540769004e-02,9.776992201805114746e-01,1.701915778037358523e-02,-1.337057589482659736e-02,-2.492708854324116041e-02,-3.886569646491692953e-02,-1.936562339760893037e-02,-1.584758795797824860e-02,5.829736432507974520e-02,-2.145614793498769601e-01,1.388427132101606280e-02,1.076577663421630637e-01,5.745189189910887562e-02,-2.548874036816783928e-01,2.076577663421630693e-01,1.574518918991088812e-01,-1.855306863784789984e-01,5.020344734803064979e-01,-6.991932988166809082e-01,1.031605005264282227e-01,6.028100418984290165e+00,0.000000000000000000e+00
4.511780000000000235e-01,-6.341254108972738980e-03,2.058353178568056441e-02,9.772639274597167969e-01,1.716049488765923614e-02,-1.681682949018958873e-02,-2.350262980796759618e-02,-3.786436554814085614e-02,-1.795919219450491447e-02,-1.099634170532226562e-02,-2.030104419240745875e-02,-1.323321998141043787e-01,6.924066760576320922e-02,5.671181678771972101e-02,7.519896030426023725e-02,-2.749707461783607032e-01,1.567118167877197266e-01,1.751989603042602428e-01,-2.096945285797119085e-01,5.015634095094532174e-01,-7.081519365310668945e-01,2.040125131607055664e-01,1.070518566353601386e+02,0.000000000000000000e+00
4.778319999999999790e-01,-7.186110489178287181e-03,2.029717831421015695e-02,9.768652915954589844e-01,1.760004697175570482e-02,-2.000333517608998690e-02,-2.155103100397582835e-02,-3.739849568174123673e-02,-1.724562887455058022e-02,-1.754523254930973053e-02,4.408234721103932580e-02,-1.529533174323955136e-01,1.244831973262098823e-01,1.025263786315917802e-01,-9.658036231994629461e-02,-2.802646631639977848e-01,2.025263786315917858e-01,3.419637680053710938e-03,-2.205494642257690430e-01,5.020962645921298595e-01,-7.096677422523498535e-01,2.842308282852172852e-01,1.014946781228543671e+02,0.000000000000000000e+00
4.979890000000000150e-01,-7.641726140470198568e-03,2.017394196092656827e-02,9.766998887062072754e-01,1.752346871677047321e-02,-2.123335074326893057e-02,-2.049804930898844677e-02,-4.991353416954507488e-02,-1.905718362635156621e-02,-1.596247404813766479e-02,-2.556194959987147242e-02,-1.141247703137759639e-01,1.201221131731519121e-01,-1.803085207939147949e-01,5.688320994377135675e-02,-2.528951680007230918e-01,-8.030852079391478937e-02,1.568832099437713623e-01,-1.961874246597289928e-01,5.024218708340966177e-01,-6.890890002250671387e-01,-5.746996402740478516e-02,8.444554240726205308e+01,0.000000000000000000e+00
5.245440000000000103e-01,-8.491567463443996933e-03,2.001358575181221011e-02,9.762803912162780762e-01,1.765958860891147716e-02,-2.356127370901717200e-02,-1.798575653861009607e-02,-4.433674043958911459e-02,-1.174843049899559205e-02,-5.287879146635532379e-03,1.770091865937611572e-02,-1.073175128920451082e-01,1.173269870440373785e-01,-7.839784622192383368e-02,-5.519806146621705073e-02,-2.573914070010304700e-01,2.160215377807617188e-02,4.480193853378295482e-02,-2.077985644340515081e-01,5.015491187149642149e-01,-6.957707405090332031e-01,4.144549369812011719e-03,9.430972892735115920e+01,0.000000000000000000e+00
5.512979999999999547e-01,-9.422562137296062318e-03,1.980016064777279094e-02,9.758808612823486328e-01,1.790230148349771302e-02,-2.568569757956606914e-02,-1.549684307559469690e-02,-4.524992592377947986e-02,-2.156804815838243850e-02,-1.215842925012111664e-02,9.097505590965969391e-03,-1.038755865269734013e-01,1.257747020077255029e-01,-2.407786726951599010e-01,-7.907825112342835305e-02,-2.305684735892143400e-01,-1.407786726951598955e-01,2.092174887657165597e-02,-1.879583001136779785e-01,5.024158185223911444e-01,-6.808270812034606934e-01,-1.404160261154174805e-01,9.753470519681022211e+01,0.000000000000000000e+00
5.751950000000000118e-01,-1.040434963809385056e-02,1.954728632049797243e-02,9.754880666732788086e-01,1.857512212608820532e-02,-2.757065097811572940e-02,-1.259636936721950963e-02,-5.638039274202826662e-02,-2.258048828433641825e-02,-1.367422658950090408e-02,4.479953339481850677e-02,-8.722369062638792025e-02,1.717995620310870386e-01,-2.905315041542053112e-01,-2.857606053352356179e-01,-2.173462811532499428e-01,-1.905315041542053056e-01,-1.857606053352355846e-01,-1.829760074615478516e-01,5.025962544330568882e-01,-6.809670329093933105e-01,-2.700380086898803711e-01,9.111949100001076829e+01,0.000000000000000000e+00
5.969989999999999464e-01,-1.147315658586049378e-02,1.924460870185824846e-02,9.751716256141662598e-01,1.971178973070026111e-02,-2.885669201991203359e-02,-9.930382824360504956e-03,-4.562437642817047251e-02,-2.006773448348187980e-02,-1.061512529850006104e-02,4.723013159005760159e-02,-5.191307513320068956e-02,1.020952271249373905e-01,-2.773048877716064453e-01,-2.938213944435119629e-01,-1.555026976162530994e-01,-1.773048877716064398e-01,-1.938213944435119573e-01,-1.286630988121032770e-01,5.026403079696785126e-01,-6.694227457046508789e-01,-3.149906396865844727e-01,1.266318574761981495e+02,0.000000000000000000e+00
6.257200000000000539e-01,-1.286250856207509646e-02,1.907865028067857321e-02,9.745603799819946289e-01,1.890847346927995373e-02,-2.931580191157090454e-02,-5.458614828030260331e-03,-5.977410770885322605e-02,-2.450748976191871598e-02,-1.942249760031700134e-02,-1.090206600986509677e-01,-1.842002032411172233e-02,1.284893593599854278e-01,-2.555998265743255615e-01,-1.109724164009094349e-01,-9.330223955396722835e-02,-1.555998265743255560e-01,-1.097241640090942418e-02,-7.897953987121582309e-02,5.034367490745771390e-01,-6.672573685646057129e-01,-3.226292133331298828e-02,9.062731439860881721e+01,0.000000000000000000e+00
6.471040000000000125e-01,-1.355365901564720491e-02,1.934777119038089827e-02,9.741467833518981934e-01,1.764115878164178308e-02,-2.883458607687749975e-02,-2.340930804223676550e-03,-5.178456193329326884e-02,-1.168775300841159298e-02,-2.264628186821937561e-02,-5.384767028723549259e-02,5.647329843249430936e-02,1.652913669424542209e-01,8.409116268157956764e-02,-3.731552362442017157e-02,1.530165467814872393e-01,1.840911626815795732e-01,6.268447637557983398e-02,1.586322963237762340e-01,5.091358393631250090e-01,-3.827428817749023438e-01,-4.761559963226318359e-01,9.468804627528898266e+01,0.000000000000000000e+00
6.735459999999999781e-01,-1.469736500928213625e-02,1.975502007269444929e-02,9.734323024749755859e-01,1.325872595844043711e-02,-2.714774015798915308e-02,1.754302982755025046e-03,-7.250085906630579502e-02,-1.298147518059023647e-02,-2.541121281683444977e-02,-1.782080468393808514e-01,8.530928206902103905e-02,8.962836769575217855e-02,1.420471723490752958e-01,-5.985848903656006831e-02,-1.546448941095845131e-01,2.231323957443237249e-01,4.014151096343993724e-02,-1.602793693542480524e-01,5.042721706600346021e-01,-6.566758751869201660e-01,1.602927446365356445e-01,7.870303354181716315e+01,0.000000000000000000e+00
6.992730000000000334e-01,-1.588970230594898003e-02,2.022879752595152514e-02,9.725538492202758789e-01,6.011182864793019644e-03,-2.230239190702931751e-02,5.877043228331277694e-03,-5.244825457154305565e-02,-1.327972609386142075e-02,-3.487940505146980286e-02,-2.828328817202070411e-01,1.642199760292948341e-01,1.176035695016653670e-01,1.923348307128944779e-01,-1.652083635330200417e-01,-1.926471380964067948e-01,2.260793924331664928e-01,-6.520836353302002231e-02,-2.093808889389038030e-01,5.058798930806824856e-01,-6.154515147209167480e-01,2.066773176193237305e-01,1.356192252917760186e+02,0.000000000000000000e+00
7.209630000000000205e-01,-1.652437530424159806e-02,2.082940726520757582e-02,9.718399047851562500e-01,3.747634229993461789e-04,-1.728708117007271561e-02,8.136429822557038685e-03,-6.777137794499851764e-02,-6.573193822346020884e-03,-4.023340344429016113e-02,-2.658044392394948718e-01,2.456749020906297820e-01,9.472350774711357779e-02,2.335526462598469521e-01,-3.003698110580444447e-01,-1.892338483563456852e-01,2.247357845306396373e-01,-2.003698110580444391e-01,-2.120928525924682673e-01,5.064919729018635408e-01,-6.108698248863220215e-01,2.720749378204345703e-02,9.505865233965387517e+01,0.000000000000000000e+00
7.484349999999999614e-01,-1.733972657649848412e-02,2.195231483156610125e-02,9.708204865455627441e-01,-7.289882616846909621e-03,-1.063980985967361015e-02,9.551062196243369565e-03,-5.260435608940793040e-02,-8.112032423919524407e-03,-3.456170484423637390e-02,-1.914560819502641176e-01,1.611807050570656930e-01,-2.087246972969775127e-02,2.826319681747879731e-01,-2.407996654510498047e-01,-1.849140804381092795e-01,2.254240751266479437e-01,-1.407996654510497991e-01,-2.115118145942687933e-01,5.061625041402705305e-01,-6.127791404724121094e-01,5.766524076461791992e-01,1.079063679420420954e+02,0.000000000000000000e+00
7.748840000000000172e-01,-1.831773048447335808e-02,2.301574382514118972e-02,9.699791073799133301e-01,-1.046078710897224186e-02,-6.943745548276814006e-03,1.069205752765144297e-02,-7.812429879574145364e-02,-1.193845033606849744e-02,-2.050464786589145660e-02,-5.638645199718793355e-02,6.281100417266213820e-02,4.329615157487821248e-02,2.986204225147538471e-01,7.475891709327697754e-02,-1.784248395737643711e-01,2.226264238357544001e-01,1.747589170932769831e-01,-2.081307649612426647e-01,5.058112647106021154e-01,-5.822317600250244141e-01,4.315379858016967773e-01,-1.103746343835446169e+02,0.000000000000000000e+00
7.997279999999999944e-01,-1.954295264860216041e-02,2.403526166970429076e-02,9.693001508712768555e-01,-9.063792474840045091e-03,-4.721209324527020357e-03,1.394265970335150512e-02,-6.131691896033426153e-02,8.167028349001802289e-04,-2.491533197462558746e-02,6.663236583713261219e-02,7.079532221095760636e-02,1.166431050832593824e-01,3.057339751751594337e-01,1.388902742199878138e-01,1.535902328992523602e-01,2.274099826812744085e-01,2.238013923168182262e-01,1.146636843681335394e-01,5.039784723071770722e-01,-7.014020681381225586e-01,-3.489979505538940430e-01,8.963454640274746055e+01,0.000000000000000000e+00
8.212890000000000468e-01,-2.029328406346651847e-02,2.455432822829539327e-02,9.689190387725830078e-01,-6.150537660930757364e-03,-2.279679650054378115e-03,1.644079789212070375e-02,-7.454003478645321312e-02,-2.647827630768136782e-04,-1.303922105580568314e-02,2.144732508272413629e-01,1.461353816606822953e-01,1.266873567685402602e-01,2.848491808622262145e-01,1.365779385346412300e-01,2.667567552865484082e-01,2.274011492729186845e-01,2.194834291934966986e-01,2.207872331142425593e-01,5.029203493165640415e-01,-7.142174839973449707e-01,3.511987924575805664e-01,9.064399372056199411e+01,0.000000000000000000e+00
8.485249999999999737e-01,-2.128430077115313346e-02,2.509110426120962287e-02,9.684647917747497559e-01,-2.392308716569981791e-04,3.920658214045191770e-03,2.001704516048984084e-02,-4.976529766924256415e-02,7.169248515094473612e-03,-1.390044577419757843e-02,2.026465518839513924e-01,2.498539115812229705e-01,8.828246337405315503e-02,2.523172525735218885e-01,2.027716992300941379e-01,2.836024884371976529e-01,2.267525196075439453e-01,2.242877304553985429e-01,2.275402307510375755e-01,5.027788790015624842e-01,-7.286686301231384277e-01,-7.521903514862060547e-02,9.775848951477652804e+01,0.000000000000000000e+00
8.756709999999999772e-01,-2.223431631514188531e-02,2.559772896360469618e-02,9.681531786918640137e-01,8.243162157181793681e-03,9.150861554419131849e-03,2.364010957690837814e-02,-6.218397695017692517e-02,-1.097730219721476316e-02,-3.059281734749674797e-03,3.053565685827577258e-01,7.567687605844533594e-02,3.669314580244599500e-02,1.805371067439520416e-01,2.099200964600231867e-01,2.888723551189082417e-01,2.246550321578979492e-01,2.118857681751251110e-01,2.226790666580200084e-01,5.024017094854849041e-01,-7.088747024536132812e-01,-1.793110370635986328e-02,9.895761801603147489e+01,0.000000000000000000e+00
8.959589999999999499e-01,-2.285856660647813191e-02,2.583064689082457607e-02,9.680696725845336914e-01,1.506564960553109095e-02,1.048528803189685554e-02,2.424976165442770462e-02,-5.209555871057516829e-02,2.515985442582969502e-03,-2.706883009523153305e-03,3.499096756652341766e-01,6.245875641742900525e-02,-1.288916549436955328e-02,1.438419648131539774e-01,2.264050764260167048e-01,2.912510877200142900e-01,2.187489509582519476e-01,2.099923789501190186e-01,2.234192132949829046e-01,5.025439408205718550e-01,-7.019350528717041016e-01,1.875966787338256836e-01,9.829960442158160561e+01,0.000000000000000000e+00
9.212679999999999758e-01,-2.396861921046271673e-02,2.579145772520192656e-02,9.679298400878906250e-01,2.537702477660845959e-02,8.789316977003469589e-03,2.210494125320800265e-02,-5.602162337402280534e-02,-3.026138834841030772e-03,-4.708611406385898590e-03,3.658259162102164286e-01,-1.039582676788771837e-01,-9.188553623775376489e-02,4.605100154876706764e-02,1.680711340061712133e-01,2.849114820746670995e-01,1.460510015487670732e-01,1.680979192256927546e-01,2.230197787284851074e-01,5.101852685218247752e-01,-3.084717988967895508e-01,1.708856821060180664e-01,1.015371345787351629e+02,0.000000000000000000e+00
9.483230000000000270e-01,-2.515618481727340330e-02,2.560895712399384114e-02,9.677544832229614258e-01,3.411510167898530038e-02,4.942592826824521168e-03,1.895098836697672179e-02,-4.702949327664797396e-02,-1.044422962244438875e-02,-2.414875477552413940e-02,2.517364888712878557e-01,-1.530064634819099656e-01,-1.272224378275437218e-01,-2.238629460334777832e-01,8.651192182999417613e-02,2.759495060903109365e-01,-1.238629460334777777e-01,1.045630753040313748e-01,2.227495908737182617e-01,5.153281900246564629e-01,-1.141368150711059570e-01,-5.878746509552001953e-02,9.965605950017862824e+01,0.000000000000000000e+00
9.737080000000000179e-01,-2.629875036830578439e-02,2.528760748684763873e-02,9.672887325286865234e-01,4.155633975320703610e-02,-5.342377026280598074e-04,1.521033588852869697e-02,-4.894241421424241900e-02,-1.426933682657797499e-02,-2.070534229278564453e-02,2.415187539300369390e-01,-1.754910801441517398e-01,-1.277675602851143233e-01,-2.997465908527374157e-01,-1.031408852145249966e-01,2.674156297451563136e-01,-1.997465908527374101e-01,-4.559125900268554826e-02,2.242974936962127686e-01,5.177810687610246987e-01,2.652299404144287109e-02,1.260356068611145020e+00,-9.078635364588526713e+00,0.000000000000000000e+00
9.988629999999999454e-01,-2.735343128954537129e-02,2.472414191064615033e-02,9.665650725364685059e-01,4.711843617280878777e-02,-6.704771499918882327e-03,1.053904999212774106e-02,-3.637822064712695896e-02,-2.126900617578098007e-02,-2.576542645692825317e-02,1.360039795395822648e-01,-2.296485183271376740e-01,-1.875249814149353433e-01,-3.024487555027007835e-01,-2.974467936146130143e-01,2.502812111850944432e-01,-2.024487555027008057e-01,-2.089656114578246904e-01,2.198672890663146973e-01,5.093024783161584912e-01,-4.520608782768249512e-01,3.923058509826660156e-03,1.001490420639026411e+02,0.000000000000000000e+00
1.022207000000000088e+00,-2.802536676847760394e-02,2.424401227473214904e-02,9.659706354141235352e-01,4.887423502351999349e-02,-1.000308075451483703e-02,7.773251785200998090e-03,-4.388660076623814715e-02,-1.739575701627162074e-02,-3.819072991609573364e-02,7.848292579123677948e-02,-1.583986822913523163e-01,-1.352400675325388379e-01,-3.129213511943816917e-01,-3.137902975082397239e-01,2.430424265340798140e-01,-2.129213511943817139e-01,-2.137902975082397461e-01,2.200071394443511852e-01,5.078610554986023873e-01,-5.837202072143554688e-01,-1.251450777053833008e-01,6.743835771355196584e+01,0.000000000000000000e+00
1.051026000000000016e+00,-2.893174656681481854e-02,2.347902693661542764e-02,9.648721218109130859e-01,4.679281044188472044e-02,-1.345901018117823256e-02,3.229170805034967898e-03,-4.097502385591612201e-02,-2.464707235495124452e-02,-4.403299838304519653e-02,-1.432555259345723031e-01,-6.395717386566913965e-02,-1.710861918145203941e-01,-1.109003007411956815e-01,-1.232023596763610895e-01,-2.750622735343665609e-03,-1.090030074119567767e-02,-2.320235967636108398e-02,-1.318602561950683524e-02,5.061524016330579689e-01,-7.054169178009033203e-01,6.147491931915283203e-02,9.121548930879529848e+01,0.000000000000000000e+00
1.074190999999999896e+00,-2.949112642775053930e-02,2.297112716882827865e-02,9.640554785728454590e-01,4.267559971430279903e-02,-1.311248264516406969e-02,1.052913269876736241e-04,-3.718618044618605956e-02,-2.311351848261376102e-02,-5.306381732225418091e-02,-1.982227980554654156e-01,8.045633022317683070e-02,-1.727419540153625199e-01,1.046529054641723577e-01,-2.094198584556579701e-01,2.112301351890010503e-01,2.046529054641723633e-01,-1.094198584556579507e-01,2.096935629844665361e-01,5.075541518845609890e-01,-6.745840907096862793e-01,2.029885053634643555e-01,9.015615428928299480e+01,0.000000000000000000e+00
1.097733000000000070e+00,-2.991923428231953522e-02,2.236809602332080760e-02,9.631934165954589844e-01,3.683463107825657445e-02,-1.080425114669703035e-02,-2.951781973359015893e-03,-2.806738095404078329e-02,-2.131044667047171312e-02,-5.788432061672210693e-02,-3.491170317363568865e-01,1.521190684614494859e-01,-1.313301450234699852e-01,1.216942310333251898e-01,5.477547645568736634e-04,1.912567780950032159e-01,2.216942310333251953e-01,1.005477547645568792e-01,1.986139655113220159e-01,5.083359513390366402e-01,-6.602259874343872070e-01,-1.436604261398315430e-01,1.023136178043388895e+02,0.000000000000000000e+00
1.132881000000000027e+00,-3.054320590950501332e-02,2.177879174127797871e-02,9.618493914604187012e-01,2.749809742495723519e-02,-3.798171552168438936e-03,-6.611180335484697669e-03,-2.814421537500523193e-02,-2.201443357947497487e-02,-5.689263343811035156e-02,-2.786546951931578864e-01,2.548929034739554900e-01,-7.230999116622939538e-02,1.047950267791747936e-01,1.416624272207988589e-01,-2.072005913205068051e-01,2.047950267791747991e-01,2.114297032356262096e-01,-1.891056060791015681e-01,5.158149934882899634e-01,-2.677009701728820801e-01,-8.694064617156982422e-02,9.825662887132389756e+01,0.000000000000000000e+00
1.150765000000000038e+00,-3.076491601031508538e-02,2.158383399720494034e-02,9.614444971084594727e-01,2.448934017634621721e-02,-1.469543483550994623e-03,-7.247263978499290590e-03,-3.332030520906639759e-02,-2.730605233046140209e-02,-5.733533576130867004e-02,-2.888021567689692537e-01,2.482981681907249494e-01,-3.371762296548926063e-02,9.783322811126707319e-02,1.438753864077235711e-01,-2.395283461842337425e-01,1.978332281112670787e-01,2.028712570667266790e-01,-2.195417761802673229e-01,5.167867557577743298e-01,-2.237989902496337891e-01,-2.271248102188110352e-01,1.085743877636260208e+02,0.000000000000000000e+00
1.174522000000000066e+00,-3.123713325725549494e-02,2.110677717371192003e-02,9.606934785842895508e-01,2.060691202955890200e-02,2.797520451433666011e-03,-9.553289607256810340e-03,-3.277948788478424191e-02,-4.514196294704238971e-02,-4.416973888874053955e-02,-1.503716507774294497e-01,2.027187232446930887e-01,-1.407880226131967283e-01,-1.140766620635986356e-01,1.923715926751307093e-01,-8.135292376397748604e-02,-1.407666206359863177e-02,2.230154335498809870e-01,-5.472371578216552596e-02,5.204361988702985720e-01,1.749098300933837891e-02,2.037531137466430664e-01,-8.272831844425224901e+00,0.000000000000000000e+00
1.198658000000000001e+00,-3.167245720409614385e-02,2.041140626639775801e-02,9.600991606712341309e-01,1.898940286085946255e-02,6.167894229217152358e-03,-1.201102364052272775e-02,-2.681327200506146771e-02,-4.380174844813856244e-02,-4.767263308167457581e-02,-7.074128688124374509e-02,1.803702346457020100e-01,-1.168266962728565089e-01,-3.172631323337554710e-01,2.206580275438889405e-01,1.855629654145991014e-01,-2.172631323337554932e-01,2.252345323562622015e-01,2.191759049892425537e-01,5.163238269130984159e-01,-2.242848873138427734e-01,1.667982339859008789e-01,-1.130418164242454395e+02,0.000000000000000000e+00
1.224514000000000102e+00,-3.236346861003461944e-02,1.916273623408403307e-02,9.593868851661682129e-01,2.087990635321676502e-02,8.609903868392887460e-03,-1.473927407385581916e-02,-3.494029124848641726e-02,-4.426825643905488855e-02,-2.977621741592884064e-02,1.246246883389645760e-01,1.993718634886785732e-02,1.808035788160884672e-02,1.122273921966552568e-01,2.149882034791461283e-01,1.784639010315839658e-01,2.122273921966552623e-01,2.118498265743255504e-01,2.197441577911376787e-01,5.061578105237480862e-01,-7.013647556304931641e-01,3.977668285369873047e-02,9.880173943879343312e+01,0.000000000000000000e+00
1.249106999999999967e+00,-3.353994454294945138e-02,1.807557635442653965e-02,9.590421319007873535e-01,2.423285131651234381e-02,8.389184508151625863e-03,-1.384607863091653207e-02,-3.425604252392681209e-02,-4.864954214626372730e-02,-1.989273913204669952e-02,1.502765338339971668e-01,-2.463799916099159988e-04,5.977785179074719679e-02,3.346725702285766046e-02,2.084547911746468252e-01,1.365178319559398334e-01,1.334672570228576660e-01,2.061024785041808971e-01,1.752952694892883356e-01,5.056516089504988765e-01,-6.934780478477478027e-01,1.910854578018188477e-01,8.663504833816885764e+01,0.000000000000000000e+00
1.274772999999999934e+00,-3.466987738127132873e-02,1.686564149152835687e-02,9.589984416961669922e-01,2.630131015801715974e-02,5.313502760300847783e-03,-1.347492590171936282e-02,-2.533211315053801593e-02,-4.930698360478582426e-02,-7.737232837826013565e-03,7.416426589610736197e-02,-1.388693681491472709e-01,-4.097178472565242424e-02,1.018817186355590598e-01,9.726158083841496271e-02,1.675209959193672826e-01,2.018817186355590654e-01,1.089871823787689209e-01,2.051902234554290605e-01,5.062691342956224805e-01,-6.153388619422912598e-01,4.625097513198852539e-01,-9.457068996496983004e+01,0.000000000000000000e+00
1.299009000000000080e+00,-3.567026014047812443e-02,1.571266326187793425e-02,9.592895507812500000e-01,2.359829561395018760e-02,7.275235043118222222e-04,-1.588834320086052534e-02,-3.642376426429763669e-02,-5.367833307013560040e-02,-1.815281808376312256e-03,-1.502767029056375214e-01,-1.733621091658616165e-01,-1.249398353997386857e-01,-1.378949999809265248e-01,1.388194353424183902e-01,-2.394814531085500964e-01,-3.789499998092651228e-02,1.913186788558959850e-01,-1.952206134796142523e-01,5.039797644270275212e-01,-7.139677405357360840e-01,3.015099763870239258e-01,1.069033273416690406e+02,0.000000000000000000e+00
1.321588999999999903e+00,-3.632786391690386030e-02,1.489015080549411021e-02,9.594718217849731445e-01,2.095151130307543533e-02,-3.361874477644022363e-03,-1.780274347887850564e-02,-2.684771092374211438e-02,-4.860058904344756459e-02,-1.165591366589069366e-02,-1.135556604092852473e-01,-2.189158753936223112e-01,-9.171344849712395608e-02,-7.667433023452759067e-02,1.217175320758061008e-01,-2.560599752082417524e-01,2.332566976547241142e-02,1.921230196952819769e-01,-2.064842820167541448e-01,5.046632302915795565e-01,-7.184875607490539551e-01,4.481674432754516602e-01,1.056391549489480610e+02,0.000000000000000000e+00
1.347908000000000106e+00,-3.752982926481416431e-02,1.373739750097942997e-02,9.599326848983764648e-01,1.906669351376613294e-02,-1.053690370050563985e-02,-2.096370588150450742e-02,-3.091176534644739585e-02,-5.539655590115211137e-02,2.220940077677369118e-03,-1.086746077799950055e-02,-2.599703645343986458e-01,-1.037224752503588254e-01,-2.611880302429199496e-02,8.636868000030517578e-02,-1.714915524146440329e-01,7.388119697570801059e-02,1.863686800003051813e-01,-1.131877899169921875e-01,5.038441959159858374e-01,-7.070863842964172363e-01,5.442225933074951172e-02,9.559805969916646973e+01,0.000000000000000000e+00
1.372587000000000002e+00,-3.878303454182708415e-02,1.246161538283458575e-02,9.604691267013549805e-01,1.918749079389492004e-02,-1.683423244405801711e-02,-2.249103486481775910e-02,-4.360445843497375712e-02,-6.195328131063634891e-02,8.618473075330257416e-03,9.121946429395679304e-03,-1.903219976684970283e-01,-3.907500076131757705e-02,3.354310989379799546e-04,7.798577547073362592e-02,-8.105410021491579742e-02,1.003354310989379855e-01,1.779857754707336315e-01,-1.861377954483032018e-02,5.035794906025825579e-01,-6.955088376998901367e-01,6.260359287261962891e-02,8.980083418828058939e+01,0.000000000000000000e+00
1.397520000000000095e+00,-4.015484626761031683e-02,1.125520463902161469e-02,9.609193801879882812e-01,1.767282925698995116e-02,-2.149456936670879337e-02,-2.044840513653006786e-02,-2.672464350731343710e-02,-5.369070173408537622e-02,2.697011688724160194e-03,-1.126069305267478199e-01,-1.618354765384496796e-01,4.788661024786509263e-02,-1.721862554550170898e-01,9.135882258415220503e-02,-2.492462679631983480e-01,-7.218625545501708429e-02,1.913588225841522106e-01,-1.925549268722534235e-01,5.040464271206395175e-01,-6.939288377761840820e-01,2.235006093978881836e-01,9.974931207291682256e+01,0.000000000000000000e+00
1.422528000000000015e+00,-4.160834692425271347e-02,9.896912900809169342e-03,9.613931179046630859e-01,1.547425131837910743e-02,-2.519078793431717145e-02,-1.827413202626533908e-02,-5.004383300105373633e-02,-5.724682050858682231e-02,6.402301602065563202e-03,-1.153739728038714329e-01,-1.171486923039129352e-01,6.530994726011074558e-02,-2.194854021072387695e-01,8.271826505661009077e-02,-2.097632648119976129e-01,-1.194854021072387640e-01,1.827182650566100963e-01,-1.591441154479980302e-01,5.042933791155090884e-01,-6.666652560234069824e-01,5.068703889846801758e-01,-4.197589401608091464e+01,0.000000000000000000e+00
1.449157000000000028e+00,-4.319843267263617087e-02,8.391706554860826200e-03,9.618901610374450684e-01,1.425174703079219035e-02,-2.856030439066215010e-02,-1.633314091580789079e-02,-4.469126660198243645e-02,-5.213905789698881910e-02,8.474193164147436619e-04,-5.329502658635511259e-02,-7.871671621674061758e-02,1.179322078519403488e-01,-2.550216138362884633e-01,-2.396352291107178845e-02,-2.175462048826227457e-01,-1.550216138362884577e-01,7.603647708892821711e-02,-1.723611116409301813e-01,5.046922645829921006e-01,-6.672545075416564941e-01,-2.837568521499633789e-01,6.441248828858793729e+01,0.000000000000000000e+00
1.473692000000000002e+00,-4.496394513744745441e-02,6.956921557701262367e-03,9.624078869819641113e-01,1.186659541108326527e-02,-3.087513442178457801e-02,-1.326701263582975680e-02,-5.652520013305802754e-02,-4.383561732945061989e-02,-3.780174301937222481e-03,-1.156628569600520184e-01,-4.543421555752262531e-02,1.065686411202354522e-01,-2.393208246354032731e-01,-1.005992054939270075e-01,-1.739683116080718295e-01,-1.395139932632446234e-01,-5.992054939270019531e-04,-1.373270988464355413e-01,5.053696527480332490e-01,-6.501330733299255371e-01,2.405871152877807617e-01,8.416045714149490209e+01,0.000000000000000000e+00
1.496399999999999952e+00,-4.627701065473381614e-02,6.054291188194974201e-03,9.627534151077270508e-01,9.069452238592163804e-03,-3.241698388368652317e-02,-1.115149039105642510e-02,-5.323532392105168737e-02,-4.739605563203917737e-02,1.392053207382559776e-03,-1.544277328280561634e-01,-8.209250077565891091e-02,9.257950002594329819e-02,-1.196595767085308348e-01,-9.534955024719238281e-02,-1.801485934801494160e-01,-3.334888815879821777e-02,4.650449752807616667e-03,-1.492261648178100641e-01,5.050018670168334722e-01,-6.494821310043334961e-01,4.525624513626098633e-01,-5.682482089433701589e+01,0.000000000000000000e+00
1.520734999999999948e+00,-4.803820916901611199e-02,4.519112139041540910e-03,9.630874395370483398e-01,2.470532965037441561e-03,-3.328565474619438191e-02,-7.549523579747146815e-03,-7.230088086203163844e-02,-4.195782609895232912e-02,-2.807776909321546555e-03,-2.817759998045329395e-01,1.257852933975791600e-02,9.276176592478579952e-02,1.682875896650308789e-01,2.541759014129638117e-02,-1.500251543275644694e-01,2.079952239990234264e-01,1.254175901412963867e-01,-1.288118362426757812e-01,5.049087672913030733e-01,-6.722111701965332031e-01,1.700197458267211914e-01,6.913460104297878672e+01,0.000000000000000000e+00
1.548348999999999975e+00,-4.931380017542598415e-02,3.575000744206168965e-03,9.632545113563537598e-01,-2.202022110545283958e-03,-3.292467467091886313e-02,-5.152719554407904183e-03,-5.338066345656335143e-02,-3.328728564510183285e-02,-4.906251560896635056e-03,-2.333681337484595497e-01,5.789064434850420271e-02,1.226745304026908845e-01,2.184503231448069460e-01,1.011083483695983665e-01,-1.794187857506387151e-01,2.222665786743164007e-01,2.011083483695983720e-01,-1.646819472312927302e-01,5.051434852147187460e-01,-6.689056158065795898e-01,2.547794580459594727e-01,9.956429590867951163e+01,0.000000000000000000e+00
1.574626000000000081e+00,-5.133495485723330032e-02,2.253856352698369037e-03,9.634702801704406738e-01,-8.651094097475813677e-03,-3.157986330634066086e-02,-1.968813766002816545e-03,-8.891488163454898397e-02,-3.815938570609735125e-02,2.576830331236124039e-03,-1.505018730074857147e-01,3.652380491542434049e-02,7.142713573116996062e-02,2.555114258228349255e-01,1.008549869060516302e-01,-1.873927505791810055e-01,2.235512495040893610e-01,2.008549869060516357e-01,-1.810460329055786077e-01,5.046551643275853927e-01,-6.672704815864562988e-01,-2.529107332229614258e-01,1.548376700688993992e+02,0.000000000000000000e+00
1.600025999999999948e+00,-5.370045623819563740e-02,8.887293045366192242e-04,9.638569355010986328e-01,-9.775194113891818790e-03,-3.185286427223954497e-02,1.411913070945348438e-03,-7.955650492508765936e-02,-4.292320726540760356e-02,1.252912636846303940e-02,7.711575613430568521e-02,-1.082862492745121363e-01,7.568359941790805956e-02,1.461236483899557292e-01,-2.871597528457641713e-01,-1.639183326857283352e-01,1.108696460723876953e-01,-1.871597528457641657e-01,-1.669447660446166937e-01,5.045279068827106528e-01,-6.339058279991149902e-01,1.707767248153686523e-01,7.017854764629103670e+01,0.000000000000000000e+00
1.627803000000000111e+00,-5.532023258158746265e-02,-2.144887501526781854e-04,9.642903208732604980e-01,-7.846729836677817510e-03,-3.295949113219664994e-02,4.034396010717210095e-03,-1.088617212219096936e-01,-4.535555019033039176e-02,8.115107193589210510e-03,1.015170172751911626e-01,-4.499399887828912231e-02,1.585623636918130352e-01,-1.706738102780622213e-01,-2.958327651023864857e-01,-3.139345423682030761e-02,-1.914931654930114580e-01,-1.958327651023864802e-01,-4.177840948104858537e-02,5.041742649041752733e-01,-6.708949804306030273e-01,2.092972993850708008e-01,1.023420792026103356e+02,0.000000000000000000e+00
1.650832999999999995e+00,-5.710893910343512597e-02,-1.290678846655181474e-03,9.648487567901611328e-01,-3.692556826036954599e-03,-3.468305189498854801e-02,6.553337021274386991e-03,-8.739511440253761032e-02,-3.374302237145940242e-02,1.273167412728071213e-02,2.257984781226304305e-01,-6.243556806461432462e-02,1.265449795972945490e-01,-1.937224727662686108e-01,-3.202476978302001842e-01,-1.207243732594305563e-01,-1.963451206684112549e-01,-2.202476978302001787e-01,-1.385751485824584794e-01,5.048535263182269972e-01,-6.147325634956359863e-01,-4.511487483978271484e-02,9.872138226320824117e+01,0.000000000000000000e+00
1.671858000000000066e+00,-5.896697738785627169e-02,-2.313845783047105160e-03,9.653654694557189941e-01,3.213865189696322989e-04,-3.542843324730626797e-02,9.046799889381033563e-03,-1.084462429950529549e-01,-3.556056233034968206e-02,8.145535364747047424e-03,1.746980410642935966e-01,-1.088620115253643647e-03,1.235005609060837589e-01,-2.419253685004088827e-01,-3.165626287460326926e-01,-1.626976532229077732e-01,-2.148219823837280162e-01,-2.165626287460327148e-01,-1.877522706985473577e-01,5.043662294834762028e-01,-6.589030027389526367e-01,5.246125459671020508e-01,-9.429985418135860442e+00,0.000000000000000000e+00
1.700639000000000012e+00,-6.164890156828423812e-02,-3.613169596077962873e-03,9.658340811729431152e-01,3.397617621523585547e-03,-3.158621278035766977e-02,1.179934361091197238e-02,-8.858034892972872776e-02,-2.091464749256207248e-02,-2.590220887213945389e-03,3.863644122084787524e-02,2.045774881911671672e-01,9.018884717613183388e-02,1.713555194550010485e-01,-4.946507215499878346e-02,2.520960317136081708e-01,2.073442339897155762e-01,5.053492784500122209e-02,2.189789056777954046e-01,5.051382327826118290e-01,-6.596690416336059570e-01,-3.381282091140747070e-01,5.746510673279610870e+01,0.000000000000000000e+00
1.723529000000000089e+00,-6.339625601697110313e-02,-3.973922673258729540e-03,9.659301638603210449e-01,2.592541443790374531e-03,-2.616583708252595564e-02,1.355971921686137914e-02,-9.464598962164842699e-02,-1.617687050659584111e-02,-1.028267014771699905e-02,-8.267878129854816516e-02,2.926157906350417837e-01,9.154898021242606487e-02,1.952966684192279645e-01,-2.755827307701110840e-01,2.604961607268271861e-01,2.244189262390136608e-01,-1.755827307701110784e-01,2.224929213523864635e-01,5.058475983202342929e-01,-6.548880934715270996e-01,-1.094710826873779297e-02,9.065856934425079316e+01,0.000000000000000000e+00
1.747924000000000033e+00,-6.593949810361489361e-02,-3.796192245651600506e-03,9.658350348472595215e-01,-1.648204003415988314e-03,-1.518623980154742981e-02,1.647269447569685644e-02,-9.827728134816561545e-02,-4.581778272183928066e-03,-2.164820209145545959e-02,-2.027898526719426608e-01,4.379146106147279172e-01,6.746124105810481775e-02,2.337192260717859127e-01,-2.213392734527587780e-01,-1.697139532946173868e-01,2.262332081794738714e-01,-1.213392734527587863e-01,-2.157266378402709905e-01,5.074388145342877410e-01,-6.189882755279541016e-01,-1.702749729156494141e-02,9.383653342165267475e+01,0.000000000000000000e+00
1.774806000000000106e+00,-6.854246490994111984e-02,-3.614608524758740424e-03,9.656442999839782715e-01,-4.936338729467468385e-03,-6.281253785279883317e-03,1.596896971284566397e-02,-9.556036181140802055e-02,-8.884811197113148123e-03,-7.792667485773563385e-03,-1.567854697861458674e-02,2.379353621941575347e-01,-2.707842504061232919e-02,2.516018514165081488e-01,1.221551239490508978e-01,2.525932277405282811e-01,2.276176929473876787e-01,2.221551239490509033e-01,2.081048011779784990e-01,5.051006095409414920e-01,-6.906737089157104492e-01,4.670692682266235352e-01,2.441178594273174340e+01,0.000000000000000000e+00
1.797285999999999939e+00,-7.028590434617597305e-02,-3.528363622100524379e-03,9.656001925468444824e-01,-4.552069492472279703e-03,-1.413114591985342727e-03,1.502545291998890267e-02,-1.027273738198953429e-01,-1.362211163491698976e-02,-1.260315068066120148e-02,3.771815436786808695e-02,2.061795775778920981e-01,-6.606886462729967373e-03,2.462491235750930429e-01,1.230005562305450384e-01,2.687777826355365329e-01,2.277739048004150391e-01,2.230005562305450439e-01,2.269018650054931419e-01,5.049587855507252643e-01,-7.201035022735595703e-01,2.427850961685180664e-01,-7.999376171003115132e+01,0.000000000000000000e+00
1.824387999999999899e+00,-7.316658942192091897e-02,-3.999866629599000897e-03,9.656770825386047363e-01,1.212887887794864645e-04,5.460719686807280482e-03,1.538880857853606489e-02,-9.397454000701975507e-02,-1.168366617300585150e-02,-9.010104462504386902e-03,1.723218875910499659e-01,2.274377254908128143e-01,-1.544121774951506994e-02,2.143628778709046334e-01,1.350261824849759429e-01,2.700953027206234869e-01,2.242778062820434404e-01,2.231946408748626542e-01,2.270389795303344727e-01,5.045639699955317692e-01,-7.282806634902954102e-01,-4.750865697860717773e-01,4.976504857575262974e+01,0.000000000000000000e+00
1.848070000000000102e+00,-7.610914815932399990e-02,-4.804630604368904587e-03,9.658467769622802734e-01,7.704729626794575015e-03,8.594791342491747699e-03,1.311357164072302246e-02,-9.664015588465350859e-02,-1.496780783553146657e-02,4.082224331796169281e-03,2.842193912829125146e-01,3.813569875291963202e-02,-7.925265099997480522e-02,1.492894342408796204e-01,1.087848854394635606e-01,2.547280742116738717e-01,2.120980024337768555e-01,1.826253712177276500e-01,2.179262638092041016e-01,5.051267096567471082e-01,-6.480677723884582520e-01,1.737201213836669922e-02,9.177541455657460290e+01,0.000000000000000000e+00
1.871979000000000060e+00,-7.805791686463597889e-02,-5.326149044132238303e-03,9.659345746040344238e-01,1.245935620003960076e-02,8.363263115167107742e-03,1.094746298653953565e-02,-9.936466343209740537e-02,-1.058955052447303063e-02,-1.202412974089384079e-02,2.414293981019740853e-01,-3.159320965208030352e-02,-1.003562161207167958e-01,7.206696108285640112e-02,-1.437293479604823121e-02,2.480110677561008226e-01,1.623885869979858343e-01,6.399089097976684570e-02,2.171788394451141246e-01,5.077085630508259007e-01,-5.773528814315795898e-01,-1.854695081710815430e-01,-6.663532554264439689e+00,0.000000000000000000e+00
1.897019999999999929e+00,-8.001099960293513169e-02,-5.820898832888257192e-03,9.659960269927978516e-01,1.773915119427404638e-02,6.764921498733533767e-03,8.705066440161607702e-03,-9.958710424586179888e-02,-1.456866759561643680e-02,-7.569199427962303162e-03,2.787853377908935393e-01,-6.578796491648671030e-02,-1.404519086464189881e-01,-2.483835041522979847e-01,-1.355348849763368668e-01,2.458027401930164835e-01,-1.483835041522979792e-01,-4.506103992462157787e-02,2.211298406124115046e-01,5.092651782584393105e-01,-4.791769981384277344e-01,2.298420667648315430e-01,1.314375785762191242e+02,0.000000000000000000e+00
1.921397000000000022e+00,-8.288311613484697360e-02,-6.749690655002220895e-03,9.659504294395446777e-01,2.426981136405866393e-02,4.010226898415014674e-03,4.971180263471200109e-03,-8.212540991174525906e-02,-1.724943743152933251e-02,-1.195504330098628998e-02,1.438291857460449186e-01,-9.606949967489379627e-02,-1.375514592221508958e-01,-2.443849742412567139e-01,-2.501463167453899517e-01,2.294111518529932947e-01,-1.443849742412567083e-01,-1.533968210220336970e-01,2.150417625904083307e-01,5.099801907212462293e-01,-4.603860378265380859e-01,1.737104654312133789e-01,1.231673942838709195e+02,0.000000000000000000e+00
1.946028000000000091e+00,-8.482008775356013330e-02,-7.486136366154593630e-03,9.657405614852905273e-01,2.725752048474164649e-02,3.191707107379704311e-03,2.508411609307267288e-03,-8.741250816617389396e-02,-1.123634515877799771e-02,-1.586040668189525604e-02,1.375806164952481925e-01,-4.457093196685114021e-03,-1.355865393924897411e-01,-3.198432385921478049e-01,-1.579726934432983398e-01,2.315505778392674130e-01,-2.198432385921478271e-01,-5.797269344329833429e-02,2.239243090152740479e-01,5.080385099897232193e-01,-5.826057195663452148e-01,-2.272397279739379883e-01,8.208133389776467936e+01,0.000000000000000000e+00
1.970836000000000032e+00,-8.747988362288880437e-02,-8.445516532413563024e-03,9.650319218635559082e-01,2.667964058541145642e-02,4.354008241570284099e-03,-1.122202256138525199e-03,-7.482432412915636377e-02,-6.849341350756767491e-03,-3.759732842445373535e-02,-1.257540300409392409e-01,8.113911557505744387e-02,-1.109727150691503239e-01,1.247219800949096458e-01,1.105872004248284191e-01,1.920300630038970502e-01,2.247219800949096513e-01,2.044689416885376032e-01,1.946645915508270208e-01,5.089689555234097051e-01,-6.250731348991394043e-01,3.032575845718383789e-01,1.319981185410237288e+02,0.000000000000000000e+00
1.999190000000000023e+00,-8.983350536775799866e-02,-9.254513861563959734e-03,9.637725949287414551e-01,2.160020510753989445e-02,9.295235491574738163e-03,-5.147527724415992302e-03,-6.726516786081036814e-02,-7.078230159654563466e-03,-4.193357378244400024e-02,-1.901980639230574088e-01,1.963446185891124240e-01,-1.328577263800666541e-01,9.620237350463867188e-02,1.621906183475193552e-01,-1.610906529265857812e-01,1.962023735046386774e-01,2.217063188552856334e-01,-1.469330906867980790e-01,5.140299592489216973e-01,-3.814088106155395508e-01,1.072629690170288086e-01,7.870514407027069126e+01,0.000000000000000000e+00
2.023915999999999826e+00,-9.139229280429998770e-02,-9.754197858198468060e-03,9.628644585609436035e-01,1.667114480706059776e-02,1.295637161419871397e-02,-7.847467700299955509e-03,-6.284928320578433980e-02,-9.127762885618579541e-03,-4.129415377974510193e-02,-2.714557868200674906e-01,1.605718002984681814e-01,-1.259056371750564285e-01,1.240482449531555009e-01,1.847637039242497059e-01,-1.847261888757698034e-01,2.240482449531555065e-01,2.195426344871520830e-01,-1.628654479980468639e-01,5.093782328303240181e-01,-6.341980099678039551e-01,5.337890386581420898e-01,-6.185708229365438626e+01,0.000000000000000000e+00
2.047365999999999797e+00,-9.310692637195286392e-02,-1.031870886722550951e-02,9.619421958923339844e-01,1.421097189978132169e-02,1.444148170916448315e-02,-9.717309157410248394e-03,-6.649498340981328803e-02,-1.140731387614686565e-02,-3.486145660281181335e-02,-5.111486755749742456e-02,1.903667271966866595e-02,-5.183294241060679847e-02,1.257359623908996527e-01,1.905054174732517258e-01,1.781194768611100293e-02,2.257359623908996582e-01,2.208229064941406306e-01,4.493908882141112865e-02,5.081464398146242623e-01,-6.816964149475097656e-01,1.246577501296997070e-01,9.482537405874126080e+01,0.000000000000000000e+00
2.072241000000000000e+00,-9.580998716582246610e-02,-1.129269605027267108e-02,9.609270095825195312e-01,1.431972444392216361e-02,1.271492508792482212e-02,-9.518389117304411340e-03,-8.347664075112182225e-02,-1.820248843008800618e-02,-1.639682613313198090e-02,9.621900625826157460e-02,-1.361325025683845502e-01,2.560945197407068705e-02,1.101397037506103294e-01,2.825007221058095652e-02,1.398673437481107451e-01,2.101397037506103349e-01,8.534633517265319269e-02,1.663788199424743597e-01,5.070980832549671913e-01,-6.719688773155212402e-01,5.765992403030395508e-01,9.061976020938678289e+01,0.000000000000000000e+00
2.095489999999999853e+00,-9.756685128046713174e-02,-1.202214301281439961e-02,9.602113962173461914e-01,1.575164989461047896e-02,1.000105549688901085e-02,-9.001321757328754891e-03,-6.924992894814610556e-02,-2.473898460352913845e-02,-1.163559127599000931e-02,5.921931316688364838e-02,-1.453079875221283124e-01,-1.153397095809570796e-02,1.167241334915161133e-01,6.866865130345894963e-02,1.257175043607422216e-01,2.167241334915161188e-01,1.314816355705261119e-01,1.507592260837554987e-01,5.068267522520323309e-01,-6.722776889801025391e-01,1.815998554229736328e-02,9.070237134739808482e+01,0.000000000000000000e+00
2.121217999999999826e+00,-1.002227987527549991e-01,-1.330114724939610547e-02,9.593138098716735840e-01,1.934776877177298710e-02,4.611718965139122162e-03,-9.449797425622087285e-03,-7.249501332513266783e-02,-2.056352844331573587e-02,-1.776670478284358978e-02,8.759827958311700025e-02,-1.654747656945541601e-01,6.000322661825481345e-04,1.057047605514526145e-01,-3.700864315032960372e-02,1.505902703165355183e-01,2.057047605514526201e-01,6.299135684967040183e-02,1.766901433467864824e-01,5.079806256279847387e-01,-6.422271132469177246e-01,3.570727109909057617e-01,6.832627547546445612e+01,0.000000000000000000e+00
2.145159000000000038e+00,-1.020377007218395832e-01,-1.430190301477222634e-02,9.584439396858215332e-01,2.141774883521655251e-02,1.967539948779517545e-03,-1.099181052749525177e-02,-6.701318314784317220e-02,-3.199923724188654534e-02,-1.977811940014362335e-02,9.820505515284516651e-02,-1.271990047026667625e-01,-1.171520945219131915e-01,-8.888435363769531250e-02,-2.754149675369262917e-01,1.674635506628175952e-01,1.111564636230468785e-02,-1.754149675369262584e-01,1.978211402893066406e-01,5.100910422460369631e-01,-5.446315407752990723e-01,-1.508125066757202148e-01,-6.914029059055739879e+01,0.000000000000000000e+00
2.172397999999999829e+00,-1.045590688385397982e-01,-1.583099950774029957e-02,9.570556879043579102e-01,2.435811113702561481e-02,-7.264007364524704968e-04,-1.340432960626732062e-02,-5.417123851933810380e-02,-3.275876896974597857e-02,-1.942672766745090485e-02,7.122311535859930653e-02,-4.890628440100052571e-02,-1.007118829938588450e-01,-2.871070921421051136e-01,-2.912371397018432839e-01,1.728173748156660028e-01,-1.871070921421051081e-01,-1.912371397018432506e-01,2.098123133182525635e-01,5.098961429537495205e-01,-5.618076920509338379e-01,4.862034320831298828e-02,3.163857004690128605e+01,0.000000000000000000e+00
2.195838000000000179e+00,-1.061335124996454632e-01,-1.689687165571345656e-02,9.559906125068664551e-01,2.639718653180061353e-02,-1.458160537674224599e-03,-1.530018674333502582e-02,-5.111889431233969383e-02,-3.160217055825706445e-02,-2.338829077780246735e-02,1.282159651105384268e-01,-3.485505416746165902e-02,-9.840515897882207152e-02,-3.176784276962280051e-01,-2.387866497039795033e-01,1.805019216987069075e-01,-2.176784276962280273e-01,-1.387866497039794977e-01,2.227214097976684404e-01,5.126262494912425804e-01,-4.397143125534057617e-01,1.330050230026245117e-01,9.160349186497620622e+01,0.000000000000000000e+00
2.228998999999999953e+00,-1.082207863019208904e-01,-1.847430647319438582e-02,9.541382193565368652e-01,2.648061836755091075e-02,1.834826821522916873e-03,-1.858000797092356632e-02,-4.273723524127167467e-02,-3.282011496089447256e-02,-3.556933999061584473e-02,-7.411392902273747363e-02,1.920048486281888678e-01,-1.341449729760350318e-01,-6.341087818145754729e-03,1.236179649829864391e-01,1.524137625823414333e-01,9.365891218185425082e-02,2.236179649829864446e-01,2.039411723613739069e-01,5.132760369872912953e-01,-4.643255472183227539e-01,3.396149873733520508e-01,8.037385490715318781e+01,0.000000000000000000e+00
2.254223999999999783e+00,-1.088422376616251380e-01,-1.886185661078340278e-02,9.534659981727600098e-01,2.554635525662441245e-02,3.996217404582225186e-03,-1.969172749743549125e-02,-3.454209361529389510e-02,-2.871029280634664407e-02,-3.708025813102722168e-02,-1.253573245439238149e-01,2.379425993113446491e-01,-1.384897034927915216e-01,5.276442766189573530e-02,1.330452938177276723e-01,-2.271966265856083800e-01,1.527644276618957409e-01,2.228404998779296708e-01,-1.724640369415283148e-01,5.166192588354624471e-01,-2.978649735450744629e-01,5.980297327041625977e-01,-7.213784888141172758e+01,0.000000000000000000e+00
2.272053999999999796e+00,-1.094086672230624863e-01,-1.923285695594842762e-02,9.526811838150024414e-01,2.410918046940997359e-02,6.416248749521180628e-03,-2.080225161963886529e-02,-3.081717839101576206e-02,-2.694114996126250466e-02,-4.235644266009330750e-02,-1.325656258082192895e-01,2.364567250958964639e-01,-1.243573602724773464e-01,9.971141815185532997e-03,1.500550601989571742e-01,-2.689992424267947380e-01,1.099711418151855385e-01,2.229989111423492376e-01,-2.110617756843566895e-01,5.183928341936617779e-01,-2.309097051620483398e-01,4.158937931060791016e-02,-3.782757179348450194e+01,0.000000000000000000e+00
2.301044999999999785e+00,-1.109892458740254079e-01,-2.033437869395755132e-02,9.503648877143859863e-01,1.747768060521837086e-02,1.433391815191664698e-02,-2.451961710518606521e-02,-3.734498590773144278e-02,-2.883676976170069378e-02,-3.598783910274505615e-02,-2.251991043688897909e-01,2.316791189563962294e-01,-1.351066280832734223e-01,2.596762180328368586e-02,1.947087967681376264e-01,-2.916390741014520671e-01,1.259676218032836914e-01,2.231144249439239446e-01,-2.230700969696044755e-01,5.182352641640902702e-01,-2.280634045600891113e-01,3.349052667617797852e-01,1.211652062909517156e+02,0.000000000000000000e+00
2.328479000000000187e+00,-1.120355640912793632e-01,-2.106442512190784613e-02,9.488720893859863281e-01,1.333154310498119340e-02,1.787275463003101805e-02,-2.652726639229281355e-02,-4.005493029202925048e-02,-3.276814953875999137e-02,-3.847507759928703308e-02,-1.512399289668150126e-01,1.100205739046461323e-01,-5.345157437598217071e-02,8.477101325988767311e-02,2.156929149921870403e-01,-2.963488125811651885e-01,1.847710132598876787e-01,2.230699002742767278e-01,-2.220985651016235407e-01,5.137532731509292239e-01,-4.887852668762207031e-01,-6.943345069885253906e-03,5.567200107565475520e+01,0.000000000000000000e+00
2.348326999999999831e+00,-1.126146580309657641e-01,-2.145335970381710006e-02,9.482134580612182617e-01,1.216357734689515850e-02,1.845359935915946714e-02,-2.692465143013707263e-02,-4.227944985944840500e-02,-3.403490621061165677e-02,-2.715910784900188446e-02,-1.344029151403397238e-01,5.052172386144834770e-02,-3.691256761661700775e-02,1.237598538398742565e-01,2.142780765848058822e-01,-2.933307565070761846e-01,2.237598538398742620e-01,2.203087449073791448e-01,-2.179646730422973577e-01,5.095769707480773958e-01,-6.732773780822753906e-01,-1.897889375686645508e-01,2.084837038480395677e+01,0.000000000000000000e+00
2.378379999999999939e+00,-1.137697892676176742e-01,-2.224529862938326788e-02,9.470807909965515137e-01,1.113452558304350165e-02,1.814502674751961031e-02,-2.583685724605688447e-02,-4.633498341968757261e-02,-3.016173513971197317e-02,-1.894417218863964081e-02,-9.908097256290758839e-03,-1.007979282384497376e-02,9.872154542601731253e-02,-2.375627756118774414e-01,1.961298318228571480e-01,9.311524158716580346e-02,-1.375627756118774359e-01,2.084797918796539307e-01,1.654292464256286455e-01,5.095116066296175861e-01,-6.525584459304809570e-01,-1.148545742034912109e-02,9.348010683000472909e+01,0.000000000000000000e+00
2.398086999999999858e+00,-1.144187085294107314e-01,-2.277964177392501413e-02,9.466019868850708008e-01,1.082309268529177936e-02,1.716318097132285558e-02,-2.521188563617049114e-02,-3.529243079463708493e-02,-3.726513559174828016e-02,-1.376977004110813141e-02,-7.365485993978211632e-02,-9.398466277157906112e-02,9.756578191724328553e-02,-2.646033048629760631e-01,1.865996355674818252e-01,-2.230400871948454988e-01,-1.646033048629760576e-01,1.969775855541229248e-01,-1.524687051773071234e-01,5.082626506078581352e-01,-7.032928466796875000e-01,7.875800132751464844e-03,9.220246530424047648e+01,0.000000000000000000e+00
2.425085000000000157e+00,-1.156632572063110015e-01,-2.382657768710508620e-02,9.457774162292480469e-01,1.108460811883905071e-02,1.461986327598596702e-02,-2.312031122547898720e-02,-5.103170959404958185e-02,-3.191810878533000995e-02,-2.202086150646209717e-03,4.660891808196604424e-02,-1.385319880237328993e-01,1.158280454784427899e-01,5.200757980346679132e-02,7.316092303796790930e-02,-2.456548065614266585e-01,1.520075798034667969e-01,1.157569885253906250e-01,-1.809767246246337946e-01,5.074060454142049759e-01,-7.098374366760253906e-01,-1.758688688278198242e-01,1.124033508312001572e+02,0.000000000000000000e+00
