timestamp,x,y,z,roll,pitch,yaw,vx,vy,vz,p,q,r,psp,qsp,rsp,pres,qres,rres,thrust_sp, thrust_res,wind_mag,wind_angle,wind_obs
0.000000000000000000e+00,-2.491863796681188011e-03,-1.132919003232063862e-02,9.969720840454101562e-01,1.129402444191616312e-02,-4.844617706774911881e-03,1.032787517759577254e-03,-1.672494224893221818e-02,1.250321120301870099e-02,8.684347383677959442e-03,3.462827586077041331e-02,-1.634522386943553993e-02,-1.258209461575713825e-02,4.214561869466099120e-02,-3.345730042468580967e-02,-1.587513616282043849e-01,1.125490307807922308e-01,1.316161751747131278e-02,-1.617612004280090388e-01,5.148970877568729287e-01,1.798844337463378906e-01,2.027307748794555664e-01,9.543077470601451751e+01,1.563296079635620173e-01
2.405799999999999952e-02,-3.217765053552924717e-03,-1.068700881804373823e-02,9.968349933624267578e-01,1.138974884913849898e-02,-4.671487048692801736e-03,9.746959843847271925e-04,-1.342691176890737324e-02,1.804590479688420249e-02,-9.724601171910762787e-03,2.430919031047511572e-02,2.115954172803375874e-02,1.101368536299928390e-02,-2.759386959981235954e-01,-6.689287243981073550e-03,1.690462723560278990e-01,-2.079491794109344371e-01,3.414199948310851773e-02,1.662087857723235917e-01,5.107676817108565137e-01,-1.143864393234252930e-01,6.277657747268676758e-01,-4.854184280389973516e+00,1.563296079635620173e-01
4.833699999999999802e-02,-4.200373043943573040e-03,-9.727493467546904221e-03,9.966743588447570801e-01,1.219103217221032855e-02,-4.597437184312713754e-03,1.012451909408137269e-03,-4.120613476561583999e-03,1.918439889215137889e-02,-5.396219203248620033e-04,5.213710656764762585e-02,-4.376178998432920381e-02,1.224563242597467676e-02,4.367160043863888008e-02,-5.900812184488496426e-02,-1.917855094785445580e-01,1.161233425140380804e-01,-2.501209974288940222e-02,-1.947172880172729492e-01,5.138801683238479745e-01,8.707153797149658203e-02,1.491547822952270508e-01,1.027969151598198323e+02,1.563296079635620173e-01
7.383399999999999685e-02,-5.097928017014205851e-03,-8.822424191544808378e-03,9.964128732681274414e-01,1.231625469153190509e-02,-3.731730505905250794e-03,4.793801626374862772e-04,-1.049392098616235870e-02,1.977269034992367586e-02,-2.091426635161042213e-03,-1.465679582579059760e-02,3.037257641288837809e-02,-6.295413417185942440e-02,-2.858623126973104944e-01,8.375254915605388761e-02,1.623860600412018462e-01,-2.135135829448699951e-01,1.192555010318755992e-01,1.609405517578124944e-01,5.029368123371742438e-01,-5.005549788475036621e-01,2.081751823425292969e-03,2.529040098699467265e+01,1.563296079635620173e-01
9.958200000000000385e-02,-5.579031119220752982e-03,-8.426129399347748530e-03,9.961087703704833984e-01,1.103843487288041873e-02,-3.113576513051219408e-03,-4.612718094336208061e-05,-1.358446693695406632e-02,2.417789553542356792e-02,-1.706831529736518860e-02,-7.675646709992661743e-02,1.356309330835084662e-02,3.042774149362153374e-02,-2.563696225251657079e-01,-9.169622032891142083e-02,-4.901029296352261283e-02,-1.960557639598846380e-01,-5.832159519195556641e-02,-4.897313117980956615e-02,5.090916814793591261e-01,-2.368780970573425293e-01,-6.587231159210205078e-02,1.015991458662097102e+02,1.563296079635620173e-01
1.242069999999999980e-01,-6.286423643293623416e-03,-7.756872180059404612e-03,9.953089356422424316e-01,8.160027653797096575e-03,-2.244226206387534006e-03,3.407597348745905908e-04,-1.196963365104721302e-02,2.797890155207721427e-02,-1.868765801191329956e-02,-6.954855214657304496e-02,-2.350128186571355526e-02,-4.612172977468338708e-02,-2.046517180811449621e-01,-1.963410754982748696e-01,-1.268862486228404252e-01,-1.659401714801788386e-01,-1.698765635490417369e-01,-1.278994560241699108e-01,5.083802140967097483e-01,-2.853485941886901855e-01,-4.471904039382934570e-01,-3.371611210183864671e+01,1.563296079635620173e-01
1.471480000000000010e-01,-6.723514852233467703e-03,-7.322114283221680710e-03,9.945957064628601074e-01,4.931286570190696744e-03,-2.242536352055735094e-03,-4.860591241421802488e-05,-6.119823716508663095e-03,3.337216606632994326e-02,-4.537910968065261841e-02,-2.142838213167275463e-01,4.120263996342894697e-02,2.889182137964334263e-02,-1.392040227483206105e-01,2.435931086869598527e-02,-1.620298615037688017e-01,-1.255015611648559459e-01,4.663327932357787947e-02,-1.619309663772582897e-01,5.096452902897714576e-01,-3.290184736251831055e-01,2.735817432403564453e-02,6.614092912976219907e+01,1.563296079635620173e-01
1.721630000000000105e-01,-7.335973790609892631e-03,-6.436370540418970276e-03,9.930658340454101562e-01,-9.396697491255339221e-04,-1.960027902826233515e-03,2.685956748027929072e-04,-1.777321408510345105e-02,3.242317453241674169e-02,-4.956124722957611084e-02,-1.771764122174434297e-01,-1.326359152604450475e-02,2.269021592858375819e-02,-1.675210184262283797e-02,-8.743075866142095698e-02,-1.936883651510448445e-01,-4.029083847999572615e-02,-5.640642642974853099e-02,-1.944520711898803655e-01,5.096684218899416585e-01,-3.532283902168273926e-01,2.037924528121948242e-01,8.900205722522593987e+01,1.563296079635620173e-01
2.001020000000000021e-01,-7.667845260618580058e-03,-5.476901049022203129e-03,9.918025135993957520e-01,-5.941866718544952346e-03,-1.820315596814392478e-04,1.376626015595392967e-03,-2.304485857632576282e-03,4.155593651858312948e-02,-6.491331756114959717e-02,-2.973005771110275308e-01,1.679064801129728779e-01,6.245336490310789829e-02,2.245963059723635469e-01,1.994944448878954724e-01,-1.738901904779031893e-01,1.605028152465820257e-01,2.051554441452026201e-01,-1.777422666549682562e-01,5.086629325131661883e-01,-4.758883714675903320e-01,6.459057331085205078e-02,1.039929973967049506e+02,1.563296079635620173e-01
2.239220000000000099e-01,-8.159336611342615092e-03,-3.945242840757171195e-03,9.896032214164733887e-01,-1.179789270339118464e-02,2.163910389213707930e-03,3.867805061761131133e-03,-1.070534687674296916e-02,3.990884955715993943e-02,-7.714834064245223999e-02,-1.668012695864865835e-01,6.932241765263832955e-02,1.134556339912013989e-01,3.044690847396850364e-01,2.136669706929609225e-01,-2.032113721650448124e-01,2.044690847396850586e-01,2.133169054985046276e-01,-2.140417098999023438e-01,5.093382213670248904e-01,-5.014681220054626465e-01,-5.972111225128173828e-02,8.719946102023286016e+01,1.563296079635620173e-01
2.475719999999999865e-01,-8.484104329811028439e-03,-2.880719007167097112e-03,9.880260229110717773e-01,-1.427042926568334799e-02,3.318614889317839101e-03,5.897762505274163625e-03,-1.126494982101500057e-02,4.289159174429735960e-02,-7.283685356378555298e-02,-8.891625693906675398e-02,5.221300732528402766e-02,9.168013473885451570e-02,3.030552387237548939e-01,2.228861306566025935e-01,-1.917576518072412195e-01,2.030552387237548884e-01,2.145337343215942272e-01,-2.082892298698425237e-01,5.084206703559259743e-01,-5.436204671859741211e-01,-6.153362989425659180e-01,1.988486974953610797e+01,1.563296079635620173e-01
2.717060000000000031e-01,-9.056000467197823645e-03,-1.336928991305409969e-03,9.856966137886047363e-01,-1.361245945350420851e-02,1.802915102842028716e-03,9.515770013338090832e-03,-7.506416638698619297e-03,3.387481092307780689e-02,-6.997156888246536255e-02,1.103092535027598436e-01,-1.321897168316853721e-01,1.198146152354426924e-01,2.262148141860961803e-01,-1.143065592336173913e-01,-1.556001194557857514e-01,1.262148141860961748e-01,-1.154179215431213323e-01,-1.822464108467101995e-01,5.227678428219277862e-01,2.232692241668701172e-01,-1.351381540298461914e-01,1.294541599431391035e+02,1.563296079635620173e-01
2.971260000000000012e-01,-9.244183649951529663e-03,-7.949827179687286990e-04,9.841061830520629883e-01,-1.022216284434272759e-02,-1.047957974745994392e-03,1.210136088059470504e-02,-2.126704077352814179e-02,3.786267494142823986e-02,-8.315677195787429810e-02,2.279791427998945907e-01,-1.773230199931303819e-01,1.387555376312520905e-01,2.431945424681401791e-01,-1.465279653633788370e-01,-1.512528927385389521e-01,1.509919524192810114e-01,-1.176325678825378418e-01,-1.850972414016723577e-01,5.224289430280217861e-01,1.414699554443359375e-01,2.682896852493286133e-01,8.600901368941299552e+01,1.563296079635620173e-01
3.207990000000000008e-01,-9.207607234298736260e-03,-6.697659794392449946e-04,9.825162887573242188e-01,-5.035817877391767471e-03,-5.105628303177400795e-03,1.464201542997907099e-02,-1.677279819511356962e-02,3.735255776982253362e-02,-7.688767462968826294e-02,2.756755931396865922e-01,-1.595566836957942602e-01,1.064948819486815912e-01,1.929682845763324717e-01,-1.719475349380695794e-01,-1.426078183197798943e-01,1.353305339813232477e-01,-1.222309470176696777e-01,-1.835922718048095537e-01,5.216517820845543163e-01,1.132339239120483398e-01,-4.554387331008911133e-01,1.032848980250713851e+02,1.285472631454467884e-01
3.466949999999999754e-01,-9.095609495689348234e-03,-3.726235372170629218e-04,9.798991680145263672e-01,3.113802125052226970e-03,-8.606783232826265007e-03,1.808961401676182496e-02,-7.922218679482114639e-03,4.097804739122419548e-02,-9.891097992658615112e-02,2.398671611115114621e-01,-3.097635461785101449e-02,9.306720070065536976e-02,-7.542070250334387271e-02,-1.482973084004943765e-01,-9.807418571509313177e-02,-8.302901387214660367e-02,-8.251883983612059992e-02,-1.488300561904907227e-01,5.257876559791239135e-01,2.343142032623291016e-01,1.843947172164916992e-01,9.027601727902755613e+01,1.285472631454467884e-01
3.741059999999999941e-01,-8.748927526909068553e-03,4.398863299035462362e-05,9.771149754524230957e-01,1.060626225790739334e-02,-7.382466093413420083e-03,2.149868852048247500e-02,3.946765280543256351e-04,4.309612513550795110e-02,-1.046802476048469543e-01,1.927248674780839555e-01,1.331584320774800434e-01,1.547291346866536410e-01,-2.396321988005178094e-01,-9.976661830749097848e-02,1.744225952198159013e-01,-1.999557852745056097e-01,-4.773459434509277205e-02,1.140563070774078258e-01,5.227737753020623712e-01,3.051805496215820312e-02,1.312750577926635742e-01,9.607222509172709124e+01,1.285472631454467884e-01
3.971210000000000018e-01,-8.657657174960616334e-03,5.706085520263738404e-04,9.750952720642089844e-01,1.491426515701409217e-02,-5.158019564881044516e-03,2.351529611769915054e-02,4.219254528852402382e-03,4.477167028868438148e-02,-1.093004420399665833e-01,2.140073414537696228e-01,1.201578180410702024e-01,6.944680316394587216e-02,-2.685773488438065182e-01,-2.120553139520824776e-02,2.107190319377447163e-01,-2.023585796356201227e-01,1.427253484725952114e-02,1.447251319885253795e-01,5.217407537513194526e-01,-5.835253000259399414e-02,2.958654165267944336e-01,1.006415533445739214e+02,1.285472631454467884e-01
4.216539999999999733e-01,-8.693307368007066604e-03,1.729007737141897939e-03,9.718691706657409668e-01,1.742195636152935045e-02,-5.520998388464093409e-06,2.538857631663037767e-02,8.949875423416347921e-04,4.501278634101624904e-02,-1.278243362903594971e-01,-2.884571291442584659e-02,2.124334536938823625e-01,4.958882451776938649e-02,-2.884392596719912438e-01,1.225360029913836746e-01,2.737225460727048532e-01,-2.068126738071441595e-01,1.274950146675109808e-01,2.026095271110534557e-01,5.226190144075485433e-01,-1.045446991920471191e-01,-1.267906427383422852e-01,9.534944081337800981e+01,1.285472631454467884e-01
4.481720000000000148e-01,-8.622104594122905613e-03,2.627997260841616507e-03,9.696050882339477539e-01,1.680153555255640627e-02,2.894661231406248092e-03,2.479454835786268005e-02,1.525310192727326493e-02,5.321515060208815290e-02,-1.274156570434570312e-01,-8.365361967700206403e-02,1.447179261852600540e-01,-7.918597102003316346e-02,-2.723832723977112069e-01,1.967342614599671968e-01,2.392350195285113112e-01,-2.017068207263946478e-01,1.710657119750976507e-01,1.699342846870422197e-01,5.198876731408487162e-01,-2.674949169158935547e-01,-1.286767721176147461e-01,1.060688284892552247e+02,1.285472631454467884e-01
4.731589999999999963e-01,-8.509090954980242857e-03,4.097225016239584676e-03,9.660066962242126465e-01,1.200486420705114236e-02,5.875540699239900633e-03,2.295639450252884642e-02,9.928998865621749270e-03,5.646176686983687271e-02,-1.419245004653930664e-01,-2.316333039759430334e-01,7.979313409098175158e-02,-6.875310509128475245e-02,-2.055785415426469864e-01,8.994405429684856901e-02,9.172294016491210067e-02,-1.685651421546935924e-01,5.120433568954467496e-02,2.759642601013183663e-02,5.274533462735088163e-01,6.253802776336669922e-02,-9.643185138702392578e-02,9.839163439045836412e+01,1.285472631454467884e-01
4.966130000000000266e-01,-8.564927239673447712e-03,5.319872243271800069e-03,9.634766578674316406e-01,7.630845031339915721e-03,5.957838795163983292e-03,2.094567576284843413e-02,7.369644738192404620e-03,5.542222283310149072e-02,-1.356610804796218872e-01,-2.331459246463091217e-01,-2.053593262968474165e-02,-1.038714057725250162e-01,-1.688090013772751696e-01,-8.398777775528677714e-02,3.052173264396094293e-02,-1.599316835403442327e-01,-1.217678189277648926e-01,-2.801409959793090682e-02,5.276041522126520000e-01,7.690751552581787109e-02,4.517805576324462891e-02,1.143075392699080055e+02,1.285472631454467884e-01
5.211310000000000109e-01,-8.881859249269990694e-03,7.653418274298008292e-03,9.596797823905944824e-01,-7.266178793250318820e-04,3.279722738021018102e-03,1.854783791487855937e-02,1.035924516275896212e-02,6.959827941971898080e-02,-1.537179052829742432e-01,-2.982002771447090916e-01,-1.041872404044266037e-01,-3.760289501304296678e-02,9.434610485696277860e-03,-6.882751914614446132e-02,-1.253006674263069109e-01,-4.838644266128539623e-02,-9.154990911483763816e-02,-1.771988868713378906e-01,5.236226848234137865e-01,-2.359645366668701172e-01,-2.029931545257568359e-02,1.007656169006580313e+02,1.285472631454467884e-01
5.461819999999999453e-01,-9.107327799606266747e-03,9.332796144379987974e-03,9.570809602737426758e-01,-6.170901095186546483e-03,5.992874416869131693e-04,1.777309530166714183e-02,1.406812732287548865e-03,6.796038639461123021e-02,-1.461219638586044312e-01,-2.206074081312074109e-01,-1.913978924645388657e-01,-4.003361861037173924e-02,1.516496063074658229e-01,-1.705857768033952893e-01,-1.617818229440972366e-01,6.035703420639038086e-02,-1.682209968566894531e-01,-2.115473985671997015e-01,5.177138960624171338e-01,-5.447267293930053711e-01,4.967104196548461914e-01,-7.448858142767667800e+01,1.285472631454467884e-01
5.735890000000000155e-01,-9.315324731600406818e-03,1.188897760183999473e-02,9.532401561737060547e-01,-1.412049301681455801e-02,-1.756177959054694426e-03,1.789947114211950033e-02,1.348328496278105443e-02,6.844893348689226609e-02,-1.457514762878417969e-01,-2.504255640388924897e-01,-1.974865020370539237e-02,6.627190341937762644e-04,3.048994898796081321e-01,1.820107095585304646e-01,-1.654279236359530447e-01,2.048994898796081543e-01,1.894071400165557861e-01,-2.155361652374267467e-01,5.229636371837137476e-01,-2.847526073455810547e-01,2.324949502944946289e-01,-1.958043626539759074e+01,1.285472631454467884e-01
5.968440000000000412e-01,-9.614277904284367071e-03,1.364817268350155578e-02,9.506822824478149414e-01,-1.721480758670769842e-02,-2.309318976025931391e-03,1.902651094267714810e-02,1.969628800738532776e-02,8.095312161607229329e-02,-1.487105041742324829e-01,-7.061480238081518923e-02,-4.221009659948878057e-02,8.356324781655473377e-02,3.102627277374267467e-01,-1.542499518480331122e-01,-1.727683904170178586e-01,2.102627277374267412e-01,-1.462898612022399958e-01,-2.260286808013916016e-01,5.166556438897402792e-01,-6.569376587867736816e-01,-2.890050411224365234e-02,8.859956783781542811e+01,1.667527437210082897e-01
6.211999999999999744e-01,-1.023529508065774626e-02,1.627526637277030425e-02,9.471096992492675781e-01,-1.752843591134592080e-02,-1.353369339208487787e-03,2.104110929985910858e-02,1.029916190625692132e-02,6.878517536975990720e-02,-1.267108321189880371e-01,1.257865922235516243e-01,-2.983159337230341379e-02,8.630381161578462579e-02,1.750578999519348256e-01,-8.460783599129705068e-02,-5.098311995028097232e-02,7.505789995193480613e-02,-7.429908514022827426e-02,-1.098765850067138644e-01,5.297404686633141457e-01,1.163828372955322266e-01,-1.989853382110595703e-02,9.801462843884117149e+01,1.667527437210082897e-01
6.464539999999999731e-01,-1.065203957403193687e-02,1.800234030899967169e-02,9.449734687805175781e-01,-1.421088149812596742e-02,-1.057089507227715330e-03,2.249502095339589794e-02,1.407730863349175403e-02,7.463207211868896906e-02,-1.358615309000015259e-01,1.511225133337225357e-01,6.618900535243496530e-02,5.099912443702878800e-02,3.641923666000367044e-02,3.803752646340777949e-02,1.500624695962539668e-01,-6.358076333999633512e-02,4.216863512992858470e-02,8.708156347274779996e-02,5.287156261702313786e-01,6.012678146362304688e-03,-1.284611225128173828e-02,9.305249600682689959e+01,1.667527437210082897e-01
6.738549999999999818e-01,-1.115481627353551337e-02,2.054156737330461308e-02,9.417367577552795410e-01,-6.306534526062235364e-03,-6.167597571160587933e-04,2.498607643600465195e-02,7.394009199112082723e-03,7.093571042241882119e-02,-1.417651325464248657e-01,2.286987572249059020e-01,4.368407089176380015e-02,8.534509319673862227e-02,-8.833098411560047492e-03,1.950501816288529450e-02,9.644930095898528177e-02,-1.088330984115600530e-01,2.642564177513122628e-02,2.648357748985290597e-02,5.295423302525424925e-01,5.162596702575683594e-03,-1.148816347122192383e-01,6.750665277506293194e+01,1.667527437210082897e-01
6.965459999999999985e-01,-1.133448622958628006e-02,2.229509321008022252e-02,9.395821690559387207e-01,-1.038811348805054663e-03,4.807568378883964044e-04,2.521993942775275013e-02,1.227787706952694451e-02,8.045212425700329351e-02,-1.311372518539428711e-01,2.509557428090952169e-01,7.733316111132998438e-02,-3.861155587440947418e-02,-6.709054101878765553e-02,4.697810065913594901e-02,2.067298417020457801e-01,-1.437320888042449840e-01,4.181181192398070873e-02,1.361231803894042969e-01,5.285924221897057018e-01,-2.314674854278564453e-02,7.501721382141113281e-03,9.572686340653456227e+01,1.667527437210082897e-01
7.241490000000000427e-01,-1.123854968948702696e-02,2.447551208414002616e-02,9.363148212432861328e-01,3.884045493111632288e-03,1.700215414791816926e-03,2.449841137382581524e-02,2.766385165134185517e-02,8.557991963507072253e-02,-1.427753120660781860e-01,7.631553575452973415e-02,5.064991013542277654e-02,-2.487057066948298797e-02,-1.305941566697916834e-01,1.470495193310668580e-01,2.591951609527239353e-01,-1.790679752826690729e-01,1.225639343261718667e-01,1.906772732734680065e-01,5.284374512343291697e-01,-1.009746789932250977e-01,-1.354719400405883789e-01,1.032114325103587333e+02,1.667527437210082897e-01
7.471630000000000216e-01,-1.112151759250992050e-02,2.598763643988035929e-02,9.341019988059997559e-01,5.964740259587538590e-03,1.735034970737681093e-03,2.359097725312850335e-02,2.285724494088889336e-02,8.715634732723336053e-02,-1.359895169734954834e-01,1.342216210902030527e-01,-7.153133731524582983e-02,-6.404834040755466584e-02,2.088813669169262144e-01,-6.883371899348685041e-02,2.372625064604374362e-02,1.720095634460449274e-01,-8.788636922836302878e-02,-4.225941896438598772e-02,5.316859679194321231e-01,8.483970165252685547e-02,-9.179079532623291016e-02,1.000798317570429106e+02,1.667527437210082897e-01
7.695899999999999963e-01,-1.095996266577860777e-02,2.760147312474635004e-02,9.318932294845581055e-01,6.539975601530062695e-03,2.106685810772779277e-03,2.207532100723270246e-02,1.782379741613612789e-02,9.434585981543476552e-02,-1.440647542476654053e-01,-3.523177892128024832e-03,5.202409199508726406e-02,-6.626113606363019659e-02,-1.465520358192871075e-01,2.361835964996660819e-01,2.784977952901644405e-01,-1.861813902854919378e-01,2.177518129348754716e-01,2.167594134807586670e-01,5.238732347822122604e-01,-3.929852247238159180e-01,-8.230078220367431641e-02,9.500117629778821993e+01,1.667527437210082897e-01
7.968800000000000328e-01,-1.067111429642184778e-02,3.015129923094432216e-02,9.286968708038330078e-01,6.130982020015968148e-03,5.062814970773210632e-04,1.939331585645597336e-02,2.340045301062380900e-02,9.688656274690460313e-02,-1.454136818647384644e-01,1.449385027440360180e-03,-1.090486569812401385e-01,-3.938320766961269509e-02,1.647481614890660695e-01,-1.767907757641248856e-01,1.649023217745979042e-01,1.198305845260620034e-01,-1.898098468780517467e-01,1.106514930725097656e-01,5.284725410653760003e-01,-1.714838743209838867e-01,3.869545459747314453e-02,1.342806857993719518e+02,1.667527437210082897e-01
8.242080000000000517e-01,-1.071849647803416010e-02,3.378704062466991037e-02,9.255885481834411621e-01,5.679163463344784508e-03,-1.236853566531914694e-03,1.689069503525168769e-02,2.201473112693305700e-02,9.533405907734472662e-02,-1.343598216772079468e-01,-4.961900883177360229e-03,-6.511327332421013026e-02,-1.421792915922880374e-01,-5.740736998627781612e-02,-1.307374350106275673e-01,1.397085232439080338e-01,-1.064141213893890353e-01,-1.304341793060302679e-01,9.241039752960204801e-02,5.286321492587335857e-01,-1.418530344963073730e-01,6.668196916580200195e-01,3.943405277683901033e+01,1.667527437210082897e-01
8.465700000000000447e-01,-1.073253370815244016e-02,3.624465596171488196e-02,9.235684871673583984e-01,4.931181839133486414e-03,-3.390265233069289508e-03,1.466393349225024630e-02,2.465966547969003150e-02,9.821546446838078093e-02,-1.450046300888061523e-01,-6.931767769515451150e-02,-8.164185188271499971e-02,-8.300937217863109396e-02,2.036501081287871995e-01,-1.915226729887771207e-01,-9.808865622801923867e-02,1.458025217056274359e-01,-1.793081045150756725e-01,-1.391997098922729548e-01,5.277149346954567166e-01,-2.532067298889160156e-01,1.448909044265747070e-01,-4.892773227030617988e+01,1.667527437210082897e-01
8.730809999999999960e-01,-1.062244122221737974e-02,3.991673258934166912e-02,9.204543828964233398e-01,4.959053212632745337e-03,-5.631938034723615871e-03,1.166108941250122190e-02,2.809428503611867758e-02,1.032849479101844714e-01,-1.399848014116287231e-01,7.872622367618063721e-02,-8.645919106170329993e-02,-1.149946495985622458e-01,2.290163494357859153e-01,-1.505458466493373448e-01,9.140797383229384843e-02,1.652843713760376032e-01,-1.259519219398498591e-01,5.865004062652587336e-02,5.351523334754511030e-01,1.511600017547607422e-01,1.231592893600463867e-01,1.351018657829042411e+02,1.667527437210082897e-01
8.968850000000000433e-01,-1.047938929939214864e-02,4.236869572195733902e-02,9.184902906417846680e-01,4.723320847020584350e-03,-4.435230753737862130e-03,1.035763354023998620e-02,2.121379145033907079e-02,1.000571013305843332e-01,-1.497710049152374268e-01,-2.005667405147583404e-02,1.130482654174906759e-01,-1.491431056036390292e-02,-1.052572169785113976e-01,1.581725362337311480e-01,2.141010600167107258e-01,-1.690923392772674394e-01,1.807059109210968073e-01,1.850040793418884222e-01,5.285071604056993388e-01,-2.715609669685363770e-01,2.170876264572143555e-01,2.343150694776775822e+01,1.667527437210082897e-01
9.205370000000000497e-01,-1.019228438433006194e-02,4.477634856912966060e-02,9.165329337120056152e-01,6.131496666660893324e-03,-2.370304467810058213e-03,9.891323683966713604e-03,3.270233369745798729e-02,9.954459914506490203e-02,-1.288521736860275269e-01,9.870266238543580484e-02,1.377483801472861868e-01,-3.599659750903032307e-02,-1.059954390678980174e-01,1.441560168954285071e-01,2.249397955443250829e-01,-1.629294097423553411e-01,1.433198869228362871e-01,1.972457170486450195e-01,5.324816822050574272e-01,1.035904884338378906e-02,-3.372052907943725586e-01,9.913679436852841320e+01,1.667527437210082897e-01
9.472120000000000539e-01,-9.600420411151654523e-03,4.825348803831434191e-02,9.138942360877990723e-01,1.014505662794833347e-02,2.042451485417595691e-03,7.809522550309820448e-03,4.019101250729639058e-02,9.538545994884937984e-02,-1.286315917968750000e-01,1.423527968610527328e-01,1.410930584704691015e-01,-1.069660052329832328e-01,-1.586017672869053652e-01,2.032408366907992037e-01,2.227015056140795590e-01,-1.888501524925231823e-01,1.693311810493469127e-01,2.010150969028472734e-01,5.297146395862862844e-01,-1.616876125335693359e-01,-3.016587495803833008e-01,1.054606138040439305e+02,1.667527437210082897e-01
9.750579999999999803e-01,-9.175117684593493000e-03,5.052842326479063673e-02,9.122009277343750000e-01,1.280142340430257333e-02,3.811626972181292317e-03,5.496837274825090713e-03,3.439661896516790079e-02,1.005584781136033973e-01,-1.250897645950317383e-01,1.389797876037039137e-01,3.217642249136208783e-03,-1.040881711461137810e-01,-1.249742386497347396e-01,1.646320573243953700e-01,1.966475325154644904e-01,-1.443601906299591120e-01,1.244816958904266246e-01,1.815019011497497614e-01,5.314135929019889737e-01,-7.217156887054443359e-02,-3.387962579727172852e-01,1.404446309969849835e+02,1.667527437210082897e-01
9.999770000000000048e-01,-8.559746373413912660e-03,5.410584412171914881e-02,9.097921252250671387e-01,1.389571425611015390e-02,3.521330338268180427e-03,1.524380327981440277e-03,2.601018427414070536e-02,1.054077679349335328e-01,-1.246864199638366699e-01,-3.016374614122182413e-03,-6.634753575700677586e-02,-1.561396028084458820e-01,-8.684564814037368241e-02,-9.820673988476953664e-02,6.946930022177140451e-02,-1.046540558338165255e-01,-1.309435486793517900e-01,6.541578769683838168e-02,5.313297202697323529e-01,-9.567159414291381836e-02,8.004271984100341797e-02,-1.170394305228055174e+02,1.667527437210082897e-01
1.025527000000000077e+00,-7.992950937000973741e-03,5.662313941608400347e-02,9.081339836120605469e-01,1.241457752836869557e-02,1.291344768409974364e-03,-9.424688841056023296e-04,2.867594811611442682e-02,1.075617966072000831e-01,-1.346423178911209106e-01,-1.196318938973214702e-01,-1.049782034078598353e-01,-9.946937721622343964e-02,-4.842688809210467238e-02,-1.450502914347968908e-01,-1.314467959708837952e-01,-7.853738665580749234e-02,-1.665840625762939342e-01,-1.286708950996398870e-01,5.319732875079823398e-01,-1.177058219909667969e-01,5.626285076141357422e-02,9.143218389040312388e+01,1.667527437210082897e-01
1.051644000000000023e+00,-7.470085697697463611e-03,5.914482984542462907e-02,9.065588712692260742e-01,1.024392746068045028e-02,-2.110445936016835944e-03,-3.730002955725616760e-03,3.075455535289164238e-02,9.889670403402298082e-02,-1.178856715559959412e-01,-1.251435869270773882e-01,-1.975598579424245604e-01,-1.460669264001445145e-01,4.265367604288054088e-02,-1.735878412829790218e-01,-1.835373327890826023e-01,2.938663959503173741e-03,-1.743766307830810491e-01,-1.730876684188842607e-01,5.271442979589735511e-01,-3.323180675506591797e-01,-9.052574634552001953e-02,1.011074405478604916e+02,1.667527437210082897e-01
1.073112000000000066e+00,-6.906418155386131151e-03,6.170944435377570536e-02,9.050449132919311523e-01,7.740298947835805125e-03,-5.008138323472577369e-03,-5.679735033394716671e-03,2.880447709108421156e-02,1.119682496042678638e-01,-1.197252422571182251e-01,-1.136851888143782796e-01,-9.531004532325199063e-02,-9.522814226355989786e-02,2.080643816790433420e-01,-2.017423858287850646e-01,-2.189656083777501427e-01,1.389859557151794378e-01,-1.820961713790893444e-01,-2.031708955764770508e-01,5.272313845470899540e-01,-3.521997928619384766e-01,4.840266704559326172e-02,8.551709663519950766e+01,1.667527437210082897e-01
1.096589000000000036e+00,-6.318819095758592720e-03,6.427765708986794835e-02,9.035303592681884766e-01,5.323501267656972555e-03,-6.733366070792223823e-03,-6.852089242554393680e-03,4.075899275782314535e-02,1.081337966260723649e-01,-1.144842207431793213e-01,-1.318414310589989258e-01,-1.427280744308706030e-02,-3.811879024304791475e-02,2.132086448171738036e-01,-7.332929192743739555e-02,-2.199236867196285583e-01,1.309201598167419323e-01,-5.216896533966064453e-02,-2.008420944213867021e-01,5.326928235215465657e-01,-4.895830154418945312e-02,-1.542080640792846680e-01,9.762136663699934047e+01,1.667527437210082897e-01
1.122822999999999904e+00,-5.659351512845372037e-03,6.686437021870604569e-02,9.022975564002990723e-01,3.330527879810678098e-03,-6.186561838861459606e-03,-6.748622906862658880e-03,3.402837931954048184e-02,1.127990057242834882e-01,-1.144156605005264282e-01,-4.285765552189572947e-02,2.318242690850615476e-02,1.295349126606191829e-02,2.943866968154907338e-01,1.729822395056673234e-01,-2.181610218928646816e-01,1.943866968154907282e-01,1.968647003173828181e-01,-1.993772864341735729e-01,5.276048251358834706e-01,-3.430778980255126953e-01,-2.404332160949707031e-03,9.640052496437292007e+01,1.667527437210082897e-01
1.149356000000000044e+00,-4.942842406593159557e-03,7.115787722148417260e-02,9.005666375160217285e-01,2.036792077877303073e-03,-2.837043859367005538e-03,-5.350887268185123766e-03,3.933264023504366713e-02,1.162631913927463373e-01,-9.961036592721939087e-02,9.775542646630181604e-03,1.396922681371978170e-01,8.606894324812550123e-02,9.228332042694092907e-02,1.987315083445166664e-01,1.371409194805651988e-01,-7.716679573059081684e-03,1.951859414577483964e-01,1.521416544914245550e-01,5.267996519453698179e-01,-3.456336259841918945e-01,-4.939025640487670898e-01,1.362519057145943009e+02,1.667527437210082897e-01
1.170752999999999933e+00,-4.543298276685393648e-03,7.405924641134989383e-02,8.997288942337036133e-01,3.436726672210771178e-03,-1.381143967793541094e-04,-4.050952743527910273e-03,4.492435246519950465e-02,1.103561594413825786e-01,-9.254997968673706055e-02,1.200254017735987305e-01,1.273317727708792590e-01,5.086647502659796122e-02,1.091433286666870228e-01,1.469138121270735786e-01,1.522680102848858463e-01,9.143328666687012066e-03,1.217927813529968151e-01,1.637351989746093639e-01,5.327390251616931360e-01,-5.504667758941650391e-03,-7.736325263977050781e-03,1.028652716930333213e+02,1.667527437210082897e-01
1.196012999999999993e+00,-3.905890312941061055e-03,7.830578016048328482e-02,8.986862301826477051e-01,8.246002475642846830e-03,3.215206433097694827e-03,-1.333961044067303887e-03,3.014526136918144195e-02,9.869236369353449889e-02,-7.678773999214172363e-02,1.761136206699878692e-01,1.037638261812478119e-01,9.662886735600612065e-02,6.439224629091835905e-02,1.012928356974224786e-01,1.308298211733233962e-01,-3.093284368515014475e-03,6.557832956314087192e-02,1.347721338272094560e-01,5.323545157463640543e-01,2.296757698059082031e-02,-1.057583093643188477e-01,1.071422746795927736e+02,1.667527437210082897e-01
1.220196000000000058e+00,-3.321701492927207119e-03,8.231142861547430245e-02,8.979356884956359863e-01,1.616108936207363497e-02,2.647047798708834776e-03,-1.905850851710738669e-04,4.262750716215190500e-02,1.034236119442572960e-01,-7.080213725566864014e-02,2.449318507212573659e-01,-5.232471644516518972e-02,-1.531971864085208274e-02,1.976775337487315654e-01,2.117901481139466413e-01,-1.769412780731076731e-02,1.733514547348022350e-01,1.676087021827697698e-01,-1.681716442108154366e-02,5.323762824135347405e-01,3.562891483306884766e-02,2.137287855148315430e-01,8.858678172368917103e+01,1.905760049819946178e-01
1.249082000000000026e+00,-1.360698090597049640e-03,8.694915701173037970e-02,8.970722556114196777e-01,2.483117673432580844e-02,-1.763584960172037697e-03,-2.889941145108754477e-03,3.746515540420387869e-02,1.002004191524410448e-01,-7.340537011623382568e-02,1.185674134904234900e-01,-7.900768665851844175e-02,-9.164249763338615240e-02,1.684015346219545628e-01,-4.853580181076384142e-02,1.317974456067135536e-01,2.002678513526916504e-01,-5.927724838256835660e-02,1.399945735931396318e-01,5.344639229757006671e-01,1.280357837677001953e-01,-3.546501398086547852e-01,-1.351059502360278941e+02,1.905760049819946178e-01
1.273330999999999991e+00,1.170116041890122518e-04,9.035546740459667048e-02,8.964515328407287598e-01,2.874239695336485920e-02,-5.582398806966315519e-03,-4.286643649098053656e-03,3.816818499126253816e-02,1.009492965137853554e-01,-6.900683045387268066e-02,1.076238668820821143e-01,-1.226635694078535843e-01,-1.202595415762500175e-02,1.506461162955946287e-01,2.196499512504147822e-03,-1.806565678562254140e-01,2.041584491729736273e-01,1.423423290252685477e-02,-1.687788248062133678e-01,5.286685183320128933e-01,-1.839548349380493164e-01,3.329837322235107422e-02,9.960811157220514644e+01,1.905760049819946178e-01
1.296928999999999998e+00,1.092247131682569762e-03,9.256681980011374766e-02,8.960292935371398926e-01,3.143816507831788398e-02,-8.521718999182636978e-03,-5.321107882494264564e-03,4.111603499880594342e-02,8.935017621851881753e-02,-4.993670061230659485e-02,1.453377841722713060e-01,-1.586222420314639114e-01,-8.207902469722731797e-02,1.246375960781721248e-01,-2.169453528724746283e-03,-6.174676573502737437e-02,2.021623849868774414e-01,2.614878416061401298e-02,-4.715505838394164900e-02,5.286947400418965382e-01,-1.162021756172180176e-01,1.469975709915161133e-01,6.694110628159670284e+01,1.905760049819946178e-01
1.319790000000000019e+00,2.029095300111872710e-03,9.501800054467700318e-02,8.956173062324523926e-01,3.384171888952389184e-02,-1.059842061776117284e-02,-6.228629259038386511e-03,4.097346087553298266e-02,9.339746025294258513e-02,-6.270751357078552246e-02,1.419039735964354731e-01,-9.876575366708781334e-02,3.177518782153273408e-03,9.784717863097262824e-02,-9.832104696997523430e-03,-1.011578532264538338e-01,1.845812916755676103e-01,3.206806182861327709e-02,-8.420369625091551902e-02,5.311661926035333714e-01,-4.170262813568115234e-02,2.387953996658325195e-01,9.490128478117678412e+01,1.905760049819946178e-01
1.346460999999999908e+00,3.436610327331952874e-03,9.908027228619453730e-02,8.949951529502868652e-01,3.789678133845649638e-02,-1.267798363972882925e-02,-6.021824320959098115e-03,4.081954155084947800e-02,8.426550268650957742e-02,-5.016802996397018433e-02,1.845814414915658286e-01,-1.170018367671641912e-01,1.759276173290761887e-03,2.876116037368772749e-02,-1.342586723892931211e-01,9.283927753283820195e-02,1.287611603736877330e-01,-7.980973720550536832e-02,1.090273976325988742e-01,5.291004985917907577e-01,-1.152719855308532715e-01,9.947049617767333984e-02,1.058439650014000648e+02,1.905760049819946178e-01
1.373623999999999956e+00,4.854103862763262979e-03,1.027910550422382330e-01,8.943084478378295898e-01,4.237008764988123288e-02,-1.287756450512422823e-02,-5.433436651882079388e-03,4.094064500477100771e-02,7.760517920648253576e-02,-4.713829234242439270e-02,1.311716969427895729e-01,2.941777751478742362e-02,2.104198144921314365e-02,-2.800517737865447776e-01,3.850305134700176407e-02,1.776561464922127298e-01,-1.800517737865447998e-01,9.307394027709960105e-02,1.921442627906799205e-01,5.210061174697343533e-01,-5.535834431648254395e-01,-2.398563623428344727e-01,9.697013542039530876e+01,1.905760049819946178e-01
1.396903999999999924e+00,5.820361922638702876e-03,1.050491677528609114e-01,8.938267827033996582e-01,4.493449888109497109e-02,-1.217005368070389615e-02,-5.378739971327200532e-03,4.507084782668307338e-02,7.654451761270866794e-02,-6.042079627513885498e-02,1.036338858926402623e-01,5.653524954412886966e-02,7.325456532809639446e-03,-2.782305181026458740e-01,-1.685600728436760509e-02,1.815054032766326708e-01,-1.782305181026458685e-01,2.936945557594299039e-02,1.959240317344665416e-01,5.235341071766462795e-01,-4.795995354652404785e-01,-4.135024547576904297e-02,1.011738846281063786e+02,1.905760049819946178e-01
1.420757999999999965e+00,6.814272201559196107e-03,1.072187130654727177e-01,8.933473825454711914e-01,4.698509368880299242e-02,-1.080996302880676829e-02,-6.302868761801048991e-03,3.673359392049200395e-02,6.395889424593015349e-02,-5.036198347806930542e-02,8.194480246454688421e-02,7.130435978366918282e-02,-7.616905881224490804e-02,-3.126850306987762340e-01,4.182341190131787234e-02,1.979003303840946026e-01,-2.126850306987762285e-01,8.546973466873168668e-02,2.149344384670257568e-01,5.223101704995271044e-01,-5.154285430908203125e-01,-9.972155094146728516e-02,1.813281489534436446e+02,1.905760049819946178e-01
1.447030999999999956e+00,8.353084435470734329e-03,1.115788347520381418e-01,8.923470973968505859e-01,4.611373400393845717e-02,-7.870265528928443999e-03,-8.460593298371704707e-03,5.311794932214190801e-02,6.782751204796362565e-02,-6.580652296543121338e-02,-1.447710109973425752e-01,1.371577509528428551e-01,-8.339591682475909484e-02,-3.087691664695739746e-01,3.595105481309972956e-02,1.628774426856381130e-01,-2.087691664695739691e-01,4.630608558654784879e-02,1.864262938499450517e-01,5.319991398991541498e-01,-6.143063306808471680e-02,-7.594883441925048828e-02,8.748825507871933382e+01,1.905760049819946178e-01
1.473945999999999978e+00,9.856347701453809645e-03,1.158223905852918262e-01,8.910412192344665527e-01,4.078677131992824306e-02,-6.465155855717830136e-03,-1.105203942265410404e-02,4.495314663830134866e-02,6.958773369911309958e-02,-6.413008272647857666e-02,-2.026560462044667832e-01,-6.570552171168185865e-03,-9.137579575544210742e-02,-3.118434786796570046e-01,-1.343179622647876492e-01,1.327447773057456870e-01,-2.118434786796569713e-01,-1.253170251846313366e-01,1.635801494121551514e-01,5.317033155774164577e-01,-8.496350049972534180e-02,-5.063828229904174805e-01,1.392188715881561336e+02,2.084408044815063421e-01
1.497457999999999956e+00,1.080073395902167097e-02,1.184969386240185552e-01,8.900287151336669922e-01,3.531530414433615983e-02,-6.180644295826098755e-03,-1.297204680817309885e-02,4.096541401662077975e-02,6.286161810914199510e-02,-7.020103931427001953e-02,-3.339044279517877634e-01,5.437011535719956518e-02,-8.367782240023702300e-02,-3.091927694799073700e-01,-9.878786144042100981e-02,1.254845248662121993e-01,-2.099790573120117188e-01,-9.023448228836059015e-02,1.617132604122161754e-01,5.324990131960547490e-01,-7.803982496261596680e-02,7.561172246932983398e-01,-2.259904349172660432e+01,2.084408044815063421e-01
1.522831999999999963e+00,1.176736753099206709e-02,1.210606579671772154e-01,8.888310194015502930e-01,2.960007219321779751e-02,-6.645828924242591640e-03,-1.499471689735346579e-02,4.902571006851161317e-02,6.855285459299902129e-02,-6.641396135091781616e-02,-2.378032643203733532e-01,-6.679020476375779891e-02,-1.058767589667115039e-01,-2.187346824189034256e-01,-1.305402125572862615e-01,-9.027937748208528235e-02,-1.642112553119659257e-01,-1.261114954948425182e-01,-4.833254814147949080e-02,5.328468634387868441e-01,-5.813252925872802734e-02,-1.727223396301269531e-03,4.324466995630248789e+01,2.084408044815063421e-01
1.548729999999999940e+00,1.258933594696760513e-02,1.237928538849115689e-01,8.876500129699707031e-01,2.306825410987647929e-02,-5.872904455232141885e-03,-1.683581952975152576e-02,3.704372883564448216e-02,6.469955499869139981e-02,-7.668106257915496826e-02,-3.453951402871216492e-01,6.564246419132312160e-02,-7.409609251202914360e-02,-8.396092411417431511e-02,2.894911185302348131e-02,-1.307877565063146619e-01,-6.996558308601379117e-02,3.806169033050536832e-02,-8.372368812561034601e-02,5.334095892520450688e-01,-8.159601688385009766e-02,-6.279432773590087891e-02,1.001778244810650733e+02,2.084408044815063421e-01
1.573209999999999997e+00,1.345817145563210464e-02,1.264255024522296378e-01,8.863396048545837402e-01,1.658231211791599477e-02,-4.854770671450570063e-03,-1.861414319071671292e-02,4.178876986490460965e-02,5.952733971851284500e-02,-6.835321336984634399e-02,-2.964749262300656052e-01,6.954240887905341340e-02,-8.177841883569259007e-02,1.100539404230491403e-01,1.638421134665765944e-01,-2.380847302625726525e-01,8.285150527954100730e-02,1.604412853717804011e-01,-1.859285116195678600e-01,5.301644367166238325e-01,-2.411487102508544922e-01,6.399071216583251953e-02,9.738547239363461472e+01,2.084408044815063421e-01
1.599539999999999962e+00,1.478702127700550796e-02,1.303315833000833479e-01,8.844214677810668945e-01,6.768566418820553925e-03,-1.838872758619602976e-03,-1.956592277151909462e-02,5.240577953021062496e-02,6.552260506568655107e-02,-6.918849050998687744e-02,-3.299148068666136191e-01,1.539808804651527363e-01,-2.016483283351930972e-02,3.034741268804191927e-01,2.412535044606779477e-01,-2.661765953568498988e-01,2.043837547302246038e-01,2.099144697189330999e-01,-2.111901283264160101e-01,5.246662740160996652e-01,-5.618143677711486816e-01,1.009786128997802734e-02,9.357314083668946125e+01,2.084408044815063421e-01
1.624287000000000036e+00,1.562872485334721243e-02,1.328366264725141521e-01,8.832288980484008789e-01,1.426965272483578543e-03,-2.784873641001883726e-04,-1.888914056324130300e-02,4.371977119895594649e-02,6.816068903210975582e-02,-5.774770677089691162e-02,-2.026097396173563436e-01,3.585278514091578411e-02,7.478407040872223077e-02,3.174976110458374023e-01,2.517024520774235885e-01,-2.719713954000830824e-01,2.174976110458373968e-01,2.173002362251281738e-01,-2.188977241516113226e-01,5.236907567768547267e-01,-5.830984711647033691e-01,-1.961244344711303711e-01,1.559787419622092486e+01,2.084408044815063421e-01
1.645477000000000078e+00,1.643907208864861871e-02,1.350450633861945970e-01,8.822491765022277832e-01,-2.022933797188289102e-03,2.541755959279967669e-04,-1.782835653383435526e-02,2.508831185697091987e-02,6.079473381087389938e-02,-4.439588636159896851e-02,-1.112989288747942146e-01,-1.704196166948464264e-02,4.066732102784240827e-02,3.189558744430541770e-01,2.403069861781349792e-01,-2.719369537387406055e-01,2.189558744430541992e-01,2.143777728080749345e-01,-2.219010114669799638e-01,5.233947745875419111e-01,-5.579660534858703613e-01,9.691345691680908203e-02,9.674747808364206492e+01,2.084408044815063421e-01
1.670841000000000021e+00,1.754977512456325564e-02,1.377296990593259440e-01,8.810989260673522949e-01,-2.042246254245711455e-03,-2.417240066882930805e-03,-1.479225368009080485e-02,4.277101544579342551e-02,6.183221039607605246e-02,-2.465500310063362122e-02,8.297020952516287462e-02,-1.340057546601660099e-01,9.854208777077728965e-02,3.180743217468261497e-01,1.819482123193634782e-01,-2.554024489045327861e-01,2.180743217468261719e-01,1.561376273632049394e-01,-2.138652563095092829e-01,5.211371899980813405e-01,-6.144515872001647949e-01,1.934028863906860352e-01,1.021891990784179427e+02,2.084408044815063421e-01
1.695014999999999938e+00,1.850563432287014032e-02,1.401988390636757786e-01,8.802544474601745605e-01,3.580434178196079814e-03,-8.654630543958985456e-03,-1.118368688971725297e-02,1.587400227184211643e-02,5.187277773894798105e-02,-6.790347397327423096e-03,2.562142159318623325e-01,-2.555455541851027745e-01,8.545556432665311897e-02,3.217702984809875377e-01,1.316418467782301538e-01,-2.415774134619603497e-01,2.217702984809875322e-01,1.681340575218200628e-01,-2.104585289955138994e-01,5.198259140103513865e-01,-6.236802935600280762e-01,3.013292551040649414e-01,9.171183915578012602e+01,2.084408044815063421e-01
1.720793999999999935e+00,1.931014675719322851e-02,1.425255405500841233e-01,8.795472979545593262e-01,1.231191450913690991e-02,-1.608738299237488789e-02,-6.977949938533943054e-03,3.773693737672390025e-02,5.183896312859827965e-02,-1.357690338045358658e-02,3.039784428663019900e-01,-2.486304034003826435e-01,1.178879909841246409e-01,2.843893814772722739e-01,1.242825703169467277e-01,-2.252213381882330057e-01,2.192848205566406139e-01,1.877021133899688665e-01,-2.061528682708740068e-01,5.220543088433415857e-01,-5.400957465171813965e-01,-5.408810377120971680e-01,1.417212889755087417e+02,2.084408044815063421e-01
1.747552999999999912e+00,1.984904598379253274e-02,1.445589434314254462e-01,8.788072466850280762e-01,2.152081252557441413e-02,-2.277837294493800790e-02,-2.628523336618608652e-03,1.031019085803542949e-02,5.197380457824409689e-02,-2.087045833468437195e-02,2.525020323830010072e-01,-1.605102719320448401e-01,1.511820997323299332e-01,2.147416462638758461e-01,-3.586823940277100720e-02,-1.958920592331480914e-01,2.080813407897949274e-01,6.413176059722899836e-02,-1.897632122039794866e-01,5.250701532360808610e-01,-4.151704311370849609e-01,2.241703271865844727e-01,1.058475713412818351e+02,2.084408044815063421e-01
1.769975999999999994e+00,2.012327069417910869e-02,1.458509509724565667e-01,8.780845999717712402e-01,2.783771322418319288e-02,-2.711330931417910151e-02,4.296886074374890990e-04,2.960147312871425074e-02,5.514319549352034167e-02,-2.082864940166473389e-02,3.228583306138456122e-01,-2.100063337147308473e-01,1.635539956779576420e-01,1.755831388226494205e-01,-2.005714297294616810e-01,-1.444568251035075190e-01,2.063891530036926214e-01,-1.005714297294616616e-01,-1.471836090087890458e-01,5.242483685983346797e-01,-4.701199531555175781e-01,3.840483427047729492e-01,1.090382532309182722e+02,2.084408044815063421e-01
1.798019999999999952e+00,2.045053092567479872e-02,1.476087854531324683e-01,8.769741058349609375e-01,3.710882784976508170e-02,-3.235470345038327089e-02,4.582714825945127281e-03,4.275957996780235977e-03,4.534900489604879598e-02,-1.939009316265583038e-02,3.371625388379523858e-01,-1.746986113506222293e-01,1.393366711364160682e-01,2.574547544000295451e-02,-2.917704343795776145e-01,4.876775052822520523e-02,1.232420682907104381e-01,-1.917704343795776367e-01,3.346041440963744978e-02,5.221352106845843499e-01,-5.898281335830688477e-01,-1.689785718917846680e-01,9.398594380974670059e+01,2.084408044815063421e-01
1.821490000000000054e+00,2.062923436360921195e-02,1.486190227774151773e-01,8.762030601501464844e-01,4.233969022242235758e-02,-3.393518046119181619e-02,7.093564531879597776e-03,1.483884747374227160e-02,4.095918815878016317e-02,-3.860672190785408020e-02,2.345838288672701388e-01,-3.679451195504420628e-03,1.318608440204934729e-01,-3.126589238643646129e-01,-2.506141901016235574e-01,2.306545211858148370e-01,-2.126589238643646074e-01,-1.506141901016235241e-01,2.081315875053405817e-01,5.247334683238105146e-01,-5.360540747642517090e-01,-1.633678674697875977e-01,6.756854111913240502e+01,2.084408044815063421e-01
1.845040000000000013e+00,2.170139040230492297e-02,1.505930069097145829e-01,8.748883008956909180e-01,4.887790826543616379e-02,-3.281078677070037308e-02,1.011437012532714896e-02,1.903570744142512455e-02,3.729954539155997534e-02,-3.596562519669532776e-02,2.001300612586502381e-01,8.545775344087949699e-02,1.047666544280012185e-01,-3.165882349014282338e-01,-1.709924936294555942e-02,2.460321507898326487e-01,-2.165882349014282282e-01,8.290075063705444613e-02,2.149392843246459850e-01,5.240629848392133194e-01,-5.752841830253601074e-01,3.745996952056884766e-02,4.095895056565230163e+01,2.084408044815063421e-01
1.871459999999999901e+00,2.272226495268162005e-02,1.519663523647321046e-01,8.738238215446472168e-01,5.122584270911399729e-02,-2.871870990612723773e-02,1.037195698281742628e-02,1.676596338213062407e-02,2.925139078996612588e-02,-5.103841051459312439e-02,3.562865950181678260e-02,2.425762707173518551e-01,-2.720385912226299177e-02,-3.117177724838257058e-01,-2.430602312088013528e-02,2.342836010312871198e-01,-2.117177724838256725e-01,7.569397687911987027e-02,2.027940273284911943e-01,5.313513505823643790e-01,-2.498758435249328613e-01,1.240395307540893555e-01,9.760149761670378155e+01,2.084408044815063421e-01
1.897326000000000068e+00,2.428256252655045314e-02,1.538731381193408632e-01,8.718304038047790527e-01,4.949522103709771276e-02,-2.134666984258459799e-02,9.269688965720054158e-03,1.821940865737778706e-02,3.156011542075649878e-02,-5.500689148902893066e-02,-1.407539609834426164e-01,2.311453611541115505e-01,-4.285762427425521270e-02,-3.137735784053802268e-01,-1.169364333152771024e-01,2.289836492099679710e-01,-2.137735784053802490e-01,-1.693643331527710030e-02,2.013851344585418646e-01,5.347704245944460144e-01,-9.484702348709106445e-02,2.220140695571899414e-01,6.141840656402114718e+01,2.084408044815063421e-01
1.921118000000000103e+00,2.521097366583296626e-02,1.551506604511283249e-01,8.702434897422790527e-01,4.538779421479602338e-02,-1.709486680991156859e-02,7.848598956476562916e-03,2.274896184977474520e-02,3.031532926723900026e-02,-6.992202997207641602e-02,-2.875649422842437297e-01,2.014407920409685138e-01,-7.489951637419106634e-02,-3.130706608295440452e-01,-2.031427764604184505e-01,2.290481402923300047e-01,-2.130706608295440674e-01,-1.276840209960937444e-01,2.059749662876129150e-01,5.371767193874087409e-01,-3.714942932128906250e-02,1.595569849014282227e-01,8.361930808374395951e+01,2.084408044815063421e-01
1.947127000000000052e+00,2.654935341329559342e-02,1.571068981934608255e-01,8.676475286483764648e-01,3.700944485438330961e-02,-1.339409025071658377e-02,5.292535657403540580e-03,1.251561573673472608e-02,2.620194304157281995e-02,-6.975670158863067627e-02,-2.792880326716967176e-01,7.451510584174575458e-02,-9.381982317492133794e-02,-3.126712083816528542e-01,-2.040135057604293423e-01,1.994583683026407706e-01,-2.126712083816528209e-01,-1.446985960006713923e-01,1.838873863220214788e-01,5.377049286799718830e-01,-2.743798494338989258e-02,2.640064954757690430e-01,9.091803457044123604e+01,2.084408044815063421e-01
1.970574999999999966e+00,2.745011059227100980e-02,1.582899467655613512e-01,8.658521771430969238e-01,3.031902817487358570e-02,-1.110808296989018729e-02,3.350046892482409777e-03,9.849457211954966429e-03,1.804082236490183941e-02,-6.958838552236557007e-02,-3.862382158390578191e-01,1.501620568242469644e-01,-7.587996004236301217e-02,-2.655464742271760326e-01,-1.452606378887204008e-01,1.693847677009875652e-01,-2.039228975772857666e-01,-1.004677891731262235e-01,1.595086812973022516e-01,5.366178420988714226e-01,-1.039307713508605957e-01,6.784594058990478516e-02,1.061513918159423326e+02,2.084408044815063421e-01
1.996626999999999930e+00,2.882743708230907018e-02,1.600175329129291391e-01,8.631346225738525391e-01,2.010921797696892110e-02,-6.478707252112192450e-03,3.653527502816501164e-04,1.914892319764371215e-02,2.294780892566553390e-02,-7.287488132715225220e-02,-3.099009389696147365e-01,1.456050505967163011e-01,-9.210684752909617523e-02,-5.265420470659330082e-02,1.190624164599876494e-01,-8.408782961406818801e-02,-6.361402273178100308e-02,1.260268092155456543e-01,-8.517390489578247070e-02,5.340318838146973501e-01,-2.813374996185302734e-01,8.939146995544433594e-03,7.313019340554454573e+01,2.084408044815063421e-01
2.020071999999999868e+00,2.979053453859530076e-02,1.611393747827792045e-01,8.612568974494934082e-01,1.266336366514739416e-02,-2.578962053112920927e-03,-1.661778252904528089e-03,1.373463021654661859e-02,2.164913675070285690e-02,-7.552339881658554077e-02,-3.964314032287422629e-01,2.060831312338708976e-01,-9.750775629481803208e-02,1.989796357868043875e-01,2.096011032153471398e-01,-1.825381574837519894e-01,1.401649475097656306e-01,1.961287200450897161e-01,-1.777845740318298173e-01,5.316123769422763656e-01,-4.428540468215942383e-01,1.485248804092407227e-01,6.293190818220427474e+01,2.084408044815063421e-01
2.046844999999999803e+00,3.096374328430303788e-02,1.627265466373267466e-01,8.585174679756164551e-01,2.415221100927362769e-03,2.695648259648075751e-03,-3.431066055933755868e-03,1.562348695300204426e-02,1.865133862655977276e-02,-6.875868141651153564e-02,-3.399139483734240352e-01,1.649329161684143230e-01,3.547826131276397756e-03,3.093976974487304688e-01,2.628053149306139868e-01,-2.228716366971688900e-01,2.093976974487304632e-01,2.122493684291839600e-01,-2.130015134811401312e-01,5.289873468123319489e-01,-5.812669992446899414e-01,-9.876954555511474609e-02,9.761059542867823779e+01,2.084408044815063421e-01
2.073625999999999969e+00,3.183642686458994925e-02,1.642883241463890531e-01,8.561679720878601074e-01,-2.787867006765944438e-03,3.836964055301317345e-03,-2.751049927998666829e-03,1.259968677808955689e-02,2.029700020942269353e-02,-4.349390044808387756e-02,-6.997663967616811476e-02,-3.498225254218306768e-02,7.914915229568741939e-02,3.187423706054687278e-01,7.733300002151048680e-02,-2.329699275019994631e-01,2.187423706054687500e-01,2.099066376686095983e-02,-2.250304698944091686e-01,5.256528643974361925e-01,-6.821662187576293945e-01,-1.885393857955932617e-01,7.122825892926279323e+01,2.084408044815063421e-01
2.097027000000000196e+00,3.227542328828036933e-02,1.651686508325978242e-01,8.549071550369262695e-01,-2.338092576255617391e-03,1.631967409014833947e-03,-1.263225800592802320e-03,3.228545612900416382e-03,1.821357319230280242e-02,-2.448220737278461456e-02,1.138296926290083416e-01,-1.655424673633411892e-01,8.941528339302726169e-02,3.224747896194458119e-01,1.718114978165582452e-01,-2.160355336493956224e-01,2.224747896194458063e-01,1.357720613479614091e-01,-2.123441219329833818e-01,5.238919663762542367e-01,-7.160937786102294922e-01,-2.341628074645996094e-03,9.810777855874179920e+01,2.084408044815063421e-01
2.121097999999999928e+00,3.264266545316554802e-02,1.659614960788301230e-01,8.538867831230163574e-01,3.824357652199935785e-04,-1.882166628634385219e-03,6.141171258271534540e-04,-8.382681969922100435e-03,2.972605230440387818e-03,-2.138350903987884521e-02,1.657159900464789393e-01,-1.653313261960110692e-01,9.246849848272500894e-02,3.229725360870361328e-01,1.795803639569334698e-01,-2.098038486952530646e-01,2.229725360870361273e-01,1.733039796352386364e-01,-2.114951848983764593e-01,5.239939195559427665e-01,-7.100232243537902832e-01,2.874314785003662109e-02,9.399847720687367314e+01,2.084408044815063421e-01
2.145758999999999972e+00,3.288179084245151235e-02,1.670248584525557134e-01,8.524448871612548828e-01,7.555155708550118782e-03,-7.776246937174935425e-03,4.298581012529773329e-03,9.023891182866786848e-03,1.409614399492833785e-02,-2.107195742428302765e-02,2.204952810983246969e-01,-1.466155016427535818e-01,1.608306573608803136e-01,3.171107427930724421e-01,1.900550859141328652e-01,-1.772122506042229373e-01,2.208653211593627763e-01,2.067262172698974554e-01,-1.893576622009277288e-01,5.250536401577058365e-01,-6.662651896476745605e-01,-8.964908123016357422e-02,-1.366835326890040960e+02,2.084408044815063421e-01
2.175008000000000052e+00,3.298211813274165571e-02,1.680143003959626846e-01,8.511480689048767090e-01,1.609449692588990621e-02,-1.304024933431868760e-02,8.151922178646612074e-03,-1.232668217282647909e-02,5.483327960562096523e-03,-1.571237482130527496e-02,2.693019452411943848e-01,-1.589237466917473585e-01,1.436796730940043121e-01,2.541976832895470606e-01,1.375090022081633667e-01,-1.746680240618116997e-01,2.203122496604919267e-01,2.060918748378753607e-01,-1.980504870414733776e-01,5.253252649381573436e-01,-6.430448293685913086e-01,5.984939336776733398e-01,-2.656035854994265577e+01,2.084408044815063421e-01
2.199736000000000136e+00,3.301919106422647465e-02,1.685894864617781819e-01,8.503619432449340820e-01,2.259782853157231777e-02,-1.680478211864566696e-02,1.054731834136852023e-02,7.729602606021530181e-03,1.527641349434028829e-02,-1.056616380810737610e-02,3.308698531469890791e-01,-1.371488562626805574e-01,1.150176987044674581e-01,2.190088686657824524e-01,1.294480513734147797e-01,-1.417939914764692333e-01,2.181557536125182939e-01,2.038855612277984675e-01,-1.720604538917541448e-01,5.260347485612408835e-01,-5.960419178009033203e-01,1.447778940200805664e-01,7.617805603963601868e+01,2.084408044815063421e-01
2.220254000000000172e+00,3.299065963680836155e-02,1.690381556429808863e-01,8.496437072753906250e-01,2.912862898121553606e-02,-2.061474481669911540e-02,1.278445617401794028e-02,-3.451100973264956823e-03,1.049678944901792079e-03,-2.075330913066864014e-02,3.431410814406878895e-01,-1.948513865856540406e-01,1.275056157074440366e-01,1.586157571466577099e-01,-3.064808845520020086e-02,-1.558594729160411307e-01,2.118283510208129883e-01,6.935191154479980469e-02,-1.928507566452026256e-01,5.266867289440884115e-01,-6.113001108169555664e-01,3.347355127334594727e-01,1.020988971474012033e+02,2.084408044815063421e-01
2.247180000000000177e+00,3.293276518120154955e-02,1.697692336205906261e-01,8.485251069068908691e-01,3.884421558091141063e-02,-2.555522322364800480e-02,1.612235227490290898e-02,-6.279977550159646094e-03,-2.260917844548772100e-04,-2.181210927665233612e-02,2.827410280716382007e-01,-1.131525473890775957e-01,1.454738392283919934e-01,-7.422204017639161266e-02,-2.704923629760742076e-01,1.020540918597733770e-01,2.577795982360839636e-02,-1.704923629760742021e-01,5.506396293640136719e-02,5.270499530197733096e-01,-6.088817119598388672e-01,1.627646684646606445e-01,9.732455393642726449e+01,2.084408044815063421e-01
2.271844999999999892e+00,3.289977085532340417e-02,1.704074325144535329e-01,8.477908372879028320e-01,4.479967603303632029e-02,-2.838680828422535107e-02,1.797924772422337253e-02,3.373231756909703723e-03,-5.012937097042552241e-03,-1.516164932399988174e-02,2.713090693247858232e-01,-1.020757419625291651e-01,5.753631931680373846e-02,-2.541297256946563610e-01,-3.027154922485351674e-01,2.633734411968849942e-01,-1.541297256946563554e-01,-2.027154922485351618e-01,2.108677268028259222e-01,5.258883558276566950e-01,-6.570888757705688477e-01,1.760493516921997070e-01,6.917693284790723318e+00,1.891160726547241322e-01
2.295065000000000133e+00,3.284375489828311040e-02,1.711657442431019638e-01,8.462977409362792969e-01,5.069860259779673806e-02,-2.972933013390344215e-02,2.061542394063815842e-02,-1.318464623473482311e-02,-8.112128265390565127e-03,-3.023856692016124725e-02,8.950513576712929020e-02,3.138390792756265424e-02,7.261092569253399520e-02,-3.207407951354980247e-01,-1.119992733001708984e-01,2.797452276418638251e-01,-2.207407951354980469e-01,-1.199927330017089809e-02,2.193322598934173417e-01,5.291231008852962381e-01,-5.550783276557922363e-01,1.246035099029541016e-02,9.785010967230307699e+01,1.891160726547241322e-01
2.320996000000000059e+00,3.286943642596371756e-02,1.715317637280254215e-01,8.451252579689025879e-01,5.241010701212146794e-02,-2.836986272534902653e-02,2.058106470697334406e-02,-7.440736754886633116e-04,-1.123751519248076050e-02,-4.138077050447463989e-02,7.481997790130009984e-02,1.098531202328124762e-01,-6.426806353698927277e-02,-3.105895817279815674e-01,-5.145637989044190425e-02,2.628060347481290804e-01,-2.105895817279815618e-01,4.854362010955810131e-02,2.027549028396606334e-01,5.328526567130068559e-01,-4.090613126754760742e-01,4.343694448471069336e-01,1.120914707333190279e+02,1.302581548690796009e-01
2.348504999999999843e+00,3.308117257237229436e-02,1.724699359397505738e-01,8.429655432701110840e-01,4.983057156040338054e-02,-2.198501906013317075e-02,1.870714297328418194e-02,-5.018276961549666178e-04,-1.079232814795203291e-02,-5.249402299523353577e-02,-1.954819529918096765e-01,2.678688108021582415e-01,-6.108842605974720147e-02,-3.139464914798736350e-01,-1.908444166183471680e-01,2.498473881824563592e-01,-2.139464914798736572e-01,-9.084441661834716242e-02,1.957242429256439153e-01,5.389161522242992275e-01,-1.371799111366271973e-01,-4.245501756668090820e-01,1.012516873129419963e+02,1.302581548690796009e-01
2.378274999999999917e+00,3.316133281021242663e-02,1.736233209882092343e-01,8.413923382759094238e-01,4.607367265804781370e-02,-1.769918681751292411e-02,1.663827467290765472e-02,2.913674527106267266e-03,-1.579777597218259139e-02,-5.011104047298431396e-02,-2.282970239667658496e-01,2.003703206159468952e-01,-1.296984887151794996e-01,-3.165689051151275857e-01,-2.232069960462897407e-01,2.400059665694904421e-01,-2.165689051151275524e-01,-1.393573164939880260e-01,1.922082424163818193e-01,5.376015540977626683e-01,-2.171429395675659180e-01,5.519807338714599609e-02,1.688932158335451561e+02,1.302581548690796009e-01
2.399325000000000152e+00,3.318492015841208176e-02,1.745730790836520219e-01,8.396765589714050293e-01,4.080297788668934417e-02,-1.406529795996980248e-02,1.456188043164786949e-02,3.244186742982282392e-04,-1.244288948552510488e-02,-6.030409038066864014e-02,-2.845515785798193309e-01,1.782818340817752534e-01,-9.542922610197883404e-02,-3.162370443344116322e-01,-2.229473026842161698e-01,2.424938284773683617e-01,-2.162370443344116266e-01,-1.599642992019653376e-01,2.008728146553039606e-01,5.415265326904794563e-01,-5.750423669815063477e-02,2.485936880111694336e-01,9.229668776384080786e+01,1.302581548690796009e-01
2.420866000000000184e+00,3.316172498996883961e-02,1.754155180100958333e-01,8.380186557769775391e-01,3.481489772060723797e-02,-1.075676166983430271e-02,1.211588254920016768e-02,-7.206975506658282182e-03,-2.118885865292392812e-02,-5.355951935052871704e-02,-3.176189693946152581e-01,1.637235083806816427e-01,-1.427328390801076985e-01,-3.139830341099826283e-01,-2.114834577657699333e-01,2.218131757063301901e-01,-2.173196017742156927e-01,-1.643155932426452470e-01,1.873237788677215576e-01,5.402968921141656500e-01,-1.161825656890869141e-01,9.645307064056396484e-02,8.087902935854566522e+01,1.302581548690796009e-01
