timestamp,x,y,z,roll,pitch,yaw,vx,vy,vz,p,q,r,psp,qsp,rsp,pres,qres,rres,thrust_sp, thrust_res
0.000000000000000000e+00,9.570836702299289137e-03,-6.137076386991817921e-03,9.997789263725280762e-01,1.162797718878842528e-02,-6.748311797588169014e-03,-5.364285958617785732e-04,-7.815963297678219304e-03,6.021700800150924307e-03,-1.136303064413368702e-03,-2.084135743880068201e-03,-2.016154602190644435e-02,-4.037041363730613924e-02,-2.458495767115460584e-01,1.641544817189930783e-01,-1.133060685948303614e-01,-1.712882459163665716e-01,2.083330392837524359e-01,-1.119162082672119085e-01,5.257353169239049606e-01,7.368520498275756836e-01,-5.688260793685913086e-01,-2.352609482248868034e+01,0.000000000000000000e+00
2.190999999999999892e-02,9.264518563182217240e-03,-6.406447570117431572e-03,9.995485544204711914e-01,1.140415838908159091e-02,-6.774266413464902215e-03,-7.115582632151809268e-04,-8.450838989618446664e-03,-5.490580097690833834e-03,-6.786220241338014603e-03,-4.954019668102681295e-02,-1.168751697362852005e-02,-2.796824905364956454e-02,-2.614179771417470266e-01,1.644136790157677275e-01,-1.187236431282768234e-01,-1.779401063919067438e-01,2.083093822002410889e-01,-1.168255090713500866e-01,5.261251649611607961e-01,7.344624996185302734e-01,-8.604375123977661133e-01,9.353303396588314911e+01,0.000000000000000000e+00
4.752699999999999980e-02,9.065184169070823750e-03,-6.559837735541740149e-03,9.993847608566284180e-01,1.157976730015820334e-02,-6.669133359072931810e-03,-7.035087116897248806e-04,-4.037838023811882344e-03,6.382368313313581919e-03,-7.468525320291519165e-03,1.280946369013981866e-02,4.916301953854412127e-02,9.519875301320085761e-03,-2.485299719806104979e-01,1.700029398358841315e-01,-1.230360154457114663e-01,-1.750757396221160889e-01,2.096812784671783503e-01,-1.211675405502319336e-01,5.262606629659690727e-01,7.381083965301513672e-01,-1.227928280830383301e+00,7.510245833970991214e+01,0.000000000000000000e+00
7.151699999999999724e-02,8.874867099658578090e-03,-6.217555832848654235e-03,9.990922808647155762e-01,1.080428158694319782e-02,-6.830258324961757666e-03,-4.073027179051071176e-04,-1.627543125822649220e-02,3.078323177718498768e-03,-1.217760797590017319e-02,-3.472800323672374512e-02,-5.306964797155875463e-02,1.093770877068727700e-02,-2.321119731306982847e-01,1.548219147992807299e-01,-1.009610942992572175e-01,-1.594902455806732067e-01,2.061867535114288164e-01,-9.993610382080077292e-02,5.265463229893897479e-01,7.332481145858764648e-01,-1.002658009529113770e+00,9.242986962246688165e+01,0.000000000000000000e+00
9.859300000000000008e-02,8.569053442588521474e-03,-5.724956432815876683e-03,9.984719753265380859e-01,7.397521765487581960e-03,-7.913759798116926092e-03,1.111187313923629088e-03,-1.532910070491959841e-02,9.751898026278498638e-03,-2.391353249549865723e-02,-1.725218634812081542e-01,-3.831119578461697484e-02,3.309755629400912280e-02,-1.912253781407793896e-01,1.497894206649540982e-01,-1.017490806885414517e-01,-1.469047665596008301e-01,2.058213651180267334e-01,-1.049566626548767007e-01,5.274859156660111070e-01,7.343925237655639648e-01,-8.773630857467651367e-01,1.169369913456336718e+02,0.000000000000000000e+00
1.235740000000000033e-01,8.253185035392523669e-03,-5.307786890627693224e-03,9.978072643280029297e-01,3.943981989392223581e-03,-1.014911016539188360e-02,2.489130352065744168e-03,-7.123838586569386337e-03,2.146471185645061619e-02,-3.755131736397743225e-02,-1.493342141414999158e-01,-1.572139024031826149e-01,9.218743574565857468e-02,-1.563199509224796058e-01,1.433047253679168576e-01,-1.142280236000424720e-01,-1.431146442890167125e-01,2.075982213020324540e-01,-1.212786912918090709e-01,5.285803339183722249e-01,7.356338500976562500e-01,-1.510661005973815918e+00,8.552920656059794169e+01,0.000000000000000000e+00
1.455970000000000042e-01,7.885847724069706619e-03,-4.804286586216463886e-03,9.969505667686462402e-01,-3.786098921280859979e-04,-1.251317955941977367e-02,3.470869926414842967e-03,-3.436062009927585981e-02,9.246212866877375619e-03,-4.599272459745407104e-02,-2.231644599068052515e-01,-1.430053085497938192e-01,3.358690584758205339e-02,-1.060154826356524971e-01,1.009888827800750621e-01,-7.393305728563061285e-02,-1.097885549068450955e-01,2.009888827800750677e-01,-8.364747762680053988e-02,5.290312903976178704e-01,7.210363149642944336e-01,-1.170633435249328613e+00,1.007948296197381808e+02,0.000000000000000000e+00
1.704539999999999944e-01,7.548668134344155289e-03,-3.988799432617262664e-03,9.951797723770141602e-01,-7.236326122536173439e-03,-1.703704187136545478e-02,5.630087332255004524e-03,-9.309557831868488578e-03,3.109229873157346932e-02,-7.521230727434158325e-02,-2.577144415208120765e-01,-1.543610706005351385e-01,1.179925475752484076e-01,-3.779295190355796974e-02,1.066105604171752874e-01,-1.126842457725118485e-01,-1.056629955768585150e-01,2.066105604171752930e-01,-1.283540725708007812e-01,5.314107361888505965e-01,7.249511480331420898e-01,-8.305636644363403320e-01,5.858372096411494567e+01,0.000000000000000000e+00
1.965959999999999930e-01,7.260982363327899911e-03,-3.323365185323216842e-03,9.937319755554199219e-01,-1.163833593717806918e-02,-2.026492038294103182e-02,6.911563579931850713e-03,-4.250673627328916543e-02,1.784959974848064623e-02,-7.217565178871154785e-02,-1.878451976911592047e-01,-2.086131811409014380e-01,3.358152096573081835e-02,5.148107247935355263e-02,9.487848877906798761e-02,-1.494412814103224241e-02,-3.190357089042663435e-02,1.948784887790679932e-01,-3.393620252609252930e-02,5.306914229441102027e-01,6.877729892730712891e-01,-1.125150799751281738e+00,8.279478130751836318e+01,0.000000000000000000e+00
2.224690000000000001e-01,6.677268055509003736e-03,-2.240714859762530688e-03,9.910216331481933594e-01,-1.761377475179096500e-02,-2.502815425386839543e-02,9.321299711772059599e-03,-1.637493814672879092e-02,4.002246975569464377e-02,-1.007397547364234924e-01,-2.155675756360243556e-01,-1.265950966494840957e-01,8.570122631952603598e-02,8.308289647102357067e-02,1.024480402469634954e-01,-2.530862806883971833e-02,-1.691710352897643835e-02,2.024480402469635010e-01,-5.093024969100951732e-02,5.332870318121269992e-01,7.012987136840820312e-01,-8.871337175369262695e-01,6.954929597843610622e+01,0.000000000000000000e+00
2.463879999999999959e-01,6.197864999370926269e-03,-1.441602732469939464e-03,9.889770746231079102e-01,-1.988803811406259642e-02,-2.826677012158618219e-02,1.064629210225546789e-02,-4.285821701419231800e-02,2.591024058908364056e-02,-1.017821207642555237e-01,-4.912856074893571373e-02,-2.063825221536075838e-01,4.729616580234713430e-02,2.181785583496093639e-01,7.648928165435789350e-02,1.682267156233775707e-01,1.181785583496093722e-01,1.764892816543578991e-01,1.392279803752899114e-01,5.328880184853986846e-01,6.614763736724853516e-01,-1.078807950019836426e+00,1.016109142821496363e+02,0.000000000000000000e+00
2.726089999999999902e-01,5.560429451036287725e-03,-8.075986226877638480e-04,9.854720830917358398e-01,-2.144359143523494673e-02,-3.223992625268468082e-02,1.195513394437336743e-02,-2.849272989252499971e-02,4.280085246524569648e-02,-1.199879869818687439e-01,-2.818250632065538025e-02,-9.444672644541496354e-02,2.465794490260048155e-02,2.377798557281494141e-01,9.927384257316587690e-02,2.163420445926266533e-01,1.377798557281494085e-01,1.992738425731658825e-01,1.836815714836120550e-01,5.349738880069047076e-01,6.838412284851074219e-01,-8.782585859298706055e-01,1.403447463105626980e+02,0.000000000000000000e+00
2.951559999999999739e-01,5.012439859350399478e-03,-2.703145099469964280e-04,9.828572869300842285e-01,-2.090763059967986823e-02,-3.461493673805837723e-02,1.240881666835774028e-02,-4.366760722854283461e-02,3.404570489021094271e-02,-1.251058876514434814e-01,8.574632118492281352e-02,-1.662912289897098828e-01,1.064033115675077842e-02,2.444516897201537975e-01,7.740974426269503494e-04,2.170316870923561514e-01,1.444516897201537919e-01,1.007740974426269559e-01,1.832542598247527965e-01,5.350847708802030089e-01,6.522707939147949219e-01,-1.193095326423645020e+00,9.481013590670296765e+01,0.000000000000000000e+00
3.210919999999999885e-01,4.086738723417421802e-03,5.970302998776605939e-04,9.785740375518798828e-01,-1.795777691801472148e-02,-3.766797342675309856e-02,1.102382509858590778e-02,-4.527362784430917497e-02,4.814570531634001366e-02,-1.407438665628433228e-01,1.395044627316584518e-01,-3.955192599548784660e-02,-7.405521870655372429e-02,2.437435507774353138e-01,-2.456558942794800915e-02,2.037367100884175108e-01,1.437435507774353083e-01,7.543441057205199640e-02,1.736229300498962347e-01,5.367002751135295791e-01,6.545443534851074219e-01,-1.367597699165344238e+00,-9.198863940208406120e+01,0.000000000000000000e+00
3.458140000000000103e-01,3.318786007801072507e-03,1.220044996272346294e-03,9.755123853683471680e-01,-1.443849641137023333e-02,-4.016339791493273026e-02,9.738486720740522143e-03,-5.242118576850117451e-02,4.619710725710984844e-02,-1.559527516365051270e-01,2.012440676861360911e-01,-1.418425548868554043e-01,-3.196557794699017574e-02,2.305912494659423939e-01,-1.056317806243896595e-01,1.921375290471002695e-01,1.305912494659423884e-01,-5.631780624389647917e-03,1.654901146888732855e-01,5.381779269677602340e-01,6.551098823547363281e-01,-1.264400601387023926e+00,1.050069389789933467e+02,0.000000000000000000e+00
3.708690000000000042e-01,2.365020509639289333e-03,1.893864882606598795e-03,9.705041646957397461e-01,-7.361647369727544396e-03,-4.195173574603128230e-02,6.896167015721920215e-03,-5.913016413727396892e-02,4.907490412037251309e-02,-1.708663702011108398e-01,2.664973600733105408e-01,1.871267919569067836e-02,-1.257005628727020929e-01,1.570469282208693251e-01,-1.708791613578796442e-01,1.464852638790614114e-01,7.583398818969726285e-02,-7.087916135787963867e-02,1.273258924484252930e-01,5.399908567167899243e-01,6.668725013732910156e-01,-1.343497633934020996e+00,1.032013170001979461e+02,0.000000000000000000e+00
3.958380000000000232e-01,1.680042378003697651e-03,2.274528658159358230e-03,9.668062329292297363e-01,-2.082741457720872422e-03,-4.231956096329492212e-02,4.996040065701183412e-03,-5.730242109097141712e-02,5.283652186484562308e-02,-1.803979724645614624e-01,2.726188128175932590e-01,-4.298990820845290106e-03,-5.361295590641980413e-02,4.742235305327464900e-02,-1.634382486343383678e-01,1.100389613653132842e-01,-2.331590652465820226e-03,-6.343824863433837613e-02,9.581701755523681918e-02,5.412593258900610937e-01,6.744594573974609375e-01,-9.341219663619995117e-01,1.180660899173284690e+02,0.000000000000000000e+00
4.209080000000000044e-01,5.113849001366909145e-04,3.021982378230124184e-03,9.608658552169799805e-01,5.283347175807539403e-03,-4.041031819012452786e-02,2.253439340185678982e-03,-7.514752559352103067e-02,4.922188346556705812e-02,-1.954425126314163208e-01,2.241869552775854202e-01,9.869742632609102007e-02,-9.688744856596651078e-02,-1.183277498836339536e-01,-1.494248867034912165e-01,8.799685004130704258e-02,-1.175060749053954967e-01,-4.942488670349121094e-02,8.098350763320923129e-02,5.429641836112565345e-01,6.746096611022949219e-01,-1.099955677986145020e+00,9.895670277068268206e+01,0.000000000000000000e+00
4.470999999999999974e-01,-3.692679162738200555e-04,3.605089553462047583e-03,9.565711617469787598e-01,9.510155586701261529e-03,-3.797251765893516762e-02,8.048892314024605997e-04,-6.399731676772506261e-02,6.430298634532827240e-02,-2.113125771284103394e-01,1.948010992212015902e-01,1.751941288946578246e-01,-6.043408782907796345e-02,-1.645546640495396673e-01,6.330513358116149347e-02,5.461942593489018533e-02,-1.486550688743591142e-01,1.633051335811614990e-01,5.134171843528747420e-02,5.450190235451097820e-01,6.970340013504028320e-01,-5.062440633773803711e-01,-2.325636382197570740e+01,0.000000000000000000e+00
4.734579999999999900e-01,-1.882650729241135395e-03,4.671082257127717567e-03,9.497958421707153320e-01,1.379698833260542198e-02,-3.297539564733620310e-02,-1.190418453745781778e-03,-8.353197765830151778e-02,5.977706799530238535e-02,-2.215200215578079224e-01,1.238610106476253914e-01,1.521563092478069035e-01,-5.318602057946986150e-02,-2.229521241865821957e-01,1.000464975833892656e-01,5.605187432631777295e-02,-1.743624866008758600e-01,2.000464975833892711e-01,5.820710062980651717e-02,5.467195738783735548e-01,7.113623619079589844e-01,-1.320534586906433105e+00,1.011110400575530832e+02,0.000000000000000000e+00
4.961260000000000114e-01,-3.015598235446141726e-03,5.514028488028559216e-03,9.450421333312988281e-01,1.463815684106017576e-02,-2.899469706257340462e-02,-2.382274751561427439e-03,-8.623543696564252292e-02,6.148303654530166973e-02,-2.408670783042907715e-01,-6.110180948984902808e-04,2.266918520822439054e-01,-3.975931052933303483e-02,-2.440669794784045554e-01,1.100833952426910345e-01,5.672973938511699510e-02,-1.923779547214508057e-01,2.100833952426910400e-01,6.226998567581176758e-02,5.488736317155907818e-01,7.223496437072753906e-01,-1.280527472496032715e+00,1.327214355741280656e+02,0.000000000000000000e+00
5.237009999999999721e-01,-4.975175312466792975e-03,6.917063168495861565e-03,9.377321600914001465e-01,1.381788187506339215e-02,-2.520513708376315165e-02,-3.728248073691504266e-03,-8.964143382488817813e-02,6.974219543007419142e-02,-2.376107275485992432e-01,-7.025567221645796778e-02,5.630687782571251743e-02,-4.492738041666374110e-02,-2.409611631895507422e-01,1.119903206825256237e-01,-9.578807102645071209e-03,-2.015305817127227839e-01,2.119903206825256292e-01,-1.855015754699706923e-04,5.495558479900801707e-01,7.295093536376953125e-01,-1.183050990104675293e+00,1.005197164301592352e+02,0.000000000000000000e+00
5.459230000000000471e-01,-6.492979280587707000e-03,7.918141477507965528e-03,9.327226877212524414e-01,1.132951664762099457e-02,-2.436358724764597916e-02,-4.438131510566127244e-03,-1.000878787521812391e-01,6.783504632368013432e-02,-2.456707060337066650e-01,-1.550748508814882853e-01,8.260267749094682074e-03,-1.647455056869499487e-02,-2.156331707333577208e-01,1.106428861618041770e-01,-6.114541339521795474e-03,-1.904348731040954590e-01,2.106428861618041826e-01,5.389416217803954731e-03,5.506524909825176728e-01,7.238483428955078125e-01,-1.309027552604675293e+00,-7.090236328320480652e+01,0.000000000000000000e+00
5.723510000000000542e-01,-9.340446736077192766e-03,9.494113008637053083e-03,9.251710772514343262e-01,6.033792917379264195e-03,-2.558827291189902375e-02,-5.207539948582623653e-03,-1.109139862899105183e-01,7.291703695796257489e-02,-2.543781697750091553e-01,-1.752876943856135350e-01,-6.385657564485305859e-02,1.171455206203835323e-02,-1.451480179424076422e-01,1.072627663612365501e-01,1.046958665269281247e-03,-1.593484640121460016e-01,2.072627663612365556e-01,1.487697958946227958e-02,5.518974151859952215e-01,7.130577564239501953e-01,-1.448892831802368164e+00,-8.205157476355093138e+01,0.000000000000000000e+00
5.962939999999999907e-01,-1.145843821087027745e-02,1.059748310938281313e-02,9.201196432113647461e-01,1.715562800755730507e-03,-2.725057005472431015e-02,-5.686422269651516398e-03,-1.150196979829124777e-01,6.963556735923295826e-02,-2.465174198150634766e-01,-2.158661878132504264e-01,-8.931355328016486739e-02,-6.626913788131467975e-02,-1.084825552646333235e-01,1.094558298587798850e-01,2.350985805234838411e-02,-1.484885752201080267e-01,2.094558298587798906e-01,3.889701962471008023e-02,5.519984834644197091e-01,7.134840488433837891e-01,-9.447637796401977539e-01,6.484419039507859850e+01,0.000000000000000000e+00
6.216420000000000279e-01,-1.488603886572260719e-02,1.235712791354085828e-02,9.124997258186340332e-01,-5.002627528839274397e-03,-3.035828132892248732e-02,-5.821471835262010536e-03,-1.134432234584811239e-01,8.482726294744995232e-02,-2.591533958911895752e-01,-2.178716314121807163e-01,-1.112239467693714040e-01,3.183810144278823723e-02,1.101004579222899099e-01,1.078958213329315186e-01,-2.184035786895790338e-02,1.365509033203124965e-02,2.078958213329315241e-01,-5.832231044769286589e-03,5.535038603827916459e-01,7.009664773941040039e-01,-1.262488722801208496e+00,9.570975378266368239e+01,0.000000000000000000e+00
6.466749999999999998e-01,-1.731664879097360304e-02,1.365463466329624488e-02,9.076815247535705566e-01,-8.841465607346804534e-03,-3.244155495703004988e-02,-6.059443127107156692e-03,-1.344864292538545669e-01,7.612718275812904722e-02,-2.512029111385345459e-01,-1.370070167391547189e-01,-1.689380893640427261e-01,-3.452887471270685293e-02,2.036758899688720925e-01,9.332169890403746448e-02,1.742166488524116152e-02,1.036758899688720731e-01,1.933216989040374700e-01,3.439638018608093262e-02,5.533387434539113192e-01,6.862899065017700195e-01,-1.026072382926940918e+00,1.075492856522338343e+02,0.000000000000000000e+00
6.734949999999999548e-01,-2.115859197397443325e-02,1.566661244483100873e-02,9.004796147346496582e-01,-1.361888397966630124e-02,-3.595197323096632758e-02,-6.331858825322874383e-03,-1.285731596810640587e-01,8.257106967560214061e-02,-2.512055635452270508e-01,-1.378361177433336249e-01,-1.074634842236741605e-01,-4.248089161279965803e-02,2.578241467475891335e-01,8.434638381004333496e-02,7.436757564768807505e-02,1.578241467475891002e-01,1.843463838100433405e-01,9.236345887184142789e-02,5.538512172550840162e-01,6.693303585052490234e-01,-4.068275690078735352e-01,-2.956564519984285155e+01,0.000000000000000000e+00
6.976449999999999596e-01,-2.388990603772820839e-02,1.705533560750082528e-02,8.958895802497863770e-01,-1.467491994025136269e-02,-3.892541225247514447e-02,-6.050125016901804556e-03,-1.371968475773814311e-01,8.868593121468171248e-02,-2.497985064983367920e-01,-2.835787597079671065e-03,-1.933399225249650133e-01,3.196005230211844406e-02,2.775592327117920033e-01,1.810631752014159324e-02,1.002226137176782661e-01,1.775592327117919977e-01,1.181063175201415988e-01,1.174784481525421032e-01,5.543276141121229461e-01,6.655125617980957031e-01,-9.364436864852905273e-01,1.048802389698896036e+02,0.000000000000000000e+00
7.227040000000000131e-01,-2.822500426544160071e-02,1.912549715853641141e-02,8.891653418540954590e-01,-1.186795154302639627e-02,-4.260870074929790086e-02,-6.587648106383901456e-03,-1.525169959226234939e-01,8.407883759244878796e-02,-2.420250624418258667e-01,1.608294039769092021e-01,-8.472615747936092234e-02,-3.319144008005131714e-03,2.862420797348022572e-01,-1.551250457763671819e-01,9.178622858648390059e-02,1.862420797348022516e-01,-5.512504577636718334e-02,1.103776752948760903e-01,5.545073301986952474e-01,6.616284847259521484e-01,-1.072830319404602051e+00,1.022908732744027560e+02,0.000000000000000000e+00
7.472189999999999666e-01,-3.127882748090081433e-02,2.053928697911945253e-02,8.850603103637695312e-01,-7.771702070827956471e-03,-4.489442834264645299e-02,-7.596402314621495885e-03,-1.427959930681463874e-01,8.203532902747001643e-02,-2.358857542276382446e-01,1.877407959559691253e-01,-1.145519305814869521e-01,-4.342460331737069829e-02,2.757441282272338756e-01,-1.882200717926025280e-01,3.257112181788411609e-02,1.757441282272338701e-01,-8.822007179260253629e-02,5.363218188285827359e-02,5.546793112988419594e-01,6.622300148010253906e-01,-1.528309464454650879e+00,1.971285143528933759e+01,0.000000000000000000e+00
7.733940000000000259e-01,-3.588762374215615641e-02,2.246577047698088483e-02,8.788040280342102051e-01,-1.640063081478911435e-04,-4.643669200964462007e-02,-9.067907768996682355e-03,-1.716019370083858298e-01,8.703909691075144284e-02,-2.427446097135543823e-01,2.438561690885382716e-01,-1.200236501326698221e-02,-1.690427974832484082e-02,2.119371529301642965e-01,-2.505835771560668834e-01,-7.782204155470878737e-02,1.400128841400146429e-01,-1.505835771560668779e-01,-5.344955921173095287e-02,5.559692517312437854e-01,6.638870239257812500e-01,-9.876476526260375977e-01,-3.100820505821163664e+01,0.000000000000000000e+00
7.960300000000000153e-01,-3.895367778278480825e-02,2.348892847727031621e-02,8.749380707740783691e-01,5.648803511724788395e-03,-4.576083307031675318e-02,-1.016211581517411679e-02,-1.605811222473139954e-01,8.556823159500662190e-02,-2.341044545173645020e-01,2.688182328542609301e-01,7.189158376915850968e-02,-7.337112224959646545e-02,1.051889922585587667e-01,-2.403884649276733509e-01,-1.220383735460734004e-01,7.178385257720946988e-02,-1.403884649276733454e-01,-9.508881568908690574e-02,5.560091516545727641e-01,6.676508188247680664e-01,-6.310964822769165039e-01,-3.821440894863828319e+00,0.000000000000000000e+00
8.203009999999999469e-01,-4.372830536507981564e-02,2.510219421815261184e-02,8.689814805984497070e-01,1.432733525187334517e-02,-4.223597432694825571e-02,-1.050107353196530306e-02,-1.756535281745996158e-01,8.780512921437072515e-02,-2.317942827939987183e-01,2.698088409192073156e-01,1.543627799330356265e-01,3.540378164287905083e-02,-7.311285633939347550e-02,-2.227014064788818415e-01,-1.346983158572183092e-01,-5.297967195510864397e-02,-1.227014064788818359e-01,-1.075929164886474526e-01,5.566500886379237567e-01,6.704863309860229492e-01,-1.070033669471740723e+00,9.531375990515385865e+01,0.000000000000000000e+00
8.454429999999999445e-01,-4.704657717465543509e-02,2.622738350307769056e-02,8.652726411819458008e-01,2.003820952474401340e-02,-3.806426438406829149e-02,-1.025576286789639698e-02,-1.743896383406269845e-01,8.552936608632805138e-02,-2.394758611917495728e-01,2.847567330557688736e-01,2.124650975005973885e-01,2.845401179894065102e-02,-1.763512123598044157e-01,-1.557885169982910212e-01,-1.262821679899266969e-01,-1.178847849369049072e-01,-5.578851699829101562e-02,-1.001717448234558105e-01,5.578678813018425053e-01,6.762065887451171875e-01,-1.179750561714172363e+00,7.044715849578012978e+01,0.000000000000000000e+00
8.714650000000000452e-01,-5.203331468011954120e-02,2.792806094926727004e-02,8.596903681755065918e-01,2.678094362524768846e-02,-2.997749411552130816e-02,-9.037466355114352062e-03,-1.772522199767021522e-01,8.246720228442273870e-02,-2.339768558740615845e-01,1.510600584667254331e-01,2.684879770042640224e-01,4.425184354863451186e-02,-2.914999783039092796e-01,7.288260459899900678e-02,-9.088066735990880940e-02,-1.914999783039093018e-01,1.728826045989990123e-01,-6.835470199584960105e-02,5.585671561939973273e-01,6.966794729232788086e-01,-9.099215269088745117e-01,5.051141066711659988e+01,0.000000000000000000e+00
8.974170000000000202e-01,-5.529825703466272058e-02,2.911669200563653595e-02,8.561875820159912109e-01,2.901904360728383217e-02,-2.370044290124129205e-02,-7.732171917440252597e-03,-1.937001800626155512e-01,9.128062240114583059e-02,-2.398321479558944702e-01,5.524975804010118924e-02,3.311111968830897645e-01,8.248353107755036773e-02,-2.976803600788116566e-01,8.339040875434874933e-02,-1.073055520760450993e-01,-1.976803600788116511e-01,1.833904087543487549e-01,-8.844587802886962058e-02,5.596407934591092204e-01,7.005685567855834961e-01,-1.226459860801696777e+00,9.418397831454204550e+01,0.000000000000000000e+00
9.226029999999999509e-01,-6.039649646629480922e-02,3.096745642023781761e-02,8.508932590484619141e-01,2.869146252932140359e-02,-1.603578969816044086e-02,-5.840114454664547747e-03,-1.844884884577354389e-01,8.980573974676124560e-02,-2.313520461320877075e-01,-6.447120467955881618e-02,1.899608930049076772e-01,7.273633963857827067e-02,-3.116278290748596413e-01,1.048809468746185192e-01,7.911196908162766023e-03,-2.116278290748596080e-01,2.048809468746185247e-01,2.198819518089294503e-02,5.603585826736074971e-01,7.355749607086181641e-01,-7.316943407058715820e-01,-5.197532169683085357e+01,0.000000000000000000e+00
9.464399999999999480e-01,-6.394503494612994998e-02,3.226217579618176345e-02,8.475211262702941895e-01,2.639801483467696386e-02,-1.277255771762231262e-02,-4.935863427152317393e-03,-1.984102853618577855e-01,8.598495926075991336e-02,-2.185956537723541260e-01,-1.565374267830730581e-01,1.231492496005212600e-01,1.659324220268880434e-02,-3.049762388276978653e-01,1.068569302558898815e-01,4.307431153680727626e-02,-2.099082648754119762e-01,2.068569302558898870e-01,5.481626987457275529e-02,5.600850567669742874e-01,7.374275922775268555e-01,-9.980896711349487305e-01,8.626114329243485201e+01,0.000000000000000000e+00
9.720969999999999889e-01,-6.947220903041657902e-02,3.417214282613005583e-02,8.426815271377563477e-01,2.040804853045933426e-02,-1.139173029973750140e-02,-3.465794825076240308e-03,-1.981558996976508502e-01,8.371088733601925180e-02,-2.167415469884872437e-01,-2.435746305659733657e-01,-3.635915079891508667e-02,3.866593685607802588e-02,-2.619541329612426472e-01,1.123989641666412187e-01,3.138067862527383484e-02,-2.061562120914459117e-01,2.123989641666412242e-01,3.938173055648803295e-02,5.606528463150837194e-01,7.392551898956298828e-01,-1.224111437797546387e+00,1.347142662078843500e+02,0.000000000000000000e+00
1.000388999999999973e+00,-7.415306195729741423e-02,3.538270871886069202e-02,8.395933508872985840e-01,1.521793188734027122e-02,-1.164965649143590021e-02,-3.112440922162123744e-03,-2.118038834059952080e-01,8.779542073677562564e-02,-2.073975354433059692e-01,-2.491086861169705680e-01,-2.919048066110026263e-02,5.936375308712629924e-03,-1.955077784263391794e-01,1.116647005081176647e-01,-3.049591959444923964e-02,-1.778240919113159013e-01,2.116647005081176702e-01,-2.333707809448242257e-02,5.603899331609895063e-01,7.292579412460327148e-01,-1.080431103706359863e+00,9.217863477422631036e+01,0.000000000000000000e+00
1.023403999999999980e+00,-7.887482191355575656e-02,3.656560558535860983e-02,8.366496562957763672e-01,8.989435344128118843e-03,-1.322729303532366174e-02,-3.159090945965313275e-03,-1.980904626125759849e-01,8.816338211724927820e-02,-2.155457884073257446e-01,-3.510660764341341777e-01,-7.637092210573649675e-02,3.933590946832321578e-03,-1.443751345272651643e-01,1.132892608642578069e-01,-7.072173028996421584e-02,-1.677227318286895752e-01,2.132892608642578125e-01,-6.309471130371092917e-02,5.614622466315346561e-01,7.285654544830322266e-01,-1.419476389884948730e+00,1.123878736225409085e+02,0.000000000000000000e+00
1.047987000000000002e+00,-8.364364319208257570e-02,3.785576378230551958e-02,8.337662220001220703e-01,3.108445754205797253e-03,-1.523812441648675353e-02,-2.944373794510308801e-03,-2.141905711540998125e-01,9.054411737457186693e-02,-2.013505697250366211e-01,-2.867687175200613892e-01,-1.251298766985594058e-01,-1.367409941070076539e-02,-4.543013287437001890e-02,1.107132494449615256e-01,-1.279409347851695189e-01,-1.099114358425140325e-01,2.107132494449615312e-01,-1.207152843475341741e-01,5.607744273055678130e-01,7.138946056365966797e-01,-8.738003969192504883e-01,5.699757003882498196e+01,0.000000000000000000e+00
1.075288000000000022e+00,-9.090154395415842026e-02,3.981436031911114032e-02,8.297320008277893066e-01,-4.994921765688986430e-03,-1.903078295222804250e-02,-2.279058307459857959e-03,-2.126661309574140457e-01,9.075565278605279840e-02,-1.911665946245193481e-01,-2.387978367278912883e-01,-1.346422947973313911e-01,7.134316081675104101e-03,2.056472063064575251e-01,1.070048451423644964e-01,-1.522257660360790965e-01,1.056472063064575195e-01,2.070048451423645020e-01,-1.464141726493835283e-01,5.605507247223885381e-01,7.070903778076171875e-01,-1.178157448768615723e+00,9.925590603746427121e+01,0.000000000000000000e+00
1.102492999999999945e+00,-9.596503719536515764e-02,4.135813397323882118e-02,8.271180987358093262e-01,-9.445290566395635537e-03,-2.159245976501633635e-02,-1.382962062855033411e-03,-2.269686355185898397e-01,9.275846590065385533e-02,-1.937665641307830811e-01,-1.997611640187209048e-01,-1.187620499365395488e-01,6.829120366559758570e-02,2.631690740585327370e-01,7.613939642906186744e-02,-1.297030168681508611e-01,1.631690740585327037e-01,1.761393964290618730e-01,-1.261501550674438421e-01,5.610382148605566055e-01,6.946172714233398438e-01,-9.837728738784790039e-01,7.910358315550338659e+01,0.000000000000000000e+00
1.128833999999999893e+00,-1.012381348732394326e-01,4.313635018351530404e-02,8.247843980789184570e-01,-1.267292693168137023e-02,-2.423645775934635260e-02,-1.551565975714174416e-04,-2.291549382184593919e-01,9.519411338946780210e-02,-1.753125637769699097e-01,-1.424039632146750500e-01,-1.493005661214143187e-01,4.767648498880663888e-02,2.960776329040527566e-01,-2.687035799026489535e-02,-1.491000939229135576e-02,1.960776329040527233e-01,7.312964200973511020e-02,-1.459575891494750872e-02,5.599899360467339715e-01,6.802747249603271484e-01,-1.111813902854919434e+00,8.915369425498940359e+01,0.000000000000000000e+00
1.147324000000000011e+00,-1.038973267018257762e-01,4.405600564909376016e-02,8.236318826675415039e-01,-1.404818797173337450e-02,-2.540669640485093694e-02,7.685391742110068893e-04,-2.199905496696746843e-01,9.488152045764541853e-02,-1.751588135957717896e-01,-1.144991693792609955e-01,-1.140487677814643191e-01,1.089206572162764036e-01,3.006172180175781250e-01,-3.423173427581788220e-02,3.089733756688512953e-02,2.006172180175781194e-01,6.576826572418212336e-02,2.873094677925109794e-02,5.603403439822194354e-01,6.792147159576416016e-01,-1.125964522361755371e+00,9.734839812681978799e+01,0.000000000000000000e+00
1.176871999999999918e+00,-1.120131977593916417e-01,4.684517788923435455e-02,8.204656243324279785e-01,-1.495252623000086628e-02,-2.950918292386761621e-02,3.508115029581080659e-03,-2.396834458039551474e-01,9.978508051305622073e-02,-1.643126308917999268e-01,7.656541721915537113e-02,-1.494688736030963250e-01,1.059704865218141084e-01,3.115515470504760520e-01,-2.135663390159606989e-01,1.026997525140211087e-01,2.115515470504760742e-01,-1.135663390159606934e-01,9.286322593688964289e-02,5.601162573108913190e-01,6.771254539489746094e-01,-1.249027848243713379e+00,8.634328314739342147e+01,0.000000000000000000e+00
1.198949999999999960e+00,-1.175248564011191071e-01,4.873199716347827171e-02,8.186227083206176758e-01,-1.322635676513513568e-02,-3.235836889761500856e-02,5.181124912819253837e-03,-2.388011054334348293e-01,9.298482035291376346e-02,-1.461142152547836304e-01,9.956353527729347452e-02,-1.645937497637266766e-01,4.777091940855908436e-02,3.128945827484130859e-01,-2.448323488235473744e-01,1.566496466852605740e-01,2.128945827484130804e-01,-1.448323488235473688e-01,1.420198202133178544e-01,5.592874496161377440e-01,6.780302524566650391e-01,-1.551834702491760254e+00,9.530129480991858770e+01,0.000000000000000000e+00
1.222655999999999965e+00,-1.259327678787274807e-01,5.099781622831164873e-02,8.160143494606018066e-01,-6.946982270111530348e-03,-3.549065161430675630e-02,6.888372802327922227e-03,-2.413874881500123193e-01,9.669668913082264672e-02,-1.365095525979995728e-01,2.435300093671871335e-01,-5.510977408686471013e-02,8.333661272386549967e-02,3.070908546447753684e-01,-2.784454345703125111e-01,1.350922714095286192e-01,2.070908546447753906e-01,-1.784454345703125056e-01,1.149542748928070041e-01,5.588949315949832686e-01,6.661134958267211914e-01,-8.103486299514770508e-01,-1.545732188046148394e+02,0.000000000000000000e+00
1.245972000000000079e+00,-1.344351183826267837e-01,5.307366224816321282e-02,8.136654496192932129e-01,1.917341708915478761e-03,-3.583079627840524140e-02,6.978414285640097137e-03,-2.481990413675229656e-01,9.589250905540745717e-02,-1.327961087226867676e-01,3.179678129572857670e-01,4.645520609439673931e-02,9.073542243341154931e-03,2.776336959751678490e-01,-2.919034719467162864e-01,-3.006080555798743698e-02,1.887576341629028376e-01,-1.919034719467163086e-01,-5.140342712402343889e-02,5.587490728354077563e-01,6.459958553314208984e-01,-3.843363523483276367e-01,1.713207811777835943e+01,0.000000000000000000e+00
1.273733999999999922e+00,-1.457370074125143022e-01,5.593941824313482247e-02,8.104838728904724121e-01,1.442932171632078063e-02,-3.125605581683155165e-02,5.790859940888831887e-03,-2.482757159182882312e-01,9.511800302465465984e-02,-1.280165314674377441e-01,3.509058391880789385e-01,1.287108147044529194e-01,-1.757673145753785304e-02,1.097510042822605336e-01,-2.769342422485351340e-01,-1.234772496866511637e-01,1.006016850471496554e-01,-1.769342422485351562e-01,-1.426707029342651201e-01,5.590161346663249375e-01,6.508059501647949219e-01,-1.452648997306823730e+00,4.515607790496304830e+01,0.000000000000000000e+00
1.296254999999999935e+00,-1.541969994885717121e-01,5.801494936652885903e-02,8.080039024353027344e-01,2.413109259302745335e-02,-2.453600663005794935e-02,4.606655619641904058e-03,-2.613947067327771490e-01,8.606253414456890849e-02,-1.253090798854827881e-01,3.231044849489249082e-01,2.946838345155045058e-01,-1.917949009750169811e-02,-1.158039590505290928e-01,-2.502153635025024525e-01,-1.509819004007891541e-01,-5.694100856781005721e-02,-1.502153635025024470e-01,-1.675067782402038519e-01,5.592597842429847255e-01,6.480708122253417969e-01,-6.985996961593627930e-01,9.287133889947065768e+01,0.000000000000000000e+00
1.321358999999999950e+00,-1.627280794912570605e-01,5.991128040602015231e-02,8.055613636970520020e-01,3.381613972312205729e-02,-1.601947095178091196e-02,5.221591241879226103e-03,-2.488835389753282779e-01,9.360336359953858043e-02,-1.289593577384948730e-01,2.561079971183550796e-01,3.309550156149739242e-01,2.594093741922651880e-02,-2.659195184707641713e-01,-2.118180394172668457e-01,-1.608547528684449446e-01,-1.659195184707641657e-01,-1.118180394172668402e-01,-1.794618129730224665e-01,5.605484060284834369e-01,6.817307472229003906e-01,-1.068798422813415527e+00,5.986292660319912784e+01,0.000000000000000000e+00
1.345693000000000028e+00,-1.684098508649667092e-01,6.114317789548487370e-02,8.039158582687377930e-01,3.931600007449824463e-02,-9.446761615371501719e-03,6.764692183597105501e-03,-2.573177484776457136e-01,8.983340284040440549e-02,-1.221535801887512207e-01,2.629582899589154588e-01,3.138068556158307709e-01,1.179416234763289162e-01,-2.988615512847900280e-01,-7.540968656539917547e-02,-1.558169581816404303e-01,-1.988615512847900224e-01,2.459031343460083008e-02,-1.787891864776611217e-01,5.604978838051807299e-01,6.818629503250122070e-01,-1.255561232566833496e+00,9.860559006620901812e+01,0.000000000000000000e+00
1.370700000000000029e+00,-1.769026816355601384e-01,6.307351553252894816e-02,8.015845417976379395e-01,4.285693620377206692e-02,1.338030619992602865e-03,9.231961215151660710e-03,-2.624070308643019489e-01,8.432089107136014894e-02,-1.219719722867012024e-01,3.631218120480467042e-03,4.031233045672503179e-01,7.106878283910988969e-02,-3.151360690593719704e-01,1.067622840404510443e-01,-1.094415971792456199e-01,-2.151360690593719371e-01,2.067622840404510498e-01,-1.387763500213622936e-01,5.614857522855458694e-01,7.128674983978271484e-01,-8.848229646682739258e-01,1.105519870755331766e+02,0.000000000000000000e+00
1.397369000000000083e+00,-1.825293903087326086e-01,6.437596962384493915e-02,7.999680638313293457e-01,4.172998534518749386e-02,7.755519304361024879e-03,1.157869066967984542e-02,-2.489181532806635511e-01,9.050818366861197728e-02,-1.265564262866973877e-01,-1.509642115211558555e-01,3.172347962417276790e-01,1.311034231739001132e-01,-3.153849959373474232e-01,1.190855860710143821e-01,-8.071178612979595934e-02,-2.153849959373474177e-01,2.190855860710143876e-01,-1.159976720809936523e-01,5.626465841432025661e-01,7.391126155853271484e-01,-1.009092211723327637e+00,9.256142589607050297e+01,0.000000000000000000e+00
1.422855999999999899e+00,-1.909275035544079624e-01,6.634242676779944503e-02,7.977382540702819824e-01,3.681366416415594173e-02,1.421113738455304087e-02,1.470542382074507479e-02,-2.585830610173675548e-01,8.397866694647113106e-02,-1.049765348434448242e-01,-2.094530423110458894e-01,1.443116859968485433e-01,1.370473982535528046e-01,-3.110379576683044434e-01,1.218326151371001975e-01,-1.070679230685036287e-01,-2.110379576683044378e-01,2.218326151371002031e-01,-1.505316853523254450e-01,5.617343613348549924e-01,7.459849119186401367e-01,-1.168871045112609863e+00,1.361615832930100680e+02,0.000000000000000000e+00
1.446034999999999959e+00,-1.965281776906538658e-01,6.757552716946992055e-02,7.963736057281494141e-01,3.206488573781875184e-02,1.589816723218406835e-02,1.627149920682388617e-02,-2.557300160544631051e-01,7.624066537469871563e-02,-9.836091101169586182e-02,-2.340035273577162067e-01,1.867996440322642129e-02,3.537148397505952835e-02,-3.035113394260406383e-01,1.225897490978240800e-01,-1.206735156568243539e-01,-2.035113394260406328e-01,2.225897490978240856e-01,-1.681890249252319391e-01,5.616638193233889353e-01,7.475709915161132812e-01,-9.039479494094848633e-01,9.335640527394662058e+01,0.000000000000000000e+00
1.471761000000000097e+00,-2.048654148454367718e-01,6.938253758449680619e-02,7.944503426551818848e-01,2.311537855578002856e-02,1.509375154899994520e-02,1.877125984697934971e-02,-2.616999318265755270e-01,7.185889523454926098e-02,-9.211108833551406860e-02,-3.706479373515128017e-01,-6.127464988730836615e-02,9.038281920879104314e-02,-2.091915709190824146e-01,1.231593072414398082e-01,-1.306528683696570048e-01,-1.626915872097015325e-01,2.231593072414398138e-01,-1.849197149276733398e-01,5.616252143178108724e-01,7.460542917251586914e-01,-1.039857506752014160e+00,1.002510782599134700e+02,0.000000000000000000e+00
1.495573000000000041e+00,-2.103310239177471896e-01,7.056283881424435522e-02,7.932856082916259766e-01,1.706592568331600016e-02,1.327253872023548276e-02,2.071166640916587837e-02,-2.503590410600199934e-01,8.293763164316014791e-02,-9.264739602804183960e-02,-2.904866933383287164e-01,-8.843606521380642516e-02,8.871982701421579631e-02,-1.089457952710491812e-01,1.229574620723724310e-01,-1.339134059440531543e-01,-1.117890000343322726e-01,2.229574620723724365e-01,-1.934580087661743053e-01,5.619682161152215194e-01,7.442159652709960938e-01,-9.064091444015502930e-01,-2.995288960502589148e+01,0.000000000000000000e+00
1.523873999999999951e+00,-2.202241770732561998e-01,7.449005354274265689e-02,7.915711998939514160e-01,7.075649843401927985e-03,9.256696488649351906e-03,2.386400711227291624e-02,-2.570250219486851506e-01,7.526898174370361128e-02,-6.560516357421875000e-02,-2.763094994935122450e-01,-1.775767284659600653e-01,1.168352513799508080e-01,4.094502319615554026e-02,1.222873747348785234e-01,-1.374883996809468378e-01,-2.389458417892455916e-02,2.222873747348785289e-01,-2.055672883987426647e-01,5.604385668725188063e-01,7.411177158355712891e-01,-1.710629999637603760e+00,7.299432728257464476e+01,0.000000000000000000e+00
1.546238999999999919e+00,-2.267080038448509305e-01,7.707494863771481575e-02,7.905253767967224121e-01,8.799347754276606350e-04,6.196755553270261174e-03,2.600631760279949536e-02,-2.523454121671123151e-01,7.893366934031165183e-02,-7.722299546003341675e-02,-2.945350460809532667e-01,-1.611923993450921078e-01,1.127272304347385623e-01,1.134812831878662109e-01,1.216154992580413818e-01,-1.339771914145595488e-01,1.348128318786621059e-02,2.216154992580413874e-01,-2.078318595886230469e-01,5.615425295074932821e-01,7.396304607391357422e-01,-8.468545675277709961e-01,1.053628874573993812e+02,0.000000000000000000e+00
1.571029999999999927e+00,-2.362488829935382451e-01,8.088198205796508222e-02,7.890819907188415527e-01,-5.866249156312548438e-03,1.550606008744459530e-03,2.952771814198661138e-02,-2.494039037870788567e-01,7.630106736979425097e-02,-7.054699957370758057e-02,-2.195490448340366718e-01,-1.522919995102346435e-01,1.391706058559367687e-01,2.330476164817810170e-01,1.193628191947936901e-01,-1.173174664749089269e-01,1.330476164817810114e-01,2.193628191947936956e-01,-2.007164239883422741e-01,5.612174979923483242e-01,7.267744541168212891e-01,-1.001758456230163574e+00,9.312523069129836983e+01,0.000000000000000000e+00
1.595514000000000099e+00,-2.425095752209213695e-01,8.337056451873298135e-02,7.882569432258605957e-01,-7.757611432639494736e-03,-1.708166238297392781e-03,3.180004744039161696e-02,-2.527825391791607146e-01,8.113931120694096999e-02,-4.538577795028686523e-02,-5.059275222775978451e-03,-1.477441103054008553e-01,1.018070023425187709e-01,2.700484037399292214e-01,1.154226183891296220e-01,-9.255197689453878440e-02,1.700484037399291881e-01,2.154226183891296276e-01,-1.823173284530639482e-01,5.593897872152772122e-01,7.038707733154296875e-01,-1.013278365135192871e+00,9.772064343658547614e+01,0.000000000000000000e+00
1.623304999999999998e+00,-2.519050866702347569e-01,8.497351728363948531e-02,7.871976494789123535e-01,-7.941502031410908186e-03,-6.392586990001669633e-03,3.526830376425734576e-02,-2.485299514280780442e-01,7.201782121217317756e-02,-3.911084309220314026e-02,5.024426276214569165e-02,-1.734914182144185191e-01,7.466262930882215654e-02,2.826954841613769642e-01,9.834656715393064186e-02,-2.704521656926378581e-02,1.826954841613769587e-01,1.983465671539306474e-01,-1.265094280242919922e-01,5.588773928081227638e-01,6.823897361755371094e-01,-9.903258085250854492e-01,1.360420140013998207e+02,0.000000000000000000e+00
1.646271999999999958e+00,-2.581252305269522984e-01,8.605857529446993281e-02,7.866206169128417969e-01,-5.698382137370444980e-03,-9.209462692201686451e-03,3.770322164383390490e-02,-2.510359991791387135e-01,7.932108421626099526e-02,-4.532258957624435425e-02,1.148835565584029050e-01,-9.883402933192955708e-02,1.279674034166606578e-01,2.736696720123291127e-01,5.145316720008849543e-02,-4.220499992370604914e-02,1.736696720123291071e-01,1.514531672000885010e-01,-1.422049999237060547e-01,5.595950198258399233e-01,6.820832490921020508e-01,-1.284565329551696777e+00,9.569022627182661722e+01,0.000000000000000000e+00
1.671975999999999907e+00,-2.673426251113670826e-01,8.766895944599001345e-02,7.857477068901062012e-01,6.024030882277726885e-04,-1.411762734519972362e-02,4.078274584184681667e-02,-2.573198992666207441e-01,7.449560101967832304e-02,-2.572307735681533813e-02,2.858561698491214886e-01,-1.649242709290735520e-01,1.301694925390338153e-01,2.333081126213073786e-01,-2.271465420722961481e-01,-5.587375164031982422e-02,1.333081126213073730e-01,-1.271465420722961426e-01,-1.558737516403198298e-01,5.585037473715174228e-01,6.800074577331542969e-01,-1.417876124382019043e+00,1.086998173575441342e+02,0.000000000000000000e+00
1.695265000000000022e+00,-2.734604718041822036e-01,8.874050380328411813e-02,7.852103114128112793e-01,5.820746544697914283e-03,-1.675411094294765313e-02,4.200409174677269264e-02,-2.536714835524365719e-01,7.118066801239351926e-02,-3.080443479120731354e-02,2.678796348123442805e-01,-9.362580772024883813e-02,3.010732524467455568e-02,1.715382288894643226e-01,-2.623512506484985130e-01,-7.279684543609618586e-02,8.411808013916015347e-02,-1.623512506484985352e-01,-1.727968454360961914e-01,5.589382348259893663e-01,6.701433658599853516e-01,-7.888811826705932617e-01,8.272511337798422915e+01,0.000000000000000000e+00
1.723737999999999992e+00,-2.829029975826615750e-01,9.039460898474428741e-02,7.844626903533935547e-01,1.436837771549664446e-02,-1.884291372794577590e-02,4.437765669581831413e-02,-2.484591348024817459e-01,7.294017899718772957e-02,-3.135098516941070557e-02,2.424088477569142919e-01,-2.175756869505881402e-02,1.051530188262316118e-01,-2.763623733684890393e-02,-2.925348281860351562e-01,-8.525574207305908203e-02,-6.325051188468933105e-02,-1.925348281860351507e-01,-1.852557420730590876e-01,5.590370276310286934e-01,6.575621366500854492e-01,-8.647371530532836914e-01,9.520985906749962169e+01,0.000000000000000000e+00
1.746086999999999945e+00,-2.890639825671175722e-01,9.150918813415928610e-02,7.838667035102844238e-01,1.941413054282135897e-02,-1.762778973027523399e-02,4.603352943647982115e-02,-2.595804435276865552e-01,7.300236293157166823e-02,-2.657323889434337616e-02,2.751829373918817101e-01,1.258583332730104365e-01,8.006292009079263305e-02,-1.020440284707693906e-01,-2.967998266220092662e-01,-8.515324592590331476e-02,-1.069051444530487033e-01,-1.967998266220092607e-01,-1.851532459259033203e-01,5.589037546450642546e-01,6.518831253051757812e-01,-6.165822744369506836e-01,1.216487563634319429e+02,0.000000000000000000e+00
1.777064999999999895e+00,-2.981753138852287766e-01,9.325901660072356825e-02,7.829409837722778320e-01,2.521608816417425167e-02,-1.263373378625876065e-02,4.869122324739655339e-02,-2.405184760921192100e-01,7.273093356436600987e-02,-3.699398040771484375e-02,1.156264051142470439e-01,2.171159701955552024e-01,6.240564255968799462e-02,-1.425843198532250888e-01,-2.790390610694885032e-01,-9.075273275375364546e-02,-1.114078044891357450e-01,-1.790390610694885254e-01,-1.907527327537536510e-01,5.600953622479947214e-01,6.639175415039062500e-01,-9.374614953994750977e-01,1.021009393739630440e+02,0.000000000000000000e+00
1.801744999999999930e+00,-3.011626284491524252e-01,9.386420936485317945e-02,7.826461791992187500e-01,2.666620600273395328e-02,-1.016857376998347995e-02,4.960892146036507966e-02,-2.450280843996762159e-01,8.049029522771877776e-02,-3.251908347010612488e-02,9.544039338488814750e-02,2.885351352772373978e-01,4.511425019566236982e-02,-1.500018471232061334e-01,-2.722825765609740989e-01,-9.307391643524168257e-02,-1.167543768882751409e-01,-1.722825765609741211e-01,-1.930739164352416881e-01,5.601389402983963928e-01,6.684566736221313477e-01,-1.255033135414123535e+00,8.784160125505161432e+01,0.000000000000000000e+00
1.822812000000000099e+00,-3.071113515624279700e-01,9.503755500235941400e-02,7.820249199867248535e-01,2.823082195537068850e-02,-4.769287296396251818e-03,5.172840969368387026e-02,-2.467228778869766104e-01,7.507629660857266518e-02,-3.875120729207992554e-02,1.055851195807604864e-02,2.810835515355966652e-01,1.570819765581418503e-01,-1.848091852790896272e-01,-2.067422628402710016e-01,-9.772121906280517578e-02,-1.385563910007476807e-01,-1.067422628402709961e-01,-1.977212190628051813e-01,5.609353107714029063e-01,6.733912229537963867e-01,-7.803233861923217773e-01,9.679429903040249883e+01,0.000000000000000000e+00
1.845995999999999970e+00,-3.157300898032207037e-01,9.802193952135646038e-02,7.811127305030822754e-01,2.838889624901458700e-02,4.677618553345253005e-03,5.462172081030174792e-02,-2.487048685974533602e-01,7.401039057179560621e-02,-2.697048150002956390e-02,-2.570744735384785859e-02,3.529406252379361231e-01,9.506793224939813491e-02,-2.101517018310462559e-01,9.634428024291991077e-02,-8.952825069427489124e-02,-1.670936822891235241e-01,1.963442802429199163e-01,-1.895282506942748968e-01,5.607255948622043018e-01,6.904356479644775391e-01,-1.276092171669006348e+00,8.006098443184241376e+01,0.000000000000000000e+00
1.872829999999999995e+00,-3.268841932197228406e-01,1.018937597221123564e-01,7.799052596092224121e-01,2.451772105942945368e-02,1.715528182344350228e-02,5.881513501566541097e-02,-2.398449071704411850e-01,7.531382203785667862e-02,-2.338479831814765930e-02,-1.218051929112002746e-01,2.768198483020335443e-01,9.146583818307302272e-02,-1.705150778599367756e-01,1.247744619846343772e-01,-1.160566568374633567e-01,-1.587296068668365423e-01,2.247744619846343828e-01,-2.160566568374633623e-01,5.616698238565812629e-01,7.412514686584472656e-01,-8.840132951736450195e-01,9.067232534523920151e+01,0.000000000000000000e+00
1.896417000000000019e+00,-3.323326268995178689e-01,1.037744334907168831e-01,7.792925834655761719e-01,2.123654281339218755e-02,2.218133246426878813e-02,6.108129380361805583e-02,-2.363931996723991069e-01,7.298901144331725044e-02,-2.152323350310325623e-02,-2.221713525542979295e-01,2.062746980449994827e-01,1.432066974803835879e-01,-1.412118953296818968e-01,1.259227514266967607e-01,-1.200113058090209739e-01,-1.517758011817932073e-01,2.259227514266967662e-01,-2.200113058090209794e-01,5.618789305698297376e-01,7.454370260238647461e-01,-1.059897065162658691e+00,9.296277464188962369e+01,0.000000000000000000e+00
1.919886999999999899e+00,-3.381569847428791964e-01,1.055774497409508739e-01,7.788385152816772461e-01,1.808477331809691530e-02,2.496159219183424760e-02,6.321949944359231410e-02,-2.379792527568456995e-01,7.955859135438327068e-02,-2.371171116828918457e-02,-1.250289747671164964e-01,8.724307792748860202e-02,1.073357305577312126e-01,-8.958122295452140837e-02,1.264157056808471458e-01,-1.220293998718261497e-01,-1.283897638320922741e-01,2.264157056808471513e-01,-2.220293998718261552e-01,5.623286059259211545e-01,7.469379901885986328e-01,-1.064452052116394043e+00,9.207419435162763932e+01,0.000000000000000000e+00
1.945038000000000045e+00,-3.474120325086330618e-01,1.080408754039455105e-01,7.781847715377807617e-01,1.295049727356577078e-02,2.538370885186047587e-02,6.647686550330353383e-02,-2.432932915481721692e-01,6.686055325629117196e-02,2.969145425595343113e-04,-1.369978424423553554e-01,-4.833799461807240100e-02,1.058064642830084390e-01,1.825609939037631246e-03,1.265425384044646939e-01,-1.218239068984985352e-01,-6.455751657485961359e-02,2.265425384044646995e-01,-2.218239068984985407e-01,5.609086087979561208e-01,7.450429201126098633e-01,-8.890186548233032227e-01,-7.758290983869174795e+01,0.000000000000000000e+00
1.972960000000000047e+00,-3.534264214496521395e-01,1.096853050861495982e-01,7.779610157012939453e-01,9.720470598377519561e-03,2.396601260718389526e-02,6.873300815463605218e-02,-2.225851199489976839e-01,7.389510008302623001e-02,-9.993926621973514557e-03,-1.735683101181125509e-01,-7.988182405072066783e-02,1.120791969733929555e-01,6.753986418533350355e-02,1.265010535717010220e-01,-1.211420536041259710e-01,-2.781193256378173759e-02,2.265010535717010276e-01,-2.211420536041259766e-01,5.617749942584029377e-01,7.431194782257080078e-01,-1.174548506736755371e+00,9.972444335414880356e+01,0.000000000000000000e+00
1.996706000000000092e+00,-3.621943042281539626e-01,1.121148557561379849e-01,7.774869799613952637e-01,5.636725853133648344e-03,2.049652819403391391e-02,7.264575432670726529e-02,-2.320819163610424729e-01,7.341444264648076812e-02,2.347440226003527641e-03,-1.307331074054571274e-01,-1.586703695316379614e-01,1.819086428633078234e-01,1.204438328742981068e-01,1.263833940029144010e-01,-1.183274507522582841e-01,2.044383287429809432e-02,2.263833940029144065e-01,-2.183274507522582897e-01,5.611352520519724552e-01,7.390893697738647461e-01,-9.029031991958618164e-01,6.211276359504464750e+01,0.000000000000000000e+00
2.022540999999999922e+00,-3.711634704934663742e-01,1.142743319638350324e-01,7.772355079650878906e-01,3.601612078699714843e-03,1.624308173766864094e-02,7.645026369416456358e-02,-2.258811478113074422e-01,7.244714139447699930e-02,1.041473262012004852e-02,-6.952299049625274702e-03,-1.090296454749096755e-01,1.331196106214489194e-01,1.736256361007690319e-01,1.250881016254424827e-01,-1.165196061134338157e-01,7.362563610076904019e-02,2.250881016254424882e-01,-2.165196061134338212e-01,5.606654980845208192e-01,7.320988178253173828e-01,-1.076110959053039551e+00,9.890255986113199071e+01,0.000000000000000000e+00
2.047388000000000208e+00,-3.771003462676509876e-01,1.156071583169882289e-01,7.771293520927429199e-01,3.434395723678059561e-03,1.261115115448863122e-02,7.900472587336400399e-02,-2.134597350998159171e-01,7.259854983834267139e-02,2.180559746921062469e-02,-4.551072768790929111e-03,-1.934640526694947904e-01,1.120506713537815224e-01,2.157730817794799860e-01,1.224709808826446311e-01,-1.083343267440795843e-01,1.157730817794799805e-01,2.224709808826446367e-01,-2.083343267440795898e-01,5.598563234990321380e-01,7.207351922988891602e-01,-1.012511372566223145e+00,9.919308878766766213e+01,0.000000000000000000e+00
2.072918000000000038e+00,-3.857750008677741094e-01,1.175553122255419275e-01,7.772077322006225586e-01,5.602688686292109713e-03,7.914134285144536207e-03,8.284493170143807095e-02,-2.211742282626118217e-01,6.495323976417038958e-02,2.990539930760860443e-02,1.182522479959539768e-01,-1.414039116490138359e-01,1.442468276745505484e-01,2.304275274276733343e-01,1.091841578483581376e-01,-5.058014392852783203e-02,1.304275274276733287e-01,2.091841578483581432e-01,-1.505801439285278376e-01,5.587079478990348846e-01,6.752325296401977539e-01,-1.242413401603698730e+00,9.488019998720895387e+01,0.000000000000000000e+00
2.096614999999999895e+00,-3.914028134344813004e-01,1.188453596789355443e-01,7.772809267044067383e-01,8.410557917084272167e-03,4.922950609629994645e-03,8.526636705872313315e-02,-2.163308796708388326e-01,6.501167834297889858e-02,3.968795761466026306e-02,1.686235526566194354e-01,-1.161889118343729377e-01,1.209321264013569486e-01,2.183181762695312611e-01,8.784065842628477339e-02,-3.686575889587401234e-02,1.183181762695312417e-01,1.878406584262847789e-01,-1.368657588958740179e-01,5.580051191219563833e-01,6.645849943161010742e-01,-1.151334404945373535e+00,9.135232531862733651e+01,0.000000000000000000e+00
2.124462999999999990e+00,-3.993638664903316760e-01,1.206888235069852183e-01,7.775873541831970215e-01,1.391536666196036172e-02,7.242976618710983416e-04,8.845157942481683688e-02,-2.077753582327915016e-01,6.883698088765505263e-02,4.318198189139366150e-02,2.170469601946818650e-01,-9.739353679424621324e-02,5.404855299588312567e-02,8.358655347344656761e-02,-8.644931912422181008e-02,-7.176555395126341108e-02,1.885235309600830078e-03,1.355068087577819720e-02,-1.717655539512634166e-01,5.579658162019893730e-01,6.679191589355468750e-01,-8.288050889968872070e-01,4.816851234782966173e+01,0.000000000000000000e+00
2.147820999999999980e+00,-4.042239842849970621e-01,1.218339544799744156e-01,7.778281569480895996e-01,1.792486962275381679e-02,-1.840205170821063163e-03,9.053155305901590399e-02,-2.099647313657733438e-01,6.220802086237926798e-02,3.727999329566955566e-02,2.078571859138169109e-01,-1.393678951697072399e-01,1.483447952976999218e-01,-3.598499654982643958e-02,-2.517779111862182839e-01,-8.278428316116331898e-02,-8.819478750228881836e-02,-1.517779111862182506e-01,-1.827842831611633245e-01,5.585438405416781604e-01,6.681139469146728516e-01,-5.543910264968872070e-01,-3.709410851436810219e+01,0.000000000000000000e+00
2.174583000000000155e+00,-4.113852092536834926e-01,1.235710577139628036e-01,7.782990932464599609e-01,2.398546258529922481e-02,-4.837575025943730012e-03,9.332460030844276500e-02,-2.098153703940187909e-01,6.184871388537002690e-02,4.118848592042922974e-02,2.136253541004774492e-01,-2.849578533699973285e-02,9.163781983921259755e-02,-1.133169160406075071e-01,-2.885108709335327259e-01,-8.685383796691892311e-02,-1.294268488883972001e-01,-1.885108709335327204e-01,-1.868538379669189287e-01,5.584101896696817002e-01,6.674427986145019531e-01,-1.024600386619567871e+00,9.609067343267530248e+01,0.000000000000000000e+00
2.197623999999999800e+00,-4.159937180001341273e-01,1.247016323586322417e-01,7.784156799316406250e-01,2.674447223166761048e-02,-5.737229477024596846e-03,9.541568538628136809e-02,-1.922162077289498172e-01,6.542484822013662493e-02,3.503467887639999390e-02,7.707185578103616097e-02,-7.476949484969136993e-03,1.100062319191653232e-01,-1.233888164857315367e-01,-2.877341747283935769e-01,-9.036906957626342218e-02,-1.251628339290618841e-01,-1.877341747283935436e-01,-1.903690695762634277e-01,5.589633904342536930e-01,6.673463582992553711e-01,-8.117939233779907227e-01,8.618543747567441926e+01,0.000000000000000000e+00
2.226707000000000214e+00,-4.225673328937514794e-01,1.266437162520077930e-01,7.785823941230773926e-01,2.890387423980919634e-02,-2.985819358365837672e-03,9.872454658519019821e-02,-1.978840142492974685e-01,6.350067074138372736e-02,3.958586603403091431e-02,4.211882329935123792e-02,1.577079339772658739e-01,1.498965406102940323e-01,-1.573520402303326127e-01,-2.841691970825195312e-01,-9.392635822296141468e-02,-1.474044084548950251e-01,-1.841691970825195257e-01,-1.939263582229614202e-01,5.588303640564145081e-01,6.667867898941040039e-01,-9.713770151138305664e-01,9.112927866109139075e+01,0.000000000000000000e+00
2.248562999999999867e+00,-4.266209504709236322e-01,1.282223196005672361e-01,7.786593437194824219e-01,2.862214500446376431e-02,1.278099557826317678e-03,1.006386151378324822e-01,-1.898937060768310647e-01,5.716990504489188191e-02,3.430033475160598755e-02,-8.323019857588048742e-02,2.165936961917586112e-01,9.037740308103055231e-02,-1.538432140398880432e-01,-1.528868317604064886e-01,-9.715627431869505726e-02,-1.436389625072479193e-01,-5.288683176040648998e-02,-1.971562743186950628e-01,5.593251973841892877e-01,6.658567190170288086e-01,-8.662484884262084961e-01,9.663614600017085365e+01,0.000000000000000000e+00
2.274182000000000148e+00,-4.324410024188020119e-01,1.305263245132968208e-01,7.787363529205322266e-01,2.670926973644372968e-02,9.810947955235516105e-03,1.041131021544422497e-01,-1.766923113218473174e-01,6.762795476312626064e-02,2.418913692235946655e-02,-1.474332573530087176e-01,3.017648042992593926e-01,1.445945733596318838e-01,-1.041105944372414105e-01,1.138325691223144309e-01,-9.526216983795166016e-02,-1.183052837848663219e-01,2.138325691223144365e-01,-1.952621698379516657e-01,5.603950802424841893e-01,6.776268482208251953e-01,-8.329392671585083008e-01,9.973401244917599229e+01,0.000000000000000000e+00
2.295171999999999990e+00,-4.362073753589176817e-01,1.320253787583975935e-01,7.788248062133789062e-01,2.483831425001088028e-02,1.573007023453798503e-02,1.061725931664115746e-01,-1.747862555429201270e-01,5.635343716853096624e-02,3.784973919391632080e-02,-1.550753638481098540e-01,2.483112566735475313e-01,9.106314980955620975e-02,-8.391365880367540608e-02,1.230775713920593262e-01,-1.090626001358032116e-01,-1.045227169990539523e-01,2.230775713920593317e-01,-2.090626001358032171e-01,5.601138344024286786e-01,7.062039375305175781e-01,-3.462353944778442383e-01,-7.577288068033439572e+00,0.000000000000000000e+00
2.322601000000000138e+00,-4.416542233861975308e-01,1.344002801849303597e-01,7.790843248367309570e-01,2.100835667086676725e-02,2.305034230704228193e-02,1.097246383799374420e-01,-1.757130855485051213e-01,5.787084980987598770e-02,3.609168156981468201e-02,-1.804155680025488762e-01,1.488135102764840123e-01,1.172104796454784964e-01,6.391412113093984659e-03,1.259057641029357744e-01,-1.172803163528442216e-01,-4.637049436569213451e-02,2.259057641029357799e-01,-2.172803163528442272e-01,5.606230519658432776e-01,7.186565399169921875e-01,-9.775184392929077148e-01,6.063277771511877035e+01,0.000000000000000000e+00
2.345337999999999923e+00,-4.452246074847384105e-01,1.360896911509594520e-01,7.793331146240234375e-01,1.887241164318144773e-02,2.486626386282231316e-02,1.122232490044485498e-01,-1.715407886060633380e-01,5.619734340897244301e-02,4.636046662926673889e-02,-9.295016134734909730e-02,2.535207166306210555e-02,1.308600516732103813e-01,4.826063132681119444e-02,1.261660277843475175e-01,-1.176763176918029785e-01,-2.012983560562133650e-02,2.261660277843475231e-01,-2.176763176918029841e-01,5.599776908124345365e-01,7.143015861511230469e-01,-1.107424378395080566e+00,-5.344354257591137980e+01,0.000000000000000000e+00
2.374722999999999917e+00,-4.504662814455718811e-01,1.385641286453978827e-01,7.799179553985595703e-01,1.606331949705176038e-02,2.368794766068083035e-02,1.159938423302312727e-01,-1.699572318671239701e-01,5.657262239036915663e-02,6.549069285392761230e-02,-5.137910895206110329e-02,-9.577163512211243901e-02,1.235466136836643886e-01,8.848114270246947022e-02,1.261299073696136308e-01,-1.156063318252563421e-01,-2.981436252593993967e-03,2.261299073696136364e-01,-2.156063318252563477e-01,5.585084112738194495e-01,6.992511749267578125e-01,-1.106479287147521973e+00,9.651537459526669238e+01,0.000000000000000000e+00
2.397571000000000119e+00,-4.538577168528971639e-01,1.401155521317699049e-01,7.804815769195556641e-01,1.503033429030029532e-02,2.119156665269827933e-02,1.184485342202105385e-01,-1.533200683087646010e-01,5.483035542494626990e-02,5.918048694729804993e-02,-3.146465047516483482e-02,-1.734502815665958930e-01,1.386860314669952354e-01,1.039641121561199338e-01,1.259368062019347867e-01,-1.117908000946044866e-01,6.113755702972412283e-03,2.259368062019347922e-01,-2.117908000946044922e-01,5.589829330096174331e-01,6.973841190338134766e-01,-9.289222955703735352e-01,9.330322542106890182e+01,0.000000000000000000e+00
2.424493000000000009e+00,-4.587240167711881811e-01,1.423637084094445671e-01,7.815274000167846680e-01,1.497262807660606869e-02,1.734204310066034260e-02,1.222575632030898501e-01,-1.648973209167341469e-01,4.422912381160808148e-02,6.401493400335311890e-02,1.091532961944472954e-02,-1.117134036826099991e-01,1.685746417893621285e-01,1.048553655882960151e-01,1.242230713367462047e-01,-1.048454523086547741e-01,9.852182865142821225e-03,2.242230713367462103e-01,-2.048454523086547796e-01,5.582439452384684309e-01,6.677917242050170898e-01,-1.794626653194427490e+00,9.757381485999771087e+01,0.000000000000000000e+00
